     3.04           OBSERVATION DATA    M                   RINEX VERSION / TYPE
ssrcrin-15.6.1x                         20250101 120000 UTC PGM / RUN BY / DATE 
(00000000023479385599111004) Septentrio proprietary         COMMENT             
rref                                                        MARKER NAME         
01                                                          MARKER NUMBER       
geodetic                                                    MARKER TYPE         
NFB                 CLIMERS@TUW                             OBSERVER / AGENCY   
3297213             SEPT ASTERX SB3 PROB4.14.4              REC # / TYPE / VERS 
Unknown             Unknown                                 ANT # / TYPE        
  4127831.9676  1207193.1807  4695246.5941                  APPROX POSITION XYZ 
        0.0000        0.0000        0.0000                  ANTENNA: DELTA H/E/N
G   23 X1  C1C L1C D1C S1C C1W S1W C2W L2W D2W S2W C2L L2L  SYS / # / OBS TYPES 
       D2L S2L C5Q L5Q D5Q S5Q C1L L1L D1L S1L              SYS / # / OBS TYPES 
E   21 X1  C1C L1C D1C S1C C6C L6C D6C S6C C5Q L5Q D5Q S5Q  SYS / # / OBS TYPES 
       C7Q L7Q D7Q S7Q C8Q L8Q D8Q S8Q                      SYS / # / OBS TYPES 
S    9 X1  C1C L1C D1C S1C C5I L5I D5I S5I                  SYS / # / OBS TYPES 
R   17 X1  C1C L1C D1C S1C C2P L2P D2P S2P C2C L2C D2C S2C  SYS / # / OBS TYPES 
       C3Q L3Q D3Q S3Q                                      SYS / # / OBS TYPES 
C   25 X1  C1P L1P D1P S1P C5P L5P D5P S5P C2I L2I D2I S2I  SYS / # / OBS TYPES 
       C7I L7I D7I S7I C6I L6I D6I S6I C7D L7D D7D S7D      SYS / # / OBS TYPES 
J   17 X1  C1C L1C D1C S1C C2L L2L D2L S2L C5Q L5Q D5Q S5Q  SYS / # / OBS TYPES 
       C1L L1L D1L S1L                                      SYS / # / OBS TYPES 
I    5 X1  C5A L5A D5A S5A                                  SYS / # / OBS TYPES 
SEPTENTRIO RECEIVERS OUTPUT ALIGNED CARRIER PHASES.         COMMENT             
NO FURTHER PHASE SHIFT APPLIED IN THE RINEX ENCODER.        COMMENT             
G L1C                                                       SYS / PHASE SHIFT   
G L2W                                                       SYS / PHASE SHIFT   
G L2L  0.00000                                              SYS / PHASE SHIFT   
G L5Q  0.00000                                              SYS / PHASE SHIFT   
G L1L  0.00000                                              SYS / PHASE SHIFT   
E L1C  0.00000                                              SYS / PHASE SHIFT   
E L6C  0.00000                                              SYS / PHASE SHIFT   
E L5Q  0.00000                                              SYS / PHASE SHIFT   
E L7Q  0.00000                                              SYS / PHASE SHIFT   
E L8Q  0.00000                                              SYS / PHASE SHIFT   
S L1C                                                       SYS / PHASE SHIFT   
S L5I                                                       SYS / PHASE SHIFT   
R L1C                                                       SYS / PHASE SHIFT   
R L2P  0.00000                                              SYS / PHASE SHIFT   
R L2C                                                       SYS / PHASE SHIFT   
R L3Q  0.00000                                              SYS / PHASE SHIFT   
C L1P  0.00000                                              SYS / PHASE SHIFT   
C L5P  0.00000                                              SYS / PHASE SHIFT   
C L2I                                                       SYS / PHASE SHIFT   
C L7I                                                       SYS / PHASE SHIFT   
C L6I                                                       SYS / PHASE SHIFT   
C L7D                                                       SYS / PHASE SHIFT   
J L1C                                                       SYS / PHASE SHIFT   
J L2L  0.00000                                              SYS / PHASE SHIFT   
J L5Q  0.00000                                              SYS / PHASE SHIFT   
J L1L  0.00000                                              SYS / PHASE SHIFT   
I L5A                                                       SYS / PHASE SHIFT   
  2025     1     1    12     0    0.0000000     GPS         TIME OF FIRST OBS   
 C1C    0.000 C2C    0.000 C2P    0.000                     GLONASS COD/PHS/BIS 
DBHZ                                                        SIGNAL STRENGTH UNIT
    18                                                      LEAP SECONDS        
 24 R01  1 R02 -4 R03  5 R04  6 R05  1 R06 -4 R07  5 R08  6 GLONASS SLOT / FRQ #
    R09 -2 R10 -7 R11  0 R12 -1 R13 -2 R14 -7 R15  0 R16 -1 GLONASS SLOT / FRQ #
    R17  4 R18 -3 R19  3 R20  2 R21  4 R22 -3 R23  3 R24  2 GLONASS SLOT / FRQ #
                                                            END OF HEADER       
> 2025 01 01 12 00  0.0000000  0 53
G19         1.000    21429404.905 7 112612431.83407     -1568.720 7        46.668                                    21429406.175 6  87750033.25606     -1222.374 6        37.395
G25         2.000    23285569.932 6 122366513.89306      2720.888 6        41.480                                    23285579.893 5  95350587.35605      2120.166 5        35.633    23285580.473 6  95350597.37306      2120.087 6        37.376
G24         3.000    20189903.249 8 106098672.08308     -1225.675 8        50.512                                    20189907.189 8  82674322.22508      -955.070 8        53.242    20189907.538 7  82674319.23107      -955.109 7        46.620
R02         4.000    23594934.299 7 125906835.32207     -5135.906 7        44.429                                                                    23594951.255 6  97927488.36406     -3994.562 6        39.991
S21         5.000    38520908.984 7 202428356.82307      -583.668 7        42.925
G06         6.000    24345368.251 6 127935809.90806      2028.287 6        38.640                                    24345380.258 5  99690312.37105      1580.473 5        33.647    24345381.120 6  99690303.38706      1580.638 6        38.513
G17         7.000    23731492.197 7 124709921.78707     -3459.256 7        42.546                                    23731499.852 6  97176632.35006     -2695.516 6        36.620    23731499.874 6  97176628.35006     -2695.745 6        38.474
R21         8.000    23437285.018 7 125417667.40307     -3594.671 7        42.482                                                                    23437298.237 6  97547140.74406     -2795.671 6        41.163
E30        10.000    24365989.920 8 128044271.25008       748.545 8        48.229                                                                    24365997.392 8  95617580.09608       559.017 8        50.453    24365996.314 8  98111940.92108       573.552 8        50.649
C26        11.000                                                                                                                                    22505181.591 8 117190368.94908     -2078.571 8        50.062                                                                    22505185.709 8  95226784.96308     -1688.919 8        48.330
S27        12.000    39289210.701 6 206465965.73106      -609.497 6        36.930
G15        13.000    23766213.156 7 124892098.66907     -4415.461 7        42.603                                    23766221.756 6  97318452.93106     -3440.612 6        36.824    23766222.704 6  97318444.91906     -3440.682 6        38.613
S36        14.000    38292658.055 7 201229644.23007      -584.128 7        44.647
G12        15.000    20810508.226 8 109360089.85608      1071.806 8        49.748                                    20810509.775 8  85215726.86708       835.173 8        49.711    20810510.111 7  85215726.87007       835.144 7        44.837
E29        16.000    27717463.539 6 145656131.40206      2009.728 6        37.902                                                                    27717479.893 7 108769182.18707      1500.628 7        42.212    27717477.712 7 111606638.97407      1539.824 7        42.074
S45        17.000    63482640.043 6 333604239.70706      -644.906 6        36.193
R03        18.000    20892036.622 8 111836630.21008     -3009.614 8        50.396                                                                    20892042.352 7  86984040.47807     -2340.849 7        44.904
C35        19.000                                                                                                                                    23261940.832 7 121131156.17807       372.086 7        47.944                                                                    23261946.424 7  98429060.14907       302.433 7        46.624
E11        20.000    27456084.713 6 144282732.30406       -68.791 6        36.238                                                                    27456096.757 6 107743665.96806       -51.520 6        36.972    27456094.692 6 110554360.74606       -52.711 6        37.161
R14        21.000    22413596.792 7 119477087.16707      2428.520 7        47.913                                                                    22413608.431 7  92926676.60907      1888.858 7        43.412
I06        22.000    38456853.189 6 150912976.42606      -547.118 6        41.788
S28        23.000    40985137.282 5 215378108.88305      -593.234 5        35.362
S23        25.000    38229375.729 7 200896528.95407      -588.006 7        45.261
E08        26.000    25050954.976 7 131643537.48407     -3028.281 7        46.301                                                                    25050962.928 8  98305202.01808     -2261.320 8        48.664    25050961.423 8 100869687.30608     -2320.301 8        48.581
C07        27.000                                                                                                                                    39777921.593 6 207133985.63206     -1448.421 6        38.390    39777928.120 6 160169125.81506     -1119.910 6        41.909    39777923.577 6 168313310.37006     -1176.677 6        39.327
I02        29.000    36991927.779 7 145164248.78907      -498.034 7        42.973
G10        30.000    24927222.300 6 130993233.88906     -2262.925 6        40.334                                    24927236.129 5 102072603.73605     -1763.313 5        30.966    24927236.394 5 102072595.70805     -1762.991 5        35.538
E07        31.000    24432433.145 7 128393228.77507      -294.935 7        46.763                                                                    24432442.243 8  95878056.98908      -220.218 8        49.904    24432441.021 8  98379221.81408      -225.951 8        50.250
E10        33.000    28317225.560 6 148808039.06806     -1352.747 6        36.824                                                                    28317241.293 6 111122961.53406     -1010.005 6        41.640    28317239.733 6 114021809.39606     -1036.528 6        41.683
R23        34.000    22202215.567 7 118766950.86607      3201.806 7        44.942
C24        35.000                                                                                                                                    21810153.856 8 113571229.89808       565.980 8        51.494                                                                    21810155.647 8  92285948.76808       460.037 8        49.686
E27        37.000    28264271.325 6 148529745.63606      2002.046 6        38.033                                                                    28264289.316 6 110915150.99306      1494.924 6        40.036    28264287.424 6 113808578.11306      1533.937 6        39.937
R04        38.000    21382374.047 8 114501549.10808       839.138 8        49.161                                                                    21382381.701 7  89056745.94407       652.626 7        44.757
C33        39.000                                                                                                                                    24526932.292 7 127718121.70707     -2195.000 7        45.834                                                                    24526952.336 7 103781499.03907     -1783.483 7        45.366
E25        40.000    27632617.349 6 145210234.30906     -3171.121 6        38.246                                                                    27632633.173 6 108436172.28906     -2368.022 6        41.063    27632631.164 6 111264939.27106     -2429.939 6        41.404
S44        42.000    40899543.678 6 214928510.29806      -522.468 6        38.372
R22        43.000    21340050.117 8 113914759.09808       155.201 8        48.534                                                                    21340057.506 7  88600454.12807       120.570 7        46.387
C05        44.000                                                                                                                                    39540394.156 6 205897039.18806      -598.004 6        38.541    39540402.829 7 159212622.02207      -462.243 7        42.682    39540401.362 6 167308270.41006      -485.666 6        39.288
C40        45.000                                                                                                                                    40153904.005 6 209091804.70606     -1731.537 6        41.039                                                                    40153912.429 6 169904210.96006     -1406.864 6        39.030
G32        46.000    24526203.678 7 128885935.42207      2320.733 7        42.394                                    24526216.505 6 100430590.54106      1808.372 6        36.321    24526217.227 6 100430592.52706      1808.392 6        38.859
E36        47.000    27639366.565 6 145245874.01306      1869.512 6        38.276                                                                    27639383.893 7 108462921.95407      1395.981 7        42.550    27639381.263 6 111292374.96106      1432.486 6        41.368
C41        48.000                                                                                                                                    25644598.531 7 133538148.94307       477.810 7        42.463                                                                    25644615.628 7 108510755.45107       388.427 7        43.439
C10        49.000                                                                                                                                    38950018.819 6 202822940.17506     -1152.849 6        41.383    38950025.720 7 156835570.01707      -891.485 7        43.594    38950021.130 6 164810248.92406      -936.671 6        40.529
C42        50.000                                                                                                                                    26040178.089 7 135597792.97507     -3841.552 7        42.123                                                                    26040197.835 6 110184299.09806     -3121.391 6        41.251
S48        51.000    77229058.902 6 405842615.39706      -587.884 6        38.423
E02        53.000    23740516.227 8 124757316.60808     -1789.628 8        48.221                                                                    23740522.811 8  93163001.62408     -1336.427 8        50.986    23740521.460 8  95593323.08908     -1371.275 8        50.966
C60        54.000                                                                                                                                    40899545.407 6 212974632.03306      -517.609 6        40.918                                                                    40899541.107 6 173059254.21006      -420.395 6        38.520
C45        55.000                                                                                                                                    26840449.352 6 139765042.71006     -3407.615 6        38.414                                                                    26840453.163 6 113570473.10206     -2768.841 6        41.020
R12        56.000    21162027.568 8 113043786.66708     -3112.929 8        48.862                                                                    21162035.908 7  87922968.21307     -2421.144 7        44.730
C02        57.000                                                                                                                                    41053664.529 5 213777009.46905      -556.336 5        31.585    41053674.346 6 165305874.47106      -430.171 6        36.518    41053673.729 5                      -452.109 5        31.004
I03        58.000   120763407.560 5 398115976.14105       889.254 5        32.850
C14        59.000                                                                                                                                    24916657.380 7 129747412.89207     -3289.302 7        42.796    24916664.317 7 100328878.27407     -2543.532 7        46.955    24916660.170 7 105430353.01007     -2672.694 7        44.137
R13        60.000    19548949.827 7 104390375.37207      -476.022 7        46.169
> 2025 01 01 12 00  5.0000000  0 53
G19         1.000    21430898.753 7 112620283.50107     -1571.849 7        46.537                                    21430900.341 6  87756151.42806     -1224.813 6        37.463
G25         2.000    23282981.124 6 122352911.65706      2720.066 6        41.883                                    23282991.298 5  95339988.24405      2119.523 5        35.776    23282992.182 6  95339998.24306      2119.586 6        37.267
G24         3.000    20191071.011 8 106104807.60208     -1228.318 8        50.668                                    20191074.752 8  82679103.14708      -957.130 8        53.328    20191075.086 7  82679100.15207      -957.152 7        46.528
R02         4.000    23599746.634 7 125932515.32207     -5136.027 7        44.027                                                                    23599763.140 6  97947461.59906     -3994.826 6        39.862
S21         5.000    38521463.367 7 202431275.42807      -583.538 7        42.912
G06         6.000    24343439.136 6 127925672.04306      2026.819 6        39.366                                    24343451.044 5  99682412.77305      1579.329 5        33.874    24343451.962 6  99682403.78906      1579.413 6        38.357
G17         7.000    23734784.643 7 124727222.29507     -3460.795 7        42.059                                    23734792.026 6  97190113.23306     -2696.710 6        36.499    23734791.732 6  97190109.22806     -2696.833 6        38.252
R21         8.000    23440644.646 6 125435648.16506     -3597.600 6        41.993                                                                    23440658.027 6  97561125.74506     -2798.116 6        40.908
E30        10.000    24365278.449 8 128040531.75708       747.435 8        48.286                                                                    24365285.811 8  95614787.62108       558.120 8        50.344    24365284.716 8  98109075.59808       572.672 8        50.738
C26        11.000                                                                                                                                    22507177.859 8 117200764.87008     -2079.685 8        50.184                                                                    22507182.221 8  95235232.49208     -1690.133 8        48.478
S27        12.000    39289788.090 6 206469012.56206      -609.279 6        36.760
G15        13.000    23770414.489 6 124914177.56006     -4415.844 6        41.406                                    23770423.471 6  97335657.20806     -3440.907 6        36.904    23770424.369 6  97335649.17906     -3440.982 6        39.559
S36        14.000    38293214.799 7 201232564.74307      -583.975 7        44.734
G12        15.000    20809489.325 8 109354736.41308      1069.708 8        49.619                                    20809491.049 8  85211555.35608       833.539 8        49.826    20809491.451 7  85211555.36407       833.526 7        44.913
E29        16.000    27715552.065 6 145646085.64306      2008.824 6        38.189                                                                    27715568.494 7 108761680.42807      1499.950 7        42.243    27715566.169 7 111598941.50607      1539.241 7        42.125
S45        17.000    63483202.752 6 333607464.54606      -644.994 6        36.310
R03        18.000    20894849.039 8 111851687.58408     -3013.272 8        50.079                                                                    20894855.478 7  86995751.74407     -2343.625 7        45.722
C35        19.000                                                                                                                                    23261584.930 8 121129302.51508       369.478 8        48.025                                                                    23261590.439 7  98427553.90307       300.069 7        46.730
E11        20.000    27456151.644 6 144283082.62006       -71.135 6        36.907                                                                    27456163.487 6 107743927.55706       -53.112 6        37.206    27456161.314 6 110554629.19206       -54.605 6        37.463
R14        21.000    22411319.541 8 119464946.55608      2427.822 8        48.283                                                                    22411330.889 7  92917233.90107      1888.346 7        42.821
I06        22.000    38457550.671 6 150915711.85406      -546.994 6        41.666
S28        23.000    40985701.440 5 215381075.08605      -593.094 5        35.310
S23        25.000    38229935.473 7 200899469.39107      -588.019 7        45.279
E08        26.000    25053836.929 7 131658682.45007     -3029.656 7        45.985                                                                    25053844.970 8  98316511.54108     -2262.393 8        48.608    25053843.427 8 100881291.86508     -2321.445 8        48.655
C07        27.000                                                                                                                                    39779312.670 6 207141227.79006     -1448.210 6        38.402    39779318.792 6 160174725.90006     -1120.050 6        41.659    39779314.290 6 168319195.21306     -1177.115 6        39.255
I02        29.000    36992562.449 7 145166738.94807      -498.114 7        42.751
G10        30.000    24929376.086 6 131004553.81906     -2265.073 6        39.357                                    24929390.342 5 102081424.40305     -1764.975 5        31.042    24929389.982 5 102081416.37505     -1765.048 5        35.690
E07        31.000    24432714.935 7 128394709.48707      -297.206 7        46.854                                                                    24432724.012 8  95879162.70708      -221.965 8        49.845    24432722.787 8  98380356.37808      -227.728 8        50.343
E10        33.000    28318514.310 6 148814808.66206     -1354.990 6        36.507                                                                    28318529.425 6 111128016.79306     -1011.762 6        41.549    28318527.805 6 114026996.52006     -1038.109 6        41.840
R23        34.000    22199224.442 7 118750947.55807      3199.630 7        44.861
C24        35.000                                                                                                                                    21809611.031 8 113568403.36708       564.734 8        51.375                                                                    21809612.817 8  92283651.98208       458.707 8        49.809
E27        37.000    28262366.692 6 148519736.53606      2001.864 6        38.000                                                                    28262384.342 6 110907676.68806      1494.676 6        39.661    28262382.444 6 113800908.81606      1533.772 6        40.236
R04        38.000    21381592.786 8 114497364.41408       834.913 8        48.424                                                                    21381599.992 7  89053491.18807       649.399 7        45.201
C33        39.000                                                                                                                                    24529041.527 7 127729102.81807     -2197.328 7        46.353                                                                    24529061.093 7 103790422.07607     -1785.656 7        45.580
E25        40.000    27635634.755 6 145226090.25706     -3170.961 6        38.096                                                                    27635650.573 6 108448012.74606     -2367.954 6        40.946    27635648.499 6 111277088.60306     -2429.788 6        41.166
S44        42.000    40900039.831 6 214931121.54606      -522.058 6        38.453
R22        43.000    21339906.070 8 113913994.32108       150.845 8        48.343                                                                    21339914.236 7  88599859.29007       117.374 7        46.620
C05        44.000                                                                                                                                    39540968.854 6 205900028.59206      -597.655 6        38.550    39540976.922 7 159214933.62507      -462.115 7        42.868    39540975.352 6 167310699.56606      -485.886 6        39.495
C40        45.000                                                                                                                                    40155566.857 6 209100462.76006     -1731.576 6        41.030                                                                    40155575.144 6 169911246.31506     -1407.265 6        39.111
G32        46.000    24523996.465 6 128874335.78106      2319.131 6        41.928                                    24524009.214 6 100421551.84906      1807.116 6        36.386    24524009.738 6 100421553.85106      1807.236 6        38.694
E36        47.000    27637588.183 6 145236529.70606      1868.558 6        38.096                                                                    27637605.771 7 108455944.12407      1395.147 7        42.576    27637603.043 6 111285215.09106      1431.624 6        41.597
C41        48.000                                                                                                                                    25644141.263 7 133535766.93707       475.329 7        42.474                                                                    25644158.174 7 108508819.87307       385.859 7        43.456
C10        49.000                                                                                                                                    38951126.232 6 202828706.04906     -1153.204 6        41.392    38951132.819 7 156840028.55407      -891.703 7        43.536    38951128.401 6 164814934.16406      -937.256 6        40.746
C42        50.000                                                                                                                                    26043867.206 6 135617001.24606     -3841.592 6        41.828                                                                    26043886.556 6 110199907.34706     -3121.708 6        41.144
S48        51.000    77229614.040 6 405845554.86006      -587.728 6        38.501
E02        53.000    23742219.614 8 124766267.61608     -1790.617 8        48.213                                                                    23742226.127 8  93169685.80208     -1337.130 8        50.963    23742224.796 8  95600181.63908     -1372.055 8        50.996
C60        54.000                                                                                                                                    40900042.392 6 212977219.55306      -517.434 6        40.794                                                                    40900038.056 6 173061356.77106      -420.515 6        38.508
C45        55.000                                                                                                                                    26843720.981 6 139782081.17606     -3407.599 6        38.661                                                                    26843725.164 6 113584318.24606     -2769.220 6        40.796
R12        56.000    21164942.146 8 113059354.25808     -3114.043 8        49.104                                                                    21164950.760 7  87935076.32007     -2421.924 7        45.577
C02        57.000                                                                                                                                    41054199.103 5 213779790.70905      -556.394 5        31.585    41054208.620 6 165308025.08506      -430.015 6        36.329    41054207.860 5                      -452.185 5        30.649
I03        58.000   120762275.630 5 398111529.77905       889.720 5        32.790
C14        59.000                                                                                                                                    24919816.785 7 129763862.99007     -3290.699 7        42.525    24919822.667 7 100341598.47107     -2544.535 7        46.567    24919819.209 7 105443720.01707     -2674.020 7        44.236
R13        60.000    19549396.232 7 104392760.87507      -478.025 7        45.968
> 2025 01 01 12 00 10.0000000  0 53
G19         1.000    21432396.377 7 112628151.43207     -1575.380 7        46.862                                    21432397.574 6  87762282.26706     -1227.564 6        37.425
G25         2.000    23280393.408 6 122339314.23106      2718.876 6        41.900                                    23280403.713 5  95329392.88005      2118.596 5        35.995    23280405.403 6  95329402.89306      2118.661 6        38.186
G24         3.000    20192241.321 8 106110957.27708     -1231.516 8        50.736                                    20192244.998 8  82683895.09608      -959.624 8        53.431    20192245.323 7  82683892.10007      -959.580 7        46.643
R02         4.000    23604559.467 7 125958196.92007     -5136.656 7        43.638                                                                    23604576.349 6  97967436.05406     -3995.189 6        39.670
S21         5.000    38522018.434 7 202434194.11207      -583.813 7        42.804
G06         6.000    24341511.778 6 127915542.10306      2025.021 6        39.640                                    24341523.300 5  99674519.35605      1577.932 5        34.214    24341524.185 6  99674510.37506      1577.965 6        38.565
G17         7.000    23738078.288 7 124744531.01507     -3462.785 7        42.332                                    23738085.743 6  97203600.51806     -2698.267 6        36.473    23738085.504 6  97203596.50106     -2698.073 6        38.207
R21         8.000    23444009.007 7 125453644.71807     -3601.031 7        43.507                                                                    23444021.315 6  97575123.01306     -2800.850 6        41.209
E30        10.000    24364568.038 8 128036798.66908       745.834 8        48.472                                                                    24364575.495 8  95611999.92508       556.950 8        50.309    24364574.331 8  98106215.18408       571.446 8        50.731
C26        11.000                                                                                                                                    22509175.419 8 117211167.36708     -2081.310 8        50.613                                                                    22509179.913 8  95243685.37108     -1691.320 8        48.521
S27        12.000    39290371.646 6 206472059.78006      -609.654 6        36.665
G15        13.000    23774617.046 6 124936259.24506     -4416.765 6        41.776                                    23774625.915 6  97352863.65706     -3441.616 6        37.119    23774626.350 6  97352855.63006     -3441.707 6        39.952
S36        14.000    38293771.284 7 201235485.27107      -584.217 7        44.575
G12        15.000    20808472.633 8 109349394.13508      1067.173 8        49.372                                    20808474.444 8  85207392.54508       831.565 8        49.883    20808474.978 7  85207392.54507       831.515 7        45.123
E29        16.000    27713641.703 6 145636045.51206      2007.311 6        38.778                                                                    27713657.998 7 108754182.88007      1498.949 7        42.222    27713655.802 7 111591248.39507      1538.090 7        42.218
S45        17.000    63483765.381 6 333610689.72306      -645.261 6        36.197
R03        18.000    20897665.776 8 111866764.06908     -3017.385 8        50.287                                                                    20897672.320 7  87007477.88507     -2346.859 7        45.866
C35        19.000                                                                                                                                    23261232.106 8 121127462.71608       366.461 8        48.189                                                                    23261237.180 7  98426058.93307       297.675 7        46.763
E11        20.000    27456220.677 6 144283445.36306       -73.800 6        36.851                                                                    27456232.530 6 107744198.41406       -55.189 6        36.994    27456230.389 6 110554907.10306       -56.734 6        37.471
R14        21.000    22409042.204 7 119452809.94007      2426.853 7        47.155                                                                    22409054.391 7  92907794.34007      1887.408 7        42.798
I06        22.000    38458247.566 6 150918447.41006      -547.332 6        41.783
S28        23.000    40986267.386 5 215384041.30905      -593.407 5        35.262
S23        25.000    38230494.663 7 200902410.08607      -588.341 7        45.178
E08        26.000    25056720.402 7 131673835.33307     -3031.506 7        46.466                                                                    25056728.503 8  98327826.98308     -2263.797 8        48.563    25056726.990 8 100892902.49708     -2322.883 8        48.772
C07        27.000                                                                                                                                    39780704.017 6 207148471.11606     -1448.956 6        38.411    39780709.718 6 160180326.85906     -1120.374 6        41.657    39780705.302 6 168325080.98906     -1177.432 6        39.345
I02        29.000    36993197.382 7 145169230.09107      -498.488 7        43.003
G10        30.000    24931531.965 6 131015885.28006     -2267.475 6        38.550                                    24931546.769 5 102090254.06505     -1766.851 5        31.034    24931545.894 6 102090246.05606     -1766.904 6        36.310
E07        31.000    24432999.004 7 128396202.23807      -299.961 7        46.882                                                                    24433008.076 8  95880277.41408      -223.960 8        49.783    24433006.916 8  98381500.16908      -229.830 8        50.394
E10        33.000    28319804.531 6 148821590.45606     -1357.703 6        36.975                                                                    28319819.906 6 111133081.13906     -1013.963 6        41.437    28319818.231 6 114032192.98206     -1040.346 6        41.866
R23        34.000    22196234.073 7 118734955.11807      3197.201 7        44.400
C24        35.000                                                                                                                                    21809069.484 8 113565583.73508       563.084 8        51.452                                                                    21809071.303 8  92281360.80108       457.491 8        49.757
E27        37.000    28260462.875 6 148509729.52406      2001.034 6        37.909                                                                    28260480.175 6 110900203.94206      1494.359 6        39.526    28260478.379 6 113793241.14006      1533.222 6        40.276
R04        38.000    21380815.701 8 114493201.81408       830.132 8        49.539                                                                    21380823.129 7  89050253.59807       645.709 7        44.831
C33        39.000                                                                                                                                    24531153.026 7 127740096.14207     -2200.002 7        46.400                                                                    24531172.322 7 103799355.04207     -1787.800 7        45.512
E25        40.000    27638651.889 6 145241946.45006     -3171.317 6        37.622                                                                    27638667.875 6 108459853.38706     -2368.350 6        40.996    27638665.840 6 111289238.12706     -2430.186 6        41.347
S44        42.000    40900536.235 6 214933732.87306      -522.453 6        38.384
R22        43.000    21339767.491 8 113913251.96508       146.049 8        49.032                                                                    21339774.458 7  88599281.91007       113.496 7        45.982
C05        44.000                                                                                                                                    39541542.961 6 205903018.03906      -598.193 6        38.790    39541550.922 7 159217245.24707      -462.425 7        42.827    39541549.397 6 167313128.72906      -486.166 6        39.432
C40        45.000                                                                                                                                    40157229.516 6 209109122.01106     -1732.181 6        41.004                                                                    40157238.020 6 169918282.63406     -1407.527 6        39.303
G32        46.000    24521791.114 6 128862745.11206      2316.957 6        41.049                                    24521803.555 6 100412520.15706      1805.419 6        36.382    24521804.186 6 100412522.16506      1805.417 6        39.117
E36        47.000    27635811.245 6 145227191.35306      1866.963 6        38.369                                                                    27635828.594 7 108448970.70807      1394.123 7        42.322    27635825.964 6 111278059.75406      1430.442 6        41.316
C41        48.000                                                                                                                                    25643686.210 7 133533398.60607       472.252 7        42.083                                                                    25643703.343 7 108506895.42207       383.602 7        43.592
C10        49.000                                                                                                                                    38952233.815 6 202834473.50406     -1153.779 6        41.483    38952240.321 7 156844488.31607      -892.227 7        43.553    38952235.941 6 164819620.68806      -937.569 6        40.791
C42        50.000                                                                                                                                    26047555.900 6 135636210.57606     -3842.006 6        41.549                                                                    26047575.771 6 110215516.45406     -3122.146 6        41.366
S48        51.000    77230166.384 6 405848494.60906      -588.163 6        38.360
E02        53.000    23743923.946 8 124775224.24708     -1792.041 8        48.237                                                                    23743930.544 8  93176374.18608     -1338.236 8        50.850    23743929.202 8  95607044.49908     -1373.112 8        51.077
C60        54.000                                                                                                                                    40900538.979 6 212979807.14306      -517.683 6        40.946                                                                    40900535.117 6 173063459.39406      -420.688 6        38.697
C45        55.000                                                                                                                                    26846993.328 6 139799120.46506     -3408.081 6        38.628                                                                    26846997.398 6 113598164.06406     -2769.421 6        40.720
R12        56.000    21167857.988 8 113074927.86108     -3115.469 8        49.114                                                                    21167866.005 7  87947189.09907     -2423.157 7        45.634
C02        57.000                                                                                                                                    41054731.879 5 213782571.91805      -556.213 5        31.517    41054742.952 6 165310175.71706      -430.403 6        36.423    41054741.906 5                      -451.981 5        30.951
I03        58.000   120761142.122 5 398107083.28605       889.210 5        32.557
C14        59.000                                                                                                                                    24922976.061 7 129780320.10707     -3292.252 7        42.470    24922984.179 7 100354324.11207     -2545.830 7        46.722    24922979.689 7 105457092.75007     -2675.276 7        44.253
R13        60.000    19549845.288 7 104395157.00907      -480.419 7        46.580
> 2025 01 01 12 00 15.0000000  0 53
G19         1.000    21433896.921 7 112636036.01107     -1578.519 7        46.738                                    21433897.951 6  87768426.07906     -1230.010 6        37.255
G25         2.000    23277806.693 6 122325722.03806      2718.037 6        40.706                                    23277817.134 5  95318801.59005      2117.949 5        35.781    23277818.554 6  95318811.61506      2117.862 6        37.898
G24         3.000    20193414.191 8 106117121.50508     -1234.193 8        50.868                                    20193418.025 8  82688698.39008      -961.708 8        53.271    20193418.526 7  82688695.39407      -961.745 7        46.744
R02         4.000    23609373.192 7 125983880.30207     -5136.778 7        43.979                                                                    23609389.089 6  97987411.91806     -3995.259 6        39.480
S21         5.000    38522573.845 7 202437113.09207      -583.715 7        42.959
G06         6.000    24339585.089 6 127905420.54806      2023.724 6        39.718                                    24339597.265 5  99666632.46705      1576.922 5        34.400    24339598.286 6  99666623.50306      1576.698 6        39.390
G17         7.000    23741373.959 7 124761848.37007     -3464.288 7        42.866                                    23741381.069 6  97217094.52806     -2699.438 6        36.401    23741381.819 6  97217090.52506     -2699.497 6        38.474
R21         8.000    23447376.024 7 125471657.48507     -3604.102 7        44.123                                                                    23447387.307 6  97589132.91906     -2803.371 6        41.313
E30        10.000    24363858.778 8 128033072.41208       744.619 8        48.425                                                                    24363866.369 8  95609217.33208       556.057 8        50.349    24363865.224 8  98103359.99408       570.570 8        50.750
C26        11.000                                                                                                                                    22511174.818 8 117221576.85608     -2082.534 8        50.781                                                                    22511178.866 8  95252143.91108     -1692.237 8        48.654
S27        12.000    39290953.628 6 206475107.37906      -609.705 6        36.624
G15        13.000    23778819.726 7 124958344.14907     -4417.242 7        42.603                                    23778828.843 6  97370072.60606     -3441.993 6        37.146    23778829.018 6  97370064.58406     -3441.825 6        39.712
S36        14.000    38294325.975 7 201238406.08507      -584.265 7        44.695
G12        15.000    20807458.368 8 109344063.45408      1065.012 8        49.535                                    20807460.056 8  85203238.76608       829.880 8        49.730    20807460.686 7  85203238.77307       829.803 7        45.160
E29        16.000    27711732.189 6 145626011.37906      2006.266 6        39.171                                                                    27711748.489 7 108746689.80807      1498.178 7        42.099    27711746.339 7 111583559.85207      1537.294 7        42.150
S45        17.000    63484324.754 6 333613915.51606      -645.256 6        36.246
R03        18.000    20900486.122 8 111881860.22108     -3021.065 8        50.360                                                                    20900492.088 7  87019219.31807     -2349.731 7        45.518
C35        19.000                                                                                                                                    23260881.369 8 121125637.20608       363.737 8        48.223                                                                    23260886.541 7  98424575.54807       295.580 7        46.947
E11        20.000    27456291.833 6 144283820.87706       -76.148 6        36.677                                                                    27456303.772 6 107744478.83306       -57.080 6        37.115    27456301.972 6 110555194.83506       -58.413 6        37.240
R14        21.000    22406766.211 7 119440677.77007      2426.037 7        47.676                                                                    22406778.055 7  92898358.19107      1886.861 7        42.580
I06        22.000    38458945.027 6 150921183.36906      -547.210 6        41.645
S28        23.000    40986829.791 5 215387007.95305      -592.870 5        35.395
S23        25.000    38231054.331 7 200905351.26007      -588.303 7        45.214
E08        26.000    25059605.603 7 131688996.55107     -3032.953 7        46.317                                                                    25059613.600 8  98339148.65208     -2264.932 8        48.556    25059612.161 8 100904519.51108     -2323.936 8        48.753
C07        27.000                                                                                                                                    39782094.545 6 207155715.94606     -1449.126 6        38.868    39782101.012 6 160185929.00206     -1120.486 6        41.714    39782096.603 6 168330967.97806     -1177.452 6        39.369
I02        29.000    36993832.356 7 145171722.62807      -498.547 7        42.855
G10        30.000    24933690.946 6 131027228.74706     -2269.836 6        39.580                                    24933705.552 5 102099093.08505     -1768.690 5        30.936    24933704.644 6 102099085.05506     -1768.705 6        36.083
E07        31.000    24433285.638 7 128397707.46707      -302.240 7        46.949                                                                    24433294.460 8  95881401.44708      -225.740 8        49.839    24433293.341 8  98382653.52208      -231.571 8        50.367
E10        33.000    28321097.210 6 148828384.91706     -1360.330 6        37.006                                                                    28321112.922 6 111138154.92206     -1015.599 6        41.454    28321110.975 6 114037399.13206     -1042.177 6        41.318
R23        34.000    22193246.102 7 118718973.87407      3195.179 7        44.239
C24        35.000                                                                                                                                    21808529.323 8 113562771.39908       561.823 8        51.405                                                                    21808531.246 8  92279075.53808       456.519 8        50.044
E27        37.000    28258558.255 6 148499725.02506      2000.706 6        37.074                                                                    28258576.464 6 110892733.07106      1494.070 6        39.435    28258574.484 6 113785575.36706      1533.110 6        40.298
R04        38.000    21380042.985 8 114489061.55308       825.868 8        49.454                                                                    21380048.997 7  89047033.40307       642.264 7        44.760
C33        39.000                                                                                                                                    24533266.240 7 127751102.08107     -2202.393 7        46.237                                                                    24533285.935 7 103808298.22307     -1789.539 7        45.687
E25        40.000    27641669.264 6 145257803.29506     -3171.625 6        37.255                                                                    27641685.534 6 108471694.50306     -2368.255 6        41.282    27641683.323 6 111301388.15506     -2430.101 6        41.237
S44        42.000    40901034.235 6 214936344.66206      -522.383 6        38.351
R22        43.000    21339632.765 8 113912532.45708       141.682 8        48.543                                                                    21339640.033 7  88598722.30207       110.127 7        46.324
C05        44.000                                                                                                                                    39542116.402 6 205906007.91206      -598.031 6        38.655    39542124.922 7 159219557.21707      -462.377 7        42.806    39542123.638 6 167315558.23806      -485.890 6        39.468
C40        45.000                                                                                                                                    40158893.065 6 209117782.83706     -1732.233 6        41.108                                                                    40158901.467 6 169925320.23706     -1407.467 6        39.712
G32        46.000    24519587.399 6 128851163.81106      2315.419 6        41.850                                    24519599.747 6 100403495.76106      1804.223 6        36.234    24519600.197 6 100403497.77606      1804.106 6        39.426
E36        47.000    27634035.692 6 145217859.36606      1865.795 6        38.916                                                                    27634052.727 7 108442002.06407      1393.263 7        42.483    27634049.943 6 111270909.31506      1429.626 6        41.390
C41        48.000                                                                                                                                    25643234.403 7 133531044.28407       469.584 7        42.580                                                                    25643251.127 7 108504982.31107       381.562 7        43.896
C10        49.000                                                                                                                                    38953341.783 6 202840242.98306     -1153.986 6        41.495    38953348.302 7 156848949.63507      -892.337 7        43.769    38953344.022 6 164824308.85606      -937.704 6        40.949
C42        50.000                                                                                                                                    26051245.044 6 135655421.36706     -3842.273 6        41.116                                                                    26051265.441 6 110231126.70806     -3121.967 6        41.926
S48        51.000    77230723.593 6 405851435.20006      -588.043 6        38.198
E02        53.000    23745629.339 8 124784186.88708     -1793.077 8        48.177                                                                    23745636.125 8  93183067.06608     -1339.030 8        50.982    23745634.780 8  95613911.98008     -1373.951 8        51.046
C60        54.000                                                                                                                                    40901036.058 6 212982395.18806      -517.539 6        40.818                                                                    40901031.910 6 173065562.35906      -420.424 6        38.985
C45        55.000                                                                                                                                    26850265.353 6 139816161.00406     -3407.994 6        38.703                                                                    26850269.849 6 113612010.86906     -2769.308 6        40.696
R12        56.000    21170774.156 8 113090507.80808     -3116.594 8        48.958                                                                    21170781.939 7  87959306.82307     -2424.020 7        45.344
C02        57.000                                                                                                                                    41055266.640 5 213785353.57605      -556.489 5        31.562    41055276.502 6 165312326.64206      -430.319 6        36.393    41055276.318 5 173718063.74015      -451.917 5        30.558
I03        58.000   120760008.850 5 398102637.02205       889.488 5        32.808
C14        59.000                                                                                                                                    24926137.633 7 129796784.69107     -3293.554 7        42.567    24926146.878 7 100367055.53107     -2546.763 7        47.090    24926141.742 7 105470471.51807     -2676.237 7        44.406
R13        60.000    19550296.353 7 104397564.09607      -482.509 7        46.536
> 2025 01 01 12 00 20.0000000  0 53
G19         1.000    21435400.026 7 112643936.44307     -1581.688 7        46.699                                    21435401.315 6  87774582.24306     -1232.483 6        37.395
G25         2.000    23275220.877 6 122312134.30406      2716.817 6        41.023                                    23275231.494 5  95308213.77505      2116.992 5        35.905    23275232.493 6  95308223.80406      2117.018 6        38.291
G24         3.000    20194589.692 8 106123299.48208     -1237.001 8        51.326                                    20194593.664 8  82693512.39408      -963.897 8        53.434    20194593.787 7  82693509.39607      -963.930 7        46.784
R02         4.000    23614186.233 7 126009564.83207     -5136.974 7        44.488                                                                    23614202.972 6  98007388.68406     -3995.615 6        39.501
S21         5.000    38523129.708 7 202440031.73507      -583.800 7        42.963
G06         6.000    24337660.685 6 127895306.61506      2022.037 6        40.150                                    24337672.764 5  99658751.52305      1575.613 5        35.086    24337673.751 6  99658742.52806      1575.492 6        40.160
G17         7.000    23744670.910 7 124779173.53007     -3465.875 7        43.579                                    23744677.934 6  97230594.62306     -2700.678 6        36.605    23744678.707 6  97230590.60806     -2700.659 6        38.489
R21         8.000    23450744.513 7 125489685.64007     -3607.215 7        44.358                                                                    23450756.167 6  97603154.76706     -2805.699 6        41.368
E30        10.000    24363150.802 8 128029352.15808       743.321 8        48.410                                                                    24363158.451 8  95606439.22008       555.105 8        50.364    24363157.292 8  98100509.41108       569.617 8        50.859
C26        11.000                                                                                                                                    22513175.209 8 117231992.54008     -2083.821 8        50.866                                                                    22513179.139 8  95260607.50408     -1693.191 8        48.584
S27        12.000    39291528.423 6 206478155.34306      -609.521 6        36.662
G15        13.000    23783023.059 7 124980431.40707     -4417.755 7        43.211                                    23783031.980 6  97387283.40306     -3442.395 6        37.195    23783031.894 6  97387275.39506     -3442.402 6        38.946
S36        14.000    38294882.625 7 201241327.23407      -584.350 7        44.719
G12        15.000    20806445.882 8 109338743.55208      1062.850 8        49.832                                    20806447.717 8  85199093.39008       828.195 8        49.878    20806448.456 7  85199093.38707       828.194 7        45.308
E29        16.000    27709823.384 6 145615982.45306      2005.214 6        38.796                                                                    27709839.890 7 108739200.60907      1497.487 7        42.328    27709837.915 7 111575875.30407      1536.427 7        42.391
S45        17.000    63484889.868 6 333615541.03816      -645.226 6        36.185
R03        18.000    20903309.670 8 111896974.92508     -3024.914 8        50.318                                                                    20903315.528 7  87030975.16807     -2352.705 7        45.588
C35        19.000                                                                                                                                    23260533.806 8 121123825.15808       360.972 8        48.707                                                                    23260538.501 7  98423103.13407       293.380 7        46.800
E11        20.000    27456365.188 6 144284208.37706       -78.699 6        36.306                                                                    27456377.800 6 107744768.18006       -58.780 6        37.043    27456375.640 6 110555491.75206       -60.454 6        37.331
R14        21.000    22404491.084 7 119428549.12907      2425.309 7        47.590                                                                    22404503.041 6  92888924.82206      1886.231 6        41.688
I06        22.000    38459641.970 6 150923919.13106      -546.999 6        41.659
S28        23.000    40987392.692 5 215389974.55605      -593.524 5        35.010
S23        25.000    38231613.870 7 200908292.20907      -588.202 7        45.267
E08        26.000    25062492.195 7 131704165.29307     -3034.555 7        46.448                                                                    25062500.123 8  98350475.92508     -2266.056 8        48.611    25062498.693 8 100916142.28608     -2325.171 8        48.773
C07        27.000                                                                                                                                    39783485.797 6 207162961.54806     -1449.360 6        38.613    39783492.551 6 160191531.71906     -1120.713 6        41.762    39783488.112 6 168336855.60106     -1177.667 6        39.039
I02        29.000    36994467.793 7 145174215.84107      -498.802 7        42.887
G10        30.000    24935851.814 6 131038583.34906     -2272.190 6        40.815                                    24935866.428 5 102107940.76705     -1770.527 5        31.049    24935865.343 5 102107932.76205     -1770.772 5        35.710
E07        31.000    24433574.165 7 128399224.34407      -304.668 7        46.802                                                                    24433583.199 8  95882534.17608      -227.501 8        49.849    24433582.006 8  98383815.79808      -233.392 8        50.425
E10        33.000    28322392.291 6 148835191.21406     -1362.442 6        36.896                                                                    28322408.061 6 111143237.56706     -1017.391 6        41.437    28322406.203 6 114042614.36206     -1044.062 6        41.409
R23        34.000    22190261.443 7 118703002.99707      3193.139 7        44.950
C24        35.000                                                                                                                                    21807990.631 8 113559965.56708       560.486 8        51.554                                                                    21807992.416 8  92276795.58308       455.466 8        49.879
