     3.04           OBSERVATION DATA    M                   RINEX VERSION / TYPE
ssrcrin-15.6.1x                         20250101 184500 UTC PGM / RUN BY / DATE 
(00000000023479385599111004) Septentrio proprietary         COMMENT             
rref                                                        MARKER NAME         
01                                                          MARKER NUMBER       
geodetic                                                    MARKER TYPE         
NFB                 CLIMERS@TUW                             OBSERVER / AGENCY   
3297213             SEPT ASTERX SB3 PROB4.14.4              REC # / TYPE / VERS 
Unknown             Unknown                                 ANT # / TYPE        
  4127831.6663  1207192.7749  4695247.5540                  APPROX POSITION XYZ 
        0.0000        0.0000        0.0000                  ANTENNA: DELTA H/E/N
G   23 X1  C1C L1C D1C S1C C1W S1W C2W L2W D2W S2W C2L L2L  SYS / # / OBS TYPES 
       D2L S2L C5Q L5Q D5Q S5Q C1L L1L D1L S1L              SYS / # / OBS TYPES 
E   21 X1  C1C L1C D1C S1C C6C L6C D6C S6C C5Q L5Q D5Q S5Q  SYS / # / OBS TYPES 
       C7Q L7Q D7Q S7Q C8Q L8Q D8Q S8Q                      SYS / # / OBS TYPES 
S    9 X1  C1C L1C D1C S1C C5I L5I D5I S5I                  SYS / # / OBS TYPES 
R   17 X1  C1C L1C D1C S1C C2P L2P D2P S2P C2C L2C D2C S2C  SYS / # / OBS TYPES 
       C3Q L3Q D3Q S3Q                                      SYS / # / OBS TYPES 
C   25 X1  C1P L1P D1P S1P C5P L5P D5P S5P C2I L2I D2I S2I  SYS / # / OBS TYPES 
       C7I L7I D7I S7I C6I L6I D6I S6I C7D L7D D7D S7D      SYS / # / OBS TYPES 
J   17 X1  C1C L1C D1C S1C C2L L2L D2L S2L C5Q L5Q D5Q S5Q  SYS / # / OBS TYPES 
       C1L L1L D1L S1L                                      SYS / # / OBS TYPES 
I    5 X1  C5A L5A D5A S5A                                  SYS / # / OBS TYPES 
SEPTENTRIO RECEIVERS OUTPUT ALIGNED CARRIER PHASES.         COMMENT             
NO FURTHER PHASE SHIFT APPLIED IN THE RINEX ENCODER.        COMMENT             
G L1C                                                       SYS / PHASE SHIFT   
G L2W                                                       SYS / PHASE SHIFT   
G L2L  0.00000                                              SYS / PHASE SHIFT   
G L5Q  0.00000                                              SYS / PHASE SHIFT   
G L1L  0.00000                                              SYS / PHASE SHIFT   
E L1C  0.00000                                              SYS / PHASE SHIFT   
E L6C  0.00000                                              SYS / PHASE SHIFT   
E L5Q  0.00000                                              SYS / PHASE SHIFT   
E L7Q  0.00000                                              SYS / PHASE SHIFT   
E L8Q  0.00000                                              SYS / PHASE SHIFT   
S L1C                                                       SYS / PHASE SHIFT   
S L5I                                                       SYS / PHASE SHIFT   
R L1C                                                       SYS / PHASE SHIFT   
R L2P  0.00000                                              SYS / PHASE SHIFT   
R L2C                                                       SYS / PHASE SHIFT   
R L3Q  0.00000                                              SYS / PHASE SHIFT   
C L1P  0.00000                                              SYS / PHASE SHIFT   
C L5P  0.00000                                              SYS / PHASE SHIFT   
C L2I                                                       SYS / PHASE SHIFT   
C L7I                                                       SYS / PHASE SHIFT   
C L6I                                                       SYS / PHASE SHIFT   
C L7D                                                       SYS / PHASE SHIFT   
J L1C                                                       SYS / PHASE SHIFT   
J L2L  0.00000                                              SYS / PHASE SHIFT   
J L5Q  0.00000                                              SYS / PHASE SHIFT   
J L1L  0.00000                                              SYS / PHASE SHIFT   
I L5A                                                       SYS / PHASE SHIFT   
  2025     1     1    18    45    0.0000000     GPS         TIME OF FIRST OBS   
 C1C    0.000 C2C    0.000 C2P    0.000                     GLONASS COD/PHS/BIS 
DBHZ                                                        SIGNAL STRENGTH UNIT
    18                                                      LEAP SECONDS        
 24 R01  1 R02 -4 R03  5 R04  6 R05  1 R06 -4 R07  5 R08  6 GLONASS SLOT / FRQ #
    R09 -2 R10 -7 R11  0 R12 -1 R13 -2 R14 -7 R15  0 R16 -1 GLONASS SLOT / FRQ #
    R17  4 R18 -3 R19  3 R20  2 R21  4 R22 -3 R23  3 R24  2 GLONASS SLOT / FRQ #
                                                            END OF HEADER       
> 2025 01 01 18 45  0.0000000  0 54
G10         1.000    23966618.278 7 125945507.73207      3006.847 7        42.262                                    23966617.984 6  98139412.65206      2342.998 6        37.902    23966618.038 6  98139389.66506      2343.020 6        39.535
G15         2.000    24547094.615 6 128995873.26906      1572.238 6        38.682                                    24547090.732 5 100516256.26505      1225.117 5        30.128    24547091.590 6 100516259.28206      1225.091 6        36.053
G05         3.000    25101520.246 6 131909503.76906     -3869.373 6        37.936                                    25101517.989 4 102786679.73704     -3015.099 4        27.940    25101517.831 5 102786678.74605     -3014.909 5        35.167
G29         4.000    24096168.053 6 126626574.25806     -3614.104 6        41.235                                    24096164.635 5  98670221.16105     -2816.184 5        35.938    24096165.041 6  98670224.17506     -2816.413 6        37.977
S21         5.000    38563696.572 7 202653363.98607      -541.625 7        42.002
E13         6.000    23391859.841 8 122925401.59108      -115.892 8        48.508                                                                    23391859.764 8  91795150.72708       -86.500 8        50.945    23391859.403 8  94189776.31408       -88.754 8        51.371
G23         7.000    21646089.550 7 113751086.02407      1531.782 7        47.447                                    21646086.232 6  88637245.73606      1193.597 6        36.794    21646085.533 7  88637244.73707      1193.602 7        45.762
E15         8.000    25135065.339 7 132085987.16107     -2657.562 7        44.986                                                                    25135065.648 8  98635812.23908     -1984.581 8        48.010    25135065.390 8 101208896.24908     -2036.278 8        48.762
E05         9.000    27187211.832 5 142869754.42605        -2.075 5        35.176                                                                    27187213.958 6 106688457.20806        -1.351 6        40.057    27187213.431 6 109471636.33506        -1.436 6        40.856
G07        10.000    25785118.829 6 135501739.28306      1161.829 6        39.090                                    25785115.988 5 105585759.54605       905.311 5        30.483    25785116.597 6 105585763.57106       905.150 6        37.270
G26        11.000    21223992.736 8 111533215.89808     -2469.305 8        48.825                                    21223991.680 8  86909184.07108     -1924.134 8        48.875    21223991.776 7  86909204.07307     -1924.065 7        44.548
S27        12.000    39325771.988 6 206658344.97306      -514.656 6        36.159
S36        14.000    38334417.434 7 201449251.94407      -540.713 7        43.907
G27        15.000    21950324.911 7 115350017.37307      2098.904 7        45.391                                    21950322.702 7  89883288.48707      1635.508 7        44.691    21950322.781 7  89883202.49307      1635.508 7        42.648
S45        17.000    63546584.952 6 333939671.70406      -593.744 6        37.198
G31        18.000    25485692.585 6 133928434.96606     -3880.751 6        39.054                                    25485693.327 4 104359953.33404     -3023.948 4        29.327    25485693.966 5 104359932.29005     -3023.977 5        35.771
G16        19.000    20661897.457 8 108579269.82908      -158.775 8        49.007                                    20661892.024 6  84607344.68206      -123.722 6        39.997
E21        20.000    23802078.423 8 125081148.50408      -727.349 8        48.913                                                                    23802077.581 8  93404972.79708      -543.159 8        50.739    23802077.394 8  95841598.73208      -557.348 8        51.629
E26        21.000    26329344.859 7 138361971.53007      2005.287 7        42.722                                                                    26329343.926 7 103322443.40907      1497.465 7        44.831    26329343.442 7 106017787.65407      1536.460 7        45.973
I06        22.000    38825954.222 6 152361600.90506      -367.373 6        41.354
S28        23.000    41036177.499 5 215646548.96005      -535.917 5        34.048
G08        24.000    24870905.766 6 130697497.43506      2802.580 6        37.161                                    24870903.805 4 101842204.26204      2183.823 4        25.744    24870905.219 5 101842205.26205      2183.779 5        33.784
S23        25.000    38288894.098 7 201209469.73407      -542.361 7        44.585
C13        26.000                                                                                                                                    37865743.535 7 197177066.50907      -920.677 7        44.746    37865744.557 7 152469927.27807      -711.831 7        45.261    37865743.067 7 160222605.72807      -748.035 7        43.259
G18        27.000    21142440.168 7 111104626.65107     -2145.749 7        47.418                                    21142436.451 6  86575207.11806     -1672.012 6        39.357    21142436.580 8  86575198.12608     -1672.088 8        48.012
I02        29.000    39355710.354 6 154440366.63406     -1038.356 6        40.524
C14        30.000                                                                                                                                    25568329.467 6 133141008.38406      2478.449 6        39.225    25568325.646 7 102953064.44407      1916.350 7        46.026    25568324.001 7 108187958.63307      2013.787 7        42.912
R02        31.000    22414041.915 7 119605672.10907       371.373 7        46.581                                                                    22414042.328 7  93026656.04707       288.826 7        42.593
E03        32.000    28899416.516 5 151867466.14005      1684.537 5        34.005                                                                    28899417.910 6 113407536.21806      1257.836 6        37.471    28899417.083 6 116365987.02406      1290.693 6        38.420
R17        33.000    22557035.904 7 120707616.26707     -3866.660 7        46.687                                                                    22557034.663 7  93883868.13207     -3007.355 7        42.178
R03        34.000    23235688.044 7 124382464.42207      3119.002 7        42.186                                                                    23235687.540 7  96741934.38607      2425.837 7        42.487
R10        35.000    23479642.317 6 125159751.03106      3267.572 6        38.366
R18        36.000    19707070.280 8 105198087.26208     -1824.870 8        51.406                                                                    19707070.027 8  81820941.03308     -1419.314 8        48.244
E27        37.000    25676198.533 7 134929563.59507     -3214.432 7        44.647                                                                    25676198.814 7 100759240.21607     -2400.379 7        47.509    25676198.250 7 103387722.46607     -2462.997 7        47.739
R16        38.000    20616442.433 8 110129447.11008     -3640.238 8        51.962                                                                    20616442.332 7  85656290.61007     -2831.283 7        47.234
R09        40.000    20512521.624 8 109535791.73408       711.695 8        50.607                                                                    20512520.202 8  85194529.86108       553.551 8        48.311
C34        41.000                                                                                                                                    25062250.563 7 130506049.76307     -3232.517 7        43.137                                                                    25062250.572 7 106046994.03907     -2626.618 7        43.009
S44        42.000    40617529.403 6 213446719.80006      -503.925 6        37.259
C38        43.000                                                                                                                                    39351491.928 7 204913703.47307     -1516.284 7        43.105                                                                    39351489.158 6 166509232.53506     -1232.122 6        41.847
C05        44.000                                                                                                                                    39424275.960 6 205292572.64006      -469.886 6        38.532    39424271.155 7 158745260.80007      -363.331 7        43.335    39424272.478 6 166817132.54406      -381.929 6        39.583
C08        45.000                                                                                                                                    38077090.884 6 198277595.63806     -1197.706 6        41.659    38077083.777 7 153320890.55607      -926.139 7        45.607    38077083.268 6 161116840.13706      -973.192 6        41.948
C21        46.000                                                                                                                                    25427323.268 7 132406751.62007      -919.502 7        42.463                                                                    25427317.551 7 107591307.36607      -747.132 7        43.784
R19        47.000    20226307.266 6 108197470.55606       988.293 6        41.430                                                                    20226306.588 7  84153755.31807       768.682 7        45.576
C43        48.000                                                                                                                                    22012879.685 8 114627166.70108     -1643.339 8        50.746                                                                    22012878.008 8  93144089.12808     -1335.302 8        49.538
C42        50.000                                                                                                                                    24813472.031 7 129210296.64407      1578.125 7        43.769                                                                    24813480.352 7 104993996.19707      1282.362 7        45.362
S48        51.000    77301489.130 6 406222238.98906      -580.692 6        38.054
R01        52.000    23830201.662 6 127386114.29806     -2984.392 6        37.350                                                                    23830203.088 5  99078078.55205     -2321.264 5        34.048
C37        53.000                                                                                                                                    23712882.319 7 123479229.07507      -792.335 7        47.046                                                                    23712885.166 8 100337012.32008      -643.735 8        48.229
C60        54.000                                                                                                                                    40617526.848 6 211506314.46306      -499.220 6        40.148                                                                    40617510.917 6 171866173.61406      -405.486 6        39.988
C23        56.000                                                                                                                                    24398318.810 7 127048794.58607     -3365.134 7        46.207                                                                    24398311.155 7 103237661.57107     -2734.469 7        46.507
C02        57.000                                                                                                                                    40762068.085 5 212258822.56105      -458.931 5        34.467    40762061.599 6 164131977.62906      -354.804 6        38.486    40762065.167 6 172477681.72606      -372.789 6        36.174
I03        58.000   112052437.154 6 363932577.16406      1044.787 6        40.079
C11        59.000                                                                                                                                    23247712.272 7 121057253.02607     -2604.135 7        45.633    23247708.645 8  93609299.49208     -2013.692 8        49.715    23247707.571 7  98369045.10607     -2116.035 7        46.826
C28        60.000                                                                                                                                    23092245.084 7 120247695.04907      1449.712 7        47.987                                                                    23092244.290 7  97711237.66607      1177.985 7        46.922
> 2025 01 01 18 45  5.0000000  0 55
G10         1.000    23963757.584 6 125930475.44806      3006.113 6        41.843                                    23963757.277 6  98127699.19906      2342.423 6        37.335    23963757.580 6  98127676.21606      2342.265 6        39.180
G15         2.000    24545599.630 6 128988017.40706      1570.184 6        38.544                                    24545595.850 4 100510134.84704      1223.516 4        29.554    24545596.574 5 100510137.87105      1223.401 5        35.733
G05         3.000    25105202.737 6 131928854.90706     -3870.974 6        37.701                                    25105200.316 4 102801758.56904     -3016.349 4        28.142    25105199.936 5 102801757.57505     -3016.355 5        35.552
G29         4.000    24099606.960 6 126644646.94306     -3614.893 6        41.058                                    24099603.706 5  98684303.77205     -2816.801 5        35.476    24099603.684 6  98684306.77506     -2816.782 6        38.222
S21         5.000    38564212.490 7 202656072.25207      -541.633 7        42.190
E13         6.000    23391970.802 8 122925985.46008      -117.683 8        48.462                                                                    23391970.939 8  91795586.73708       -87.852 8        50.985    23391970.464 8  94190223.70408       -90.167 8        51.348
G23         7.000    21644633.530 7 113743433.82807      1529.126 7        47.030                                    21644629.999 6  88631282.99006      1191.527 6        36.635    21644629.583 7  88631282.00207      1191.497 7        45.881
E15         8.000    25137594.503 7 132099277.30807     -2658.490 7        44.783                                                                    25137594.689 7  98645736.69307     -1985.234 7        47.976    25137594.442 8 101219079.60708     -2037.039 8        48.724
E05         9.000    27187214.604 5 142869770.15305        -4.296 5        35.238                                                                    27187217.016 6 106688469.11906        -3.347 6        40.026    27187216.369 6 109471648.52906        -3.412 6        40.698
G07        10.000    25784014.849 6 135495936.46806      1159.437 6        38.793                                    25784011.698 5 105581237.89805       903.451 5        30.008    25784011.940 6 105581241.91406       903.267 6        36.658
G26        11.000    21226343.317 8 111545568.96808     -2471.922 8        48.697                                    21226342.403 8  86918809.83708     -1926.171 8        48.769    21226342.601 7  86918829.84107     -1926.240 7        44.798
S27        12.000    39326263.079 6 206660917.53806      -514.411 6        36.231
R15        13.000                                                                                                                                    24375533.439 3                     -4027.978 3        22.267
S36        14.000    38334933.450 7 201451954.93907      -540.646 7        43.994
G27        15.000    21948328.779 7 115339526.33707      2097.589 7        45.533                                    21948326.302 7  89875113.66507      1634.484 7        44.594    21948326.704 7  89875027.67107      1634.401 7        42.897
S45        17.000    63547097.816 6 333942640.79006      -593.811 6        36.915
G31        18.000    25489385.409 6 133947838.33506     -3880.498 6        38.907                                    25489385.788 4 104375072.76904     -3023.747 4        29.166    25489386.517 5 104375051.74405     -3023.958 5        35.729
G16        19.000    20662049.782 8 108580071.82008      -162.098 8        48.666                                    20662044.641 6  84607969.60606      -126.312 6        39.904
E21        20.000    23802771.555 8 125084790.91608      -729.569 8        48.768                                                                    23802770.718 8  93407692.77608      -544.842 8        50.773    23802770.527 8  95844389.66608      -559.022 8        51.541
E26        21.000    26327437.219 7 138351947.85107      2004.260 7        42.576                                                                    26327436.401 7 103314958.19507      1496.743 7        44.880    26327435.938 7 106010107.17307      1535.745 7        45.795
I06        22.000    38826422.101 6 152363437.49206      -367.295 6        41.621
S28        23.000    41036684.769 5 215649228.04605      -536.057 5        33.677
G08        24.000    24868239.318 6 130683484.04006      2802.767 6        36.960                                    24868237.001 4 101831284.72204      2183.975 4        25.624    24868237.709 5 101831285.72605      2183.748 5        32.982
S23        25.000    38289409.229 7 201212181.39707      -542.338 7        44.539
C13        26.000                                                                                                                                    37866627.760 7 197181671.53907      -921.440 7        44.844    37866628.856 7 152473488.18507      -712.457 7        45.317    37866627.386 7 160226347.70807      -748.721 7        43.217
G18        27.000    21144483.070 7 111115360.92307     -2147.957 7        47.572                                    21144479.137 6  86583571.48006     -1673.732 6        39.246    21144479.103 7  86583562.48807     -1673.708 7        47.998
I02        29.000    39357033.202 6 154445558.40206     -1038.345 6        40.558
C14        30.000                                                                                                                                    25565949.466 6 133128619.13606      2477.370 6        39.234    25565946.419 7 102943484.29107      1915.761 7        45.919    25565944.665 7 108177891.36807      2013.158 7        42.574
R02        31.000    22413697.086 7 119603825.96907       367.144 7        46.545                                                                    22413696.281 7  93025220.15107       285.553 7        42.864
E03        32.000    28897814.682 5 151859046.56405      1683.492 5        34.071                                                                    28897815.411 6 113401248.93006      1256.909 6        37.327    28897814.988 6 116359535.70006      1289.876 6        38.607
R17        33.000    22560648.749 7 120726950.63007     -3867.116 7        46.282                                                                    22560648.431 7  93898905.97407     -3007.815 7        43.010
R03        34.000    23232773.879 6 124366873.29506      3117.310 6        41.497                                                                    23232774.667 7  96729807.97307      2424.665 7        42.425
R10        35.000    23476578.900 6 125143417.72106      3265.708 6        38.513
R18        36.000    19708780.877 8 105207216.82808     -1826.962 8        51.407                                                                    19708780.116 8  81828041.79808     -1420.941 8        48.292
E27        37.000    25679257.623 7 134945639.01107     -3215.681 7        44.396                                                                    25679257.897 7 100771244.57707     -2401.360 7        47.638    25679257.227 7 103400039.98407     -2463.948 7        47.647
R16        38.000    20619851.133 8 110147656.84008     -3643.600 8        52.128                                                                    20619851.166 7  85670453.73307     -2833.941 7        47.045
R09        40.000    20511857.059 8 109532244.16908       707.366 8        50.306                                                                    20511855.467 8  85191770.64908       550.100 8        48.061
C34        41.000                                                                                                                                    25065354.760 7 130522212.77307     -3232.719 7        43.120                                                                    25065354.639 7 106060127.82807     -2626.943 7        42.830
S44        42.000    40618003.865 6 213449238.97906      -503.936 6        37.059
C38        43.000                                                                                                                                    39352948.167 7 204921286.31407     -1516.859 7        42.959                                                                    39352945.453 6 166515394.24106     -1232.636 6        41.886
C05        44.000                                                                                                                                    39424727.084 6 205294922.15406      -469.933 6        38.649    39424722.453 7 158747077.59407      -363.320 7        43.333    39424723.629 6 166819041.72706      -381.821 6        39.592
C08        45.000                                                                                                                                    38078241.065 6 198283586.07206     -1198.512 6        41.645    38078234.272 7 153325522.74107      -926.716 7        45.705    38078233.666 6 161121707.86406      -973.845 6        41.785
C21        46.000                                                                                                                                    25428207.505 7 132411356.06407      -922.337 7        42.612                                                                    25428201.811 7 107595048.87407      -749.522 7        43.672
R19        47.000    20225383.842 6 108192535.23906       985.848 6        41.540                                                                    20225383.602 7  84149916.74607       766.764 7        44.918
C43        48.000                                                                                                                                    22014458.387 8 114635386.83708     -1644.683 8        50.629                                                                    22014456.585 8  93150768.67508     -1336.506 8        49.443
C42        50.000                                                                                                                                    24811957.541 7 129202411.06207      1576.022 7        43.433                                                                    24811966.039 7 104987588.52507      1280.756 7        45.302
S48        51.000    77302011.537 6 406225143.24606      -580.886 6        38.093
R01        52.000    23832994.193 6 127401044.91306     -2987.792 6        38.393                                                                    23832995.316 5  99089691.27305     -2324.088 5        34.662
C37        53.000                                                                                                                                    23713644.510 7 123483197.67607      -795.146 7        47.268                                                                    23713647.276 8 100340237.14108      -646.077 8        48.114
C60        54.000                                                                                                                                    40618006.005 6 211508810.73006      -499.087 6        39.946                                                                    40617990.320 6 171868202.06606      -405.700 6        40.000
C23        56.000                                                                                                                                    24401550.938 7 127065623.76207     -3366.565 7        45.755                                                                    24401542.974 7 103251336.64807     -2735.610 7        46.387
C02        57.000                                                                                                                                    40762508.026 5 212261117.52405      -458.862 5        34.414    40762501.660 6 164133752.26106      -355.034 6        38.610    40762505.899 6 172479546.58506      -372.827 6        36.147
I03        58.000   112051105.994 6 363927353.07206      1044.905 6        40.184
C11        59.000                                                                                                                                    23250213.210 7 121070275.86907     -2605.006 7        45.633    23250209.732 8  93619369.58408     -2014.306 8        49.791    23250208.486 7  98379627.24007     -2116.752 7        46.775
C28        60.000                                                                                                                                    23090853.916 7 120240449.13207      1448.652 7        47.923                                                                    23090852.747 7  97705349.78207      1177.094 7        46.772
> 2025 01 01 18 45 10.0000000  0 55
G10         1.000    23960898.019 6 125915447.23606      3005.389 6        41.609                                    23960897.339 6  98115988.91806      2341.858 6        36.919    23960897.532 6  98115965.93406      2341.906 6        39.303
G15         2.000    24544107.279 6 128980173.09606      1567.987 6        37.784                                    24544103.156 4 100504022.42404      1221.798 4        29.062    24544103.738 5 100504025.40205      1222.117 5        35.900
G05         3.000    25108886.543 6 131948214.10206     -3872.491 6        37.807                                    25108884.321 4 102816843.64304     -3017.524 4        28.199    25108884.549 5 102816842.62905     -3017.316 5        35.471
G29         4.000    24103047.231 6 126662723.57706     -3615.442 6        41.480                                    24103043.551 5  98698389.45705     -2817.229 5        35.410    24103044.070 6  98698392.45806     -2817.231 6        38.132
S21         5.000    38564729.056 7 202658781.06707      -541.590 7        42.009
E13         6.000    23392083.603 8 122926578.61608      -119.364 8        48.404                                                                    23392083.779 8  91796029.68008       -89.106 8        51.052    23392083.393 8  94190678.19708       -91.408 8        51.265
G23         7.000    21643180.117 7 113735795.79607      1526.413 7        47.442                                    21643176.463 6  88625331.28106      1189.413 6        36.552    21643176.150 7  88625330.28007      1189.431 7        45.114
E15         8.000    25140124.565 7 132112572.35407     -2659.213 7        44.971                                                                    25140124.652 8  98655664.80708     -1985.812 8        48.127    25140124.450 8 101229266.71408     -2037.596 8        48.638
E05         9.000    27187219.532 5 142869797.64505        -6.458 5        35.676                                                                    27187222.132 6 106688489.70506        -4.726 6        40.589    27187221.547 6 109471669.64906        -5.013 6        41.201
G07        10.000    25782913.215 6 135490145.74306      1157.358 6        38.742                                    25782909.649 4 105576725.68704       901.826 4        29.972    25782909.526 6 105576729.72806       901.474 6        36.904
G26        11.000    21228696.963 8 111557936.02908     -2474.561 8        48.670                                    21228695.787 8  86928446.50608     -1928.229 8        48.677    21228695.698 7  86928466.50507     -1928.240 7        44.844
S27        12.000    39326752.440 6 206663491.33706      -514.678 6        36.087
R15        13.000                                                                                                                                    24380376.148 3                     -4026.048 3        22.057
S36        14.000    38335447.038 7 201454658.97807      -540.561 7        43.609
G27        15.000    21946333.750 7 115329042.25807      2096.359 7        45.111                                    21946331.238 7  89866944.25807      1633.526 7        44.543    21946331.696 7  89866858.26107      1633.547 7        42.980
S45        17.000    63547612.289 6 333945610.39206      -593.567 6        36.922
G31        18.000    25493077.038 6 133967240.80606     -3880.144 6        39.453                                    25493078.127 4 104390191.49804     -3023.472 4        29.355    25493078.311 6 104390170.44506     -3023.369 6        36.756
G16        19.000    20662205.757 8 108580890.92408      -165.287 8        48.695                                    20662200.517 6  84608607.87206      -128.799 6        39.790
E21        20.000    23803466.732 8 125088444.86308      -731.730 8        48.806                                                                    23803466.091 8  93410421.37408      -546.404 8        50.854    23803465.856 8  95847189.44608      -560.659 8        51.424
E26        21.000    26325530.755 7 138341929.32907      2003.389 7        42.336                                                                    26325529.880 7 103307476.84807      1496.076 7        45.002    26325529.377 7 106002430.65807      1535.117 7        45.759
I06        22.000    38826890.094 6 152365274.25606      -367.221 6        41.633
S28        23.000    41037193.864 5 215651907.81805      -535.796 5        33.940
G08        24.000    24865573.048 6 130669471.83806      2802.531 6        36.760                                    24865570.488 4 101820366.12104      2183.796 4        25.383    24865572.168 5 101820367.12105      2183.714 5        32.713
S23        25.000    38289926.949 7 201214893.47907      -542.263 7        44.543
C13        26.000                                                                                                                                    37867513.249 7 197186280.87407      -922.101 7        44.626    37867514.109 7 152477052.42807      -712.973 7        45.142    37867512.576 7 160230093.18007      -749.456 7        43.414
G18        27.000    21146527.703 7 111126106.03307     -2149.866 7        47.594                                    21146523.849 6  86591944.29306     -1675.222 6        39.150    21146524.151 8  86591935.29208     -1675.144 8        48.242
I02        29.000    39358356.346 6 154450750.94706     -1038.510 6        40.641
C14        30.000                                                                                                                                    25563570.397 6 133116234.41306      2476.801 6        39.006    25563567.657 7 102933907.64607      1915.147 7        45.952    25563566.238 7 108167827.77107      2012.434 7        42.563
R02        31.000    22413354.946 7 119602001.43007       362.997 7        46.577                                                                    22413355.038 7  93023801.07607       282.384 7        42.552
E03        32.000    28896214.148 5 151850632.75705      1682.501 5        34.419                                                                    28896213.906 6 113394965.90906      1256.428 6        37.316    28896213.790 6 116353088.76806      1289.288 6        38.766
R17        33.000    22564262.071 7 120746287.35407     -3867.230 7        46.042                                                                    22564261.839 7  93913945.66207     -3007.953 7        43.355
R03        34.000    23229863.546 6 124351290.52906      3115.974 6        41.578                                                                    23229863.810 7  96717688.06007      2423.562 7        42.286
R10        35.000    23473516.778 6 125127094.73006      3263.746 6        38.039
R18        36.000    19710493.095 8 105216357.21908     -1828.945 8        51.531                                                                    19710492.554 8  81835151.00008     -1422.542 8        48.477
E27        37.000    25682317.721 7 134961720.86907     -3216.804 7        44.439                                                                    25682318.238 7 100783253.74707     -2402.141 7        47.828    25682317.501 7 103412362.44107     -2464.785 7        47.541
R16        38.000    20623263.522 8 110165883.81208     -3646.825 8        52.083                                                                    20623263.553 7  85684630.25607     -2836.389 7        47.622
R09        40.000    20511196.614 8 109528718.87908       703.102 8        50.324                                                                    20511195.154 7  85189028.74907       546.861 7        47.678
C34        41.000                                                                                                                                    25068459.195 7 130538377.90407     -3232.959 7        43.007                                                                    25068458.905 7 106073263.31007     -2627.227 7        43.081
S44        42.000    40618489.384 6 213451758.78106      -503.819 6        36.866
C38        43.000                                                                                                                                    39354404.948 7 204928872.27307     -1517.196 7        42.663                                                                    39354402.297 6 166521558.47106     -1232.927 6        41.948
C05        44.000                                                                                                                                    39425178.436 6 205297272.12006      -469.665 6        38.583    39425173.604 7 158748894.74907      -363.292 7        43.371    39425174.994 6 166820951.28506      -381.918 6        39.961
C08        45.000                                                                                                                                    38079392.065 6 198289580.83306     -1199.227 6        41.502    38079385.423 7 153330158.26407      -927.253 7        45.618    38079384.872 7 161126579.09607      -974.461 7        42.057
C21        46.000                                                                                                                                    25429094.687 7 132415975.28407      -925.131 7        42.887                                                                    25429088.995 7 107598802.35807      -751.807 7        43.772
R19        47.000    20224463.660 6 108187611.88506       983.712 6        41.785                                                                    20224463.166 7  84146087.45307       765.163 7        45.067
C43        48.000                                                                                                                                    22016038.206 8 114643614.19308     -1645.957 8        50.380                                                                    22016036.522 8  93157454.07908     -1337.619 8        49.680
C42        50.000                                                                                                                                    24810445.277 7 129194535.83007      1574.190 7        43.259                                                                    24810453.623 7 104981189.25607      1279.127 7        45.455
S48        51.000    77302535.638 6 406228047.98206      -580.857 6        38.189
R01        52.000    23835791.953 6 127415993.02106     -2991.080 6        37.974                                                                    23835792.608 5  99101317.53905     -2326.571 5        35.005
C37        53.000                                                                                                                                    23714409.357 7 123487180.91807      -797.870 7        47.099                                                                    23714412.297 8 100343473.86108      -648.512 8        48.398
C60        54.000                                                                                                                                    40618485.931 6 211511307.62706      -499.152 6        40.060                                                                    40618469.861 6 171870231.00006      -405.750 6        40.167
C23        56.000                                                                                                                                    24404783.800 7 127082460.31707     -3367.866 7        45.843                                                                    24404776.256 7 103265017.72007     -2736.720 7        46.550
C02        57.000                                                                                                                                    40762948.950 5 212263412.98605      -459.113 5        34.224    40762942.531 6 164135527.25206      -354.762 6        38.610    40762946.573 6 172481411.82206      -372.943 6        36.359
I03        58.000   112049774.605 6 363922129.43706      1044.991 6        40.250
C11        59.000                                                                                                                                    23252715.022 7 121083303.29607     -2605.679 7        45.619    23252711.594 8  93629443.21608     -2014.808 8        49.839    23252710.267 7  98390213.09207     -2117.434 7        46.974
C28        60.000                                                                                                                                    23089463.693 7 120233209.09007      1447.694 7        47.833                                                                    23089462.403 7  97699466.65807      1176.222 7        46.954
> 2025 01 01 18 45 15.0000000  0 55
G10         1.000    23958039.161 7 125900422.31807      3004.727 7        42.106                                    23958038.139 6  98104281.20506      2341.341 6        37.081    23958038.519 6  98104258.21706      2341.260 6        40.055
G15         2.000    24542616.014 6 128972339.52606      1565.389 6        38.447                                    24542612.464 4 100497918.36704      1219.774 4        29.213    24542612.816 6 100497921.37806      1219.994 6        36.064
G05         3.000    25112572.452 6 131967580.63706     -3874.044 6        37.898                                    25112569.711 4 102831934.43204     -3018.733 4        28.322    25112568.958 5 102831933.45005     -3018.861 5        35.338
G29         4.000    24106487.895 6 126680803.37306     -3616.447 6        41.235                                    24106484.053 5  98712477.60705     -2818.012 5        35.667    24106484.437 6  98712480.60506     -2818.015 6        38.354
S21         5.000    38565242.854 7 202661489.78607      -541.887 7        42.083
E13         6.000    23392198.282 8 122927180.22308      -121.200 8        48.668                                                                    23392198.286 8  91796478.93308       -90.486 8        51.208    23392197.836 8  94191139.17108       -92.835 8        51.267
G23         7.000    21641729.135 7 113728171.11207      1523.617 7        47.513                                    21641725.399 6  88619389.97506      1187.232 6        36.612    21641725.585 7  88619388.97607      1187.247 7        44.760
E15         8.000    25142655.327 7 132125871.51607     -2660.186 7        45.348                                                                    25142655.392 8  98665596.00108     -1986.556 8        48.195    25142655.177 8 101239456.98508     -2038.382 8        48.676
E05         9.000    27187227.196 5 142869836.05005        -8.677 5        35.781                                                                    27187229.344 6 106688518.44106        -6.654 6        40.167    27187228.823 6 109471699.11106        -6.716 6        40.791
G07        10.000    25781813.181 6 135484366.29106      1154.722 6        38.222                                    25781809.759 4 105572222.28704       899.766 4        29.649    25781809.438 6 105572226.31006       899.618 6        36.193
G26        11.000    21231052.948 8 111570316.26608     -2477.391 8        48.589                                    21231051.688 8  86938093.44008     -1930.434 8        48.757    21231052.157 7  86938113.44407     -1930.489 7        45.083
S27        12.000    39327241.819 6 206666065.15106      -514.806 6        36.181
R15        13.000                                                                                                                                    24385213.648 3                     -4026.581 3        22.609
S36        14.000    38335961.472 7 201457362.02207      -540.393 7        43.909
G27        15.000    21944339.462 7 115318564.36007      2094.915 7        45.133                                    21944337.359 7  89858779.66007      1632.401 7        44.591    21944337.945 7  89858693.67107      1632.404 7        42.464
S45        17.000    63548130.336 6 333948579.58706      -593.785 6        37.070
G31        18.000    25496769.278 6 133986641.50306     -3879.877 6        39.721                                    25496770.238 4 104405308.83904     -3023.271 4        29.763    25496770.234 6 104405287.81906     -3023.304 6        36.476
G16        19.000    20662364.867 8 108581726.35408      -168.774 8        48.757                                    20662359.497 6  84609258.85606      -131.513 6        39.916
E21        20.000    23804164.280 8 125092109.55508      -734.053 8        49.075                                                                    23804163.412 8  93413157.98908      -548.102 8        50.965    23804163.189 8  95849997.45008      -562.413 8        51.469
E26        21.000    26323625.154 7 138331915.18607      2002.366 7        42.726                                                                    26323624.094 7 103299998.75907      1495.328 7        45.067    26323623.802 7 105994757.49607      1534.238 7        45.782
I06        22.000    38827358.286 6 152367110.60806      -367.239 6        41.571
S28        23.000    41037708.552 5 215654587.30905      -535.691 5        34.062
G08        24.000    24862905.702 6 130655460.07706      2802.064 6        37.539                                    24862904.198 4 101809447.85404      2183.435 4        25.970    24862905.837 5 101809448.86105      2183.559 5        33.641
S23        25.000    38290442.961 7 201217605.00807      -542.322 7        44.549
C13        26.000                                                                                                                                    37868399.017 7 197190893.77307      -922.961 7        44.701    37868400.171 7 152480619.41707      -713.707 7        45.156    37868398.388 7 160233841.52507      -749.967 7        43.401
G18        27.000    21148574.231 7 111136861.17207     -2151.971 7        47.613                                    21148570.489 6  86600324.91706     -1676.862 6        39.204    21148570.840 8  86600315.92208     -1676.886 8        48.328
I02        29.000    39359679.685 6 154455943.56606     -1038.641 6        40.634
C14        30.000                                                                                                                                    25561193.464 6 133103853.43006      2475.847 6        38.922    25561190.220 7 102924333.89707      1914.407 7        45.780    25561188.535 7 108157767.20207      2011.888 7        42.707
R02        31.000    22413016.474 7 119600197.67807       358.724 7        46.232                                                                    22413016.376 7  93022398.15707       279.141 7        42.345
E03        32.000    28894612.872 5 151842223.87005      1681.415 5        34.590                                                                    28894613.674 6 113388686.57606      1255.505 6        37.214    28894613.660 6 116346645.64306      1288.118 6        38.892
R17        33.000    22567875.734 7 120765625.69407     -3867.894 7        46.097                                                                    22567875.253 7  93928986.58607     -3008.363 7        42.887
R03        34.000    23226953.024 6 124335715.19606      3114.229 6        41.979                                                                    23226953.865 7  96705573.93507      2422.407 7        42.489
R10        35.000    23470455.961 6 125110781.32506      3261.465 6        38.018
R18        36.000    19712207.016 8 105225507.61108     -1831.096 8        51.283                                                                    19712206.847 8  81842267.96608     -1424.175 8        48.504
E27        37.000    25685378.966 7 134977808.36807     -3218.094 7        44.327                                                                    25685379.500 7 100795267.13907     -2403.070 7        47.940    25685378.902 7 103424689.22407     -2465.740 7        47.634
R16        38.000    20626678.464 8 110184127.00908     -3650.279 8        51.913                                                                    20626678.458 7  85698819.40707     -2839.104 7        47.464
R09        40.000    20510540.521 8 109525214.91008       698.622 8        50.100                                                                    20510539.440 8  85186303.45008       543.324 8        48.221
C34        41.000                                                                                                                                    25071563.479 7 130554544.31607     -3233.358 7        43.306                                                                    25071563.390 7 106086399.83807     -2627.362 7        43.088
S44        42.000    40618966.493 6 213454278.41806      -503.936 6        37.429
C38        43.000                                                                                                                                    39355862.118 7 204936460.55507     -1517.949 7        42.516                                                                    39355859.479 7 166527724.57407     -1233.501 7        42.150
C05        44.000                                                                                                                                    39425629.766 6 205299621.80206      -469.829 6        38.459    39425625.149 7 158750711.66807      -363.430 7        43.187    39425626.195 6 166822860.57606      -381.825 6        39.916
C08        45.000                                                                                                                                    38080543.977 6 198295579.08506     -1200.131 6        41.559    38080537.235 7 153334796.48807      -927.896 7        45.238    38080536.742 7 161131453.15407      -975.151 7        42.066
C21        46.000                                                                                                                                    25429984.362 7 132420608.51807      -928.012 7        42.303                                                                    25429978.713 7 107602567.23007      -754.228 7        43.930
R19        47.000    20223546.558 6 108182699.69206       981.286 6        41.866                                                                    20223544.729 7  84142266.85707       763.261 7        44.930
C43        48.000                                                                                                                                    22017619.304 8 114651847.97008     -1647.449 8        50.381                                                                    22017617.760 8  93164144.68808     -1338.682 8        49.696
C42        50.000                                                                                                                                    24808934.571 7 129186670.16107      1572.101 7        42.815                                                                    24808943.034 7 104974797.76007      1277.447 7        45.511
S48        51.000    77303059.649 6 406230952.61906      -580.864 6        38.135
R01        52.000    23838591.063 6 127430957.87706     -2994.646 6        38.426                                                                    23838594.243 5  99112956.89705     -2329.282 5        35.052
C37        53.000                                                                                                                                    23715176.801 7 123491178.02307      -800.796 7        47.025                                                                    23715179.841 8 100346721.82208      -650.800 8        48.349
C60        54.000                                                                                                                                    40618965.177 6 211513804.36306      -499.404 6        40.057                                                                    40618949.385 6 171872259.78506      -405.877 6        40.141
C23        56.000                                                                                                                                    24408018.769 7 127099303.43207     -3369.231 7        46.295                                                                    24408010.818 7 103278704.13807     -2737.895 7        46.538
C02        57.000                                                                                                                                    40763389.731 5 212265708.26305      -459.178 5        34.248    40763383.057 6 164137302.08706      -354.780 6        38.459    40763387.654 6 172483276.93206      -372.871 6        36.110
I03        58.000   112048443.566 6 363916905.64806      1044.681 6        40.222
C11        59.000                                                                                                                                    23255217.561 7 121096334.49607     -2606.572 7        45.714    23255214.074 8  93639519.76308     -2015.551 8        49.771    23255212.756 7  98400802.00207     -2118.123 7        47.003
C28        60.000                                                                                                                                    23088074.165 7 120225974.13607      1446.435 7        47.781                                                                    23088073.039 7  97693587.65207      1175.303 7        47.032
> 2025 01 01 18 45 20.0000000  0 54
G10         1.000    23955180.889 7 125885401.26007      3003.897 7        42.709                                    23955179.819 6  98092576.49306      2340.700 6        37.546    23955180.351 6  98092553.50806      2340.646 6        39.862
G15         2.000    24541128.251 6 128964517.21706      1563.384 6        38.556                                    24541123.991 4 100491823.09804      1218.214 4        29.431    24541124.656 6 100491826.09906      1218.205 6        36.507
G05         3.000    25116258.875 6 131986955.10806     -3875.573 6        37.611                                    25116256.618 4 102847031.40104     -3019.924 4        28.180    25116257.177 5 102847030.38205     -3020.002 5        35.676
G29         4.000    24109928.913 6 126698886.83706     -3616.903 6        41.154                                    24109925.320 5  98726568.60805     -2818.362 5        35.781    24109925.730 6  98726571.60906     -2818.405 6        38.643
S21         5.000    38565759.403 7 202664198.58007      -541.628 7        42.171
E13         6.000    23392314.480 8 122927790.83308      -122.906 8        48.762                                                                    23392314.517 8  91796934.91208       -91.799 8        51.125    23392314.028 8  94191607.04308       -94.208 8        51.128
G23         7.000    21640280.631 7 113720560.32007      1520.835 7        47.668                                    21640276.978 6  88613459.49106      1185.068 6        36.567    21640277.398 7  88613458.49807      1185.006 7        44.996
E15         8.000    25145186.827 7 132139175.30807     -2661.092 7        45.520                                                                    25145187.029 8  98675530.64308     -1987.236 8        48.230    25145186.819 8 101249650.79508     -2039.123 8        48.577
E05         9.000    27187236.470 5 142869886.04305       -11.080 5        35.867                                                                    27187238.824 6 106688555.81106        -8.205 6        40.448    27187238.441 6 109471737.47006        -8.577 6        40.963
G07        10.000    25780715.547 6 135478598.40606      1152.502 6        39.435                                    25780712.066 5 105567727.85305       898.057 5        30.196    25780712.364 6 105567731.84606       898.018 6        36.253
G26        11.000    21233411.232 8 111582710.21808     -2480.113 8        48.589                                    21233410.192 8  86947751.06208     -1932.554 8        48.736    21233410.449 7  86947771.05707     -1932.508 7        45.249
S27        12.000    39327729.172 5 206668638.93705      -515.182 5        35.914
S36        14.000    38336476.808 7 201460064.97907      -540.517 7        43.918
G27        15.000    21942347.148 7 115308093.20207      2093.633 7        45.267                                    21942344.769 7  89850620.32207      1631.400 7        44.587    21942345.233 7  89850534.32807      1631.333 7        42.529
S45        17.000    63548646.795 6 333951548.85406      -593.734 6        37.301
G31        18.000    25500461.123 6 134006040.88206     -3879.588 6        39.976                                    25500462.023 5 104420425.15905     -3023.033 5        30.023    25500461.961 6 104420404.13806     -3022.915 6        36.064
G16        19.000    20662527.082 8 108582578.67408      -172.097 8        48.895                                    20662521.678 6  84609923.00206      -134.103 6        39.937
E21        20.000    23804863.667 8 125095785.51208      -736.242 8        49.225                                                                    23804862.914 8  93415903.01808      -549.813 8        50.972    23804862.741 8  95852814.09308      -564.210 8        51.344
E26        21.000    26321720.698 7 138321905.93907      2001.508 7        42.713                                                                    26321719.510 7 103292524.33207      1494.646 7        45.130    26321719.147 7 105987088.07707      1533.573 7        45.723
I06        22.000    38827826.294 6 152368946.90306      -367.356 6        41.673
S28        23.000    41038215.012 5 215657267.36105      -535.983 5        34.243
