     3.04           OBSERVATION DATA    M                   RINEX VERSION / TYPE
ssrcrin-15.6.1x                         20250101 160000 UTC PGM / RUN BY / DATE 
(00000000023479385599111004) Septentrio proprietary         COMMENT             
rref                                                        MARKER NAME         
01                                                          MARKER NUMBER       
geodetic                                                    MARKER TYPE         
NFB                 CLIMERS@TUW                             OBSERVER / AGENCY   
3297213             SEPT ASTERX SB3 PROB4.14.4              REC # / TYPE / VERS 
Unknown             Unknown                                 ANT # / TYPE        
  4127831.6511  1207193.7791  4695248.1938                  APPROX POSITION XYZ 
        0.0000        0.0000        0.0000                  ANTENNA: DELTA H/E/N
G   23 X1  C1C L1C D1C S1C C1W S1W C2W L2W D2W S2W C2L L2L  SYS / # / OBS TYPES 
       D2L S2L C5Q L5Q D5Q S5Q C1L L1L D1L S1L              SYS / # / OBS TYPES 
E   21 X1  C1C L1C D1C S1C C6C L6C D6C S6C C5Q L5Q D5Q S5Q  SYS / # / OBS TYPES 
       C7Q L7Q D7Q S7Q C8Q L8Q D8Q S8Q                      SYS / # / OBS TYPES 
S    9 X1  C1C L1C D1C S1C C5I L5I D5I S5I                  SYS / # / OBS TYPES 
R   17 X1  C1C L1C D1C S1C C2P L2P D2P S2P C2C L2C D2C S2C  SYS / # / OBS TYPES 
       C3Q L3Q D3Q S3Q                                      SYS / # / OBS TYPES 
C   25 X1  C1P L1P D1P S1P C5P L5P D5P S5P C2I L2I D2I S2I  SYS / # / OBS TYPES 
       C7I L7I D7I S7I C6I L6I D6I S6I C7D L7D D7D S7D      SYS / # / OBS TYPES 
J   17 X1  C1C L1C D1C S1C C2L L2L D2L S2L C5Q L5Q D5Q S5Q  SYS / # / OBS TYPES 
       C1L L1L D1L S1L                                      SYS / # / OBS TYPES 
I    5 X1  C5A L5A D5A S5A                                  SYS / # / OBS TYPES 
SEPTENTRIO RECEIVERS OUTPUT ALIGNED CARRIER PHASES.         COMMENT             
NO FURTHER PHASE SHIFT APPLIED IN THE RINEX ENCODER.        COMMENT             
G L1C                                                       SYS / PHASE SHIFT   
G L2W                                                       SYS / PHASE SHIFT   
G L2L  0.00000                                              SYS / PHASE SHIFT   
G L5Q  0.00000                                              SYS / PHASE SHIFT   
G L1L  0.00000                                              SYS / PHASE SHIFT   
E L1C  0.00000                                              SYS / PHASE SHIFT   
E L6C  0.00000                                              SYS / PHASE SHIFT   
E L5Q  0.00000                                              SYS / PHASE SHIFT   
E L7Q  0.00000                                              SYS / PHASE SHIFT   
E L8Q  0.00000                                              SYS / PHASE SHIFT   
S L1C                                                       SYS / PHASE SHIFT   
S L5I                                                       SYS / PHASE SHIFT   
R L1C                                                       SYS / PHASE SHIFT   
R L2P  0.00000                                              SYS / PHASE SHIFT   
R L2C                                                       SYS / PHASE SHIFT   
R L3Q  0.00000                                              SYS / PHASE SHIFT   
C L1P  0.00000                                              SYS / PHASE SHIFT   
C L5P  0.00000                                              SYS / PHASE SHIFT   
C L2I                                                       SYS / PHASE SHIFT   
C L7I                                                       SYS / PHASE SHIFT   
C L6I                                                       SYS / PHASE SHIFT   
C L7D                                                       SYS / PHASE SHIFT   
J L1C                                                       SYS / PHASE SHIFT   
J L2L  0.00000                                              SYS / PHASE SHIFT   
J L5Q  0.00000                                              SYS / PHASE SHIFT   
J L1L  0.00000                                              SYS / PHASE SHIFT   
I L5A                                                       SYS / PHASE SHIFT   
  2025     1     1    16     0    0.0000000     GPS         TIME OF FIRST OBS   
 C1C    0.000 C2C    0.000 C2P    0.000                     GLONASS COD/PHS/BIS 
DBHZ                                                        SIGNAL STRENGTH UNIT
    18                                                      LEAP SECONDS        
 24 R01  1 R02 -4 R03  5 R04  6 R05  1 R06 -4 R07  5 R08  6 GLONASS SLOT / FRQ #
    R09 -2 R10 -7 R11  0 R12 -1 R13 -2 R14 -7 R15  0 R16 -1 GLONASS SLOT / FRQ #
    R17  4 R18 -3 R19  3 R20  2 R21  4 R22 -3 R23  3 R24  2 GLONASS SLOT / FRQ #
                                                            END OF HEADER       
> 2025 01 01 16 00  0.0000000  0 55
G20         1.000    23556015.177 6 123787875.03806      -460.656 6        40.350                                    23556011.358 4  96458152.57104      -358.953 4        24.090
G25         2.000    20813637.065 8 109376572.40608     -2838.758 8        48.412                                    20813638.472 8  85228593.29508     -2212.023 8        48.581    20813638.892 7  85228603.30307     -2211.984 7        43.960
G05         3.000    23805769.950 6 125100242.99706      1769.551 6        41.642                                    23805769.662 6  97480751.26906      1378.867 6        36.321    23805769.829 6  97480750.27306      1378.906 6        38.087
G29         4.000    20307178.778 8 106715279.57508      -849.699 8        50.027                                    20307176.826 8  83154920.65408      -662.108 8        52.590    20307176.964 7  83154923.66407      -662.076 7        46.363
S21         5.000    38397731.836 7 201781054.20807      -595.173 7        42.927
E13         6.000    27138377.652 6 142613295.28506      2673.120 6        38.586                                                                    27138391.934 7 106497092.83407      1996.155 7        42.745    27138390.194 7 109275253.92307      2048.196 7        43.801
E19         7.000    27117474.192 5 142503235.47205     -2004.208 5        34.024                                                                    27117485.325 5 106414755.84505     -1496.642 5        35.900    27117483.727 6 109190794.70306     -1535.525 6        36.650
E15         8.000    24025575.013 7 126255520.83707      1007.016 7        47.663                                                                    24025579.399 8  94281876.28508       752.019 8        50.410    24025578.627 8  96741381.25808       771.580 8        50.949
G11         9.000    24280654.512 6 127595987.59006     -3745.617 6        40.055                                    24280651.735 4  99425575.09704     -2918.676 4        24.496    24280652.042 6  99425575.11606     -2918.698 6        38.931
E30        10.000    25121361.768 7 132013832.44507     -2496.507 7        45.729                                                                    25121365.018 8  98581879.31108     -1864.253 8        48.712    25121364.111 8 101153567.75308     -1912.977 8        49.202
G26        11.000    22680884.015 7 119189154.25807      2422.105 7        42.957                                    22680888.381 6  92874830.17306      1887.344 6        39.727    22680888.586 6  92874850.21106      1887.135 6        40.670
S27        12.000    39194017.329 6 205965876.91006      -587.705 6        36.688
R15        13.000    19090371.026 8 102013435.20108       -78.673 8        51.903                                                                    19090372.630 7  79343919.34507       -61.213 7        47.326
S36        14.000    38169903.882 7 200584614.99507      -594.759 7        44.650
G12        15.000    24190083.624 6 127119884.47706     -4024.853 6        41.228                                    24190084.960 5  99054529.55905     -3136.247 5        35.452    24190084.949 6  99054529.56506     -3136.313 6        37.664
E29        16.000    28096880.778 6 147649894.52106     -3220.344 6        37.040                                                                    28096903.181 6 110258005.83106     -2404.676 6        39.408    28096900.247 6 113134304.45106     -2467.384 6        40.017
S45        17.000    63377212.634 6 333051079.59906      -655.961 6        36.665
G31        18.000    21705017.917 7 114060881.96607       259.550 7        46.453                                    21705017.104 7  88878749.63407       202.242 7        44.886    21705017.715 7  88878728.64307       202.313 7        42.474
E21        20.000    26375404.096 6 138603972.18706      1821.507 6        41.933                                                                    26375410.954 7 103503156.74807      1360.161 7        44.561    26375409.871 7 106203216.88107      1395.650 7        45.488
R14        21.000    20874550.673 8 111273228.02708     -3808.553 8        50.967                                                                    20874554.430 7  86545929.13207     -2962.214 7        46.467
I06        22.000    38651394.953 6 151676473.46706      -488.370 6        41.013
S28        23.000    40876137.596 5 214805512.48405      -594.893 5        34.733
E34        24.000    24835200.825 7 130510149.81907     -1935.413 7        45.743                                                                    24835203.126 8  97459058.44908     -1445.312 8        48.657    24835202.394 8 100001449.25608     -1482.957 8        48.763
S23        25.000    38118853.787 7 200315821.11807      -598.697 7        45.099
C13        26.000                                                                                                                                    38735567.583 7 201706417.60907       922.828 7        42.629    38735571.211 7 155972296.51407       713.543 7        43.299    38735568.923 6 163903064.62906       749.901 6        41.769
G18        27.000    22789989.715 7 119762442.90407      2743.981 7        45.694                                    22789992.782 5  93321528.41705      2138.154 5        33.365    22789992.901 7  93321519.43307      2138.135 7        43.289
R24        28.000    20522804.195 8 109744979.89608     -3509.946 8        50.687                                                                    20522804.629 7  85357383.69007     -2729.918 7        45.789
I02        29.000    37829856.568 6 148452531.52006      -875.325 6        41.762
G28        30.000    21381901.321 7 112362804.96007     -1532.068 7        47.519                                    21381901.794 6  87555520.69406     -1193.819 6        37.698    21381901.999 7  87555517.69807     -1193.769 7        45.992
G04        31.000    25158030.489 6 132206348.05906        81.669 6        37.157                                    25158028.179 3 103017936.87803        63.690 3        19.881    25158029.076 6 103017944.78806        63.631 6        37.894
C12        32.000                                                                                                                                    22740747.195 7 118417287.02207     -2555.524 7        46.611    22740745.268 8  91567879.41508     -1976.056 8        50.382    22740744.420 8  96223833.27208     -2076.562 8        48.831
R17        33.000    19232375.664 8 102916646.62508       618.626 8        52.189                                                                    19232376.794 7  80046436.72507       481.183 7        46.943
R08        34.000    24343189.381 6 130356666.81606      1624.759 6        37.418                                                                    24343189.357 6 101388516.15806      1263.750 6        38.129
C24        35.000                                                                                                                                    25014999.961 7 130259677.68007     -3895.161 7        42.389                                                                    25015003.061 7 105846673.84707     -3165.225 7        43.460
R18        36.000    22103761.704 7 117991620.70707      3360.846 7        47.320                                                                    22103771.175 7  91771424.86307      2614.012 7        42.779
E27        37.000    23396560.917 8 122949960.87608      -131.754 8        48.349                                                                    23396563.189 8  91813425.07208       -98.339 8        51.085    23396562.720 8  94208539.15608      -100.956 8        51.702
R16        38.000    21958015.731 8 117295850.07608      3170.029 8        48.041                                                                    21958017.896 7  91230149.34607      2465.548 7        43.460
R07        40.000    23729120.337 7 127023842.20507     -1057.868 7        42.362                                                                    23729120.974 6  98796329.03106      -822.802 6        40.293
C34        41.000                                                                                                                                    21354371.192 8 111198116.58608      -955.020 8        51.075                                                                    21354372.618 8  90357710.08108      -776.043 8        49.370
S44        42.000    40565158.815 6 213171453.77006      -517.747 6        39.330
C38        43.000                                                                                                                                    38827441.927 7 202184816.15907       198.085 7        43.318                                                                    38827440.413 7 164291783.61007       160.937 7        43.145
C05        44.000                                                                                                                                    39373278.312 6 205026940.49106      -541.481 6        38.559    39373279.173 7 158539837.14007      -418.707 7        42.948    39373279.870 6 166601268.60306      -439.908 6        40.381
C08        45.000                                                                                                                                    38533072.821 6 200651974.26706       815.622 6        41.159    38533068.302 7 155156900.63107       630.782 7        44.539    38533067.289 7 163046209.17707       662.829 7        42.191
E04        46.000    28622661.011 5 150413086.78905       405.139 5        35.424                                                                    28622663.234 6 112321465.36306       302.610 6        40.555    28622662.739 6 115251588.60506       310.388 6        41.542
E36        47.000    28880151.035 4 151766411.17904     -3584.501 4        25.805                                                                    28880155.348 4 113332204.77204     -2676.493 4        27.545    28880154.465 4 116288676.65704     -2746.263 4        25.368
C43        48.000                                                                                                                                    22839582.829 8 118931939.58108      1699.717 8        48.918                                                                    22839585.322 7  96642051.65807      1381.129 7        47.576
C10        49.000                                                                                                                                    40749411.980 5 212192959.33205     -1263.304 5        35.971    40749410.493 6 164081091.99606      -976.790 6        38.919    40749408.036 5 172424180.12605     -1026.405 5        35.405
C44        50.000                                                                                                                                    24304408.175 7 126559539.51107     -3442.214 7        44.522                                                                    24304407.618 7 102840039.35207     -2797.155 7        43.727
S48        51.000    77117463.537 6 405255842.60106      -628.861 6        38.444
C60        54.000                                                                                                                                    40565158.183 6 211233550.19106      -513.026 6        41.204                                                                    40565146.116 6 171644515.95106      -416.832 6        39.832
C25        55.000                                                                                                                                    21704276.177 8 113020025.60608     -1894.186 8        51.760                                                                    21704276.537 8  91838100.68108     -1539.221 8        49.702
C23        56.000                                                                                                                                    23134347.164 8 120466919.37808      1274.433 8        48.820                                                                    23134341.770 8  97889339.67808      1035.519 8        49.264
C02        57.000                                                                                                                                    40761630.823 5 212256473.37505      -501.932 5        34.895    40761630.101 6 164130141.78806      -388.058 6        40.074    40761631.648 5 172475757.35605      -407.683 5        35.924
I03        58.000   115546827.254 6 377645210.69306       995.468 6        39.327
C11        59.000                                                                                                                                    21722968.970 8 113117464.64908       578.017 8        49.204    21722968.891 8  87469737.98408       446.949 8        51.945    21722967.013 8  91917305.86108       469.615 8        49.548
> 2025 01 01 16 00  5.0000000  0 55
G20         1.000    23556455.008 6 123790186.47106      -463.767 6        39.724                                    23556451.111 4  96459953.72104      -361.389 4        24.135
G25         2.000    20816339.045 7 109390771.89807     -2840.893 7        47.633                                    20816340.513 8  85239657.84408     -2213.683 8        48.594    20816341.292 7  85239667.85207     -2213.643 7        43.611
G05         3.000    23804088.111 7 125091400.93407      1767.422 7        42.356                                    23804086.937 6  97473861.37606      1377.210 6        36.488    23804087.631 6  97473860.38406      1377.160 6        37.622
G29         4.000    20307988.454 8 106719534.10608      -851.992 8        50.223                                    20307986.417 8  83158235.89508      -663.894 8        52.600    20307986.934 7  83158238.90207      -663.929 7        46.373
S21         5.000    38398294.325 7 201784030.72807      -595.294 7        43.209
E13         6.000    27135834.835 6 142599931.36906      2672.637 6        39.102                                                                    27135848.820 7 106487113.33607      1995.619 7        42.891    27135847.108 7 109265014.08507      2047.707 7        43.672
E19         7.000    27119381.681 5 142513261.21305     -2005.981 5        34.048                                                                    27119393.090 5 106422242.59205     -1498.397 5        35.967    27119391.364 6 109198476.74806     -1537.062 6        36.794
E15         8.000    24024617.982 7 126250491.68507      1004.756 7        47.885                                                                    24024622.375 8  94278120.78408       750.290 8        50.297    24024621.558 8  96737527.78408       769.870 8        50.896
G11         9.000    24284219.152 6 127614720.18406     -3747.382 6        40.148                                    24284216.289 4  99440171.95204     -2920.043 4        24.361    24284216.346 6  99440171.95006     -2919.992 6        39.054
E30        10.000    25123737.646 7 132026318.11607     -2497.667 7        45.780                                                                    25123740.949 8  98591203.04108     -1865.178 8        48.820    25123740.098 8 101163134.70408     -1913.839 8        49.146
G26        11.000    22678580.467 7 119177047.44407      2420.898 7        43.141                                    22678584.476 6  92865396.35706      1886.405 6        39.784    22678584.909 6  92865416.38806      1886.251 6        40.603
S27        12.000    39194575.356 6 205968815.37206      -587.920 6        36.858
R15        13.000    19090446.299 8 102013838.41108       -82.470 8        51.848                                                                    19090448.359 7  79344232.97207       -64.140 7        47.662
S36        14.000    38170473.500 7 200587589.21607      -594.473 7        44.796
G12        15.000    24193913.484 6 127140010.86406     -4025.654 6        41.247                                    24193914.695 5  99070212.46105     -3136.875 5        35.195    24193914.704 6  99070212.47806     -3136.906 6        36.885
E29        16.000    28099944.852 6 147665997.64106     -3220.825 6        36.567                                                                    28099967.487 6 110270030.85306     -2405.221 6        39.396    28099964.755 6 113146643.18106     -2467.872 6        40.045
S45        17.000    63377784.308 6 333052660.98616      -656.363 6        36.628
G31        18.000    21704772.930 7 114059592.75907       256.183 7        46.925                                    21704771.746 7  88877745.08207       199.620 7        44.950    21704772.070 7  88877724.09907       199.538 7        42.233
E21        20.000    26373671.499 6 138594866.15206      1820.959 6        41.816                                                                    26373678.043 7 103496356.85607      1359.887 7        44.474    26373677.027 7 106196239.59407      1395.365 7        45.532
R14        21.000    20878123.845 8 111292277.74608     -3811.155 8        50.700                                                                    20878127.938 7  86560745.57607     -2964.209 7        46.624
I06        22.000    38652017.579 6 151678915.97506      -488.471 6        41.220
S28        23.000    40876707.759 5 214808488.53105      -595.185 5        35.109
E34        24.000    24837043.402 7 130519832.49007     -1937.653 7        45.871                                                                    24837045.607 8  97466289.04308     -1446.940 8        48.591    24837044.960 8 100008868.47708     -1484.686 8        48.720
S23        25.000    38119423.865 7 200318815.46907      -598.896 7        45.123
C13        26.000                                                                                                                                    38734682.007 7 201701806.23107       921.804 7        42.663    38734685.494 7 155968730.75007       712.769 7        43.192    38734683.418 6 163899317.55506       749.014 6        41.771
G18        27.000    22787379.588 7 119748727.24007      2742.410 7        45.321                                    22787382.714 5  93310840.94305      2136.931 5        33.353    22787383.083 7  93310831.96107      2136.924 7        43.062
R24        28.000    20526086.929 8 109762536.19608     -3512.419 8        50.235                                                                    20526087.643 7  85371038.61507     -2731.990 7        45.806
I02        29.000    37830971.808 6 148456908.66506      -875.581 6        41.902
G28        30.000    21383360.774 7 112370473.75207     -1535.436 7        47.535                                    21383361.122 6  87561496.38406     -1196.443 6        37.762    21383361.323 7  87561493.39307     -1196.390 7        45.845
G04        31.000    25157954.138 6 132205947.41106        78.655 6        36.469                                    25157952.130 3 103017624.50903        61.327 3        18.985    25157952.531 6 103017632.42306        61.148 6        36.756
C12        32.000                                                                                                                                    22743202.526 7 118430069.26707     -2557.187 7        46.648    22743199.896 8  91577763.49608     -1977.481 8        50.333    22743199.133 8  96234219.94808     -2077.986 8        48.834
R17        33.000    19231799.607 8 102913563.62108       614.700 8        52.125                                                                    19231801.102 7  80044038.87407       478.058 7        47.424
R08        34.000    24341672.417 6 130348550.83606      1621.518 6        36.957                                                                    24341674.293 6 101382203.76506      1261.135 6        37.637
C24        35.000                                                                                                                                    25018740.306 7 130279155.79907     -3896.033 7        42.468                                                                    25018743.627 7 105862501.40807     -3165.720 7        43.283
R18        36.000    22100614.802 7 117974821.08607      3359.116 7        46.790                                                                    22100623.803 7  91758358.55807      2612.573 7        43.088
E27        37.000    23396686.919 8 122950623.40108      -133.170 8        48.434                                                                    23396689.275 8  91813919.83408       -99.488 8        51.063    23396688.766 8  94209046.82408      -102.062 8        51.556
R16        38.000    21955049.641 8 117280003.17008      3168.814 8        48.654                                                                    21955051.807 7  91217824.01807      2464.576 7        44.337
R07        40.000    23730110.483 7 127029141.19607     -1062.083 7        42.085                                                                    23730111.391 6  98800450.47706      -826.216 6        40.412
C34        41.000                                                                                                                                    21355289.319 8 111202897.57608      -957.258 8        50.907                                                                    21355290.722 8  90361595.06608      -777.849 8        49.453
S44        42.000    40565651.391 6 213174042.86706      -517.569 6        39.183
C38        43.000                                                                                                                                    38827252.451 7 202183828.53907       197.073 7        43.327                                                                    38827250.789 7 164290981.13107       160.055 7        43.281
C05        44.000                                                                                                                                    39373798.304 6 205029648.00606      -541.400 6        38.438    39373799.334 7 158541930.81507      -418.842 7        42.912    39373799.866 6 166603468.74206      -440.005 6        40.307
C08        45.000                                                                                                                                    38532290.001 6 200647898.60906       814.559 6        41.085    38532285.850 7 155153749.11207       629.908 7        44.315    38532284.581 7 163042897.40907       661.899 7        42.157
E04        46.000    28622277.435 5 150411067.48305       403.102 5        35.281                                                                    28622279.422 6 112319957.03506       300.973 6        40.062    28622278.844 6 115250040.96806       309.039 6        41.151
E36        47.000    28883561.658 4 151784334.50604     -3584.407 4        25.278                                                                    28883566.147 4 113345589.03704     -2677.421 4        26.611    28883565.014 4 116302410.11604     -2747.311 4        24.541
C43        48.000                                                                                                                                    22837951.489 8 118923445.68008      1697.964 8        48.699                                                                    22837954.064 7  96635149.72207      1379.763 7        47.653
C10        49.000                                                                                                                                    40750625.049 5 212199275.91005     -1263.225 5        35.438    40750623.570 6 164085976.40106      -977.144 6        39.042    40750620.857 5 172429312.88005     -1026.346 5        35.400
C44        50.000                                                                                                                                    24307713.689 7 126576752.70207     -3443.007 7        44.310                                                                    24307713.273 7 102854026.50207     -2797.739 7        44.000
S48        51.000    77118035.968 6 405258987.48006      -628.885 6        38.733
C60        54.000                                                                                                                                    40565651.058 6 211236115.77206      -513.031 6        41.004                                                                    40565638.718 6 171646600.72506      -416.839 6        40.074
C25        55.000                                                                                                                                    21706096.219 8 113029503.13508     -1896.681 8        51.470                                                                    21706096.595 8  91845801.97208     -1541.165 8        49.753
C23        56.000                                                                                                                                    23133124.558 8 120460552.66108      1272.379 8        48.569                                                                    23133119.064 8  97884166.24508      1033.922 8        49.326
C02        57.000                                                                                                                                    40762112.189 5 212258982.39605      -501.648 5        34.695    40762111.851 6 164132081.95906      -388.121 6        40.241    40762113.376 6 172477796.19306      -407.778 6        36.204
I03        58.000   115545558.627 6 377640234.10506       995.313 6        39.562
C11        59.000                                                                                                                                    21722414.699 8 113114580.71008       575.692 8        48.942    21722414.957 8  87467507.97408       445.104 8        52.022    21722413.128 8  91914962.46108       467.859 8        49.604
> 2025 01 01 16 00 10.0000000  0 56
G20         1.000    23556897.988 6 123792512.92806      -466.742 6        40.365                                    23556893.837 4  96461766.56104      -363.697 4        24.165
G25         2.000    20819042.828 7 109404981.30907     -2842.777 7        47.764                                    20819044.463 8  85250730.12108     -2215.153 8        48.445    20819045.256 7  85250740.12407     -2215.022 7        44.012
G05         3.000    23802406.957 7 125082568.95407      1765.511 7        42.430                                    23802406.215 6  97466979.32906      1375.720 6        36.677    23802407.303 6  97466978.34106      1375.721 6        38.174
G29         4.000    20308800.273 8 106723799.39208      -854.033 8        50.269                                    20308798.066 8  83161559.51908      -665.485 8        52.515    20308798.594 7  83161562.53207      -665.471 7        46.564
S21         5.000    38398863.925 7 201787006.60207      -594.878 7        43.007
E13         6.000    27133292.402 6 142586569.22406      2672.429 6        39.763                                                                    27133306.144 7 106477135.14007      1995.574 7        42.904    27133304.300 7 109254775.59207      2047.651 7        43.757
E19         7.000    27121291.020 5 142523296.33005     -2007.596 5        34.095                                                                    27121302.642 5 106429736.32505     -1499.548 5        35.700    27121301.201 6 109206165.98806     -1538.655 6        36.631
E15         8.000    24023663.041 7 126245472.99407      1002.808 7        47.910                                                                    24023667.275 8  94274373.09408       748.816 8        50.287    24023666.525 8  96733682.32108       768.401 8        51.033
G11         9.000    24287785.473 6 127633459.90206     -3748.553 6        40.615                                    24287782.422 4  99454774.33204     -2920.954 4        24.301    24287782.167 6  99454774.33106     -2921.065 6        39.309
E30        10.000    25126114.526 7 132038808.78607     -2498.535 7        46.115                                                                    25126117.812 8  98600530.49708     -1865.743 8        48.726    25126117.013 8 101172705.48708     -1914.391 8        49.250
G26        11.000    22676277.720 7 119164945.78607      2419.833 7        43.424                                    22676281.564 6  92855966.55506      1885.573 6        39.715    22676281.520 6  92855986.58606      1885.478 6        40.143
S27        12.000    39195130.190 6 205971753.75306      -587.509 6        36.813
R15        13.000    19090525.186 8 102014259.33008       -85.875 8        51.731                                                                    19090527.154 7  79344560.35907       -66.842 7        47.828
S36        14.000    38171037.533 7 200590562.50307      -594.625 7        44.615
G12        15.000    24197744.173 6 127160140.50506     -4026.097 6        41.149                                    24197744.908 5  99085897.90305     -3137.220 5        34.752    24197745.359 6  99085897.92806     -3137.492 6        36.476
E29        16.000    28103009.671 6 147682102.56106     -3221.103 6        36.733                                                                    28103032.258 6 110282057.21706     -2405.399 6        39.568    28103029.471 6 113158983.25606     -2467.904 6        40.222
S45        17.000    63378354.883 6 333055942.06206      -655.919 6        36.688
G31        18.000    21704530.381 7 114058319.93307       253.057 7        46.769                                    21704529.518 7  88876753.29807       197.181 7        44.852    21704530.493 7  88876732.31607       197.174 7        42.726
E21        20.000    26371939.014 6 138585761.39006      1820.930 6        41.785                                                                    26371945.425 7 103489557.92307      1359.760 7        44.516    26371944.292 7 106189263.28407      1395.322 7        45.657
R14        21.000    20881699.383 8 111311339.24108     -3813.428 8        50.367                                                                    20881703.791 7  86575571.17907     -2965.974 7        46.524
I06        22.000    38652639.450 6 151681358.02906      -488.218 6        41.063
S28        23.000    40877274.292 5 214811464.32105      -595.059 5        35.105
E34        24.000    24838887.909 7 130529525.44007     -1939.463 7        45.707                                                                    24838890.124 8  97473527.31008     -1448.359 8        48.553    24838889.471 8 100016295.56008     -1486.116 8        48.811
S23        25.000    38119993.644 7 200321809.38907      -598.666 7        45.105
C13        26.000                                                                                                                                    38733797.537 7 201697198.86807       921.178 7        42.959    38733800.480 7 155965168.05907       712.317 7        43.397    38733798.606 6 163895573.69906       748.519 6        41.797
G18        27.000    22784770.707 7 119735018.61807      2741.089 7        45.311                                    22784773.906 5  93300158.96105      2135.905 5        33.156    22784774.285 7  93300149.98707      2135.923 7        43.052
R24        28.000    20529372.466 8 109780104.42708     -3514.719 8        50.796                                                                    20529372.811 7  85384702.83107     -2733.705 7        45.532
I02        29.000    37832087.355 6 148461286.11806      -875.455 6        41.940
G28        30.000    21384823.123 7 112378158.71107     -1538.497 7        47.430                                    21384823.494 6  87567484.67406     -1198.832 6        37.645    21384823.898 7  87567481.68107     -1198.799 7        46.158
G04        31.000    25157880.526 6 132205561.29906        75.993 6        37.372                                    25157878.885 3 103017323.48703        59.222 3        19.522    25157879.265 6 103017331.41706        59.131 6        37.335
C12        32.000                                                                                                                                    22745658.835 7 118442859.28307     -2558.695 7        46.323    22745656.373 8  91587653.56208     -1978.488 8        50.536    22745655.262 8  96244612.88408     -2079.113 8        48.756
R17        33.000    19231226.918 8 102910499.42708       611.048 8        52.268                                                                    19231228.335 7  80041655.62907       475.207 7        47.283
R08        34.000    24340161.015 6 130340450.13606      1618.756 6        36.794                                                                    24340161.524 6 101375903.22206      1259.130 6        37.546
C24        35.000                                                                                                                                    25022481.949 7 130298636.94307     -3896.376 7        42.754                                                                    25022484.686 7 105878331.40307     -3166.102 7        43.115
R18        36.000    22097467.979 7 117958029.65907      3357.492 7        46.369                                                                    22097477.734 7  91745298.62607      2611.443 7        43.240
E27        37.000    23396814.184 8 122951292.32808      -134.293 8        48.427                                                                    23396816.555 8  91814419.37708      -100.301 8        51.111    23396816.042 8  94209559.39208      -102.864 8        51.721
R16        38.000    21952083.969 8 117264161.52908      3167.992 8        49.148                                                                    21952085.884 7  91205502.75607      2463.920 7        43.515
R07        40.000    23731103.946 7 127034460.43107     -1065.713 7        42.499                                                                    23731105.320 6  98804587.64606      -829.065 6        41.354
C34        41.000                                                                                                                                    21356209.360 8 111207689.30808      -959.367 8        50.908                                                                    21356210.877 8  90365488.74308      -779.547 8        49.310
S44        42.000    40566143.587 6 213176631.68306      -517.559 6        39.273
C38        43.000                                                                                                                                    38827063.529 7 202182845.83407       196.066 7        43.484                                                                    38827062.022 7 164290182.59107       159.534 7        43.172
C05        44.000                                                                                                                                    39374318.470 6 205032355.10406      -541.437 6        38.384    39374319.183 7 158544024.12107      -418.548 7        42.938    39374319.620 6 166605668.48006      -439.806 6        40.272
C08        45.000                                                                                                                                    38531507.805 6 200643827.76106       813.744 6        40.868    38531503.924 7 155150601.29307       629.196 7        44.346    38531502.725 7 163039589.51007       661.368 7        42.167
E04        46.000    28621895.283 5 150409059.01005       400.600 5        35.767                                                                    28621897.637 6 112318456.88306       299.448 6        39.198    28621896.881 6 115248501.72006       307.241 6        40.379
E36        47.000    28886973.615 4 151802259.95404     -3585.323 4        25.263                                                                    28886978.028 4 113358974.77604     -2677.642 4        26.994    28886977.396 4 116316144.98804     -2746.845 4        24.451
C43        48.000                                                                                                                                    22836321.523 8 118914959.69508      1696.460 8        48.655                                                                    22836324.422 7  96628254.17507      1378.521 7        47.560
C10        49.000                                                                                                                                    40751837.377 5 212205592.06705     -1262.886 5        35.238    40751836.555 6 164090860.45006      -976.606 6        39.057    40751833.997 5 172434445.32105     -1026.556 5        35.386
C44        50.000                                                                                                                                    24311019.896 7 126593969.20907     -3443.563 7        43.896                                                                    24311019.240 7 102868016.31107     -2798.117 7        43.983
S48        51.000    77118609.301 6 405262131.74906      -628.608 6        38.607
C60        54.000                                                                                                                                    40566143.451 6 211238681.05306      -513.055 6        40.870                                                                    40566131.371 6 171648685.22206      -416.741 6        39.928
C25        55.000                                                                                                                                    21707918.479 8 113038992.36108     -1898.922 8        51.206                                                                    21707918.823 8  91853512.74108     -1543.022 8        49.646
C23        56.000                                                                                                                                    23131903.696 8 120454195.33608      1270.616 8        48.604                                                                    23131898.164 8  97879000.40608      1032.497 8        49.233
C02        57.000                                                                                                                                    40762594.400 5 212261490.99905      -501.360 5        34.795    40762593.365 6 164134021.81206      -387.880 6        40.284    40762595.309 6 172479834.65406      -407.524 6        36.030
I03        58.000   115544290.474 6 377635257.09606       995.463 6        39.532
C11        59.000                                                                                                                                    21721862.742 8 113111707.56708       573.672 8        48.918    21721863.288 8  87465286.29608       443.605 8        52.173    21721861.315 8  91912627.80508       466.132 8        49.495
C19        60.000                                                                                                                                    27247822.130 5 141886559.57415      -352.116 5        31.411                                                                    27247820.016 5 115294444.36515      -286.576 5        32.251
> 2025 01 01 16 00 15.0000000  0 56
G20         1.000    23557343.501 6 123794854.60406      -470.053 6        40.694                                    23557339.511 4  96463591.26304      -366.283 4        24.436
G25         2.000    20821749.094 8 109419200.82808     -2845.060 8        48.000                                    20821750.322 8  85261810.27408     -2216.933 8        48.448    20821750.862 7  85261820.28307     -2216.888 7        44.057
G05         3.000    23800727.776 7 125073747.27507      1763.200 7        42.588                                    23800727.501 6  97460105.30706      1373.920 6        36.983    23800728.206 6  97460104.32106      1373.859 6        38.598
G29         4.000    20309613.623 8 106728075.61708      -856.359 8        50.260                                    20309611.785 8  83164891.66308      -667.297 8        52.536    20309612.171 7  83164894.67107      -667.319 7        46.497
S21         5.000    38399426.174 7 201789982.14707      -595.117 7        43.137
E13         6.000    27130749.864 6 142573209.04206      2671.814 6        40.026                                                                    27130763.712 7 106467158.44007      1995.153 7        42.997    27130761.796 7 109244538.61407      2047.250 7        43.450
E19         7.000    27123202.856 5 142533341.09105     -2009.825 5        33.671                                                                    27123213.924 5 106437237.23805     -1500.908 5        35.771    27123212.648 6 109213862.59906     -1540.324 6        36.631
E15         8.000    24022710.274 7 126240464.94207      1000.503 7        47.994                                                                    24022714.235 8  94270633.34708       747.093 8        50.301    24022713.461 8  96729845.01408       766.578 8        50.879
G11         9.000    24291352.854 6 127652206.95106     -3750.180 6        40.682                                    24291349.829 4  99469382.42304     -2922.217 4        24.617    24291349.835 6  99469382.40806     -2922.240 6        39.553
E30        10.000    25128492.488 7 132051304.63507     -2499.839 7        46.171                                                                    25128495.730 8  98609861.83008     -1866.679 8        48.694    25128494.886 8 101182280.25008     -1915.441 8        49.086
G26        11.000    22673975.943 7 119152849.50407      2418.640 7        43.886                                    22673979.689 6  92846540.93706      1884.640 6        39.712    22673979.866 6  92846560.96606      1884.629 6        40.365
S27        12.000    39195692.618 6 205974691.99706      -587.751 6        36.809
R15        13.000    19090607.301 8 102014698.39608       -89.678 8        51.590                                                                    19090608.834 7  79344901.87407       -69.716 7        47.234
S36        14.000    38171606.301 7 200593536.49607      -594.850 7        44.679
G12        15.000    24201575.238 6 127180273.57006     -4027.057 6        41.266                                    24201575.845 5  99101586.01005     -3137.968 5        34.638    24201576.932 6  99101586.01306     -3138.026 6        36.253
E29        16.000    28106075.301 6 147698209.40406     -3221.698 6        37.376                                                                    28106097.411 6 110294085.03006     -2405.879 6        39.523    28106094.536 6 113171324.84306     -2468.452 6        39.937
S45        17.000    63378921.384 6 333059222.96606      -656.429 6        36.809
G31        18.000    21704291.022 7 114057063.71607       249.495 7        47.078                                    21704290.452 7  88875774.45607       194.408 7        44.889    21704290.864 7  88875753.46807       194.460 7        42.663
E21        20.000    26370206.450 7 138576658.14707      1820.382 7        42.121                                                                    26370213.021 7 103482760.11807      1359.455 7        44.581    26370212.026 7 106182288.14407      1394.866 7        45.389
R14        21.000    20885277.704 8 111330412.99608     -3816.081 8        50.611                                                                    20885282.143 7  86590406.32507     -2968.060 7        46.732
I06        22.000    38653261.758 6 151683799.75106      -488.368 6        41.325
S28        23.000    40877839.388 5 214814439.65805      -595.000 5        34.976
E34        24.000    24840734.056 7 130539228.83907     -1941.752 7        45.481                                                                    24840736.572 8  97480773.38208     -1450.029 8        48.559    24840735.994 8 100023730.66408     -1487.858 8        48.675
S23        25.000    38120563.109 7 200324802.97207      -598.760 7        45.031
C13        26.000                                                                                                                                    38732913.337 7 201692595.60907       920.297 7        43.261    38732916.678 7 155961608.56507       711.547 7        43.310    38732914.423 6 163891833.21006       747.858 6        41.876
G18        27.000    22782163.690 7 119721317.23007      2739.508 7        45.225                                    22782166.503 5  93289482.61605      2134.674 5        33.192    22782166.981 7  93289473.64407      2134.575 7        43.081
R24        28.000    20532659.907 8 109797684.68708     -3517.314 8        50.468                                                                    20532660.331 7  85398376.38407     -2735.631 7        45.356
I02        29.000    37833203.004 7 148465664.37907      -875.754 7        42.165
G28        30.000    21386288.432 7 112385860.00607     -1541.944 7        47.819                                    21386289.015 6  87573485.69406     -1201.517 6        37.629    21386289.221 7  87573482.70207     -1201.610 7        46.186
G04        31.000    25157810.451 6 132205189.72106        72.665 6        37.603                                    25157808.551 3 103017033.66303        56.666 3        19.881    25157808.846 6 103017041.58406        56.812 6        37.769
C12        32.000                                                                                                                                    22748115.931 7 118455657.20507     -2560.469 7        46.416    22748114.130 8  91597549.75808     -1979.901 8        50.527    22748112.924 8  96255012.27108     -2080.581 8        48.945
R17        33.000    19230657.701 8 102907454.29208       607.077 8        52.126                                                                    19230659.065 7  80039287.20307       472.182 7        46.712
R08        34.000    24338649.932 6 130332364.87606      1615.417 6        37.214                                                                    24338650.801 6 101369614.76106      1256.239 6        37.164
C24        35.000                                                                                                                                    25026223.781 7 130318121.28807     -3897.255 7        43.024                                                                    25026226.498 7 105894164.01207     -3166.784 7        43.274
R18        36.000    22094324.011 7 117941246.64507      3355.670 7        46.208                                                                    22094334.138 7  91732245.22407      2610.034 7        43.598
E27        37.000    23396942.767 8 122951967.83808      -135.842 8        48.445                                                                    23396945.049 8  91814923.82908      -101.441 8        51.132    23396944.537 8  94210077.00408      -104.086 8        51.562
R16        38.000    21949119.231 8 117248325.16108      3166.585 8        49.276                                                                    21949120.932 7  91193185.61007      2462.971 7        44.054
R07        40.000    23732102.745 7 127039799.67807     -1070.084 7        42.690                                                                    23732102.271 6  98808740.15906      -832.154 6        41.816
C34        41.000                                                                                                                                    21357131.733 8 111212491.93908      -961.718 8        51.065                                                                    21357133.166 8  90369391.28808      -781.420 8        49.508
S44        42.000    40566638.716 6 213179220.35606      -517.781 6        39.216
C38        43.000                                                                                                                                    38826875.657 7 202181868.21207       194.923 7        43.562                                                                    38826874.234 7 164289388.22407       158.399 7        43.295
C05        44.000                                                                                                                                    39374838.188 6 205035061.88906      -541.262 6        38.288    39374838.763 7 158546117.22507      -418.650 7        42.914    39374839.433 6 166607867.99806      -439.939 6        40.460
C08        45.000                                                                                                                                    38530726.908 6 200639761.89106       812.643 6        40.965    38530723.185 7 155147457.33507       628.363 7        44.164    38530721.840 7 163036285.69007       660.261 7        42.281
E04        46.000    28621515.112 5 150407061.81705       398.202 5        35.719                                                                    28621517.833 6 112316965.42606       297.450 6        40.076    28621517.027 6 115246971.37606       305.137 6        41.159
E36        47.000    28890384.506 4 151820187.69604     -3585.627 4        26.012                                                                    28890389.117 4 113372362.21904     -2678.301 4        27.413    28890388.401 4 116329881.79304     -2748.161 4        26.084
C43        48.000                                                                                                                                    22834693.719 8 118906481.76508      1694.700 8        48.748                                                                    22834696.239 7  96621365.19607      1377.054 7        47.738
C10        49.000                                                                                                                                    40753049.191 5 212211908.04005     -1263.519 5        35.590    40753049.384 6 164095744.34106      -976.740 6        39.420    40753046.628 5 172439577.51605     -1026.433 5        35.552
C44        50.000                                                                                                                                    24314326.891 7 126611189.17407     -3444.473 7        43.653                                                                    24314326.028 7 102882008.95807     -2798.842 7        43.932
S48        51.000    77119188.001 6 405265275.80806      -628.753 6        38.529
C60        54.000                                                                                                                                    40566636.121 6 211241246.18306      -513.037 6        40.989                                                                    40566623.888 6 171650769.63206      -416.864 6        40.105
C25        55.000                                                                                                                                    21709743.057 8 113048493.44908     -1901.470 8        51.255                                                                    21709743.465 8  91861233.15908     -1545.058 8        49.913
C23        56.000                                                                                                                                    23130684.739 8 120447847.57808      1268.547 8        48.583                                                                    23130679.147 8  97873842.37008      1030.799 8        49.382
C02        57.000                                                                                                                                    40763076.651 5 212263999.42805      -501.934 5        34.910    40763075.307 6 164135961.49806      -387.964 6        40.122    40763076.729 5 172481872.95105      -407.668 5        35.990
I03        58.000   115543022.660 6 377630279.83006       995.477 6        39.670
C11        59.000                                                                                                                                    21721313.475 8 113108845.37508       571.258 8        48.962    21721313.471 8  87463073.09708       441.735 8        52.158    21721311.656 8  91910302.06008       464.229 8        49.725
C19        60.000                                                                                                                                    27248161.960 5 141888328.69305      -354.902 5        31.389                                                                    27248160.001 5 115295881.88805      -288.352 5        32.521
> 2025 01 01 16 00 20.0000000  0 56
G20         1.000    23557791.757 6 123797211.98206      -473.258 6        40.667                                    23557788.377 4  96465428.19704      -368.778 4        24.481
G25         2.000    20824456.862 8 109433430.91408     -2847.159 8        48.045                                    20824458.203 8  85272898.66508     -2218.569 8        48.405    20824458.980 7  85272908.67707     -2218.598 7        44.212
G05         3.000    23799051.244 7 125064936.41207      1760.873 7        42.500                                    23799050.897 6  97453239.71906      1372.102 6        37.127    23799051.594 6  97453238.74706      1371.937 6        38.925
G29         4.000    20310429.729 8 106732363.31308      -858.825 8        50.299                                    20310427.691 8  83168232.74408      -669.219 8        52.484    20310427.995 7  83168235.75707      -669.235 7        46.583
S21         5.000    38399997.835 7 201792957.90507      -595.318 7        42.908
E13         6.000    27128207.659 6 142559851.35906      2671.120 6        40.091                                                                    27128221.802 7 106457183.58207      1994.662 7        43.200    27128219.849 7 109234303.54507      2046.676 7        43.644
E19         7.000    27125115.636 5 142543395.98905     -2012.150 5        33.425                                                                    27125127.695 5 106444745.71405     -1502.258 5        35.771    27125126.153 6 109221566.95206     -1541.930 6        36.628
E15         8.000    24021759.161 7 126235468.05307       998.067 7        47.805                                                                    24021763.366 8  94266901.93008       745.313 8        50.345    24021762.538 8  96726016.25108       764.756 8        50.924
G11         9.000    24294921.969 6 127670961.86206     -3751.901 6        40.327                                    24294918.818 4  99483996.63004     -2923.564 4        24.541    24294919.192 6  99483996.61506     -2923.406 6        39.676
E30        10.000    25130871.324 7 132063806.18007     -2501.018 7        45.899                                                                    25130874.669 8  98619197.40708     -1867.630 8        48.712    25130873.906 8 101191859.36008     -1916.356 8        49.135
