     3.04           OBSERVATION DATA    M                   RINEX VERSION / TYPE
ssrcrin-15.6.1x                         20250101 081500 UTC PGM / RUN BY / DATE 
(00000000023479385599111004) Septentrio proprietary         COMMENT             
rref                                                        MARKER NAME         
01                                                          MARKER NUMBER       
geodetic                                                    MARKER TYPE         
NFB                 CLIMERS@TUW                             OBSERVER / AGENCY   
3297213             SEPT ASTERX SB3 PROB4.14.4              REC # / TYPE / VERS 
Unknown             Unknown                                 ANT # / TYPE        
  4127831.9773  1207193.0948  4695247.6728                  APPROX POSITION XYZ 
        0.0000        0.0000        0.0000                  ANTENNA: DELTA H/E/N
G   23 X1  C1C L1C D1C S1C C1W S1W C2W L2W D2W S2W C2L L2L  SYS / # / OBS TYPES 
       D2L S2L C5Q L5Q D5Q S5Q C1L L1L D1L S1L              SYS / # / OBS TYPES 
E   21 X1  C1C L1C D1C S1C C6C L6C D6C S6C C5Q L5Q D5Q S5Q  SYS / # / OBS TYPES 
       C7Q L7Q D7Q S7Q C8Q L8Q D8Q S8Q                      SYS / # / OBS TYPES 
S    9 X1  C1C L1C D1C S1C C5I L5I D5I S5I                  SYS / # / OBS TYPES 
R   17 X1  C1C L1C D1C S1C C2P L2P D2P S2P C2C L2C D2C S2C  SYS / # / OBS TYPES 
       C3Q L3Q D3Q S3Q                                      SYS / # / OBS TYPES 
C   25 X1  C1P L1P D1P S1P C5P L5P D5P S5P C2I L2I D2I S2I  SYS / # / OBS TYPES 
       C7I L7I D7I S7I C6I L6I D6I S6I C7D L7D D7D S7D      SYS / # / OBS TYPES 
J   17 X1  C1C L1C D1C S1C C2L L2L D2L S2L C5Q L5Q D5Q S5Q  SYS / # / OBS TYPES 
       C1L L1L D1L S1L                                      SYS / # / OBS TYPES 
I    5 X1  C5A L5A D5A S5A                                  SYS / # / OBS TYPES 
SEPTENTRIO RECEIVERS OUTPUT ALIGNED CARRIER PHASES.         COMMENT             
NO FURTHER PHASE SHIFT APPLIED IN THE RINEX ENCODER.        COMMENT             
G L1C                                                       SYS / PHASE SHIFT   
G L2W                                                       SYS / PHASE SHIFT   
G L2L  0.00000                                              SYS / PHASE SHIFT   
G L5Q  0.00000                                              SYS / PHASE SHIFT   
G L1L  0.00000                                              SYS / PHASE SHIFT   
E L1C  0.00000                                              SYS / PHASE SHIFT   
E L6C  0.00000                                              SYS / PHASE SHIFT   
E L5Q  0.00000                                              SYS / PHASE SHIFT   
E L7Q  0.00000                                              SYS / PHASE SHIFT   
E L8Q  0.00000                                              SYS / PHASE SHIFT   
S L1C                                                       SYS / PHASE SHIFT   
S L5I                                                       SYS / PHASE SHIFT   
R L1C                                                       SYS / PHASE SHIFT   
R L2P  0.00000                                              SYS / PHASE SHIFT   
R L2C                                                       SYS / PHASE SHIFT   
R L3Q  0.00000                                              SYS / PHASE SHIFT   
C L1P  0.00000                                              SYS / PHASE SHIFT   
C L5P  0.00000                                              SYS / PHASE SHIFT   
C L2I                                                       SYS / PHASE SHIFT   
C L7I                                                       SYS / PHASE SHIFT   
C L6I                                                       SYS / PHASE SHIFT   
C L7D                                                       SYS / PHASE SHIFT   
J L1C                                                       SYS / PHASE SHIFT   
J L2L  0.00000                                              SYS / PHASE SHIFT   
J L5Q  0.00000                                              SYS / PHASE SHIFT   
J L1L  0.00000                                              SYS / PHASE SHIFT   
I L5A                                                       SYS / PHASE SHIFT   
  2025     1     1     8    15    0.0000000     GPS         TIME OF FIRST OBS   
 C1C    0.000 C2C    0.000 C2P    0.000                     GLONASS COD/PHS/BIS 
DBHZ                                                        SIGNAL STRENGTH UNIT
    18                                                      LEAP SECONDS        
 24 R01  1 R02 -4 R03  5 R04  6 R05  1 R06 -4 R07  5 R08  6 GLONASS SLOT / FRQ #
    R09 -2 R10 -7 R11  0 R12 -1 R13 -2 R14 -7 R15  0 R16 -1 GLONASS SLOT / FRQ #
    R17  4 R18 -3 R19  3 R20  2 R21  4 R22 -3 R23  3 R24  2 GLONASS SLOT / FRQ #
                                                            END OF HEADER       
> 2025 01 01 08 15  0.0000000  0 53
G08         1.000    24407501.013 6 128262333.14606     -1625.890 6        37.773                                    24407508.062 4  99944728.89104     -1266.933 4        29.848    24407508.756 6  99944738.90306     -1267.087 6        37.149
R01         2.000    19117706.635 8 102195045.24008        47.844 8        48.465                                                                    19117710.091 6  79485091.57806        37.246 6        41.361
R02         4.000    21810563.085 8 116385306.46408      3283.337 8        48.362                                                                    21810567.132 7  90521909.19807      2553.792 7        44.221
S21         5.000    38447922.788 7 202044937.23207      -397.555 7        42.730
E05         6.000    24251212.992 7 127440895.33807     -2666.206 7        42.895                                                                    24251222.727 7  95166892.71607     -1990.965 7        46.629    24251221.427 7  97649503.95307     -2042.898 7        47.079
R10         8.000    21682395.168 7 115579286.72807     -4037.327 7        42.952
R19         9.000    23926456.445 5 127990357.56605       779.019 5        31.955                                                                    23926461.470 6  99548117.55406       606.095 6        36.975
G18        10.000    25153697.570 6 132183550.31506     -1481.101 6        38.300                                    25153696.021 3 103000149.16403     -1154.100 3        20.071    25153696.491 6 103000157.16106     -1154.135 6        37.675
C26        11.000                                                                                                                                    23816406.024 7 124018274.47607      2266.732 7        46.538                                                                    23816409.008 7 100775021.22907      1841.841 7        46.259
S27        12.000    39135493.174 5 205658284.21105      -428.797 5        35.833
G15        13.000    22021073.914 7 115721473.37607      2669.216 7        44.746                                    22021073.324 6  90172547.70806      2079.910 6        41.881    22021073.547 6  90172539.70506      2079.952 6        41.921
S36        14.000    38217361.520 7 200834032.86907      -398.545 7        44.114
G20        15.000    23042647.050 7 121089811.97307     -3762.462 7        42.375                                    23042649.944 4  94355648.19804     -2931.782 4        27.222
R11        16.000    19120632.743 8 102174856.04908      -559.651 8        52.144                                                                    19120634.181 8  79469328.33008      -435.216 8        48.962
S45        17.000    63398927.176 6 333163735.66606      -445.626 6        36.250
E13        18.000    27672084.435 6 145417739.32806     -2274.442 6        37.698                                                                    27672089.921 6 108591141.05906     -1698.414 6        40.012    27672088.924 6 111423956.27806     -1742.657 6        40.763
E24        19.000    25934785.025 7 136288129.32307     -2316.113 7        43.103                                                                    25934790.695 7 101773591.93007     -1729.515 7        46.202    25934789.236 7 104428554.39407     -1774.648 7        46.544
R18        20.000    23857619.502 7 127353578.62107     -1873.738 7        42.427                                                                    23857622.218 6  99052773.43906     -1457.152 6        40.114
G30        21.000    21279583.288 8 111824922.60608     -2208.169 8        48.232                                    21279585.690 8  87136294.69308     -1720.650 8        48.527    21279586.053 7  87136298.68907     -1720.710 7        44.224
I06        22.000    38049292.290 7 149313688.33207      -364.258 7        43.001
S28        23.000    40886137.677 5 214857872.15005      -405.866 5        34.786
G14        24.000    20638336.866 8 108455185.93908       491.210 8        48.183                                    20638337.105 6  84510534.56506       382.762 6        40.043    20638337.187 7  84510536.57007       382.733 7        47.310
S23        25.000    38150128.363 7 200480192.53407      -397.231 7        44.158
E08        26.000    25285001.033 7 132873525.69607      1728.553 7        43.858                                                                    25285003.665 7  99223720.06907      1290.823 7        47.310    25285002.792 8 101812164.32308      1324.488 8        48.059
C07        27.000                                                                                                                                    39118622.585 6 203700901.28706       321.269 6        40.563    39118623.940 7 157514463.25307       248.653 7        43.900    39118621.003 6 165523661.04306       261.135 6        40.749
G13        28.000    20133052.224 8 105799869.55908       822.170 8        49.148                                    20133050.972 6  82441426.59606       640.653 6        39.919
I02        29.000    37744644.940 7 148118090.36907       275.016 7        42.489
C22        30.000                                                                                                                                    24005185.062 7 125001194.58407     -3486.680 7        46.362                                                                    24005185.045 7 101573669.29507     -2833.265 7        45.655
I01        31.000   348305515.070 6  63684536.45706     -3093.593 6        39.120
E03        32.000    23260711.993 8 122235831.69508      -538.383 8        48.404                                                                    23260715.620 8  91280007.94408      -401.972 8        50.803    23260714.903 8  93661221.18608      -412.447 8        51.172
G05        33.000    21533229.671 7 113157844.64107     -2235.918 7        47.951                                    21533230.140 7  88174925.24007     -1742.269 7        46.573    21533230.692 7  88174928.23007     -1742.165 7        43.376
E26        34.000    28200183.519 6 148192938.24906       -43.930 6        36.684                                                                    28200184.644 6 110663553.22806       -32.890 6        41.259    28200184.236 6 113550422.96806       -33.627 6        41.478
C36        35.000                                                                                                                                    23876413.713 7 124330667.44707     -3025.855 7        46.053                                                                    23876423.377 7 101028854.66807     -2458.770 7        46.675
G23        36.000    25542271.164 6 134225541.92006      3012.422 6        36.476                                    25542269.799 3 104591315.04003      2347.348 3        18.358    25542269.658 6 104591316.02006      2347.288 6        36.529
I09        38.000    39775517.975 6 156087415.63106      -954.346 6        40.737
R08        39.000    21274791.728 7 113925447.68807     -3851.174 7        47.069                                                                    21274797.117 7  88608654.61507     -2995.418 7        44.525
E25        40.000    23773927.003 8 124932827.44708       456.250 8        48.206                                                                    23773931.865 8  93293996.67508       340.735 8        50.330    23773931.016 8  95727745.27808       349.640 8        50.996
S44        42.000    40895118.327 6 214905272.31806      -408.975 6        37.138
C09        43.000                                                                                                                                    40767058.855 5 212284560.92405     -1043.126 5        35.752    40767070.541 6 164151818.71906      -806.666 6        41.726    40767064.496 5 172498526.90405      -847.559 5        35.833
C05        44.000                                                                                                                                    39349552.817 6 204903325.96906      -456.766 6        38.168    39349557.966 7 158444232.75507      -353.070 7        43.154    39349557.478 6 166500807.32406      -371.259 6        39.754
C40        45.000                                                                                                                                    39139161.644 7 203807878.91107       424.095 7        43.247                                                                    39139166.208 6 165610609.28006       344.521 6        41.986
C21        46.000                                                                                                                                    22003833.990 8 114579686.31108      -902.503 8        51.985                                                                    22003830.985 8  93105342.33708      -733.427 8        49.755
C10        49.000                                                                                                                                    39222226.674 6 204240418.97106       648.286 6        40.350    39222231.359 7 157931660.58607       501.365 7        43.509    39222227.560 6 165962071.41406       526.689 6        40.389
C42        50.000                                                                                                                                    23831733.881 7 124098042.31607      1979.453 7        46.464                                                                    23831744.428 7 100839850.95907      1608.379 7        47.099
S48        51.000    77165583.440 6 405507014.45406      -384.691 6        38.078
E02        53.000    26030935.293 7 136793531.32407      2607.871 7        42.180                                                                    26030943.349 7 102151078.66407      1947.593 7        45.827    26030941.683 7 104815872.33007      1998.421 7        45.971
C60        54.000                                                                                                                                    40895128.418 6 212951605.10006      -405.177 6        40.605                                                                    40895124.373 6 173040538.22506      -329.374 6        38.138
C45        55.000                                                                                                                                    21587393.815 8 112411194.49808      -563.393 8        50.411                                                                    21587388.606 8  91343270.23208      -457.867 8        49.778
R12        56.000    21762188.518 8 116249763.35008      3279.449 8        48.688                                                                    21762193.502 7  90416513.19307      2550.692 7        44.155
C02        57.000                                                                                                                                    40928096.269 5 213123119.49805      -451.623 5        33.293    40928107.638 6 164800239.41006      -348.854 6        38.111    40928106.668 5 173179939.65705      -366.781 5        33.006
I03        58.000   125056592.088 6 414963334.23806       927.196 6        40.184
C14        59.000                                                                                                                                    26082161.719 6 135816632.54706      2766.785 6        37.762    26082159.731 7 105022018.88507      2139.398 7        44.047    26082157.628 6 110362119.27906      2248.084 6        41.302
G07        60.000    23892451.573 7 125555551.61807     -3111.982 7        42.207                                    23892457.036 5  97835449.51005     -2424.915 5        35.390    23892456.960 6  97835450.48906     -2424.828 6        38.120
> 2025 01 01 08 15  5.0000000  0 53
G08         1.000    24409049.395 6 128270471.31506     -1629.434 6        37.871                                    24409056.692 5  99951070.33305     -1269.699 5        30.068    24409057.863 6  99951080.36006     -1269.722 6        36.941
R01         2.000    19117664.102 8 102194816.21808        43.557 8        48.668                                                                    19117667.266 6  79484913.43906        33.944 6        41.681
R02         4.000    21807488.476 8 116368893.11508      3281.622 8        48.227                                                                    21807490.847 7  90509143.23407      2552.439 7        43.860
S21         5.000    38448298.932 7 202046924.76407      -397.829 7        42.707
E05         6.000    24253750.257 7 127454229.13907     -2667.583 7        42.497                                                                    24253760.115 7  95176849.73607     -1992.058 7        46.579    24253758.652 7  97659720.72207     -2043.939 7        47.047
R10         8.000    21686183.171 7 115599477.64507     -4039.394 7        43.746
R19         9.000    23925732.133 5 127986471.96705       774.994 5        33.024                                                                    23925734.512 6  99545095.37406       602.625 6        36.476
G18        10.000    25155108.130 6 132190962.98906     -1484.322 6        38.324                                    25155106.715 3 103005925.25403     -1156.614 3        19.761    25155106.806 6 103005933.25106     -1156.749 6        38.093
C26        11.000                                                                                                                                    23814230.222 7 124006944.92307      2264.906 7        46.742                                                                    23814233.244 7 100765815.06107      1840.477 7        46.396
S27        12.000    39135903.343 5 205660428.71405      -429.265 5        35.871
G15        13.000    22018535.001 7 115708131.96207      2667.143 7        44.451                                    22018534.533 6  90162151.79906      2078.295 6        41.805    22018534.496 6  90162143.80106      2078.286 6        41.928
S36        14.000    38217739.645 7 200836026.08507      -399.049 7        44.075
G20        15.000    23046227.725 6 121108627.66706     -3764.121 6        41.576                                    23046230.609 4  94370309.73904     -2933.075 4        27.138
R11        16.000    19121158.367 8 102177664.47808      -563.904 8        52.180                                                                    19121159.581 8  79471512.66308      -438.570 8        49.295
S45        17.000    63399306.151 6 333165963.97806      -445.820 6        36.344
E13        18.000    27674249.301 6 145429116.10006     -2276.739 6        37.845                                                                    27674254.845 6 108599636.64906     -1699.905 6        40.267    27674253.828 6 111432673.50906     -1744.359 6        40.837
E24        19.000    25936989.990 7 136299714.72307     -2318.214 7        43.263                                                                    25936995.437 7 101782243.34307     -1731.274 7        46.227    25936993.865 7 104437431.49507     -1776.241 7        46.559
R18        20.000    23859376.022 7 127362956.70507     -1877.679 7        42.612                                                                    23859378.794 6  99060067.48606     -1460.584 6        40.265
G30        21.000    21281685.168 7 111835967.88407     -2210.152 7        47.939                                    21281687.549 8  87144901.38908     -1722.195 8        48.412    21281688.066 7  87144905.38507     -1722.170 7        44.408
I06        22.000    38049756.407 7 149315510.35307      -364.673 7        43.136
S28        23.000    40886523.516 5 214859901.93905      -405.994 5        34.895
G14        24.000    20637870.939 8 108452738.24208       487.676 8        48.288                                    20637871.296 6  84508627.27006       380.009 6        39.964    20637871.572 7  84508629.27207       380.009 7        47.677
S23        25.000    38150506.855 7 200482179.78307      -397.692 7        44.199
E08        26.000    25283356.786 7 132864885.16307      1727.470 7        43.824                                                                    25283359.373 7  99217267.71507      1290.027 7        47.403    25283358.540 7 101805543.65307      1323.646 7        47.931
C07        27.000                                                                                                                                    39118314.089 6 203699296.81706       320.107 6        40.374    39118315.752 7 157513222.55907       247.576 7        44.182    39118312.877 6 165522357.27606       260.169 6        40.980
G13        28.000    20132271.138 8 105795764.89008       819.489 8        49.150                                    20132269.882 6  82438228.14706       638.568 6        40.010
I02        29.000    37744294.887 7 148116716.88407       274.257 7        42.544
C22        30.000                                                                                                                                    24008534.191 7 125018631.80407     -3488.396 7        46.644                                                                    24008533.909 7 101587838.43407     -2834.572 7        45.928
I01        31.000   348309457.179 6  63700005.08306     -3094.047 6        39.237
E03        32.000    23261225.132 8 122238527.85108      -540.367 8        48.381                                                                    23261228.678 8  91282021.30308      -403.481 8        50.917    23261227.965 8  93663287.06508      -413.972 8        51.143
G05        33.000    21535358.890 7 113169032.33407     -2239.427 7        47.926                                    21535359.111 7  88183642.89907     -1745.008 7        46.665    21535359.558 7  88183645.89107     -1744.920 7        43.721
E26        34.000    28200226.878 6 148193164.90306       -46.767 6        36.805                                                                    28200227.851 6 110663722.47006       -35.004 6        41.216    28200227.482 6 113550596.63806       -35.848 6        41.824
C36        35.000                                                                                                                                    23879320.015 7 124345799.84607     -3027.277 7        45.925                                                                    23879329.446 7 101041150.96507     -2459.837 7        46.769
G23        36.000    25539405.861 6 134210483.13906      3010.850 6        36.291                                    25539404.330 2 104579580.88802      2346.104 2        17.623    25539404.172 6 104579581.87906      2346.422 6        36.208
I09        38.000    39776734.378 6 156092187.81706      -954.753 6        40.770
R08        39.000    21278388.650 7 113944709.85007     -3853.890 7        46.846                                                                    21278394.256 7  88623636.26407     -2997.490 7        44.975
E25        40.000    23773494.069 8 124930552.51608       453.550 8        48.022                                                                    23773498.936 8  93292297.86508       338.631 8        50.397    23773498.090 8  95726002.14808       347.565 8        50.974
S44        42.000    40895510.381 6 214907317.74506      -409.742 6        37.180
C09        43.000                                                                                                                                    40768060.161 5 212289776.68305     -1043.589 5        35.848    40768071.873 6 164155851.81106      -806.811 6        41.812    40768066.450 6 172502765.11406      -847.879 6        36.367
C05        44.000                                                                                                                                    39349991.590 6 204905609.81006      -457.201 6        38.153    39349996.399 7 158445998.78807      -353.424 7        43.318    39349996.005 6 166502663.14806      -371.365 6        39.724
C40        45.000                                                                                                                                    39138755.241 7 203805761.39907       422.656 7        42.993                                                                    39138759.533 7 165608888.64707       343.400 7        42.233
C21        46.000                                                                                                                                    22004701.930 8 114584206.18208      -905.694 8        51.733                                                                    22004698.963 8  93109015.10108      -735.870 8        49.855
C10        49.000                                                                                                                                    39221603.999 6 204237179.31306       647.234 6        40.362    39221609.099 7 157929155.46107       500.459 7        43.479    39221605.566 6 165959438.91806       525.855 6        40.648
C42        50.000                                                                                                                                    23829834.166 7 124088149.81307      1977.287 7        46.444                                                                    23829844.608 7 100831812.48407      1606.784 7        47.188
S48        51.000    77165953.914 6 405508939.09906      -385.365 6        38.036
E02        53.000    26028454.321 7 136780494.10207      2606.804 7        42.366                                                                    26028462.392 7 102141343.12307      1946.549 7        45.935    26028460.698 7 104805882.81607      1997.345 7        45.953
C60        54.000                                                                                                                                    40895517.364 6 212953631.91006      -405.712 6        40.424                                                                    40895513.708 6 173042185.16006      -329.656 6        38.342
C45        55.000                                                                                                                                    21587936.044 8 112414017.72208      -566.149 8        50.440                                                                    21587930.777 8  91345564.33808      -459.971 8        49.881
R12        56.000    21759119.262 8 116233371.37408      3277.144 8        48.507                                                                    21759125.825 7  90403763.90307      2548.839 7        44.680
C02        57.000                                                                                                                                    40928530.263 5 213125377.26505      -451.535 5        33.216    40928541.368 6 164801985.29206      -349.468 6        38.159    40928540.205 5 173181774.29505      -367.109 5        33.018
I03        58.000   125055410.389 6 414958698.69106       926.803 6        40.338
C14        59.000                                                                                                                                    26079505.251 6 135802801.32206      2765.460 6        37.459    26079503.985 7 105011323.67407      2138.557 7        44.349    26079501.903 6 110350880.24706      2247.400 6        41.619
G07        60.000    23895412.540 6 125571113.46206     -3112.869 6        41.263                                    23895418.336 5  97847575.57305     -2425.603 5        35.367    23895418.376 6  97847576.56106     -2425.742 6        38.351
> 2025 01 01 08 15 10.0000000  0 53
G08         1.000    24410600.914 6 128278625.57106     -1632.441 6        37.380                                    24410608.300 5  99957424.32005     -1272.044 5        30.106    24410608.627 6  99957434.34506     -1272.040 6        36.699
R01         2.000    19117624.924 8 102194607.25108        39.699 8        48.499                                                                    19117628.012 6  79484750.90306        30.796 6        41.633
R02         4.000    21804413.251 7 116352487.27407      3280.385 7        47.197                                                                    21804416.592 7  90496383.13207      2551.394 7        44.211
S21         5.000    38448678.260 7 202048912.97707      -397.805 7        42.779
E05         6.000    24256288.548 7 127467568.26107     -2668.389 7        42.368                                                                    24256298.450 7  95186810.72207     -1992.585 7        46.597    24256296.906 7  97669941.57007     -2044.651 7        46.996
R10         8.000    21689971.997 7 115619676.52907     -4040.599 7        43.151
R19         9.000    23925008.104 5 127982607.11805       770.658 5        33.066                                                                    23925012.929 6  99542089.42306       599.382 6        37.520
G18        10.000    25156521.388 6 132198390.00706     -1486.822 6        38.189                                    25156519.990 3 103011712.55003     -1158.572 3        19.761    25156520.570 6 103011720.53806     -1158.603 6        37.357
C26        11.000                                                                                                                                    23812055.409 7 123995622.62207      2263.714 7        46.714                                                                    23812058.862 7 100756614.76707      1839.350 7        46.506
S27        12.000    39136310.346 6 205662574.00106      -429.119 6        36.155
G15        13.000    22015997.726 7 115694799.10207      2665.695 7        44.164                                    22015997.388 6  90151762.55106      2077.168 6        41.726    22015997.483 6  90151754.56206      2077.145 6        41.418
S36        14.000    38218120.068 7 200838019.40907      -399.078 7        44.128
G20        15.000    23049809.326 6 121127449.92306     -3765.213 6        41.628                                    23049812.504 4  94384976.39104     -2933.916 4        27.054
R11        16.000    19121687.261 8 102180492.49808      -567.619 8        52.168                                                                    19121688.820 8  79473712.23708      -441.562 8        48.947
S45        17.000    63399687.410 6 333168192.92206      -445.969 6        36.208
E13        18.000    27676415.934 6 145440502.20706     -2278.178 6        37.444                                                                    27676421.555 6 108608139.26206     -1701.374 6        40.091    27676420.441 6 111441397.91206     -1745.558 6        40.934
E24        19.000    25939196.321 7 136311309.34007     -2319.805 7        43.299                                                                    25939201.706 7 101790901.64107     -1732.371 7        46.399    25939200.310 7 104446315.66607     -1777.495 7        46.610
R18        20.000    23861137.557 7 127372354.52507     -1881.540 7        43.149                                                                    23861139.555 6  99067376.88406     -1463.326 6        40.179
G30        21.000    21283788.454 7 111847021.24507     -2211.571 7        47.081                                    21283790.974 8  87153514.38108     -1723.299 8        48.326    21283791.405 7  87153518.37907     -1723.309 7        44.313
I06        22.000    38050221.051 7 149317333.07907      -364.697 7        43.172
S28        23.000    40886912.864 5 214861932.24305      -406.088 5        34.762
G14        24.000    20637408.264 7 108450306.62907       484.640 7        47.731                                    20637408.569 6  84506732.51106       377.642 6        39.838    20637408.847 7  84506734.51307       377.645 7        47.883
S23        25.000    38150885.100 7 200484167.69007      -397.663 7        44.203
E08        26.000    25281712.993 7 132856248.67707      1726.796 7        43.465                                                                    25281715.867 7  99210818.38407      1289.506 7        47.395    25281715.017 8 101798926.07308      1323.107 8        48.103
C07        27.000                                                                                                                                    39118006.898 6 203697697.09006       319.360 6        40.503    39118008.695 7 157511985.56407       246.896 7        44.360    39118005.612 6 165521057.35706       259.424 6        40.973
G13        28.000    20131492.499 8 105791672.08308       817.279 8        48.623                                    20131491.046 6  82435038.94206       636.843 6        39.850
I02        29.000    37743945.336 7 148115345.18307       274.104 7        42.593
C22        30.000                                                                                                                                    24011883.943 7 125036075.97207     -3489.637 7        46.638                                                                    24011884.129 7 101602013.19307     -2835.595 7        46.230
I01        31.000   348313399.215 6  63715474.30106     -3094.015 6        39.420
E03        32.000    23261739.814 8 122241232.21708      -541.777 8        48.433                                                                    23261743.291 8  91284040.79208      -404.552 8        50.914    23261742.628 8  93665359.23608      -415.073 8        51.172
G05        33.000    21537491.057 7 113180236.00807     -2242.385 7        47.485                                    21537491.127 7  88192373.01807     -1747.306 7        46.559    21537491.627 7  88192376.00707     -1747.240 7        43.585
E26        34.000    28200272.203 6 148193404.48606       -49.121 6        36.975                                                                    28200273.490 6 110663901.37606       -36.785 6        41.383    28200273.081 7 113550780.21507       -37.756 7        42.235
C36        35.000                                                                                                                                    23882226.820 7 124360937.71607     -3028.254 7        45.550                                                                    23882236.515 7 101053451.67007     -2460.708 7        46.762
G23        36.000    25536541.825 6 134195430.90506      3009.619 6        36.775                                    25536540.010 2 104567851.85402      2345.163 2        17.811    25536539.400 6 104567852.84106      2345.235 6        36.144
I09        38.000    39777950.059 6 156096960.69606      -954.797 6        40.880
R08        39.000    21281988.445 7 113963984.33507     -3856.153 7        46.567                                                                    21281993.140 7  88638627.50107     -2999.220 7        44.888
E25        40.000    23773063.449 7 124928289.74607       451.327 7        47.945                                                                    23773068.296 8  93290608.13508       337.008 8        50.432    23773067.544 8  95724268.34308       345.781 8        50.960
S44        42.000    40895897.494 6 214909363.68006      -409.332 6        37.282
C09        43.000                                                                                                                                    40769061.958 5 212294992.66405     -1043.327 5        35.667    40769073.289 6 164159885.08306      -806.737 6        41.383    40769068.232 6 172507003.47606      -847.698 6        36.522
C05        44.000                                                                                                                                    39350429.859 6 204907894.34706      -456.929 6        38.141    39350435.016 7 158447765.36007      -353.460 7        43.281    39350434.685 6 166504519.52506      -371.315 6        40.064
C40        45.000                                                                                                                                    39138349.519 7 203803649.57607       421.753 7        42.798                                                                    39138354.019 7 165607172.62607       342.629 7        42.379
C21        46.000                                                                                                                                    22005572.519 8 114588740.07108      -908.245 8        51.828                                                                    22005569.700 8  93112699.24208      -738.084 8        49.970
C10        49.000                                                                                                                                    39220982.335 6 204233943.77606       646.667 6        40.412    39220987.486 7 157926653.53007       500.034 7        43.391    39220984.021 6 165956809.76306       525.397 6        40.739
C42        50.000                                                                                                                                    23827936.087 7 124078266.21407      1975.739 7        46.594                                                                    23827946.589 7 100823781.22407      1605.462 7        47.322
S48        51.000    77166325.926 6 405510864.53006      -385.173 6        38.075
E02        53.000    26025974.498 7 136767461.93907      2605.765 7        42.150                                                                    26025982.182 7 102131611.34607      1945.938 7        45.866    26025980.766 7 104795897.17007      1996.657 7        46.102
C60        54.000                                                                                                                                    40895906.829 6 212955659.28106      -405.531 6        40.520                                                                    40895902.882 6 173043832.55606      -329.724 6        38.408
C45        55.000                                                                                                                                    21588480.558 8 112416852.76708      -568.257 8        50.540                                                                    21588475.270 8  91347868.02908      -461.795 8        49.983
R12        56.000    21756052.665 8 116216989.75208      3275.250 8        48.101                                                                    21756058.784 7  90391022.66507      2547.368 7        44.272
C02        57.000                                                                                                                                    40928963.612 5 213127635.65205      -451.632 5        33.311    40928975.120 6 164803731.61406      -349.421 6        38.081    40928973.984 5 173183609.41105      -367.286 5        33.395
I03        58.000   125054229.597 6 414954063.56506       926.875 6        40.574
C14        59.000                                                                                                                                    26076849.977 6 135788973.98006      2765.086 6        37.879    26076848.344 7 105000631.48507      2138.083 7        44.042    26076846.356 6 110339644.38106      2246.768 6        41.702
G07        60.000    23898375.013 6 125586678.20306     -3113.430 6        40.265                                    23898380.196 5  97859703.88905     -2426.036 5        34.886    23898379.900 6  97859704.87106     -2425.860 6        38.003
> 2025 01 01 08 15 15.0000000  0 53
G08         1.000    24412156.113 6 128286795.36606     -1635.597 6        37.819                                    24412162.963 5  99963790.41905     -1274.491 5        30.166    24412164.230 6  99963800.43006     -1274.485 6        37.353
R01         2.000    19117589.419 8 102194417.69508        35.853 8        48.494                                                                    19117592.413 6  79484603.46706        27.944 6        41.821
R02         4.000    21801339.330 7 116336088.10507      3279.045 7        47.712                                                                    21801343.848 7  90483628.22307      2550.353 7        44.716
S21         5.000    38449057.950 7 202050901.39507      -397.828 7        42.734
E05         6.000    24258828.202 7 127480912.18707     -2669.413 7        42.618                                                                    24258837.796 7  95196775.31507     -1993.445 7        46.546    24258836.230 7  97680166.11107     -2045.452 7        47.003
R10         8.000    21693761.861 7 115639882.74307     -4042.069 7        42.597
R19         9.000    23924290.362 5 127978762.51105       767.046 5        32.868                                                                    23924294.053 6  99539099.22006       596.439 6        38.249
G18        10.000    25157936.795 6 132205830.87606     -1489.595 6        38.501                                    25157936.233 3 103017510.62603     -1160.734 3        20.024    25157936.198 6 103017518.61206     -1160.743 6        37.335
C26        11.000                                                                                                                                    23809881.973 7 123984307.08107      2262.365 7        46.237                                                                    23809885.813 7 100747419.97707      1838.377 7        46.600
S27        12.000    39136719.262 5 205664719.63505      -429.157 5        35.881
G15        13.000    22013462.379 7 115681474.45807      2663.985 7        44.462                                    22013461.809 6  90141379.70906      2075.835 6        41.800    22013462.187 6  90141371.69306      2075.994 6        41.292
S36        14.000    38218498.792 7 200840012.61007      -398.790 7        44.084
G20        15.000    23053392.505 7 121146278.23207     -3766.390 7        42.375                                    23053395.562 4  94399647.76204     -2934.845 4        27.150
R11        16.000    19122220.072 8 102183339.63308      -571.416 8        51.845                                                                    19122221.894 8  79475926.67308      -444.420 8        49.354
S45        17.000    63400064.346 6 333170422.17406      -445.943 6        36.095
E13        18.000    27678584.073 6 145451897.17406     -2279.844 6        37.561                                                                    27678590.046 6 108616648.46006     -1702.540 6        39.928    27678588.920 6 111450129.10906     -1747.016 6        40.927
E24        19.000    25941404.105 7 136322912.69907     -2321.638 7        43.014                                                                    25941409.706 7 101799566.45507     -1733.749 7        46.295    25941408.412 7 104455206.52407     -1778.925 7        46.607
R18        20.000    23862901.276 7 127381771.58907     -1885.467 7        42.758                                                                    23862903.402 6  99074701.23106     -1466.358 6        40.760
G30        21.000    21285893.220 7 111858082.16507     -2213.005 7        47.433                                    21285895.820 8  87162133.26408     -1724.414 8        48.323    21285896.237 7  87162137.25607     -1724.445 7        44.588
I06        22.000    38050685.943 7 149319156.08907      -364.699 7        43.071
S28        23.000    40887297.889 5 214863963.03005      -406.178 5        34.676
G14        24.000    20636948.418 7 108447890.57607       481.561 7        47.615                                    20636948.792 6  84504849.87406       375.240 6        39.829    20636948.985 8  84504851.87508       375.282 8        48.010
S23        25.000    38151262.559 7 200486155.87407      -397.817 7        44.217
E08        26.000    25280070.430 7 132847615.69307      1726.239 7        43.602                                                                    25280073.108 7  99204371.66607      1288.987 7        47.317    25280072.284 8 101792311.18308      1322.638 8        48.064
C07        27.000                                                                                                                                    39117700.416 6 203696101.52006       318.651 6        40.498    39117702.406 7 157510751.75407       246.381 7        44.369    39117699.351 6 165519760.82306       258.836 6        41.123
G13        28.000    20130715.521 8 105787590.61908       815.083 8        48.613                                    20130714.370 6  82431858.57606       635.131 6        39.973
I02        29.000    37743595.833 7 148113974.65107       273.813 7        42.485
C22        30.000                                                                                                                                    24015235.076 7 125053526.57907     -3490.905 7        46.693                                                                    24015235.674 7 101616193.20607     -2836.599 7        46.496
I01        31.000   348317341.428 6  63730943.70806     -3094.127 6        39.234
E03        32.000    23262255.797 8 122243944.29008      -543.232 8        48.401                                                                    23262259.375 8  91286066.03108      -405.702 8        50.797    23262258.665 8  93667437.31308      -416.313 8        51.192
G05        33.000    21539626.083 7 113191455.13407     -2245.495 7        47.780                                    21539626.085 7  88201115.17207     -1749.732 7        46.658    21539626.513 7  88201118.17207     -1749.732 7        43.903
E26        34.000    28200319.820 6 148193656.51406       -51.715 6        36.775                                                                    28200321.496 6 110664089.58006       -38.723 6        41.168    28200321.200 7 113550973.32207       -39.637 7        42.190
C36        35.000                                                                                                                                    23885134.656 7 124376080.50507     -3029.138 7        45.601                                                                    23885144.519 7 101065756.40107     -2461.349 7        46.825
G23        36.000    25533679.160 6 134180384.64106      3008.399 6        36.911                                    25533676.713 3 104556127.46203      2344.203 3        18.776    25533676.582 5 104556128.46805      2344.136 5        35.867
I09        38.000    39779166.692 6 156101733.92706      -954.850 6        40.856
R08        39.000    21285590.239 7 113983270.52107     -3858.479 7        46.527                                                                    21285594.474 7  88653627.83307     -3001.057 7        44.933
E25        40.000    23772635.140 8 124926038.62508       448.964 8        48.003                                                                    23772639.966 8  93288927.10408       335.258 8        50.342    23772639.151 8  95722543.45808       343.989 8        51.058
S44        42.000    40896288.967 6 214911409.68606      -409.081 6        37.032
C09        43.000                                                                                                                                    40770063.785 5 212300208.39605     -1043.297 5        35.533    40770075.135 6 164163918.19106      -806.797 6        41.104    40770070.088 6 172511241.66506      -847.761 6        36.752
C05        44.000                                                                                                                                    39350868.632 6 204910179.05906      -457.033 6        38.090    39350873.732 7 158449532.05107      -353.382 7        43.177    39350873.468 6 166506376.05806      -371.324 6        40.129
C40        45.000                                                                                                                                    39137945.000 7 203801542.94607       420.635 7        42.646                                                                    39137949.347 7 165605460.83507       341.898 7        42.506
C21        46.000                                                                                                                                    22006445.942 8 114593287.48008      -910.970 8        51.800                                                                    22006442.982 8  93116394.37708      -740.209 8        50.122
C10        49.000                                                                                                                                    39220361.858 6 204230711.81606       645.841 6        40.334    39220366.911 7 157924154.37607       499.451 7        43.230    39220363.380 6 165954183.54206       524.803 6        40.791
C42        50.000                                                                                                                                    23826039.617 7 124068391.02207      1974.065 7        46.531                                                                    23826050.135 7 100815756.82407      1604.201 7        47.469
S48        51.000    77166700.054 6 405512790.09806      -385.291 6        38.180
E02        53.000    26023495.382 7 136754434.29207      2604.932 7        42.408                                                                    26023502.680 7 102121882.95907      1945.235 7        45.592    26023501.790 7 104785914.98807      1995.937 7        46.197
C60        54.000                                                                                                                                    40896296.075 6 212957686.69506      -405.636 6        40.622                                                                    40896292.312 6 173045479.99106      -329.542 6        38.492
C45        55.000                                                                                                                                    21589027.014 8 112419699.12908      -570.528 8        50.509                                                                    21589021.859 8  91350180.93308      -463.513 8        50.130
R12        56.000    21752987.570 8 116200618.05208      3273.247 8        48.515                                                                    21752993.739 7  90378289.13607      2545.831 7        44.451
C02        57.000                                                                                                                                    40929396.895 5 213129894.09405      -451.871 5        33.491    40929408.496 6 164805477.98906      -349.311 6        38.153    40929407.297 5 173185444.58505      -366.915 5        33.234
I03        58.000   125053048.483 6 414949428.45906       926.990 6        40.434
C14        59.000                                                                                                                                    26074195.448 6 135775150.08706      2764.340 6        37.800    26074193.715 7 104989941.94207      2137.545 7        44.105    26074191.398 6 110328411.31306      2246.443 6        41.936
G07        60.000    23901337.518 6 125602245.28206     -3113.879 6        40.448                                    23901342.485 5  97871834.02905     -2426.389 5        34.733    23901342.747 6  97871835.01706     -2426.212 6        38.237
> 2025 01 01 08 15 20.0000000  0 53
G08         1.000    24413713.280 6 128294980.59806     -1638.648 6        37.471                                    24413720.585 5  99970168.53605     -1276.870 5        30.008    24413721.360 6  99970178.56106     -1276.911 6        37.093
R01         2.000    19117557.628 8 102194247.60108        31.962 8        48.804                                                                    19117560.575 6  79484471.16606        24.898 6        41.585
R02         4.000    21798268.965 7 116319695.61507      3277.711 7        47.639                                                                    21798271.810 7  90470878.49107      2549.286 7        44.119
S21         5.000    38449435.909 7 202052889.87607      -397.839 7        42.804
E05         6.000    24261368.289 7 127494260.84207     -2670.224 7        42.482                                                                    24261377.989 7  95206743.43207     -1994.063 7        46.476    24261376.552 7  97690394.26507     -2046.072 7        47.192
R10         8.000    21697554.815 7 115660096.11507     -4043.523 7        43.376
R19         9.000    23923576.228 5 127974938.10305       762.959 5        33.593                                                                    23923580.074 6  99536124.69006       593.305 6        38.204
G18        10.000    25159355.562 6 132213285.50806     -1492.394 6        38.297                                    25159354.837 3 103023319.40703     -1162.899 3        20.000    25159355.232 6 103023327.40706     -1163.008 6        38.541
C26        11.000                                                                                                                                    23807710.150 7 123972998.19607      2260.964 7        45.776                                                                    23807714.020 7 100738230.57207      1837.248 7        46.472
S27        12.000    39137126.421 5 205666865.40205      -429.384 5        35.852
G15        13.000    22010928.511 7 115668157.91907      2662.400 7        44.615                                    22010927.758 6  90131003.17606      2074.601 6        41.850    22010928.547 6  90130995.17206      2074.568 6        41.573
S36        14.000    38218880.785 7 200842005.70807      -398.700 7        44.164
G20        15.000    23056976.549 6 121165112.51406     -3767.564 6        41.661                                    23056979.751 4  94414323.78004     -2935.750 4        26.982
R11        16.000    19122756.571 8 102186205.68908      -575.144 8        52.025                                                                    19122758.134 8  79478155.82408      -447.359 8        48.885
S45        17.000    63400448.132 6 333172651.45506      -446.071 6        36.197
E13        18.000    27680754.985 6 145463300.88606     -2281.619 6        37.622                                                                    27680760.084 6 108625164.19906     -1703.924 6        40.002    27680759.024 6 111458866.99506     -1748.370 6        41.139
E24        19.000    25943614.000 7 136334524.65407     -2323.306 7        42.783                                                                    25943619.350 7 101808237.70007     -1735.039 7        46.130    25943618.053 7 104464103.98407     -1780.230 7        46.747
R18        20.000    23864668.535 7 127391207.70407     -1889.276 7        42.485                                                                    23864670.899 6  99082040.45106     -1469.384 6        40.174
G30        21.000    21287999.629 7 111869150.55907     -2214.522 7        47.308                                    21288002.084 8  87170757.97008     -1725.598 8        48.381    21288002.332 7  87170761.96107     -1725.609 7        44.640
I06        22.000    38051150.381 7 149320979.34607      -364.759 7        43.204
S28        23.000    40887682.480 5 214865993.47205      -406.093 5        34.729
G14        24.000    20636491.669 8 108445490.00108       478.502 8        48.011                                    20636491.984 6  84502979.30106       372.861 6        39.874    20636492.097 8  84502981.29908       372.837 8        48.177
S23        25.000    38151640.916 7 200488144.28607      -397.802 7        44.239
E08        26.000    25278428.332 7 132838986.16207      1725.476 7        43.482                                                                    25278431.030 7  99197927.52907      1288.510 7        47.166    25278430.101 8 101785698.94008      1322.076 8        48.234
C07        27.000                                                                                                                                    39117395.322 6 203694510.06906       317.888 6        40.346    39117396.708 7 157509521.14307       245.720 7        44.209    39117393.669 6 165518467.62006       258.302 6        40.946
G13        28.000    20129941.229 8 105783520.44108       812.772 8        48.591                                    20129939.849 6  82428687.00306       633.330 6        40.017
I02        29.000    37743246.952 7 148112605.42807       273.659 7        42.658
C22        30.000                                                                                                                                    24018587.734 7 125070983.53807     -3492.138 7        46.214                                                                    24018588.108 7 101630378.35807     -2837.582 7        46.488
I01        31.000   348321283.544 6  63746413.22506     -3093.895 6        39.309
E03        32.000    23262773.277 8 122246663.98208      -544.774 8        48.337                                                                    23262776.941 8  91288096.96908      -406.860 8        50.739    23262776.250 8  93669521.22208      -417.381 8        51.338
G05        33.000    21541763.902 7 113202689.56607     -2248.479 7        47.890                                    21541763.950 7  88209869.25507     -1752.058 7        46.698    21541764.173 7  88209872.25507     -1752.030 7        43.602
E26        34.000    28200370.304 6 148193920.84806       -54.135 6        36.665                                                                    28200371.729 6 110664286.95306       -40.465 6        41.035    28200371.404 7 113551175.85307       -41.544 7        42.299
C36        35.000                                                                                                                                    23888044.132 7 124391228.13607     -3030.105 7        45.849                                                                    23888053.469 7 101078065.05807     -2462.184 7        46.759
G23        36.000    25530816.514 6 134165344.35106      3007.211 6        36.507                                    25530814.642 3 104544407.72503      2343.294 3        18.358    25530814.819 5 104544408.73405      2343.447 5        35.905
I09        38.000    39780382.968 6 156106507.42406      -954.775 6        40.996
R08        39.000    21289194.057 7 114002568.37907     -3860.799 7        47.146                                                                    21289198.394 7  88668637.25107     -3002.934 7        44.462
E25        40.000    23772208.992 7 124923799.05807       446.669 7        47.934                                                                    23772213.788 8  93287254.70908       333.508 8        50.278    23772212.985 8  95720827.43408       342.207 8        51.160
S44        42.000    40896678.745 6 214913455.69206      -409.391 6        37.191
