     3.04           OBSERVATION DATA    M                   RINEX VERSION / TYPE
ssrcrin-15.6.1x                         20250101 150000 UTC PGM / RUN BY / DATE 
(00000000023479385599111004) Septentrio proprietary         COMMENT             
rref                                                        MARKER NAME         
01                                                          MARKER NUMBER       
geodetic                                                    MARKER TYPE         
NFB                 CLIMERS@TUW                             OBSERVER / AGENCY   
3297213             SEPT ASTERX SB3 PROB4.14.4              REC # / TYPE / VERS 
Unknown             Unknown                                 ANT # / TYPE        
  4127831.1766  1207194.3057  4695247.5373                  APPROX POSITION XYZ 
        0.0000        0.0000        0.0000                  ANTENNA: DELTA H/E/N
G   23 X1  C1C L1C D1C S1C C1W S1W C2W L2W D2W S2W C2L L2L  SYS / # / OBS TYPES 
       D2L S2L C5Q L5Q D5Q S5Q C1L L1L D1L S1L              SYS / # / OBS TYPES 
E   21 X1  C1C L1C D1C S1C C6C L6C D6C S6C C5Q L5Q D5Q S5Q  SYS / # / OBS TYPES 
       C7Q L7Q D7Q S7Q C8Q L8Q D8Q S8Q                      SYS / # / OBS TYPES 
S    9 X1  C1C L1C D1C S1C C5I L5I D5I S5I                  SYS / # / OBS TYPES 
R   17 X1  C1C L1C D1C S1C C2P L2P D2P S2P C2C L2C D2C S2C  SYS / # / OBS TYPES 
       C3Q L3Q D3Q S3Q                                      SYS / # / OBS TYPES 
C   25 X1  C1P L1P D1P S1P C5P L5P D5P S5P C2I L2I D2I S2I  SYS / # / OBS TYPES 
       C7I L7I D7I S7I C6I L6I D6I S6I C7D L7D D7D S7D      SYS / # / OBS TYPES 
J   17 X1  C1C L1C D1C S1C C2L L2L D2L S2L C5Q L5Q D5Q S5Q  SYS / # / OBS TYPES 
       C1L L1L D1L S1L                                      SYS / # / OBS TYPES 
I    5 X1  C5A L5A D5A S5A                                  SYS / # / OBS TYPES 
SEPTENTRIO RECEIVERS OUTPUT ALIGNED CARRIER PHASES.         COMMENT             
NO FURTHER PHASE SHIFT APPLIED IN THE RINEX ENCODER.        COMMENT             
G L1C                                                       SYS / PHASE SHIFT   
G L2W                                                       SYS / PHASE SHIFT   
G L2L  0.00000                                              SYS / PHASE SHIFT   
G L5Q  0.00000                                              SYS / PHASE SHIFT   
G L1L  0.00000                                              SYS / PHASE SHIFT   
E L1C  0.00000                                              SYS / PHASE SHIFT   
E L6C  0.00000                                              SYS / PHASE SHIFT   
E L5Q  0.00000                                              SYS / PHASE SHIFT   
E L7Q  0.00000                                              SYS / PHASE SHIFT   
E L8Q  0.00000                                              SYS / PHASE SHIFT   
S L1C                                                       SYS / PHASE SHIFT   
S L5I                                                       SYS / PHASE SHIFT   
R L1C                                                       SYS / PHASE SHIFT   
R L2P  0.00000                                              SYS / PHASE SHIFT   
R L2C                                                       SYS / PHASE SHIFT   
R L3Q  0.00000                                              SYS / PHASE SHIFT   
C L1P  0.00000                                              SYS / PHASE SHIFT   
C L5P  0.00000                                              SYS / PHASE SHIFT   
C L2I                                                       SYS / PHASE SHIFT   
C L7I                                                       SYS / PHASE SHIFT   
C L6I                                                       SYS / PHASE SHIFT   
C L7D                                                       SYS / PHASE SHIFT   
J L1C                                                       SYS / PHASE SHIFT   
J L2L  0.00000                                              SYS / PHASE SHIFT   
J L5Q  0.00000                                              SYS / PHASE SHIFT   
J L1L  0.00000                                              SYS / PHASE SHIFT   
I L5A                                                       SYS / PHASE SHIFT   
  2025     1     1    15     0    0.0000000     GPS         TIME OF FIRST OBS   
 C1C    0.000 C2C    0.000 C2P    0.000                     GLONASS COD/PHS/BIS 
DBHZ                                                        SIGNAL STRENGTH UNIT
    18                                                      LEAP SECONDS        
 24 R01  1 R02 -4 R03  5 R04  6 R05  1 R06 -4 R07  5 R08  6 GLONASS SLOT / FRQ #
    R09 -2 R10 -7 R11  0 R12 -1 R13 -2 R14 -7 R15  0 R16 -1 GLONASS SLOT / FRQ #
    R17  4 R18 -3 R19  3 R20  2 R21  4 R22 -3 R23  3 R24  2 GLONASS SLOT / FRQ #
                                                            END OF HEADER       
> 2025 01 01 15 00  0.0000000  0 57
G20         1.000    24521725.993 6 128862623.18306      1390.807 6        37.580                                    24521729.612 3 100412476.06503      1083.729 3        19.612
G25         2.000    20003856.424 8 105121125.65108     -1233.715 8        49.729                                    20003858.871 8  81912655.26408      -961.341 8        50.070    20003859.767 7  81912665.27707      -961.358 7        45.083
G29         4.000    20890524.832 8 109780729.41808       826.157 8        49.853                                    20890526.005 8  85543569.48808       643.751 8        50.396    20890526.292 7  85543572.50207       643.846 7        45.538
S21         5.000    38577402.346 7 202725214.51007      -627.389 7        43.029
G06         6.000    25118526.442 6 131998992.71906     -3870.760 6        37.267                                    25118526.664 4 102856480.25704     -3016.177 4        29.033    25118527.424 6 102856471.26206     -3016.061 6        36.295
E19         7.000    26875729.927 5 141232863.82105      -390.890 5        34.467                                                                    26875740.913 6 105466102.50306      -291.808 6        37.762    26875739.225 6 108217393.79406      -299.343 6        38.267
E15         8.000    25772102.410 7 135433499.50907      2229.170 7        44.185                                                                    25772113.433 7 101135536.46407      1664.703 7        47.254    25772111.654 7 103773835.51007      1708.128 7        47.451
G11         9.000    22813996.734 7 119888576.56507     -2096.259 7        45.141                                    22813998.126 5  93419782.49405     -1633.456 5        33.635    22813998.209 7  93419782.51407     -1633.522 7        44.423
E30        10.000    24268019.059 8 127529466.27108     -1740.156 8        48.032                                                                    24268024.137 8  95233158.02508     -1299.520 8        50.390    24268023.189 8  97717489.25408     -1333.399 8        51.177
G26        11.000    25107942.697 5 131943118.86605      2797.135 5        35.271                                    25107966.182 4 102812905.78604      2179.567 4        25.759    25107966.060 5 102812925.77605      2179.934 5        32.737
S27        12.000    39375710.832 6 206920535.67706      -629.236 6        36.242
R15        13.000    20386223.363 8 108938023.27408      1941.562 8        51.689                                                                    20386228.473 7  84729696.35707      1510.113 7        47.396
S36        14.000    38349754.505 7 201529672.78107      -627.437 7        44.781
G12        15.000    22254070.802 7 116946075.35207     -3296.208 7        46.349                                    22254071.509 7  91126887.51807     -2568.475 7        44.036    22254072.485 7  91126887.52707     -2568.516 7        42.607
E29        16.000    26696238.513 6 140289556.04806     -2458.123 6        41.094                                                                    26696254.688 7 104761674.49407     -1835.611 7        43.915    26696252.519 7 107494587.60607     -1883.455 7        43.898
S45        17.000    63553396.298 6 333976904.83406      -690.799 6        36.318
G31        18.000    23212045.597 7 121980280.88607      2230.199 7        42.377                                    23212050.072 6  95049688.48906      1737.792 6        38.162    23212050.449 6  95049667.54106      1737.783 6        39.697
C35        19.000                                                                                                                                    26797040.224 6 139539447.07906     -3877.471 6        37.747                                                                    26797040.248 6 113387325.95106     -3150.904 6        38.453
E21        20.000    28257158.482 6 148492388.65806      1883.290 6        36.681                                                                    28257185.227 6 110887284.46106      1406.349 6        39.396    28257182.064 6 113779983.28006      1442.973 6        39.853
R14        21.000    19569371.350 8 104315888.44508     -1750.964 8        52.502                                                                    19569376.080 7  81134664.11607     -1361.907 7        47.687
I06        22.000    38778339.804 7 152174561.16807      -538.848 7        42.495
S28        23.000    41054925.310 5 215744958.86605      -630.026 5        34.667
E34        24.000    24676786.565 7 129677625.95607      -222.469 7        46.611                                                                    24676792.515 8  96837353.52808      -166.084 8        49.096    24676791.519 8  99363527.69908      -170.438 8        49.547
S23        25.000    38295762.793 7 201245420.79907      -631.913 7        45.360
C13        26.000                                                                                                                                    40154254.143 6 209093807.79906      1409.008 6        39.634    40154263.632 6 161684673.50306      1089.645 6        41.800    40154259.369 6 169905906.81606      1145.277 6        38.147
G18        27.000    25486794.570 6 133934026.58806      3182.487 6        38.643                                    25486811.246 3 104364265.22503      2479.832 3        20.238    25486811.693 6 104364256.26206      2479.885 6        37.660
R24        28.000    19521844.776 8 104392361.97608     -1012.029 8        51.125                                                                    19521848.876 7  81194225.71507      -787.115 7        46.542
I02        29.000    37651093.543 7 147750981.84207      -819.300 7        42.482
G28        30.000    21750114.945 7 114297742.99907       822.751 7        46.832                                    21750117.985 6  89063254.89606       641.100 6        36.117    21750118.358 7  89063251.93107       641.001 7        46.207
E07        31.000    28293067.355 6 148680768.83506     -3594.430 6        37.853                                                                    28293093.401 6 111027775.64606     -2684.037 6        39.811    28293090.540 6 113924158.42106     -2754.221 6        41.046
C12        32.000                                                                                                                                    22054711.939 8 114844883.26608     -1043.142 8        48.451    22054712.767 8  88805459.83208      -806.602 8        52.297    22054711.193 8  93320954.25008      -847.610 8        49.554
R17        33.000    21102356.707 8 112923199.40108      3003.166 8        50.621                                                                    21102363.351 7  87829288.21807      2335.776 7        45.055
R23        34.000    22877591.995 6 122379872.24606     -4681.174 6        41.831
C24        35.000                                                                                                                                    23155582.552 8 120577225.87308     -3114.741 8        48.211                                                                    23155584.513 8  97978893.49608     -2530.926 8        48.210
R05        36.000    24238029.657 6 129565945.36406     -4086.773 6        41.151                                                                    24238052.587 6 100773493.44706     -3178.538 6        38.814
E27        37.000    24189295.087 7 127115756.63807       645.922 7        47.923                                                                    24189301.412 8  94924231.58508       482.310 8        50.619    24189300.173 8  97400498.88608       494.904 8        50.861
R06        39.000    23635465.393 5 126123344.78305     -1144.122 5        32.419
R07        40.000    24581438.038 6 131586363.68906      1697.378 6        37.754                                                                    24581439.571 6 102344956.26706      1320.375 6        36.310
C34        41.000                                                                                                                                    21866784.580 8 113866338.53908       726.304 8        50.845                                                                    21866788.439 8  92525848.73608       590.268 8        49.181
S44        42.000    40799850.315 6 214404708.85606      -545.069 6        37.905
C38        43.000                                                                                                                                    39803104.515 6 207265275.21806       870.485 6        41.771                                                                    39803107.730 6 168420056.74906       707.340 6        41.280
C05        44.000                                                                                                                                    39581510.726 6 206111197.03006      -587.916 6        37.830    39581515.910 7 159378236.78107      -454.713 7        43.323    39581514.904 6 167482302.73706      -477.726 6        39.757
C08        45.000                                                                                                                                    39915909.572 6 207852685.15806      1412.811 6        37.289    39915910.232 7 160724925.62307      1092.430 7        42.360    39915908.297 6 168897359.35506      1148.131 6        39.670
G32        46.000    24591468.702 7 129228822.49607     -3321.115 7        42.152                                    24591484.936 5 100697755.12605     -2587.869 5        32.707    24591486.054 6 100697757.10006     -2587.779 6        36.121
E36        47.000    27231964.476 6 143105111.90206     -2831.259 6        39.571                                                                    27231969.859 6 106864345.67606     -2114.098 6        41.816    27231968.776 7 109652091.48007     -2169.319 7        42.292
C43        48.000                                                                                                                                    24958309.994 7 129964559.74907      2604.354 7        42.760                                                                    24958320.462 7 105606927.90507      2116.234 7        43.327
C10        49.000                                                                                                                                    40456857.637 6 210669497.02906     -1320.053 6        36.919    40456860.024 6 162903039.56706     -1020.899 6        40.095    40456856.784 6 171186230.37306     -1072.630 6        37.043
C44        50.000                                                                                                                                    22788928.795 8 118667986.18508     -2530.787 8        48.190                                                                    22788930.842 7  96427494.34207     -2056.440 7        47.739
S48        51.000    77292048.037 6 406173870.47006      -655.291 6        38.297
E02        53.000    27831485.678 6 146255456.12206     -3088.603 6        38.027                                                                    27831495.511 6 109216792.67306     -2306.317 6        41.602    27831493.620 6 112065910.35806     -2366.572 6        40.846
C60        54.000                                                                                                                                    40799852.956 6 212455593.20706      -540.247 6        39.643                                                                    40799845.173 6 172637510.13106      -438.911 6        39.736
C25        55.000                                                                                                                                    21590360.527 8 112426810.69408      -186.037 8        51.306                                                                    21590362.370 8  91356059.27208      -151.163 8        49.453
C23        56.000                                                                                                                                    24988529.365 7 130122014.76107      2216.115 7        43.977                                                                    24988529.680 7 105734871.01707      1800.809 7        45.076
C02        57.000                                                                                                                                    40999426.292 5 213494677.75005      -542.556 5        33.030    40999429.697 6 165087583.50206      -419.549 6        39.273    40999431.199 5 173481886.57005      -440.794 5        35.767
I03        58.000   117038289.403 6 383497951.49206       950.209 6        38.535
C11        59.000                                                                                                                                    23239629.672 7 121015029.05107      2015.318 7        47.516    23239634.521 8  93576614.51908      1558.390 8        50.290    23239631.334 7  98334706.77407      1637.609 7        47.877
R13        60.000    23678658.155 6 126442687.22706     -4426.427 6        37.682
> 2025 01 01 15 00  5.0000000  0 57
G20         1.000    24520403.927 6 128855673.87906      1388.720 6        38.252                                    24520407.023 3 100407061.08503      1082.095 3        20.071
G25         2.000    20005031.402 8 105127300.69608     -1236.195 8        49.604                                    20005033.919 8  81917467.01308      -963.272 8        50.166    20005034.613 7  81917477.02307      -963.253 7        44.992
G29         4.000    20889739.750 8 109776604.61808       823.687 8        49.710                                    20889741.065 8  85540355.38808       641.828 8        50.497    20889741.539 7  85540358.39507       641.891 7        45.812
S21         5.000    38577999.893 7 202728351.76807      -627.558 7        43.228
G06         6.000    25122210.222 6 132018350.50106     -3872.315 6        37.554                                    25122210.418 4 102871564.29104     -3017.394 4        29.242    25122211.209 6 102871555.30806     -3017.328 6        36.556
E19         7.000    26876103.105 5 141234824.10605      -393.425 5        35.138                                                                    26876113.930 6 105467566.35906      -293.646 6        37.819    26876112.285 6 108218895.84206      -301.341 6        38.471
E15         8.000    25769981.939 7 135422356.60707      2227.888 7        44.215                                                                    25769992.829 7 101127215.56407      1663.678 7        47.062    25769991.247 7 103765297.52507      1707.162 7        47.539
G11         9.000    22815992.784 7 119899065.75107     -2099.425 7        44.944                                    22815994.142 5  93427955.92005     -1635.920 5        33.802    22815993.939 7  93427955.92707     -1635.898 7        44.158
E30        10.000    24269675.311 8 127538169.93408     -1741.249 8        48.274                                                                    24269680.346 8  95239657.53208     -1300.337 8        50.471    24269679.483 8  97724158.30908     -1334.195 8        51.248
G26        11.000    25105282.899 5 131929134.36205      2796.707 5        35.638                                    25105304.686 4 102802008.77604      2179.248 4        25.835    25105305.567 5 102802028.76005      2179.721 5        32.629
S27        12.000    39376302.924 6 206923681.62606      -629.480 6        36.870
R15        13.000    20384408.007 8 108928320.60808      1939.539 8        51.526                                                                    20384412.816 7  84722149.87807      1508.508 7        47.270
S36        14.000    38350351.417 7 201532810.57407      -627.621 7        44.868
G12        15.000    22257207.870 7 116962560.25007     -3297.696 7        46.440                                    22257208.518 7  91139732.90007     -2569.633 7        44.101    22257209.275 7  91139732.91007     -2569.672 7        42.622
E29        16.000    26698578.525 6 140301851.27006     -2459.982 6        41.006                                                                    26698594.503 7 104770855.98507     -1836.982 7        43.824    26698592.111 7 107504008.61707     -1884.824 7        43.992
S45        17.000    63553999.301 6 333978659.51216      -690.878 6        36.457
G31        18.000    23209924.640 7 121969135.20807      2228.126 7        42.815                                    23209929.048 6  95041003.63106      1736.185 6        38.288    23209930.027 6  95040982.66306      1736.271 6        39.919
C35        19.000                                                                                                                                    26800763.616 6 139558836.13806     -3877.909 6        38.150                                                                    26800763.684 6 113403081.19806     -3151.137 6        38.399
E21        20.000    28255366.753 6 148482972.11606      1883.287 6        36.941                                                                    28255393.218 6 110880252.73806      1406.363 6        39.180    28255390.168 6 113772768.10506      1442.932 6        39.895
R14        21.000    19571015.448 8 104324651.43508     -1754.204 8        52.393                                                                    19571020.081 7  81141479.77707     -1364.344 7        47.821
I06        22.000    38779026.210 7 152177255.11707      -538.848 7        42.311
S28        23.000    41055528.116 5 215748109.54805      -630.378 5        34.505
E34        24.000    24676999.140 7 129678744.67007      -225.090 7        46.822                                                                    24677005.320 8  96838188.95808      -168.051 8        48.994    24677004.377 8  99364384.91708      -172.467 8        49.553
S23        25.000    38296362.437 7 201248580.40807      -631.959 7        45.401
C13        26.000                                                                                                                                    40152901.532 6 209086763.93106      1408.378 6        39.901    40152910.860 6 161679226.75406      1089.236 6        41.528    40152906.722 6 169900183.13806      1144.478 6        37.800
G18        27.000    25483766.514 6 133918113.91606      3182.546 6        38.907                                    25483783.233 3 104351865.82503      2479.885 3        20.357    25483783.020 6 104351856.86806      2479.913 6        37.871
R24        28.000    19522793.666 8 104397433.19708     -1016.450 8        51.443                                                                    19522796.810 7  81198170.00707      -790.536 7        46.497
I02        29.000    37652137.807 7 147755079.01107      -819.580 7        42.351
G28        30.000    21749333.812 7 114293637.87107       819.500 7        46.813                                    21749336.752 6  89060056.13606       638.559 6        36.208    21749336.790 7  89060053.14607       638.614 7        46.051
E07        31.000    28296487.736 6 148698740.90906     -3594.384 6        38.135                                                                    28296513.381 6 111041196.27006     -2684.117 6        39.712    28296510.675 6 113937929.14606     -2754.081 6        41.035
C12        32.000                                                                                                                                    22055714.694 8 114850105.56708     -1045.807 8        48.438    22055715.672 8  88809498.06308      -808.648 8        52.095    22055714.048 8  93325197.82008      -849.810 8        49.432
R17        33.000    21099551.310 8 112908190.16308      3000.563 8        50.598                                                                    21099558.007 7  87817614.42607      2333.881 7        44.462
R23        34.000    22881967.859 6 122403282.02806     -4682.710 6        41.921
C24        35.000                                                                                                                                    23158574.253 8 120592803.59508     -3116.360 8        48.119                                                                    23158575.938 8  97991551.67908     -2532.232 8        48.013
R05        36.000    24241852.077 6 129586383.67906     -4088.504 6        40.908                                                                    24241874.070 6 100789389.89206     -3179.759 6        37.289
E27        37.000    24188681.135 8 127112529.84508       644.871 8        48.140                                                                    24188687.359 8  94921822.00408       481.565 8        50.536    24188686.138 8  97398026.44508       494.121 8        50.847
R06        39.000    23636537.716 5 126129076.15505     -1148.428 5        33.527
R07        40.000    24579854.274 6 131577884.29506      1694.314 6        38.904                                                                    24579854.729 5 102338361.18705      1317.895 5        35.629
C34        41.000                                                                                                                                    21866088.319 8 113862713.29008       723.812 8        50.879                                                                    21866092.270 8  92522902.95608       588.203 8        49.191
S44        42.000    40800368.715 6 214407435.18506      -545.227 6        38.036
C38        43.000                                                                                                                                    39802269.420 6 207260925.20406       869.520 6        41.936                                                                    39802272.268 6 168416522.06206       706.693 6        41.366
C05        44.000                                                                                                                                    39582075.183 6 206114137.03306      -588.102 6        38.033    39582080.426 7 159380510.20607      -454.672 7        43.134    39582079.406 6 167484691.76106      -477.832 6        39.676
C08        45.000                                                                                                                                    39914553.511 6 207845623.42106      1411.949 6        37.372    39914554.071 7 160719465.05207      1091.857 7        42.235    39914552.142 6 168891621.12906      1147.448 6        39.742
G32        46.000    24594629.631 6 129245430.90106     -3322.377 6        41.962                                    24594645.658 5 100710696.67605     -2588.856 5        32.832    24594646.060 6 100710698.65206     -2588.882 6        36.352
E36        47.000    27234658.700 6 143119272.08406     -2833.009 6        39.898                                                                    27234664.426 6 106874919.86406     -2115.418 6        41.783    27234663.454 7 109662941.51007     -2170.572 7        42.281
C43        48.000                                                                                                                                    24955809.743 7 129951540.35007      2603.427 7        42.643                                                                    24955820.167 7 105596348.63107      2115.440 7        43.227
C10        49.000                                                                                                                                    40458124.327 6 210676097.65506     -1319.861 6        36.805    40458127.562 6 162908143.62006     -1020.724 6        40.164    40458124.274 6 171191593.94706     -1072.790 6        36.987
C44        50.000                                                                                                                                    22791359.679 8 118680645.06408     -2532.754 8        48.290                                                                    22791361.801 7  96437780.72307     -2058.004 7        47.694
S48        51.000    77292652.404 6 406177146.89606      -655.243 6        38.231
E02        53.000    27834424.184 6 146270899.87606     -3089.076 6        38.042                                                                    27834434.408 6 109228325.40406     -2306.769 6        41.356    27834432.329 6 112077743.92206     -2366.775 6        40.894
C60        54.000                                                                                                                                    40800371.808 6 212458294.76206      -540.293 6        39.688                                                                    40800363.975 6 172639705.40606      -438.945 6        39.628
C25        55.000                                                                                                                                    21590540.291 8 112427746.65308      -188.323 8        51.503                                                                    21590542.096 8  91356819.83908      -153.016 8        49.324
C23        56.000                                                                                                                                    24986401.764 7 130110936.33007      2215.255 7        43.875                                                                    24986402.177 7 105725868.95407      1800.094 7        45.044
C02        57.000                                                                                                                                    40999947.191 5 213497391.38405      -542.689 5        32.928    40999950.815 6 165089681.89306      -419.611 6        38.991    40999952.196 5 173484091.68005      -441.089 5        35.710
I03        58.000   117037078.863 6 383493200.79006       950.158 6        38.396
C11        59.000                                                                                                                                    23237695.467 7 121004957.15207      2013.457 7        47.742    23237700.439 8  93568826.34208      1556.961 8        50.195    23237696.991 7  98326522.58407      1636.138 7        47.625
R13        60.000    23682803.450 6 126464822.33906     -4427.299 6        37.002
> 2025 01 01 15 00 10.0000000  0 57
G20         1.000    24519084.145 6 128848734.18606      1386.865 6        38.721                                    24519086.628 3 100401653.57803      1080.666 3        20.333
G25         2.000    20006208.751 8 105133487.62708     -1238.711 8        49.689                                    20006211.230 8  81922288.01908      -965.234 8        50.239    20006212.116 7  81922298.03207      -965.261 7        44.907
G29         4.000    20888957.021 8 109772491.78508       821.221 8        49.728                                    20888958.406 8  85537150.61508       639.909 8        50.587    20888958.593 7  85537153.62907       639.934 7        45.738
S21         5.000    38578596.720 7 202731489.13807      -627.570 7        43.293
G06         6.000    25125895.090 6 132037715.68306     -3873.753 6        37.769                                    25125895.549 4 102886654.09304     -3018.513 4        29.526    25125895.563 6 102886645.12106     -3018.653 6        36.556
E19         7.000    26876478.129 5 141236796.56405      -395.934 5        35.100                                                                    26876489.285 6 105469039.33906      -295.630 6        37.637    26876487.739 6 108220407.23606      -303.180 6        38.294
E15         8.000    25767862.828 7 135411219.80007      2226.592 7        44.110                                                                    25767873.343 7 101118899.20707      1662.711 7        47.046    25767872.053 7 103756764.21307      1706.085 7        47.469
G11         9.000    22817991.679 7 119909570.15707     -2102.540 7        45.150                                    22817993.025 5  93436141.20405     -1638.346 5        34.029    22817992.968 7  93436141.21107     -1638.282 7        44.466
E30        10.000    24271332.765 8 127546879.08308     -1742.492 8        48.246                                                                    24271337.613 8  95246161.13708     -1301.207 8        50.421    24271336.705 8  97730831.57308     -1335.181 8        51.121
G26        11.000    25102621.420 5 131915150.38305      2796.731 5        35.776                                    25102643.449 4 102791112.17704      2179.272 4        26.204    25102644.436 5 102791132.18605      2179.313 5        32.862
S27        12.000    39376902.841 6 206926827.39506      -629.141 6        36.896
R15        13.000    20382593.819 8 108918627.69908      1937.456 8        51.794                                                                    20382598.720 7  84714610.97907      1506.881 7        47.151
S36        14.000    38350948.442 7 201535948.51707      -627.518 7        44.968
G12        15.000    22260345.953 7 116979051.99307     -3299.136 7        46.640                                    22260346.819 7  91152583.61907     -2570.755 7        44.152    22260347.383 6  91152583.62606     -2570.756 6        41.976
E29        16.000    26700919.907 6 140314155.17406     -2461.756 6        40.667                                                                    26700935.845 7 104780043.96307     -1838.324 7        44.008    26700933.488 7 107513436.28507     -1886.389 7        44.001
S45        17.000    63554604.848 6 333982114.22006      -691.129 6        36.325
G31        18.000    23207805.888 7 121957999.69707      2225.996 7        42.963                                    23207809.910 6  95032326.70006      1734.527 6        38.381    23207810.650 6  95032305.73606      1734.456 6        40.088
C35        19.000                                                                                                                                    26804487.333 6 139578226.48106     -3878.208 6        38.315                                                                    26804487.337 6 113418837.48906     -3151.280 6        38.508
E21        20.000    28253574.782 6 148473555.51006      1883.156 6        36.987                                                                    28253601.095 6 110873220.97106      1406.116 6        39.123    28253598.122 6 113765552.87406      1442.869 6        39.898
R14        21.000    19572662.159 8 104333430.04408     -1757.401 8        52.258                                                                    19572666.498 7  81148307.59907     -1366.859 7        47.494
I06        22.000    38779712.716 7 152179948.92007      -538.859 7        42.358
S28        23.000    41056126.432 5 215751260.46205      -630.470 5        34.710
E34        24.000    24677214.525 7 129679876.14307      -227.664 7        46.514                                                                    24677220.598 8  96839033.93008      -170.045 8        49.059    24677219.631 8  99365251.93208      -174.508 8        49.492
S23        25.000    38296964.729 7 201251739.94507      -632.039 7        45.517
C13        26.000                                                                                                                                    40151549.219 6 209079722.72406      1407.836 6        40.024    40151558.723 6 161673782.10906      1088.657 6        41.225    40151554.506 6 169894461.61506      1144.077 6        37.853
G18        27.000    25480738.319 6 133902200.41506      3182.699 6        38.829                                    25480754.679 3 104339465.78203      2480.001 3        20.714    25480754.936 6 104339456.81906      2479.981 6        38.237
R24        28.000    19523745.906 8 104402526.02908     -1020.881 8        51.346                                                                    19523748.943 7  81202131.12007      -794.028 7        46.243
I02        29.000    37653182.188 7 147759176.76807      -819.596 7        42.605
G28        30.000    21748555.531 7 114289547.79207       816.490 7        47.077                                    21748558.395 6  89056869.09606       636.217 6        36.329    21748558.616 7  89056866.11007       636.160 7        46.047
E07        31.000    28299907.168 6 148716711.93806     -3594.201 6        37.962                                                                    28299933.158 6 111054616.13206     -2684.056 6        39.637    28299930.539 6 113951699.09006     -2753.960 6        41.063
C12        32.000                                                                                                                                    22056720.281 8 114855340.79208     -1048.520 8        48.467    22056721.037 8  88813546.29408      -810.733 8        51.946    22056719.449 8  93329451.88608      -851.943 8        49.353
R17        33.000    21096748.557 8 112893193.69908      2997.868 8        50.339                                                                    21096755.502 7  87805950.57507      2331.627 7        44.823
R23        34.000    22886346.723 7 122426699.14307     -4684.211 7        42.440
C24        35.000                                                                                                                                    23161567.140 8 120608388.88808     -3117.901 8        48.278                                                                    23161568.962 7  98004216.01007     -2533.543 7        47.921
R05        36.000    24245677.318 6 129606829.53806     -4090.027 6        41.404                                                                    24245699.411 6 100805292.19106     -3181.063 6        38.474
E27        37.000    24188068.119 8 127109307.63008       643.901 8        48.105                                                                    24188074.141 8  94919415.85508       480.798 8        50.566    24188072.925 8  97395557.51608       493.354 8        50.840
R06        39.000    23637616.916 5 126134828.21505     -1152.337 5        33.904
R07        40.000    24578272.374 6 131569420.68606      1690.996 6        39.523                                                                    24578274.003 6 102331778.41806      1315.237 6        36.420
C34        41.000                                                                                                                                    21865394.593 8 113859099.96408       721.375 8        50.939                                                                    21865398.319 8  92519966.85808       586.168 8        49.068
S44        42.000    40800890.361 6 214410161.56106      -545.518 6        37.962
C38        43.000                                                                                                                                    39801435.238 7 207256579.54507       868.650 7        42.102                                                                    39801437.664 6 168412990.91806       705.801 6        41.237
C05        44.000                                                                                                                                    39582639.439 6 206117076.94206      -588.164 6        38.204    39582645.026 7 159382783.58007      -454.727 7        43.172    39582644.024 6 167487080.73006      -477.952 6        39.685
C08        45.000                                                                                                                                    39913197.193 6 207838565.13006      1411.171 6        37.414    39913198.709 7 160714007.15407      1091.078 7        42.053    39913196.608 6 168885885.70506      1146.567 6        39.495
G32        46.000    24597791.010 6 129262045.15806     -3323.368 6        40.968                                    24597807.470 5 100723642.78905     -2589.620 5        32.790    24597807.212 5 100723644.76605     -2589.874 5        35.514
E36        47.000    27237354.930 6 143133440.69206     -2834.758 6        39.321                                                                    27237360.677 7 106885500.33407     -2116.791 7        42.070    27237359.796 7 109673797.99107     -2171.995 7        42.309
C43        48.000                                                                                                                                    24953310.988 7 129938525.35507      2602.439 7        43.206                                                                    24953320.437 7 105585772.92207      2114.742 7        43.158
C10        49.000                                                                                                                                    40459391.575 6 210682698.05906     -1320.259 6        36.461    40459394.803 6 162913247.47406     -1020.874 6        39.943    40459391.967 6 171196957.31006     -1072.784 6        37.021
C44        50.000                                                                                                                                    22793792.570 8 118693313.49608     -2534.798 8        48.334                                                                    22793794.574 7  96448074.86907     -2059.657 7        47.660
S48        51.000    77293256.851 6 406178823.31116      -655.387 6        38.378
E02        53.000    27837363.989 6 146286345.24906     -3089.310 6        38.541                                                                    27837373.465 6 109239859.33306     -2307.019 6        41.526    27837371.483 6 112089578.73406     -2367.219 6        40.737
C60        54.000                                                                                                                                    40800890.735 6 212460996.32606      -540.345 6        39.661                                                                    40800882.759 6 172641900.70206      -439.055 6        39.760
C25        55.000                                                                                                                                    21590722.360 8 112428693.92308      -190.655 8        51.514                                                                    21590723.952 8  91357589.59608      -154.972 8        49.239
C23        56.000                                                                                                                                    24984275.236 7 130099861.84807      2214.344 7        44.202                                                                    24984275.244 7 105716870.10607      1799.315 7        44.918
C02        57.000                                                                                                                                    41000468.998 5 213500104.97805      -543.178 5        32.892    41000472.018 6 165091780.26706      -419.702 6        39.003    41000473.217 5 173486296.71305      -440.931 5        35.419
I03        58.000   117035868.480 6 383488449.93906       950.121 6        38.580
C11        59.000                                                                                                                                    23235762.665 7 120994893.82207      2011.599 7        47.427    23235767.848 8  93561044.79808      1555.569 8        50.067    23235764.386 7  98318345.34907      1634.679 7        47.655
R13        60.000    23686949.060 6 126486962.29806     -4428.590 6        36.654
> 2025 01 01 15 00 15.0000000  0 57
G20         1.000    24517764.927 6 128841804.69206      1384.950 6        39.769                                    24517768.010 3 100396254.01603      1079.176 3        20.619
G25         2.000    20007388.663 8 105139687.04308     -1240.927 8        49.949                                    20007390.907 8  81927118.75508      -966.959 8        50.349    20007391.689 7  81927128.76407      -966.967 7        44.686
G29         4.000    20888176.912 8 109768391.49208       818.913 8        49.930                                    20888178.117 8  85533955.61508       638.107 8        50.680    20888178.142 7  85533958.62107       638.147 7        45.264
S21         5.000    38579194.800 7 202734627.20507      -627.424 7        43.295
G06         6.000    25129581.868 6 132057088.88506     -3875.394 6        38.219                                    25129582.210 4 102901750.16404     -3019.797 4        29.924    25129582.408 6 102901741.18606     -3019.993 6        36.382
E19         7.000    26876856.088 5 141238781.79805      -398.409 5        34.986                                                                    26876866.965 6 105470521.82706      -297.293 6        37.607    26876865.449 6 108221928.40006      -305.150 6        38.360
E15         8.000    25765744.630 7 135400089.65207      2225.569 7        44.111                                                                    25765755.158 7 101110587.83507      1661.843 7        46.922    25765754.043 7 103748236.01407      1705.166 7        47.616
G11         9.000    22819993.737 7 119920090.36407     -2105.518 7        45.383                                    22819994.921 5  93444338.80105     -1640.668 5        34.052    22819995.066 7  93444338.82107     -1640.723 7        44.391
E30        10.000    24272991.181 8 127555594.29608     -1743.511 8        48.397                                                                    24272996.062 8  95252669.26808     -1301.983 8        50.462    24272995.133 8  97737509.48208     -1335.973 8        51.214
G26        11.000    25099960.047 6 131901167.60706      2796.537 6        36.219                                    25099982.458 4 102780216.52804      2179.113 4        26.263    25099983.013 5 102780236.55005      2179.071 5        32.431
S27        12.000    39377503.005 6 206929973.16406      -629.009 6        36.673
R15        13.000    20380782.080 8 108908945.18608      1935.607 8        51.842                                                                    20380787.159 7  84707080.18107      1505.441 7        47.451
S36        14.000    38351544.947 7 201539086.46907      -627.641 7        45.043
G12        15.000    22263485.706 7 116995551.18507     -3300.479 7        46.507                                    22263486.511 7  91165440.14207     -2571.803 7        44.239    22263486.990 7  91165440.15107     -2571.759 7        42.180
E29        16.000    26703263.141 6 140326468.32906     -2463.456 6        41.378                                                                    26703278.986 7 104789238.85707     -1839.616 7        43.901    26703276.620 7 107522871.04507     -1887.593 7        43.886
S45        17.000    63555208.329 6 333985569.50406      -691.166 6        36.605
G31        18.000    23205688.411 7 121946874.89707      2223.866 7        43.215                                    23205692.829 6  95023658.10206      1732.868 6        38.517    23205693.454 6  95023637.12906      1733.048 6        40.551
C35        19.000                                                                                                                                    26808211.597 6 139597618.60506     -3878.494 6        38.156                                                                    26808211.284 6 113434595.26906     -3151.775 6        38.234
E21        20.000    28251782.876 6 148464139.42606      1883.349 6        36.578                                                                    28251809.063 6 110866189.57806      1406.284 6        39.063    28251806.174 6 113758338.05006      1442.997 6        39.682
R14        21.000    19574311.983 8 104342224.67708     -1760.381 8        52.316                                                                    19574316.830 7  81155147.89407     -1369.189 7        47.360
I06        22.000    38780398.962 7 152182643.00707      -538.789 7        42.417
S28        23.000    41056725.585 5 215754411.74005      -629.924 5        34.614
E34        24.000    24677432.262 7 129681020.98207      -230.172 7        46.557                                                                    24677438.428 8  96839888.87408      -171.966 8        49.016    24677437.467 8  99366129.17108      -176.404 8        49.598
S23        25.000    38297565.509 7 201254900.21007      -631.998 7        45.535
C13        26.000                                                                                                                                    40150197.752 6 209072684.80606      1407.381 6        39.898    40150207.232 6 161668339.96606      1088.297 6        41.197    40150203.027 6 169888742.78306      1143.376 6        38.117
G18        27.000    25477709.852 6 133886286.68806      3182.876 6        38.940                                    25477726.268 3 104327065.56303      2480.140 3        20.952    25477726.869 6 104327056.60606      2480.060 6        38.060
R24        28.000    19524702.522 8 104407641.06308     -1025.112 8        51.018                                                                    19524705.756 7  81206109.50707      -797.266 7        46.463
I02        29.000    37654226.630 7 147763275.50607      -819.789 7        42.584
G28        30.000    21747779.996 7 114285473.35707       813.443 7        46.708                                    21747783.033 6  89053694.24706       633.852 6        36.446    21747783.096 7  89053691.26307       633.857 7        45.929
E07        31.000    28303327.091 6 148734682.54706     -3594.053 6        38.006                                                                    28303352.898 6 111068035.66606     -2683.939 6        39.571    28303350.224 6 113965468.69906     -2753.834 6        41.030
C12        32.000                                                                                                                                    22057728.347 8 114860589.46808     -1050.979 8        48.470    22057728.788 8  88817604.93508      -812.734 8        52.072    22057727.345 8  93333716.90608      -854.068 8        49.443
R17        33.000    21093948.869 8 112878210.69508      2995.377 8        50.872                                                                    21093956.191 7  87794297.21207      2329.712 7        45.941
R23        34.000    22890725.783 7 122450124.06307     -4685.801 7        42.447
C24        35.000                                                                                                                                    23164561.631 8 120623982.31808     -3119.369 8        48.534                                                                    23164563.642 7  98016886.97207     -2534.739 7        47.965
R05        36.000    24249503.466 6 129627283.36506     -4091.536 6        39.168                                                                    24249525.393 6 100821200.69106     -3182.336 6        38.021
E27        37.000    24187455.822 8 127106090.59508       642.957 8        48.029                                                                    24187461.928 8  94917013.56808       480.109 8        50.599    24187460.714 8  97393092.55608       492.665 8        50.891
R06        39.000    23638700.171 5 126140601.66405     -1156.637 5        33.820
R07        40.000    24576694.001 6 131560973.77406      1687.831 6        39.598                                                                    24576695.897 6 102325208.55006      1313.140 6        36.420
C34        41.000                                                                                                                                    21864703.117 8 113855499.14608       719.014 8        50.924                                                                    21864706.763 8  92517040.93708       584.276 8        49.151
S44        42.000    40801408.667 6 214412888.51906      -545.357 6        38.171
C38        43.000                                                                                                                                    39800601.455 7 207252238.82207       867.722 7        42.023                                                                    39800603.977 6 168409463.78206       705.113 6        41.397
C05        44.000                                                                                                                                    39583204.254 6 206120017.31006      -587.888 6        38.024    39583209.407 7 159385057.30907      -454.752 7        43.367    39583208.830 6 167489470.07206      -477.716 6        39.607
C08        45.000                                                                                                                                    39911842.570 6 207831510.85606      1410.519 6        38.009    39911844.346 7 160708552.36707      1090.727 7        42.245    39911841.614 6 168880153.56106      1146.218 6        39.586
G32        46.000    24600954.143 7 129278665.82807     -3324.833 7        42.216                                    24600970.432 5 100736593.89605     -2590.773 5        32.772    24600970.435 5 100736595.87705     -2590.694 5        35.681
E36        47.000    27240052.911 6 143147618.31706     -2836.147 6        39.372                                                                    27240058.600 7 106896087.57407     -2118.031 7        42.106    27240057.882 7 109684661.41507     -2173.340 7        42.582
C43        48.000                                                                                                                                    24950812.657 7 129925515.32707      2601.665 7        43.896                                                                    24950821.767 7 105575201.28507      2113.968 7        43.105
C10        49.000                                                                                                                                    40460659.499 6 210689298.78006     -1319.955 6        36.507    40460662.606 6 162918351.59306     -1020.886 6        40.093    40460659.682 6 171202320.98006     -1072.671 6        37.108
C44        50.000                                                                                                                                    22796226.908 8 118705992.03908     -2536.606 8        48.257                                                                    22796229.394 7  96458377.23607     -2061.194 7        47.672
S48        51.000    77293857.122 6 406182100.47506      -655.448 6        38.435
E02        53.000    27840303.478 6 146301792.82206     -3089.595 6        39.084                                                                    27840313.112 6 109251394.90606     -2307.218 6        41.578    27840311.018 6 112101415.22806     -2367.364 6        41.018
C60        54.000                                                                                                                                    40801409.497 6 212463698.51306      -540.438 6        39.748                                                                    40801401.696 6 172644096.49106      -439.192 6        39.862
C25        55.000                                                                                                                                    21590906.442 8 112429653.06608      -192.904 8        51.454                                                                    21590908.149 8  91358369.01108      -156.771 8        49.327
C23        56.000                                                                                                                                    24982149.198 7 130088791.84407      2213.668 7        44.096                                                                    24982149.300 7 105707874.91807      1798.763 7        44.919
C02        57.000                                                                                                                                    41000989.853 5 213502819.02705      -542.577 5        32.557    41000992.882 6 165093879.02106      -419.718 6        39.228    41000994.371 5 173488502.18505      -440.879 5        35.443
I03        58.000   117034657.431 6 383483699.36306       950.139 6        38.559
C11        59.000                                                                                                                                    23233831.277 7 120984839.63407      2010.082 7        47.509    23233836.984 8  93553270.33208      1554.213 8        50.320    23233833.538 7  98310175.57107      1633.282 7        47.730
R13        60.000    23691096.124 6 126509107.69206     -4429.440 6        36.594
> 2025 01 01 15 00 20.0000000  0 57
G20         1.000    24516448.429 6 128834885.15606      1383.069 6        40.210                                    24516451.390 3 100390862.23103      1077.698 3        21.333
G25         2.000    20008570.479 8 105145898.77008     -1243.410 8        50.037                                    20008572.927 8  81931959.07608      -968.894 8        50.239    20008573.922 7  81931969.09307      -968.924 7        44.998
G29         4.000    20887399.131 8 109764303.54408       816.487 8        49.893                                    20887400.171 8  85530770.22908       636.216 8        50.608    20887400.379 7  85530773.24907       636.191 7        45.383
S21         5.000    38579792.754 7 202737765.61907      -627.549 7        43.266
G06         6.000    25133270.049 6 132076469.75806     -3876.706 6        38.432                                    25133270.256 5 102916852.18705     -3020.824 5        30.166    25133270.473 6 102916843.20706     -3020.898 6        36.355
E19         7.000    26877236.034 5 141240779.62205      -400.656 5        35.362                                                                    26877246.963 6 105472013.73106      -299.205 6        37.883    26877245.553 6 108223459.22506      -307.009 6        38.453
E15         8.000    25763627.970 7 135388965.96807      2224.278 7        44.160                                                                    25763638.495 7 101102281.28207      1660.930 7        47.001    25763637.111 7 103739712.75307      1704.334 7        47.653
G11         9.000    22821998.636 7 119930626.15107     -2108.523 7        45.920                                    22821999.746 5  93452548.53405     -1643.009 5        33.988    22821999.819 7  93452548.55807     -1643.106 7        44.542
E30        10.000    24274650.860 8 127564315.34408     -1744.609 8        48.452                                                                    24274655.635 8  95259181.75308     -1302.776 8        50.466    24274654.706 8  97744191.85608     -1336.764 8        51.353
G26        11.000    25097298.893 6 131887185.77506      2796.540 6        36.181                                    25097321.749 4 102769321.61304      2179.103 4        26.072    25097322.715 5 102769341.62605      2179.087 5        33.240
