     3.04           OBSERVATION DATA    M                   RINEX VERSION / TYPE
ssrcrin-15.6.1x                         20250101 100000 UTC PGM / RUN BY / DATE 
(00000000023479385599111004) Septentrio proprietary         COMMENT             
rref                                                        MARKER NAME         
01                                                          MARKER NUMBER       
geodetic                                                    MARKER TYPE         
NFB                 CLIMERS@TUW                             OBSERVER / AGENCY   
3297213             SEPT ASTERX SB3 PROB4.14.4              REC # / TYPE / VERS 
Unknown             Unknown                                 ANT # / TYPE        
  4127832.5384  1207193.1124  4695247.1914                  APPROX POSITION XYZ 
        0.0000        0.0000        0.0000                  ANTENNA: DELTA H/E/N
G   23 X1  C1C L1C D1C S1C C1W S1W C2W L2W D2W S2W C2L L2L  SYS / # / OBS TYPES 
       D2L S2L C5Q L5Q D5Q S5Q C1L L1L D1L S1L              SYS / # / OBS TYPES 
E   21 X1  C1C L1C D1C S1C C6C L6C D6C S6C C5Q L5Q D5Q S5Q  SYS / # / OBS TYPES 
       C7Q L7Q D7Q S7Q C8Q L8Q D8Q S8Q                      SYS / # / OBS TYPES 
S    9 X1  C1C L1C D1C S1C C5I L5I D5I S5I                  SYS / # / OBS TYPES 
R   17 X1  C1C L1C D1C S1C C2P L2P D2P S2P C2C L2C D2C S2C  SYS / # / OBS TYPES 
       C3Q L3Q D3Q S3Q                                      SYS / # / OBS TYPES 
C   25 X1  C1P L1P D1P S1P C5P L5P D5P S5P C2I L2I D2I S2I  SYS / # / OBS TYPES 
       C7I L7I D7I S7I C6I L6I D6I S6I C7D L7D D7D S7D      SYS / # / OBS TYPES 
J   17 X1  C1C L1C D1C S1C C2L L2L D2L S2L C5Q L5Q D5Q S5Q  SYS / # / OBS TYPES 
       C1L L1L D1L S1L                                      SYS / # / OBS TYPES 
I    5 X1  C5A L5A D5A S5A                                  SYS / # / OBS TYPES 
SEPTENTRIO RECEIVERS OUTPUT ALIGNED CARRIER PHASES.         COMMENT             
NO FURTHER PHASE SHIFT APPLIED IN THE RINEX ENCODER.        COMMENT             
G L1C                                                       SYS / PHASE SHIFT   
G L2W                                                       SYS / PHASE SHIFT   
G L2L  0.00000                                              SYS / PHASE SHIFT   
G L5Q  0.00000                                              SYS / PHASE SHIFT   
G L1L  0.00000                                              SYS / PHASE SHIFT   
E L1C  0.00000                                              SYS / PHASE SHIFT   
E L6C  0.00000                                              SYS / PHASE SHIFT   
E L5Q  0.00000                                              SYS / PHASE SHIFT   
E L7Q  0.00000                                              SYS / PHASE SHIFT   
E L8Q  0.00000                                              SYS / PHASE SHIFT   
S L1C                                                       SYS / PHASE SHIFT   
S L5I                                                       SYS / PHASE SHIFT   
R L1C                                                       SYS / PHASE SHIFT   
R L2P  0.00000                                              SYS / PHASE SHIFT   
R L2C                                                       SYS / PHASE SHIFT   
R L3Q  0.00000                                              SYS / PHASE SHIFT   
C L1P  0.00000                                              SYS / PHASE SHIFT   
C L5P  0.00000                                              SYS / PHASE SHIFT   
C L2I                                                       SYS / PHASE SHIFT   
C L7I                                                       SYS / PHASE SHIFT   
C L6I                                                       SYS / PHASE SHIFT   
C L7D                                                       SYS / PHASE SHIFT   
J L1C                                                       SYS / PHASE SHIFT   
J L2L  0.00000                                              SYS / PHASE SHIFT   
J L5Q  0.00000                                              SYS / PHASE SHIFT   
J L1L  0.00000                                              SYS / PHASE SHIFT   
I L5A                                                       SYS / PHASE SHIFT   
  2025     1     1    10     0    0.0000000     GPS         TIME OF FIRST OBS   
 C1C    0.000 C2C    0.000 C2P    0.000                     GLONASS COD/PHS/BIS 
DBHZ                                                        SIGNAL STRENGTH UNIT
    18                                                      LEAP SECONDS        
 24 R01  1 R02 -4 R03  5 R04  6 R05  1 R06 -4 R07  5 R08  6 GLONASS SLOT / FRQ #
    R09 -2 R10 -7 R11  0 R12 -1 R13 -2 R14 -7 R15  0 R16 -1 GLONASS SLOT / FRQ #
    R17  4 R18 -3 R19  3 R20  2 R21  4 R22 -3 R23  3 R24  2 GLONASS SLOT / FRQ #
                                                            END OF HEADER       
> 2025 01 01 10 00  0.0000000  0 53
G19         1.000    23024368.825 7 120994011.00907      2561.735 7        42.504                                    23024371.328 5  94281130.00505      1996.155 5        30.702
R01         2.000    21373072.509 7 114251190.46907     -4511.703 7        45.633                                                                    21373079.323 6  88862074.74006     -3509.125 6        39.297
G24         3.000    21646513.531 7 113753205.39407      2138.887 7        45.133                                    21646517.665 7  88638892.47207      1666.664 7        44.360    21646517.852 7  88638889.47207      1666.611 7        42.804
R02         4.000    19365434.604 8 103337617.00008      -900.391 8        52.493                                                                    19365438.408 7  80373703.42407      -700.312 7        47.443
S21         5.000    38377011.306 7 201672292.24207      -490.599 7        42.047
G17         7.000    22107936.638 7 116178147.50907       581.591 7        46.068                                    22107939.298 7  90528514.06807       453.189 7        43.403    22107940.246 6  90528510.06606       453.170 6        41.931
R21         8.000    23154645.090 7 123905219.88607      2229.121 7        42.563                                                                    23154656.662 6  96370797.63306      1733.809 6        41.278
E30        10.000    27203888.289 6 142957481.55306      2394.240 6        41.230                                                                    27203899.025 7 106754054.79407      1787.997 7        43.041    27203897.653 7 109538933.92607      1834.667 7        43.490
C26        11.000                                                                                                                                    21701356.948 8 113004684.21608       157.224 8        50.815                                                                    21701359.239 8  91825581.72608       127.934 8        49.365
S27        12.000    39103908.406 6 205492251.99306      -523.390 6        36.382
G15        13.000    20141244.527 8 105842895.98208      -976.036 8        49.516                                    20141244.871 8  82474952.62608      -760.546 8        50.032    20141245.427 7  82474944.62807      -760.546 7        45.463
S36        14.000    38147629.947 7 200467565.02807      -491.856 7        44.003
G12        15.000    24702343.586 6 129811742.84106      3331.136 6        39.541                                    24702349.178 5 101152060.23905      2595.677 5        31.358    24702349.326 5 101152060.24605      2595.841 5        35.657
R11        16.000    21400844.001 8 114359536.21308     -3699.174 8        48.306                                                                    21400850.379 7  88946281.77007     -2877.202 7        45.196
S45        17.000    63331092.314 5 332808047.50405      -543.188 5        35.886
R03        18.000    21692834.550 8 116123379.94908      2955.481 8        48.719                                                                    21692840.023 7  90318183.01607      2298.690 7        44.011
E24        19.000    28987586.096 5 152330554.64705     -3415.140 5        32.581                                                                    28987603.113 5 113753280.11005     -2550.135 5        35.357    28987600.660 5 116720761.43205     -2616.895 5        35.771
E33        20.000    28604986.526 5 150320208.86305     -1096.180 5        35.729                                                                    28604991.547 6 112252121.12606      -818.767 6        38.751    28604990.541 6 115180433.26906      -840.116 6        39.562
G30        21.000    24222605.097 6 127290472.17606     -3512.261 6        40.305                                    24222615.681 5  99187338.80705     -2736.824 5        34.200    24222616.359 6  99187342.79706     -2736.863 6        37.543
I06        22.000    38114762.954 7 149570590.01907      -466.000 7        43.208
S28        23.000    40826900.135 5 214546573.56105      -501.376 5        35.010
G14        24.000    21699274.706 7 114030410.01707     -2962.170 7        46.307                                    21699278.008 5  88854854.03905     -2308.174 5        34.986    21699277.949 7  88854856.02707     -2308.208 7        44.676
S23        25.000    38080591.449 7 200114741.47507      -492.952 7        44.242
E08        26.000    23489217.481 8 123436615.28508       -19.634 8        48.720                                                                    23489221.042 8  92176674.59508       -14.668 8        50.871    23489220.194 8  94581283.11608       -15.037 8        51.258
C07        27.000                                                                                                                                    38783238.466 6 201954470.40106      -733.723 6        41.108    38783240.542 7 156164011.96807      -567.394 7        44.584    38783237.290 6 164104542.75906      -596.242 6        41.197
G13        28.000    20547818.744 8 107979455.54908     -2592.732 8        49.595                                    20547818.924 6  84139798.64506     -2020.310 6        39.336
I02        29.000    37007591.226 7 145225745.41807      -112.282 7        42.823
G10        30.000    25287430.253 6 132886284.48606      1906.037 6        38.571                                    25287435.040 5 103547744.87705      1485.232 5        32.515    25287435.061 6 103547736.86106      1485.275 6        36.673
E07        31.000    26578206.578 6 139669329.22106      2128.796 6        40.837                                                                    26578217.203 7 104298516.89107      1589.622 7        44.479    26578215.539 7 107019346.43107      1631.191 7        44.537
E03        32.000    24577243.182 7 129154202.86407     -2662.589 7        46.533                                                                    24577250.440 8  96446309.96108     -1988.300 8        48.950    24577249.180 8  98962297.93808     -2040.176 8        49.137
G05        33.000    25169488.444 6 132266356.55806     -4094.749 6        38.384                                    25169497.689 4 103064636.25304     -3190.703 4        29.706    25169497.850 5 103064639.24605     -3190.879 5        35.352
G02        34.000    25789065.406 5                       450.372 5        32.910
C24        35.000                                                                                                                                    24392545.970 7 127018391.77307      2179.421 7        44.602                                                                    24392549.565 7 103212862.56007      1771.065 7        44.330
G23        36.000    23008966.548 7 120912836.17507      -288.534 7        43.033                                    23008970.260 4  94217753.77904      -224.831 4        29.469    23008970.425 7  94217754.77807      -224.741 7        42.089
C33        39.000                                                                                                                                    24898793.533 7 129654537.03507      1779.959 7        44.275                                                                    24898811.665 7 105355002.78507      1446.496 7        44.816
E25        40.000    24321649.681 7 127811102.45907     -2183.074 7        46.208                                                                    24321656.792 8  95443349.58908     -1630.172 8        48.836    24321655.767 8  97933169.23308     -1672.780 8        49.601
S44        42.000    40816119.724 6 214490095.17906      -465.651 6        37.645
C09        43.000                                                                                                                                    41456133.989 4                     -1139.056 4        24.722    41456139.965 3                      -877.107 3        20.119    41456137.975 3                      -925.244 3        20.833
C05        44.000                                                                                                                                    39347651.743 6 204893429.98806      -535.210 6        38.291    39347656.185 7 158436581.83407      -413.938 7        43.009    39347655.814 6 166492767.02706      -434.656 6        39.895
C40        45.000                                                                                                                                    38834358.921 7 202220663.08407      -881.143 7        42.444                                                                    38834364.351 7 164320860.90407      -715.889 7        42.667
C21        46.000                                                                                                                                    24383679.175 7 126972090.22007     -3699.898 7        46.658                                                                    24383680.112 7 103175169.94207     -3006.323 7        46.231
R20        47.000    23140577.533 5 123743089.13305      -791.001 5        31.223                                                                    23140591.146 6  96244682.93206      -615.371 6        40.415
C10        49.000                                                                                                                                    38438891.974 6 200161415.70906      -347.601 6        41.967    38438896.065 7 154777521.93207      -268.816 7        44.820    38438892.587 6 162647551.47406      -282.265 6        41.437
C42        50.000                                                                                                                                    22634054.328 8 117861390.51608     -1269.076 8        49.560                                                                    22634066.049 8  95772056.03508     -1031.070 8        49.535
S48        51.000    77088215.843 6 405100590.55706      -483.556 6        37.996
E02        53.000    23373914.726 8 122830843.60408       596.946 8        49.095                                                                    23373918.652 8  91724411.14708       445.810 8        50.964    23373917.615 8  94117203.06108       457.391 8        51.009
C60        54.000                                                                                                                                    40816118.157 6 212540202.48806      -461.396 6        39.736                                                                    40816114.076 6 172706244.09306      -374.731 6        39.114
C45        55.000                                                                                                                                    23108232.468 7 120330548.81807     -2663.700 7        47.527                                                                    23108229.594 8  97778383.69608     -2164.329 8        48.400
R12        56.000    19238840.646 8 102770532.36508      -206.951 8        52.003                                                                    19238844.624 7  79932676.47207      -161.002 7        47.192
C02        57.000                                                                                                                                    40907823.149 5 213017593.75305      -510.738 5        31.049    40907830.386 6 164718652.28606      -394.815 6        36.136    40907829.849 5 173094200.96205      -414.499 5        30.641
I03        58.000   122991768.220 6 406860577.58206       896.676 6        36.904
C14        59.000                                                                                                                                    23270679.822 7 121176472.00307       411.360 7        46.243    23270681.411 8  93701307.32208       318.122 8        50.580    23270678.499 8  98465780.93408       334.370 8        48.022
R13        60.000    21572425.834 7 115195613.03607      2519.601 7        42.413
> 2025 01 01 10 00  5.0000000  0 53
G19         1.000    23021932.853 7 120981205.99207      2560.415 7        42.629                                    23021934.441 5  94271152.11105      1995.120 5        30.574
R01         2.000    21377293.433 7 114273754.77607     -4513.908 7        45.242                                                                    21377300.324 6  88879624.74906     -3510.636 6        39.670
G24         3.000    21644479.218 7 113742514.89007      2137.388 7        45.163                                    21644483.313 7  88630562.21707      1665.498 7        44.384    21644483.717 7  88630559.22207      1665.359 7        42.828
R02         4.000    19366280.266 8 103342130.58808      -904.953 8        52.574                                                                    19366284.307 7  80377213.98607      -703.865 7        47.321
S21         5.000    38377476.673 7 201674745.70807      -490.679 7        42.045
G17         7.000    22107385.264 7 116175247.24707       578.620 7        46.507                                    22107387.370 7  90526254.12407       450.874 7        43.532    22107388.219 6  90526250.11006       450.984 6        41.893
R21         8.000    23152562.867 7 123894082.58507      2226.034 7        42.483                                                                    23152575.199 6  96362135.17506      1731.417 6        41.344
E30        10.000    27201610.302 6 142945512.15606      2393.467 6        40.625                                                                    27201621.467 7 106745116.59407      1787.326 7        42.840    27201619.918 7 109529762.54307      1834.033 7        43.403
C26        11.000                                                                                                                                    21701207.041 8 113003902.45208       155.511 8        50.725                                                                    21701209.109 8  91824946.50408       126.317 8        49.434
S27        12.000    39104404.036 6 205494870.73506      -523.724 6        36.212
G15        13.000    20142175.101 8 105847785.53908      -979.654 8        49.471                                    20142175.309 8  82478762.67108      -763.366 8        50.057    20142175.694 7  82478754.67207      -763.346 7        45.410
S36        14.000    38148096.977 7 200470024.28707      -491.849 7        44.032
G12        15.000    24699174.173 6 129795088.32606      3330.708 6        40.033                                    24699179.871 5 101139082.75405      2595.347 5        31.525    24699180.512 5 101139082.77005      2595.290 5        35.643
R11        16.000    21404305.300 7 114378035.03207     -3700.194 7        47.921                                                                    21404312.410 7  88960669.70607     -2878.003 7        45.404
S45        17.000    63331562.728 6 332810764.17606      -543.053 6        36.140
R03        18.000    21690075.067 8 116108609.10408      2952.979 8        49.014                                                                    21690080.075 7  90306694.60607      2296.817 7        44.384
E24        19.000    28990835.745 5 152347630.21105     -3415.070 5        32.766                                                                    28990852.556 5 113766031.37805     -2550.397 5        35.038    28990850.049 5 116733845.33905     -2616.815 5        35.300
E33        20.000    28606031.332 5 150325697.26205     -1098.917 5        35.976                                                                    28606035.925 6 112256219.58506      -820.587 6        39.030    28606034.963 6 115184638.64806      -842.171 6        39.646
G30        21.000    24225947.228 6 127308036.07606     -3512.902 6        39.946                                    24225958.138 5  99201024.94005     -2737.322 5        34.333    24225958.518 6  99201028.92906     -2737.251 6        37.705
I06        22.000    38115356.716 7 149572920.36507      -466.012 7        43.386
S28        23.000    40827379.748 5 214549080.45005      -501.197 5        34.848
G14        24.000    21702094.209 7 114045225.69107     -2963.897 7        46.135                                    21702097.366 5  88866398.68305     -2309.521 5        34.976    21702097.498 7  88866400.66807     -2309.541 7        44.807
S23        25.000    38081060.214 7 200117206.71607      -493.020 7        44.289
E08        26.000    23489237.216 8 123436718.88408       -21.681 8        48.595                                                                    23489240.764 8  92176751.95708       -16.204 8        50.664    23489239.955 8  94581362.49008       -16.587 8        51.021
C07        27.000                                                                                                                                    38783943.997 6 201958141.34706      -734.477 6        41.035    38783945.396 7 156166850.55707      -567.954 7        44.542    38783942.406 6 164107525.69406      -596.885 6        41.352
G13        28.000    20550287.317 8 107992425.75008     -2595.247 8        49.367                                    20550287.072 6  84149905.29306     -2022.275 6        39.384
I02        29.000    37007734.618 7 145226307.60607      -112.391 7        42.882
G10        30.000    25285618.354 6 132876760.08406      1903.719 6        39.357                                    25285622.517 5 103540323.22905      1483.422 5        32.395    25285622.614 6 103540315.22006      1483.509 6        36.302
E07        31.000    26576181.944 6 139658687.35006      2128.165 6        41.180                                                                    26576191.995 7 104290570.03707      1589.189 7        44.266    26576190.432 7 107011192.26907      1630.622 7        44.379
E03        32.000    24579777.523 7 129167520.08007     -2664.135 7        46.723                                                                    24579784.577 8  96456254.62308     -1989.474 8        48.860    24579783.458 8  98972502.02108     -2041.325 8        48.927
G05        33.000    25173384.648 6 132286829.87706     -4094.437 6        38.276                                    25173393.693 4 103080589.44104     -3190.455 4        29.905    25173393.668 5 103080592.43305     -3190.629 5        35.443
G02        34.000    25788637.847 5                       447.902 5        33.078
C24        35.000                                                                                                                                    24390453.598 7 127007497.18507      2178.614 7        44.485                                                                    24390457.335 7 103204009.86307      1770.166 7        44.430
G23        36.000    23009242.545 7 120914287.37307      -291.906 7        43.268                                    23009246.401 4  94218884.57504      -227.460 4        29.583    23009246.294 6  94218885.56706      -227.380 6        41.893
C33        39.000                                                                                                                                    24897085.452 7 129645642.80207      1777.801 7        43.932                                                                    24897103.520 7 105347775.52207      1444.503 7        44.810
E25        40.000    24323727.556 7 127822021.63007     -2184.535 7        46.127                                                                    24323734.618 8  95451503.49808     -1631.277 8        48.602    24323733.671 8  97941535.85008     -1673.817 8        49.508
S44        42.000    40816563.635 6 214492423.52506      -465.661 6        37.452
C09        43.000                                                                                                                                    41457228.093 4                     -1139.735 4        25.714    41457235.714 3                      -879.499 3        20.310    41457235.651 3                      -924.117 3        21.143
C05        44.000                                                                                                                                    39348166.221 6 204896106.69406      -535.175 6        38.162    39348170.135 7 158438651.65107      -413.973 7        42.885    39348169.965 6 166494942.12306      -435.054 6        40.052
C40        45.000                                                                                                                                    38835205.349 7 202225071.24907      -882.081 7        42.409                                                                    38835210.979 7 164324442.90707      -716.742 7        42.700
C21        46.000                                                                                                                                    24387232.564 7 126990592.83307     -3701.108 7        46.516                                                                    24387233.252 7 103190204.83707     -3007.448 7        46.319
R20        47.000    23141319.105 5 123747056.47105      -795.419 5        30.732                                                                    23141332.176 6  96247768.68106      -618.938 6        39.931
C10        49.000                                                                                                                                    38439226.353 6 200163155.61506      -348.344 6        41.869    38439230.249 7 154778867.33607      -269.303 7        44.772    38439226.753 6 162648965.30906      -283.158 6        41.485
C42        50.000                                                                                                                                    22635274.542 8 117867743.32908     -1271.974 8        49.422                                                                    22635286.049 8  95777218.23008     -1033.585 8        49.546
S48        51.000    77088679.921 6 405103007.90106      -483.586 6        38.042
E02        53.000    23373347.640 8 122827863.85908       594.963 8        49.250                                                                    23373351.638 8  91722186.01308       444.316 8        50.855    23373350.563 8  94114919.87408       455.941 8        50.775
C60        54.000                                                                                                                                    40816560.861 6 212542509.66606      -461.359 6        39.622                                                                    40816557.035 6 172708118.90606      -374.968 6        39.162
C45        55.000                                                                                                                                    23110790.419 7 120343869.82707     -2664.619 7        47.371                                                                    23110787.769 8  97789208.10408     -2165.257 8        48.451
R12        56.000    19239035.421 8 102771574.52108      -209.772 8        51.902                                                                    19239039.642 7  79933487.02807      -163.204 7        47.370
C02        57.000                                                                                                                                    40908312.077 5 213020146.46405      -511.029 5        30.619    40908320.409 6 164720626.18506      -395.014 6        36.533    40908320.073 5 173096275.27005      -414.831 5        30.921
I03        58.000   122990626.414 6 406856094.71906       896.530 6        37.066
C14        59.000                                                                                                                                    23270285.874 7 121174422.61107       408.482 7        46.086    23270287.913 8  93699722.59308       315.903 8        50.507    23270284.906 8  98464115.65308       331.874 8        48.085
R13        60.000    21570067.938 7 115183019.35707      2517.929 7        42.123
> 2025 01 01 10 00 10.0000000  0 53
G19         1.000    23019497.583 7 120968408.47807      2558.704 7        42.751                                    23019498.985 5  94261180.05405      1993.782 5        30.732
R01         2.000    21381516.462 7 114296330.14107     -4516.180 7        45.308                                                                    21381524.214 6  88897183.34806     -3512.625 6        39.733
G24         3.000    21642445.875 7 113731832.13207      2135.821 7        45.207                                    21642450.447 7  88622237.99507      1664.275 7        44.411    21642450.614 7  88622234.99707      1664.238 7        42.849
R02         4.000    19367130.493 8 103346667.49508      -909.758 8        52.352                                                                    19367134.624 7  80380742.69707      -707.577 7        47.650
S21         5.000    38377946.367 7 201677199.56507      -490.995 7        42.394
G17         7.000    22106836.147 7 116172362.27507       575.489 7        46.258                                    22106838.425 7  90524006.09407       448.432 7        43.750    22106838.935 6  90524002.08306       448.597 6        41.967
R21         8.000    23150484.550 7 123882959.96907      2223.105 7        42.863                                                                    23150497.111 6  96353484.16306      1728.987 6        41.826
E30        10.000    27199333.230 6 142933546.66806      2392.675 6        40.231                                                                    27199344.493 7 106736181.30207      1786.794 7        42.965    27199342.921 7 109520594.16607      1833.362 7        43.496
C26        11.000                                                                                                                                    21701058.507 8 113003129.58108       153.655 8        50.755                                                                    21701060.642 8  91824318.48408       124.757 8        49.564
S27        12.000    39104902.058 6 205497489.75406      -524.074 6        36.507
G15        13.000    20143109.112 8 105852693.21208      -983.363 8        49.477                                    20143109.203 8  82482586.83308      -766.257 8        50.084    20143109.584 7  82482578.83507      -766.253 7        45.338
S36        14.000    38148564.829 7 200472482.69607      -491.422 7        44.224
G12        15.000    24696005.618 6 129778436.93406      3330.055 6        40.479                                    24696011.208 5 101126107.69205      2594.836 5        31.872    24696012.089 6 101126107.71206      2594.608 6        36.159
R11        16.000    21407768.651 8 114396539.07408     -3701.292 8        48.514                                                                    21407775.323 7  88975061.71007     -2878.838 7        45.630
S45        17.000    63332032.352 6 332813481.30706      -543.270 6        36.129
R03        18.000    21687318.708 8 116093851.17508      2950.292 8        49.851                                                                    21687323.395 7  90295216.22807      2294.683 7        44.466
E24        19.000    28994085.324 5 152364706.18205     -3415.192 5        32.826                                                                    28994101.477 5 113778782.98705     -2550.292 5        34.938    28994099.529 5 116746929.59605     -2616.873 5        35.100
E33        20.000    28607077.917 5 150331198.01205     -1101.384 5        35.743                                                                    28607082.699 6 112260327.31206      -822.560 6        39.099    28607081.519 6 115188853.50406      -843.795 6        39.688
G30        21.000    24229290.181 6 127325603.18306     -3513.791 6        39.216                                    24229301.092 5  99214713.57805     -2738.015 5        34.376    24229301.576 6  99214717.57806     -2737.929 6        37.467
I06        22.000    38115950.797 7 149575251.19207      -466.225 7        43.348
S28        23.000    40827856.333 5 214551587.80005      -501.584 5        34.871
G14        24.000    21704915.377 7 114060050.48007     -2965.848 7        45.431                                    21704918.459 5  88877950.43605     -2311.048 5        35.071    21704918.493 7  88877952.41507     -2311.032 7        44.843
S23        25.000    38081527.328 7 200119672.42807      -493.080 7        44.343
E08        26.000    23489258.989 8 123436832.75808       -23.797 8        48.217                                                                    23489262.441 8  92176836.99208       -17.746 8        50.757    23489261.617 8  94581449.74708       -18.192 8        51.145
C07        27.000                                                                                                                                    38784649.527 6 201961816.07606      -735.215 6        41.042    38784651.338 7 156169692.07607      -568.657 7        44.525    38784648.013 6 164110511.70406      -597.702 6        41.528
G13        28.000    20552757.629 8 108005409.10908     -2597.996 8        49.724                                    20552757.751 6  84160022.19506     -2024.413 6        39.429
I02        29.000    37007878.270 7 145226871.36907      -112.820 7        42.895
G10        30.000    25283807.991 6 132867247.41006      1901.449 6        40.479                                    25283812.274 5 103532910.72105      1481.658 5        32.581    25283811.864 6 103532902.69706      1481.749 6        36.174
E07        31.000    26574157.301 6 139648049.29706      2127.278 6        40.830                                                                    26574167.606 7 104282626.03807      1588.542 7        44.424    26574166.108 7 107003041.03807      1629.979 7        44.471
E03        32.000    24582313.126 7 129180845.17807     -2665.769 7        46.426                                                                    24582320.296 8  96466205.16008     -1990.655 8        48.932    24582319.241 8  98982712.14308     -2042.601 8        49.050
G05        33.000    25177279.821 6 132307301.85406     -4094.285 6        38.676                                    25177289.451 4 103096541.58304     -3190.339 4        29.943    25177290.106 5 103096544.57105     -3190.371 5        35.414
G02        34.000    25788211.371 5                       445.098 5        32.389
C24        35.000                                                                                                                                    24388362.777 7 126996606.98207      2177.540 7        44.525                                                                    24388365.804 7 103195160.69007      1769.379 7        44.426
G23        36.000    23009522.256 7 120915755.96207      -295.421 7        42.504                                    23009525.819 4  94220028.91704      -230.195 4        29.545    23009526.283 7  94220029.90807      -230.174 7        42.034
C33        39.000                                                                                                                                    24895379.479 7 129636759.37607      1775.623 7        43.807                                                                    24895397.566 7 105340557.01207      1442.746 7        45.029
E25        40.000    24325807.040 7 127832948.38707     -2186.065 7        45.690                                                                    24325813.942 8  95459663.09408     -1632.475 8        48.764    24325812.956 8  97949908.30708     -1675.112 8        49.595
S44        42.000    40817006.706 6 214494752.25506      -465.709 6        37.512
C09        43.000                                                                                                                                    41458318.882 4                     -1139.398 4        25.353    41458331.029 3                      -879.710 3        23.124    41458328.976 3                      -928.351 3        20.714
C05        44.000                                                                                                                                    39348680.109 6 204898783.80506      -535.486 6        38.156    39348684.399 7 158440721.78407      -414.049 7        43.005    39348683.983 6 166497117.50906      -435.207 6        40.000
C40        45.000                                                                                                                                    38836052.710 7 202229484.04107      -882.995 7        42.434                                                                    38836058.351 7 164328028.65707      -717.622 7        42.919
C21        46.000                                                                                                                                    24390786.975 7 127009101.71207     -3702.380 7        46.796                                                                    24390787.567 7 103205244.81107     -3008.643 7        46.311
R20        47.000    23142066.054 5 123751046.12005      -800.164 5        31.834                                                                    23142078.494 6  96250871.76806      -622.399 6        40.067
C10        49.000                                                                                                                                    38439561.167 6 200164899.42306      -349.185 6        41.900    38439565.059 7 154780215.76107      -269.997 7        44.716    38439561.500 6 162650382.29806      -283.690 6        41.576
C42        50.000                                                                                                                                    22636497.414 8 117874110.91108     -1274.997 8        49.421                                                                    22636508.894 8  95782392.41308     -1036.197 8        49.706
S48        51.000    77089143.548 6 405105426.05706      -483.875 6        38.099
E02        53.000    23372782.584 8 122824894.07908       592.957 8        48.985                                                                    23372786.539 8  91719968.32108       442.833 8        50.943    23372785.445 8  94112644.33308       454.385 8        50.948
C60        54.000                                                                                                                                    40817004.186 6 212544817.23806      -461.556 6        39.667                                                                    40817000.043 6 172709993.99206      -375.243 6        39.192
C45        55.000                                                                                                                                    23113349.723 7 120357195.95707     -2665.732 7        47.682                                                                    23113346.949 8  97800036.66308     -2166.228 8        48.535
R12        56.000    19239233.530 8 102772631.16008      -212.754 8        52.032                                                                    19239237.310 7  79934308.86407      -165.508 7        47.218
C02        57.000                                                                                                                                    40908802.019 5 213022699.50505      -510.947 5        30.626    40908810.946 6 164722600.35206      -394.839 6        36.117    40908810.338 5 173098349.83905      -415.250 5        30.943
I03        58.000   122989484.473 6 406851612.00806       896.406 6        36.692
C14        59.000                                                                                                                                    23269895.038 7 121172387.67107       405.477 7        46.233    23269897.017 8  93698149.04708       313.557 8        50.610    23269894.219 8  98462462.09808       329.363 8        48.204
R13        60.000    21567711.336 7 115170434.93107      2515.971 7        42.218
> 2025 01 01 10 00 15.0000000  0 53
G19         1.000    23017063.346 7 120955618.74807      2557.179 7        43.793                                    23017065.000 5  94251214.06405      1992.600 5        30.770
R01         2.000    21385742.356 7 114318916.93807     -4518.464 7        45.672                                                                    21385749.203 6  88914750.84606     -3514.316 6        39.844
G24         3.000    21640414.522 7 113721157.38007      2134.200 7        44.716                                    21640419.096 7  88613920.01307      1663.013 7        44.483    21640419.177 7  88613917.02907      1662.915 7        42.373
R02         4.000    19367984.978 8 103351228.03408      -914.392 8        52.191                                                                    19367989.179 7  80384289.78007      -711.202 7        47.227
S21         5.000    38378410.790 6 201679654.38806      -490.933 6        41.909
G17         7.000    22106289.652 7 116169492.86707       572.445 7        46.098                                    22106292.458 7  90521770.19007       446.059 7        43.920    22106293.469 7  90521766.19907       446.010 7        42.110
R21         8.000    23148409.436 7 123871852.55407      2220.040 7        42.082                                                                    23148421.138 6  96344844.94706      1726.719 6        41.151
E30        10.000    27197057.535 6 142921585.35806      2391.881 6        40.417                                                                    27197068.195 7 106727249.13707      1786.117 7        43.003    27197066.782 7 109511428.99307      1832.734 7        43.378
C26        11.000                                                                                                                                    21700911.727 8 113002365.87808       151.837 8        50.697                                                                    21700913.996 8  91823697.90508       123.297 8        49.520
S27        12.000    39105403.891 6 205500109.89406      -524.130 6        36.147
G15        13.000    20144046.279 8 105857619.30108      -986.976 8        49.560                                    20144046.607 8  82486425.34408      -769.073 8        50.114    20144046.742 7  82486417.34707      -769.120 7        45.318
S36        14.000    38149033.697 7 200474941.51407      -491.749 7        43.994
G12        15.000    24692837.338 6 129761788.92906      3329.287 6        40.505                                    24692843.215 5 101113135.27105      2594.242 5        32.216    24692844.300 6 101113135.29706      2594.235 6        36.057
R11        16.000    21411233.214 8 114415048.56808     -3702.370 8        48.411                                                                    21411238.919 7  88989457.94207     -2879.576 7        45.327
S45        17.000    63332504.479 5 332814599.27215      -543.626 5        35.671
R03        18.000    21684564.752 8 116079106.42608      2947.685 8        49.508                                                                    21684568.572 7  90283748.11507      2292.599 7        44.120
E24        19.000    28997334.507 5 152381782.94105     -3415.352 5        32.665                                                                    28997351.010 5 113791535.17405     -2550.500 5        34.714    28997349.291 5 116760014.44305     -2617.197 5        35.267
E33        20.000    28608127.278 5 150336711.48505     -1103.529 5        35.714                                                                    28608131.910 6 112264444.56906      -824.322 6        39.667    28608130.692 6 115193078.17706      -845.759 6        39.835
G30        21.000    24232634.054 6 127343173.74206     -3514.464 6        39.381                                    24232644.640 5  99228404.90505     -2738.540 5        34.276    24232644.738 6  99228408.89006     -2738.550 6        37.176
I06        22.000    38116544.614 7 149577582.69607      -466.262 7        43.314
S28        23.000    40828331.814 5 214554095.80905      -501.814 5        34.843
G14        24.000    21707738.235 7 114074884.62907     -2967.730 7        45.591                                    21707741.367 5  88889509.48405     -2312.507 5        35.086    21707741.420 7  88889511.47007     -2312.428 7        44.606
S23        25.000    38081997.658 7 200122139.11107      -493.320 7        44.092
E08        26.000    23489282.696 8 123436957.19808       -25.906 8        48.446                                                                    23489286.126 8  92176929.91108       -19.319 8        50.911    23489285.286 8  94581545.09408       -19.859 8        51.118
C07        27.000                                                                                                                                    38785355.814 6 201965494.87406      -735.963 6        41.085    38785358.026 7 156172536.73007      -569.139 7        44.596    38785354.677 6 164113501.00006      -598.042 6        41.380
G13        28.000    20555231.027 8 108018405.88408     -2600.583 8        49.657                                    20555230.956 6  84170149.55006     -2026.424 6        39.417
I02        29.000    37008022.447 7 145227437.03307      -113.109 7        43.016
G10        30.000    25281999.860 6 132857746.68506      1898.978 6        40.477                                    25282004.281 5 103525507.51405      1479.729 5        32.521    25282004.189 6 103525499.50106      1479.759 6        36.454
E07        31.000    26572133.642 6 139637415.37906      2126.357 6        40.956                                                                    26572144.032 7 104274685.12207      1587.967 7        44.548    26572142.498 7 106994892.96807      1629.340 7        44.438
E03        32.000    24584850.237 7 129194178.43907     -2667.393 7        46.287                                                                    24584857.607 8  96476161.80208     -1991.909 8        49.038    24584856.575 8  98992928.52308     -2043.824 8        49.026
G05        33.000    25181175.552 6 132327772.75806     -4093.894 6        38.736                                    25181184.994 4 103112492.88504     -3190.038 4        29.896    25181185.817 5 103112495.88305     -3190.173 5        35.167
G02        34.000    25787789.889 5                       442.703 5        33.180
C24        35.000                                                                                                                                    24386272.063 7 126985721.41907      2176.673 7        44.727                                                                    24386275.384 7 103186315.29007      1768.727 7        44.504
G23        36.000    23009804.236 7 120917242.22807      -298.983 7        42.885                                    23009808.725 4  94221187.04204      -232.971 4        29.374    23009808.931 7  94221188.03707      -232.998 7        42.311
C33        39.000                                                                                                                                    24893675.755 7 129627887.06007      1773.459 7        43.968                                                                    24893693.755 7 105333347.52607      1441.044 7        44.996
E25        40.000    24327887.563 7 127843883.05107     -2187.683 7        45.731                                                                    24327894.641 8  95467828.57008     -1633.618 8        48.897    24327893.740 8  97958286.79308     -1676.237 8        49.571
S44        42.000    40817450.997 6 214497081.62006      -465.777 6        37.573
C09        43.000                                                                                                                                    41459417.403 4                     -1138.312 4        25.188    41459426.818 4                      -881.351 4        24.316    41459422.431 3                      -923.640 3        21.095
C05        44.000                                                                                                                                    39349193.885 6 204901461.64406      -535.622 6        38.135    39349198.528 7 158442792.47107      -414.063 7        42.991    39349198.130 6 166499293.47006      -435.170 6        39.982
C40        45.000                                                                                                                                    38836901.307 7 202233901.76207      -883.955 7        42.442                                                                    38836906.810 7 164331618.39107      -718.324 7        42.919
C21        46.000                                                                                                                                    24394342.733 7 127027617.13607     -3703.647 7        46.322                                                                    24394343.542 7 103220290.08207     -3009.622 7        46.453
R20        47.000    23142815.597 5 123755058.48905      -804.420 5        33.269                                                                    23142828.503 6  96253992.50306      -625.984 6        40.048
C10        49.000                                                                                                                                    38439897.038 6 200166647.35706      -349.990 6        41.795    38439900.846 7 154781567.38307      -270.527 7        44.752    38439897.120 6 162651802.65006      -284.533 6        41.645
C42        50.000                                                                                                                                    22637723.027 8 117880493.51908     -1278.009 8        49.303                                                                    22637734.667 8  95787578.78608     -1038.478 8        49.720
S48        51.000    77089608.651 6 405107844.68706      -483.940 6        37.868
E02        53.000    23372219.414 8 122821934.55208       590.964 8        48.942                                                                    23372223.357 8  91717758.29308       441.268 8        51.090    23372222.211 8  94110376.64808       452.813 8        50.883
C60        54.000                                                                                                                                    40817447.431 6 212547125.41806      -461.624 6        39.670                                                                    40817443.270 6 172711869.56806      -375.016 6        39.207
C45        55.000                                                                                                                                    23115910.109 7 120370527.47707     -2666.743 7        47.920                                                                    23115907.171 8  97810869.59108     -2167.030 8        48.469
R12        56.000    19239434.220 8 102773702.53508      -215.718 8        52.152                                                                    19239437.870 7  79935142.14707      -167.805 7        47.243
C02        57.000                                                                                                                                    40909293.862 5 213025253.18205      -510.369 5        30.792    40909301.452 6 164724575.00506      -394.993 6        36.348    40909300.284 5 173100424.91805      -415.220 5        31.283
I03        58.000   122988341.302 6 406847129.69706       896.455 6        36.854
C14        59.000                                                                                                                                    23269507.729 7 121170367.50407       402.564 7        46.371    23269509.174 8  93696586.92208       311.323 8        50.607    23269506.280 8  98460820.53508       327.120 8        48.235
R13        60.000    21565356.188 6 115157859.81806      2514.027 6        41.862
> 2025 01 01 10 00 20.0000000  0 53
G19         1.000    23014631.126 7 120942836.41907      2555.857 7        44.110                                    23014632.469 5  94241253.83505      1991.571 5        31.155
R01         2.000    21389968.900 7 114341514.65207     -4520.462 7        45.567                                                                    21389976.339 6  88932326.82706     -3515.868 6        40.381
G24         3.000    21638384.589 7 113710490.31507      2132.696 7        44.576                                    21638389.194 7  88605608.01807      1661.837 7        44.420    21638389.713 7  88605605.03507      1661.703 7        42.648
R02         4.000    19368844.291 8 103355811.59808      -918.995 8        52.563                                                                    19368847.954 7  80387854.77407      -714.740 7        47.249
S21         5.000    38378879.519 6 201682109.73806      -490.833 6        41.821
G17         7.000    22105746.573 7 116166638.64707       569.395 7        46.288                                    22105749.428 7  90519546.12807       443.684 7        43.926    22105750.262 7  90519542.12507       443.710 7        42.516
R21         8.000    23146336.999 7 123860759.94107      2217.031 7        43.187                                                                    23146347.767 6  96336217.24606      1724.334 6        41.099
E30        10.000    27194782.376 6 142909627.86906      2391.149 6        40.691                                                                    27194792.929 7 106718319.82207      1785.701 7        43.052    27194791.204 7 109502266.73707      1832.205 7        43.372
C26        11.000                                                                                                                                    21700766.855 8 113001610.93708       150.237 8        50.720                                                                    21700769.071 8  91823084.45308       121.875 8        49.546
S27        12.000    39105900.008 6 205502730.57406      -524.246 6        36.234
G15        13.000    20144987.294 8 105862563.39908      -990.563 8        49.667                                    20144987.432 8  82490277.88808      -771.868 8        50.059    20144988.174 7  82490269.89007      -771.899 7        45.387
S36        14.000    38149502.386 7 200477400.30007      -491.685 7        43.987
G12        15.000    24689669.518 6 129745143.96106      3328.731 6        40.064                                    24689675.849 5 101100165.21805      2593.806 5        32.090    24689676.742 6 101100165.23206      2593.816 6        36.302
R11        16.000    21414696.996 7 114433563.09107     -3703.322 7        47.999                                                                    21414703.874 7  89003858.09107     -2880.441 7        45.812
S45        17.000    63332977.317 6 332817317.65006      -543.651 6        36.095
R03        18.000    21681812.136 8 116064374.65108      2945.117 8        49.554                                                                    21681816.705 7  90272290.08107      2290.598 7        44.182
E24        19.000    29000584.230 5 152398860.01505     -3415.269 5        32.737                                                                    29000600.867 5 113804287.60005     -2550.296 5        34.443    29000598.912 5 116773099.53205     -2617.176 5        35.090
E33        20.000    28609178.654 5 150342237.41105     -1106.402 5        35.229                                                                    28609183.418 6 112268571.18806      -826.331 6        39.601    28609182.316 6 115197312.42906      -847.754 6        39.562
G30        21.000    24235978.137 6 127360747.34706     -3514.947 6        39.736                                    24235988.721 5  99242098.60405     -2738.916 5        34.224    24235989.769 6  99242102.60906     -2738.921 6        37.221
I06        22.000    38117138.900 7 149579914.58307      -466.370 7        43.460
S28        23.000    40828812.362 5 214556604.64405      -501.970 5        34.810
G14        24.000    21710562.944 7 114089727.76107     -2969.387 7        45.628                                    21710565.988 5  88901075.52205     -2313.800 5        35.014    21710566.216 7  88901077.51407     -2313.925 7        44.801
S23        25.000    38082468.828 7 200124606.23507      -493.511 7        44.135
E08        26.000    23489308.342 8 123437091.78308       -27.814 8        48.178                                                                    23489311.747 8  92177030.41508       -20.769 8        50.935    23489310.897 8  94581648.21608       -21.330 8        51.103
C07        27.000                                                                                                                                    38786062.878 6 201969177.35406      -736.793 6        41.056    38786065.134 7 156175384.23907      -569.768 7        44.448    38786061.694 6 164116493.29806      -598.849 6        41.454
G13        28.000    20557706.712 8 108031415.67008     -2603.134 8        49.405                                    20557706.630 6  84180287.04406     -2028.414 6        39.429
I02        29.000    37008166.974 7 145228004.15807      -113.642 7        43.090
G10        30.000    25280193.726 6 132848257.59906      1896.704 6        39.553                                    25280198.510 5 103518113.38005      1477.961 5        32.473    25280198.436 6 103518105.37306      1478.005 6        36.352
E07        31.000    26570110.747 6 139626785.16506      2125.861 6        40.722                                                                    26570121.133 7 104266747.01507      1587.323 7        44.494    26570119.776 7 106986747.76607      1628.864 7        44.331
E03        32.000    24587389.198 7 129207519.46707     -2668.980 7        46.268                                                                    24587396.373 8  96486124.23708     -1993.046 8        49.063    24587395.272 8  99003150.84908     -2044.991 8        49.058
G05        33.000    25185070.671 6 132348242.24206     -4093.721 6        38.414                                    25185080.261 5 103128443.09405     -3189.907 5        30.038    25185081.241 5 103128446.07205     -3189.827 5        35.286
G02        34.000    25787369.928 5 135513544.54415       440.460 5        33.904
C24        35.000                                                                                                                                    24384182.294 7 126974840.10507      2176.020 7        44.369                                                                    24384185.715 7 103177473.36607      1767.938 7        44.438
G23        36.000    23010091.109 7 120918745.76807      -302.370 7        42.667                                    23010094.905 4  94222358.62604      -235.609 4        29.412    23010095.309 7  94222359.61807      -235.593 7        42.154
