     3.04           OBSERVATION DATA    M                   RINEX VERSION / TYPE
ssrcrin-15.6.1x                         20250101 204500 UTC PGM / RUN BY / DATE 
(00000000023479385599111004) Septentrio proprietary         COMMENT             
rref                                                        MARKER NAME         
01                                                          MARKER NUMBER       
geodetic                                                    MARKER TYPE         
NFB                 CLIMERS@TUW                             OBSERVER / AGENCY   
3297213             SEPT ASTERX SB3 PROB4.14.4              REC # / TYPE / VERS 
Unknown             Unknown                                 ANT # / TYPE        
  4127831.4499  1207193.4341  4695247.6811                  APPROX POSITION XYZ 
        0.0000        0.0000        0.0000                  ANTENNA: DELTA H/E/N
G   23 X1  C1C L1C D1C S1C C1W S1W C2W L2W D2W S2W C2L L2L  SYS / # / OBS TYPES 
       D2L S2L C5Q L5Q D5Q S5Q C1L L1L D1L S1L              SYS / # / OBS TYPES 
E   21 X1  C1C L1C D1C S1C C6C L6C D6C S6C C5Q L5Q D5Q S5Q  SYS / # / OBS TYPES 
       C7Q L7Q D7Q S7Q C8Q L8Q D8Q S8Q                      SYS / # / OBS TYPES 
S    9 X1  C1C L1C D1C S1C C5I L5I D5I S5I                  SYS / # / OBS TYPES 
R   17 X1  C1C L1C D1C S1C C2P L2P D2P S2P C2C L2C D2C S2C  SYS / # / OBS TYPES 
       C3Q L3Q D3Q S3Q                                      SYS / # / OBS TYPES 
C   25 X1  C1P L1P D1P S1P C5P L5P D5P S5P C2I L2I D2I S2I  SYS / # / OBS TYPES 
       C7I L7I D7I S7I C6I L6I D6I S6I C7D L7D D7D S7D      SYS / # / OBS TYPES 
J   17 X1  C1C L1C D1C S1C C2L L2L D2L S2L C5Q L5Q D5Q S5Q  SYS / # / OBS TYPES 
       C1L L1L D1L S1L                                      SYS / # / OBS TYPES 
I    5 X1  C5A L5A D5A S5A                                  SYS / # / OBS TYPES 
SEPTENTRIO RECEIVERS OUTPUT ALIGNED CARRIER PHASES.         COMMENT             
NO FURTHER PHASE SHIFT APPLIED IN THE RINEX ENCODER.        COMMENT             
G L1C                                                       SYS / PHASE SHIFT   
G L2W                                                       SYS / PHASE SHIFT   
G L2L  0.00000                                              SYS / PHASE SHIFT   
G L5Q  0.00000                                              SYS / PHASE SHIFT   
G L1L  0.00000                                              SYS / PHASE SHIFT   
E L1C  0.00000                                              SYS / PHASE SHIFT   
E L6C  0.00000                                              SYS / PHASE SHIFT   
E L5Q  0.00000                                              SYS / PHASE SHIFT   
E L7Q  0.00000                                              SYS / PHASE SHIFT   
E L8Q  0.00000                                              SYS / PHASE SHIFT   
S L1C                                                       SYS / PHASE SHIFT   
S L5I                                                       SYS / PHASE SHIFT   
R L1C                                                       SYS / PHASE SHIFT   
R L2P  0.00000                                              SYS / PHASE SHIFT   
R L2C                                                       SYS / PHASE SHIFT   
R L3Q  0.00000                                              SYS / PHASE SHIFT   
C L1P  0.00000                                              SYS / PHASE SHIFT   
C L5P  0.00000                                              SYS / PHASE SHIFT   
C L2I                                                       SYS / PHASE SHIFT   
C L7I                                                       SYS / PHASE SHIFT   
C L6I                                                       SYS / PHASE SHIFT   
C L7D                                                       SYS / PHASE SHIFT   
J L1C                                                       SYS / PHASE SHIFT   
J L2L  0.00000                                              SYS / PHASE SHIFT   
J L5Q  0.00000                                              SYS / PHASE SHIFT   
J L1L  0.00000                                              SYS / PHASE SHIFT   
I L5A                                                       SYS / PHASE SHIFT   
  2025     1     1    20    45    0.0000000     GPS         TIME OF FIRST OBS   
 C1C    0.000 C2C    0.000 C2P    0.000                     GLONASS COD/PHS/BIS 
DBHZ                                                        SIGNAL STRENGTH UNIT
    18                                                      LEAP SECONDS        
 24 R01  1 R02 -4 R03  5 R04  6 R05  1 R06 -4 R07  5 R08  6 GLONASS SLOT / FRQ #
    R09 -2 R10 -7 R11  0 R12 -1 R13 -2 R14 -7 R15  0 R16 -1 GLONASS SLOT / FRQ #
    R17  4 R18 -3 R19  3 R20  2 R21  4 R22 -3 R23  3 R24  2 GLONASS SLOT / FRQ #
                                                            END OF HEADER       
> 2025 01 01 20 45  0.0000000  0 55
G10         1.000    20682778.431 8 108688836.09208       -99.552 8        51.405                                    20682776.326 8  84692661.79908       -77.573 8        52.567    20682775.913 7  84692638.80907       -77.653 7        45.896
G15         2.000    24449864.616 6 128484913.15806     -2868.385 6        36.026                                    24449862.324 4 100118102.07004     -2235.099 4        27.461    24449861.967 5 100118105.05305     -2235.076 5        34.514
C33         3.000                                                                                                                                    22942767.667 8 119469038.51108       970.113 8        48.960                                                                    22942779.151 8  97078438.77408       788.243 8        48.871
E31         4.000    26783273.869 6 140747089.05206      1482.290 6        40.274                                                                    26783274.631 7 105103355.17607      1106.933 7        43.407    26783274.057 7 107845178.69007      1135.746 7        44.090
S21         5.000    38390454.538 6 201742931.88306      -516.735 6        41.788
E13         6.000    24069775.208 7 126487871.16107     -1944.588 7        46.552                                                                    24069775.227 8  94455436.30408     -1452.102 8        49.242    24069774.833 8  96919460.66608     -1490.010 8        50.392
G23         7.000    21709192.064 7 114082701.31607     -2800.097 7        45.731                                    21709188.325 5  88895649.19105     -2181.894 5        34.938    21709188.507 7  88895648.18907     -2181.943 7        44.575
E15         8.000    28288355.128 6 148656627.77006     -3019.509 6        36.393                                                                    28288356.169 6 111009989.28906     -2254.864 6        40.050    28288355.843 6 113905878.23106     -2313.668 6        41.197
G02         9.000    24682097.847 6 129705330.15106      2335.695 6        38.453                                    24682092.501 3 101069078.23803      1820.026 3        20.548
G26        11.000    25372233.005 5 133332306.40405     -4096.219 5        34.971                                    25372235.600 3 103895473.50303     -3191.856 3        23.638    25372235.610 5 103895493.46705     -3191.221 5        32.473
S27        12.000    39111017.664 6 205529721.56006      -484.897 6        36.083
R20        13.000    20797490.302 6 111213571.52806      1773.889 6        39.829                                                                    20797490.971 7  86499511.53807      1379.520 7        46.336
S36        14.000    38159758.803 7 200531403.58307      -515.831 7        43.500
G27        15.000    20052909.827 8 105379034.60008     -1035.843 8        50.260                                    20052907.771 8  82113691.64308      -807.151 8        53.052    20052907.847 7  82113605.64707      -807.183 7        46.167
S45        17.000    63370627.896 6 333015024.96306      -562.666 6        37.206
E08        18.000    26535704.982 6 139446107.91506      1205.213 6        40.691                                                                    26535704.141 7 104131834.04507       900.015 7        43.765    26535703.844 7 106848312.58307       923.506 7        44.861
G16        19.000    22989934.905 7 120813171.97207     -4003.161 7        43.740                                    22989930.897 4  94140250.75804     -3119.347 4        29.327
E21        20.000    25926079.580 7 136242831.85107     -3388.869 7        43.426                                                                    25926080.039 7 101739990.82907     -2530.622 7        45.625    25926079.301 7 104394052.62207     -2596.715 7        46.374
E26        21.000    23728687.837 8 124695443.57808       446.567 8        48.121                                                                    23728685.489 8  93116924.23508       333.399 8        50.127    23728685.442 8  95546036.96908       342.159 8        51.451
I06        22.000    38538381.511 6 151233103.87306      -301.914 6        40.880
S28        23.000    40853516.225 5 214686694.91405      -509.342 5        33.569
G08        24.000    20820047.128 7 109410101.43107      1289.045 7        47.928                                    20820045.303 8  85254625.01808      1004.447 8        48.799    20820046.423 7  85254626.02107      1004.408 7        44.822
S23        25.000    38115215.938 7 200296801.80407      -515.690 7        43.947
C13        26.000                                                                                                                                    38775154.747 6 201912600.37206     -1534.360 6        41.731    38775156.013 7 156131740.71907     -1186.500 7        42.870    38775154.316 6 164070613.50706     -1246.967 6        40.579
G18        27.000    24508098.287 6 128791267.09106     -3638.432 6        38.024                                    24508094.529 3 100357002.26203     -2835.130 3        22.781    24508095.044 6 100356993.25606     -2835.168 6        39.874
I02        29.000    40384878.636 5 158479024.43905     -1029.089 5        33.916
C14        30.000                                                                                                                                    23059326.734 7 120076000.58507      -699.854 7        45.782    23059322.258 8  92850377.54108      -541.167 8        50.533    23059321.013 8  97571574.31608      -568.658 8        48.282
R05        31.000    23012895.227 7 123017118.07707      3995.148 7        44.369                                                                    23012895.067 6  95679982.51906      3107.235 6        41.645
E03        32.000    27413115.827 6 144056899.42206     -1160.664 6        37.724                                                                    27413116.603 6 107574969.15806      -866.673 6        40.451    27413116.095 6 110381266.12306      -889.468 6        41.492
G30        33.000    25782363.532 5 135487232.65905     -1313.725 5        34.938                                    25782363.046 4 105574470.72204     -1023.651 4        24.271    25782364.179 5 105574478.70805     -1023.629 5        31.464
R03        34.000    21254772.872 8 113778497.67708     -2207.651 8        48.321                                                                    21254771.663 7  88494410.04407     -1717.137 7        45.085
R10        35.000    21497432.028 7 114593467.03307     -2215.170 7        43.879
R18        36.000    22678336.502 7 121058886.03207     -3588.980 7        44.474                                                                    22678336.991 7  94157112.37807     -2791.461 7        42.876
G32        37.000    24674282.188 6 129664234.20306      2674.913 6        39.625                                    24674281.804 5 101037059.48205      2084.344 5        34.086    24674282.888 6 101037068.49806      2084.191 6        38.144
E07        38.000    27835614.806 6 146277124.54906      2442.292 6        37.811                                                                    27835617.592 6 109232945.03106      1823.755 6        40.219    27835616.618 6 112082493.72306      1871.400 6        40.832
R09        40.000    22683158.855 7 121126845.63107     -4457.469 7        46.121                                                                    22683158.658 7  94209786.53507     -3467.023 7        42.665
E33        41.000    27158988.413 6 142721517.03506      1856.229 6        40.350                                                                    27158987.853 6 106577783.44306      1386.279 6        41.042    27158987.604 7 109358070.04107      1422.314 7        42.303
S44        42.000    40420628.395 6 212412024.25306      -520.654 6        37.456
C38        43.000                                                                                                                                    40826948.009 6 212596771.03306     -1766.495 6        36.446                                                                    40826946.801 6 172752349.88206     -1435.331 6        37.894
C05        44.000                                                                                                                                    39162733.680 6 203930661.99006      -454.291 6        37.176    39162729.680 7 157692145.15707      -351.158 7        42.400    39162731.768 6 165710468.66506      -369.114 6        39.327
C08        45.000                                                                                                                                    39338754.906 6 204847401.51106     -1748.646 6        37.543    39338748.627 7 158401078.31507     -1352.147 7        42.061    39338747.993 6 166455343.22806     -1420.956 6        38.480
R11        46.000    22669537.925 7 121139141.18707      1537.558 7        44.426                                                                    22669537.331 7  94219331.86707      1195.968 7        42.557
R19        47.000    20061282.923 6 107314708.96406     -1950.569 6        40.350                                                                    20061282.768 7  83467162.90007     -1517.106 7        44.244
C43        48.000                                                                                                                                    24500760.709 7 127582202.99607     -3119.928 7        44.494                                                                    24500759.751 7 103671114.44607     -2535.305 7        43.380
C42        50.000                                                                                                                                    24299375.494 7 126533268.23207     -2249.644 7        44.412                                                                    24299383.441 7 102818692.81407     -1828.102 7        45.859
S48        51.000    77140140.490 6 405374560.02906      -550.160 6        37.312
G21        52.000    22522497.546 6 118356588.13706      1924.941 6        40.667                                    22522492.879 4  92225932.62604      1499.957 4        25.820
C37        53.000                                                                                                                                    26157189.658 6 136207339.69206     -3418.534 6        40.515                                                                    26157194.564 6 110679636.62506     -2777.934 6        41.292
C60        54.000                                                                                                                                    40420630.298 6 210481025.24306      -515.906 6        39.796                                                                    40420614.278 6 171033042.63406      -419.185 6        39.048
C27        55.000                                                                                                                                    23116116.996 7 120371705.64107      1713.835 7        47.181                                                                    23116115.667 7  97811874.52207      1392.500 7        46.679
R04        56.000    20454468.135 8 109532764.92408      1718.552 8        50.000                                                                    20454466.857 7  85192142.56907      1336.633 7        46.568
C02        57.000                                                                                                                                    40503153.332 5 210910589.34405      -468.861 5        34.138    40503147.047 6 163089438.78606      -362.393 6        40.098    40503150.212 6 171382132.31106      -381.009 6        36.011
I03        58.000   109250502.292 6 352937186.70906      1024.655 6        40.603
C11        59.000                                                                                                                                    26519859.761 6 138096144.57606     -3305.872 6        38.099    26519857.500 7 106784842.99807     -2556.396 7        43.348    26519855.523 6 112214533.55606     -2686.437 6        40.586
C28        60.000                                                                                                                                    21402219.790 8 111447290.16008      -432.949 8        50.809                                                                    21402218.411 8  90560188.36108      -351.858 8        48.399
> 2025 01 01 20 45  5.0000000  0 55
G10         1.000    20682874.567 8 108689341.28608      -102.508 8        51.239                                    20682872.470 8  84693055.45308       -79.879 8        52.585    20682872.214 7  84693032.45807       -79.943 7        45.746
G15         2.000    24452594.779 6 128499261.43606     -2870.961 6        36.091                                    24452592.617 4 100129282.53904     -2237.110 4        27.245    24452592.204 5 100129285.51505     -2236.958 5        34.729
C33         3.000                                                                                                                                    22941837.628 8 119464194.74108       967.480 8        49.206                                                                    22941848.969 8  97074502.81908       786.170 8        48.958
E31         4.000    26781864.117 6 140739681.77406      1480.631 6        40.336                                                                    26781865.050 7 105097823.78807      1105.619 7        43.477    26781864.567 7 107839503.00507      1134.449 7        44.093
S21         5.000    38390947.382 6 201745515.49106      -516.755 6        41.635
E13         6.000    24071625.593 7 126497595.90607     -1945.356 7        46.470                                                                    24071625.819 8  94462698.28308     -1452.650 8        49.236    24071625.393 8  96926912.09308     -1490.587 8        50.372
G23         7.000    21711857.768 7 114096707.44207     -2802.334 7        45.892                                    21711853.609 5  88906563.05105     -2183.637 5        34.895    21711853.453 7  88906562.04407     -2183.605 7        44.254
E15         8.000    28291228.134 6 148671724.61306     -3019.320 6        36.393                                                                    28291229.201 6 111021262.89206     -2254.643 6        40.143    28291228.296 6 113917445.92306     -2313.443 6        41.197
G02         9.000    24679875.005 6 129693652.43806      2335.412 6        38.468                                    24679870.315 3 101059978.74603      1819.799 3        20.571
G26        11.000    25376130.296 5 133352783.84305     -4095.025 5        34.676                                    25376132.078 3 103911429.91003     -3190.922 3        23.219    25376132.491 5 103911449.89605     -3190.983 5        32.060
S27        12.000    39111479.278 6 205532145.51306      -484.565 6        36.416
R20        13.000    20795831.558 6 111204705.76106      1772.511 6        40.055                                                                    20795833.154 7  86492615.92107      1378.696 7        46.039
S36        14.000    38160249.899 7 200533983.47507      -516.190 7        43.418
G27        15.000    20053896.884 8 105384220.93008     -1038.571 8        50.275                                    20053894.699 8  82117732.93608      -809.274 8        53.075    20053895.194 7  82117646.93307      -809.301 7        46.433
S45        17.000    63371118.728 6 333017837.84806      -562.543 6        37.043
E08        18.000    26534558.885 6 139440086.58506      1203.422 6        40.467                                                                    26534558.518 7 104127337.61107       898.546 7        43.816    26534557.991 7 106843698.84507       921.997 7        44.715
G16        19.000    22993744.362 7 120833190.41007     -4004.325 7        43.831                                    22993740.353 4  94155849.53104     -3120.253 4        29.280
E21        20.000    25929304.308 7 136259778.74107     -3389.834 7        43.181                                                                    25929304.872 7 101752645.97707     -2531.321 7        45.779    25929304.273 7 104407037.90107     -2597.378 7        46.375
E26        21.000    23728263.621 8 124693213.67708       445.471 8        48.029                                                                    23728261.231 8  93115259.04408       332.615 8        50.173    23728261.100 8  95544328.33808       341.279 8        51.396
I06        22.000    38538765.920 6 151234612.94406      -301.721 6        40.703
S28        23.000    40854003.730 5 214689241.23505      -509.292 5        33.353
G08        24.000    20818821.772 8 109403662.10408      1286.789 8        48.009                                    20818819.940 8  85249607.36108      1002.693 8        48.824    20818821.013 7  85249608.36307      1002.722 7        45.255
S23        25.000    38115704.968 7 200299380.11307      -515.598 7        43.814
C13        26.000                                                                                                                                    38776628.405 6 201920272.47206     -1534.522 6        41.926    38776629.380 7 156137673.25607     -1186.459 7        42.963    38776627.651 6 164076847.70506     -1246.774 6        40.617
G18        27.000    24511560.269 6 128809460.23606     -3638.768 6        37.921                                    24511556.880 3 100371178.71803     -2835.405 3        22.590    24511557.225 6 100371169.70106     -2835.351 6        39.958
I02        29.000    40386190.139 5 158484170.25505     -1029.218 5        33.533
C14        30.000                                                                                                                                    23059999.483 7 120079507.14807      -702.828 7        45.935    23059995.232 8  92853089.03508      -543.464 8        50.533    23059994.366 8  97574423.68908      -571.067 8        48.365
R05        31.000    23009158.389 7 122997143.82407      3994.594 7        44.677                                                                    23009158.834 6  95664446.98506      3106.905 6        41.831
E03        32.000    27414221.456 6 144062709.12306     -1163.070 6        37.686                                                                    27414222.025 6 107579307.56006      -868.681 6        40.322    27414221.686 6 110385717.68906      -891.226 6        41.178
G30        33.000    25783615.232 5 135493807.14205     -1315.953 5        34.795                                    25783614.385 4 105579593.67104     -1025.411 4        24.391    25783614.110 5 105579601.68005     -1025.706 5        31.585
R03        34.000    21256836.976 8 113789546.55808     -2211.818 8        48.597                                                                    21256835.474 7  88503003.61007     -1720.228 7        44.891
R10        35.000    21499511.943 7 114604552.91707     -2219.150 7        43.987
R18        36.000    22681698.085 7 121076832.33207     -3589.643 7        43.371                                                                    22681699.426 7  94171070.58507     -2791.889 7        43.050
G32        37.000    24671737.074 6 129650860.39006      2674.666 6        39.691                                    24671736.946 5 101026638.33705      2084.154 5        34.214    24671737.241 6 101026647.34506      2084.273 6        38.366
E07        38.000    27833291.094 6 146264913.11606      2442.225 6        37.641                                                                    27833293.772 6 109223826.10606      1823.893 6        40.303    27833292.691 6 112073136.91506      1871.489 6        40.846
R09        40.000    22687333.606 7 121149136.12807     -4458.742 7        46.532                                                                    22687333.237 7  94227123.57007     -3467.942 7        43.029
E33        41.000    27157222.552 6 142712236.97806      1855.833 6        39.706                                                                    27157221.941 6 106570853.54206      1385.989 6        41.111    27157221.714 7 109350959.36207      1422.089 7        42.347
S44        42.000    40421127.808 6 212414628.12106      -520.663 6        37.183
C38        43.000                                                                                                                                    40828643.859 6 212605602.43506     -1766.168 6        36.643                                                                    40828642.900 6 172759526.11306     -1435.049 6        37.890
C05        44.000                                                                                                                                    39163170.209 6 203932933.29306      -454.113 6        37.059    39163166.048 7 157693901.49207      -351.237 7        42.372    39163167.997 6 165712314.29006      -369.006 6        39.471
C08        45.000                                                                                                                                    39340433.537 6 204856145.05406     -1748.776 6        37.100    39340427.802 7 158407839.36907     -1352.267 7        42.011    39340427.276 6 166462448.05906     -1421.077 6        38.513
R11        46.000    22668101.384 7 121131462.39207      1533.896 7        45.502                                                                    22668099.890 7  94213359.47207      1193.064 7        43.071
R19        47.000    20063107.719 6 107324466.22206     -1952.399 6        40.601                                                                    20063107.130 7  83474751.88707     -1518.487 7        44.777
C43        48.000                                                                                                                                    24503757.045 7 127597804.85307     -3120.700 7        44.396                                                                    24503755.891 7 103683792.23107     -2535.873 7        43.401
C42        50.000                                                                                                                                    24301537.223 7 126544522.80507     -2252.135 7        44.573                                                                    24301544.859 7 102827838.08007     -1830.009 7        46.088
S48        51.000    77140636.549 6 405377310.81206      -550.038 6        37.380
G21        52.000    22520666.676 6 118346965.86806      1923.882 6        40.648                                    22520661.785 4  92218434.75404      1499.132 4        25.609
C37        53.000                                                                                                                                    26160472.218 6 136224433.76106     -3418.908 6        40.203                                                                    26160477.396 6 110693526.92806     -2778.172 6        41.225
C60        54.000                                                                                                                                    40421125.575 6 210483605.44106      -515.923 6        40.014                                                                    40421109.702 6 171035139.26406      -419.288 6        39.135
C27        55.000                                                                                                                                    23114471.942 7 120363138.99507      1712.963 7        47.213                                                                    23114470.545 7  97804913.41207      1391.939 7        46.685
R04        56.000    20452865.146 8 109524182.11708      1714.610 8        50.393                                                                    20452863.977 7  85185467.07207      1333.488 7        46.525
C02        57.000                                                                                                                                    40503603.043 5 210912933.35105      -468.474 5        33.982    40503597.513 6 163091251.35706      -362.652 6        40.072    40503600.598 6 171384037.04606      -380.796 6        36.144
I03        58.000   109249196.627 6 352932063.60306      1024.709 6        40.520
C11        59.000                                                                                                                                    26523033.009 6 138112675.12106     -3306.274 6        38.144    26523031.697 7 106797625.44407     -2556.626 7        43.482    26523030.204 6 112227965.95506     -2686.594 6        40.770
C28        60.000                                                                                                                                    21402636.371 8 111449458.98508      -434.536 8        50.816                                                                    21402634.941 8  90561950.71208      -353.066 8        48.485
> 2025 01 01 20 45 10.0000000  0 55
G10         1.000    20682973.533 8 108689861.30908      -105.498 8        51.498                                    20682971.427 8  84693460.67108       -82.205 8        52.467    20682971.226 7  84693437.67107       -82.156 7        45.711
G15         2.000    24455328.012 6 128513623.16706     -2873.867 6        36.329                                    24455325.511 4 100140473.48204     -2239.367 4        26.802    24455325.453 5 100140476.47905     -2239.305 5        34.381
C33         3.000                                                                                                                                    22940909.972 8 119459364.23108       964.733 8        49.429                                                                    22940921.287 8  97070577.62808       783.933 8        48.827
E31         4.000    26780456.264 6 140732283.18506      1478.872 6        40.417                                                                    26780457.131 7 105092298.86707      1104.384 7        43.361    26780456.626 7 107833833.96007      1133.090 7        44.054
S21         5.000    38391435.598 6 201748098.92406      -516.664 6        41.495
E13         6.000    24073477.079 7 126507324.61507     -1946.136 7        46.539                                                                    24073477.152 8  94469963.23808     -1453.305 8        49.146    24073476.694 8  96934366.56308     -1491.216 8        50.374
G23         7.000    21714525.151 7 114110724.71807     -2804.644 7        45.552                                    21714520.927 5  88917485.60305     -2185.435 5        34.848    21714520.968 7  88917484.59407     -2185.372 7        43.702
E15         8.000    28294100.840 6 148686820.86506     -3019.177 6        36.786                                                                    28294101.820 6 111032536.06106     -2254.676 6        40.329    28294100.955 6 113929013.17406     -2313.393 6        41.013
G02         9.000    24677653.773 6 129681977.11006      2334.791 6        40.355                                    24677648.428 3 101050881.10503      1819.304 3        20.238
G26        11.000    25380026.394 5 133373258.67205     -4094.610 5        34.586                                    25380028.310 3 103927384.28203     -3190.617 3        22.705    25380029.108 5 103927404.25405     -3190.603 5        31.600
S27        12.000    39111941.653 6 205534569.12806      -484.923 6        36.132
R20        13.000    20794174.379 6 111195846.32706      1771.178 6        39.817                                                                    20794176.343 7  86485725.25907      1377.634 7        45.946
S36        14.000    38160741.653 7 200536563.24407      -515.963 7        43.319
G27        15.000    20054886.590 8 105389421.33908     -1041.531 8        50.411                                    20054884.296 8  82121785.20308      -811.583 8        53.011    20054884.597 7  82121699.21307      -811.630 7        46.127
S45        17.000    63371604.284 6 333020650.66106      -562.640 6        37.104
E08        18.000    26533415.262 6 139434074.56606      1201.495 6        40.343                                                                    26533414.516 7 104122848.12307       897.137 7        43.975    26533413.888 7 106839092.23807       920.537 7        44.755
G16        19.000    22997555.043 7 120853214.74007     -4005.431 7        43.945                                    22997550.788 4  94171452.90204     -3121.109 4        29.194
E21        20.000    25932530.192 7 136276730.70607     -3390.910 7        42.908                                                                    25932530.784 7 101765304.90307     -2532.140 7        45.631    25932530.291 7 104420027.06307     -2598.280 7        46.436
E26        21.000    23727840.276 8 124690989.18608       444.310 8        48.140                                                                    23727837.942 8  93113597.90008       331.747 8        50.110    23727837.816 8  95542623.86408       340.431 8        51.393
I06        22.000    38539150.715 6 151236121.82406      -301.808 6        40.725
S28        23.000    40854485.847 5 214691787.23305      -509.069 5        33.533
G08        24.000    20817598.728 8 109397233.80008      1284.590 8        48.162                                    20817596.674 8  85244598.29308      1000.980 8        48.721    20817597.601 7  85244599.30007      1000.965 7        45.056
S23        25.000    38116196.802 7 200301958.32407      -515.625 7        43.754
C13        26.000                                                                                                                                    38778101.517 6 201927945.02406     -1534.583 6        41.924    38778102.844 7 156143606.15607     -1186.649 7        42.912    38778100.901 6 164083082.26006     -1247.042 6        40.405
G18        27.000    24515022.946 6 128827654.65006     -3638.886 6        38.138                                    24515019.311 3 100385356.16503     -2835.500 3        22.781    24515019.215 6 100385347.15906     -2835.642 6        39.832
I02        29.000    40387500.935 5 158489315.77705     -1028.906 5        34.057
C14        30.000                                                                                                                                    23060676.277 7 120083028.50907      -705.764 7        46.004    23060671.761 8  92855811.97908      -545.781 8        50.899    23060670.656 8  97577285.07108      -573.511 8        48.213
R05        31.000    23005422.144 7 122977172.61407      3993.821 7        44.828                                                                    23005422.990 7  95648913.82507      3106.276 7        42.066
E03        32.000    27415329.596 6 144068530.60406     -1165.338 6        38.417                                                                    27415329.838 6 107583654.75906      -870.294 6        40.598    27415329.630 6 110390178.31106      -893.150 6        41.487
G30        33.000    25784867.902 5 135500394.15905     -1318.573 5        34.057                                    25784868.044 3 105584726.38803     -1027.468 3        23.676    25784869.160 5 105584734.34805     -1027.371 5        31.494
R03        34.000    21258904.988 8 113800616.26908     -2216.173 8        48.143                                                                    21258902.764 7  88511613.38607     -1723.693 7        43.996
R10        35.000    21501595.067 7 114615658.79007     -2223.189 7        43.613
R18        36.000    22685059.668 7 121094782.10107     -3590.348 7        42.554                                                                    22685061.437 7  94185031.51707     -2792.507 7        42.430
G32        37.000    24669192.287 6 129637487.95306      2674.390 6        40.184                                    24669192.266 5 101016218.27205      2083.934 5        34.310    24669193.129 6 101016227.28806      2083.809 6        38.255
E07        38.000    27830967.351 6 146252701.59306      2442.226 6        37.705                                                                    27830969.968 6 109214707.11706      1823.744 6        40.415    27830968.972 6 112063780.03706      1871.355 6        41.025
R09        40.000    22691509.181 7 121171433.03307     -4460.137 7        46.389                                                                    22691509.176 7  94244465.56607     -3468.935 7        42.792
E33        41.000    27155456.649 6 142702959.03106      1855.320 6        39.222                                                                    27155456.410 6 106563925.22406      1385.476 6        41.030    27155456.117 7 109343850.29607      1421.724 7        42.248
S44        42.000    40421621.403 6 212417232.06306      -520.754 6        37.304
C38        43.000                                                                                                                                    40830339.845 6 212614433.28306     -1766.251 6        36.820                                                                    40830338.646 6 172766701.84606     -1435.053 6        38.222
C05        44.000                                                                                                                                    39163606.022 6 203935204.60806      -454.257 6        37.047    39163602.107 7 157695657.80707      -351.317 7        42.559    39163604.155 6 165714159.91406      -369.228 6        39.309
C08        45.000                                                                                                                                    39342113.060 6 204864888.73006     -1748.715 6        36.624    39342106.876 7 158414600.54707     -1352.245 7        42.049    39342106.410 6 166469553.01606     -1421.039 6        38.264
R11        46.000    22666668.045 7 121123802.87607      1529.954 7        44.814                                                                    22666667.139 7  94207402.12607      1189.977 7        42.561
R19        47.000    20064933.099 6 107334232.51506     -1954.259 6        40.653                                                                    20064933.597 7  83482347.87807     -1519.914 7        45.010
C43        48.000                                                                                                                                    24506754.087 7 127613410.46307     -3121.456 7        44.227                                                                    24506752.816 7 103696473.05607     -2536.533 7        43.426
C42        50.000                                                                                                                                    24303701.123 7 126555789.51407     -2254.621 7        44.635                                                                    24303708.602 7 102836993.18907     -1832.085 7        45.874
S48        51.000    77141136.718 6 405380061.55806      -550.143 6        37.312
G21        52.000    22518836.421 6 118337349.81806      1922.469 6        40.543                                    22518831.913 4  92210941.73804      1498.018 4        25.910
C37        53.000                                                                                                                                    26163755.670 6 136241529.58106     -3419.279 6        39.526                                                                    26163760.339 6 110707418.66306     -2778.658 6        40.856
C60        54.000                                                                                                                                    40421621.500 6 210486185.70806      -516.006 6        40.012                                                                    40421605.332 6 171037235.93606      -419.535 6        38.985
C27        55.000                                                                                                                                    23112828.039 7 120354576.45507      1712.039 7        47.249                                                                    23112826.210 7  97797955.63207      1391.201 7        46.495
R04        56.000    20451266.564 8 109515619.10808      1710.547 8        49.862                                                                    20451264.670 7  85178806.93107      1330.460 7        45.871
C02        57.000                                                                                                                                    40504052.821 5 210915277.46305      -468.809 5        33.856    40504047.654 6 163093063.95406      -362.642 6        40.300    40504050.614 5 171385941.78405      -381.196 5        35.852
I03        58.000   109247890.783 6 352926940.62906      1024.549 6        40.346
C11        59.000                                                                                                                                    26526208.419 6 138129206.94206     -3306.333 6        38.114    26526206.511 7 106810408.89807     -2556.862 7        43.564    26526204.792 6 112241399.38906     -2686.696 6        40.548
C28        60.000                                                                                                                                    21403054.390 8 111451635.78008      -436.171 8        50.837                                                                    21403052.926 8  90563719.52108      -354.456 8        48.407
> 2025 01 01 20 45 15.0000000  0 55
G10         1.000    20683075.357 8 108690396.33408      -108.573 8        51.420                                    20683073.237 8  84693877.57208       -84.604 8        52.487    20683073.069 7  84693854.57507       -84.605 7        45.747
G15         2.000    24458063.667 6 128527998.44006     -2876.506 6        37.244                                    24458060.937 4 100151674.99904     -2241.434 4        27.030    24458061.453 5 100151678.01305     -2241.501 5        35.386
C33         3.000                                                                                                                                    22939984.628 8 119454547.15208       961.941 8        49.383                                                                    22939996.279 8  97066663.37308       781.588 8        49.055
E31         4.000    26779049.958 6 140724893.45406      1477.052 6        40.102                                                                    26779050.874 7 105086780.56107      1103.046 7        43.295    26779050.473 7 107828171.70007      1131.715 7        44.030
S21         5.000    38391926.793 6 201750682.56206      -516.794 6        41.614
E13         6.000    24075329.173 7 126517057.42207     -1947.049 7        46.681                                                                    24075329.207 8  94477231.23908     -1453.965 8        49.069    24075328.785 8  96941824.16008     -1491.861 8        50.355
G23         7.000    21717194.514 7 114124753.25907     -2806.909 7        45.684                                    21717190.468 5  88928416.93105     -2187.197 5        34.843    21717190.821 7  88928415.92507     -2187.260 7        44.510
E15         8.000    28296973.272 6 148701916.69406     -3019.173 6        36.480                                                                    28296974.534 6 111043808.90206     -2254.587 6        39.925    28296973.785 6 113940580.08806     -2313.208 6        40.720
G02         9.000    24675432.608 6 129670304.28706      2334.337 6        40.527                                    24675427.123 3 101041785.40403      1818.955 3        20.881
G26        11.000    25383921.799 5 133393730.88505     -4094.299 5        34.438                                    25383924.118 3 103943336.62203     -3190.368 3        22.705    25383924.731 5 103943356.61805     -3190.292 5        31.449
S27        12.000    39112403.415 6 205536992.44206      -484.544 6        36.064
R20        13.000    20792519.503 6 111186993.33306      1769.900 6        40.477                                                                    20792520.566 7  86478839.60007      1376.622 7        45.889
S36        14.000    38161233.808 7 200539142.84207      -516.191 7        43.464
G27        15.000    20055878.954 8 105394635.97408     -1044.454 8        50.247                                    20055876.607 8  82125848.55708      -813.860 8        52.984    20055876.935 7  82125762.55207      -813.805 7        46.359
S45        17.000    63372093.587 6 333023463.52406      -562.861 6        37.308
E08        18.000    26532273.620 6 139428071.99406      1199.513 6        40.818                                                                    26532272.372 7 104118365.69407       895.766 7        43.953    26532271.719 7 106834492.87307       919.028 7        44.676
G16        19.000    23001366.595 7 120873245.01407     -4006.698 7        43.530                                    23001362.296 4  94187060.90404     -3122.106 4        29.289
E21        20.000    25935757.100 7 136293687.84107     -3391.946 7        43.130                                                                    25935757.597 7 101777967.69207     -2532.944 7        45.555    25935757.156 7 104433020.18807     -2599.124 7        46.391
E26        21.000    23727417.952 8 124688770.25108       443.204 8        48.115                                                                    23727415.654 8  93111940.90708       330.917 8        50.120    23727415.507 8  95540923.64208       339.576 8        51.323
I06        22.000    38539534.759 6 151237630.64706      -301.821 6        40.696
S28        23.000    40854971.872 5 214694333.17305      -509.223 5        33.509
G08        24.000    20816377.420 8 109390816.68108      1282.183 8        48.157                                    20816375.541 8  85239597.94108       999.104 8        48.771    20816376.423 7  85239598.94007       999.083 7        45.326
S23        25.000    38116687.187 7 200304536.56907      -515.687 7        43.680
C13        26.000                                                                                                                                    38779575.179 7 201935618.27507     -1534.741 7        42.004    38779576.139 7 156149539.59307     -1186.821 7        43.058    38779574.505 6 164089317.41906     -1247.320 6        40.710
G18        27.000    24518485.401 6 128845850.45906     -3639.269 6        38.685                                    24518482.037 3 100399534.70903     -2835.792 3        22.476    24518481.861 6 100399525.70506     -2835.826 6        39.838
I02        29.000    40388812.171 5 158494460.84005     -1029.051 5        33.988
C14        30.000                                                                                                                                    23061355.617 7 120086564.77307      -708.827 7        46.105    23061351.474 8  92858546.44808      -548.090 8        51.301    23061349.763 8  97580158.59208      -576.112 8        48.370
R05        31.000    23001686.827 7 122957204.71907      3993.131 7        44.647                                                                    23001687.341 7  95633383.24307      3105.750 7        42.303
E03        32.000    27416439.546 6 144074364.01806     -1168.075 6        38.492                                                                    27416440.066 6 107588010.85506      -872.185 6        40.451    27416439.792 6 110394648.02106      -894.819 6        41.468
G30        33.000    25786123.760 5 135506993.88805     -1321.199 5        33.892                                    25786123.909 3 105589869.02103     -1029.505 3        23.010    25786124.214 5 105589877.02505     -1029.712 5        31.064
R03        34.000    21260976.722 8 113811707.17008     -2220.378 8        48.908                                                                    21260975.137 7  88520239.64007     -1726.928 7        44.503
R10        35.000    21503681.594 7 114626784.67607     -2227.225 7        42.963
R18        36.000    22688423.543 7 121112735.44007     -3591.080 7        42.973                                                                    22688424.283 7  94198995.20107     -2793.094 7        42.184
G32        37.000    24666648.647 6 129624117.05906      2673.900 6        40.670                                    24666647.796 5 101005799.40405      2083.552 5        34.510    24666648.212 6 101005808.41806      2083.513 6        38.541
E07        38.000    27828643.340 6 146240490.11506      2442.220 6        37.652                                                                    27828646.302 6 109205588.17506      1823.725 6        40.327    27828645.206 6 112054423.19606      1871.356 6        41.063
R09        40.000    22695685.454 7 121193736.53407     -4461.503 7        45.564                                                                    22695685.046 7  94261812.73307     -3470.080 7        42.417
E33        41.000    27153692.070 6 142693683.36406      1854.847 6        40.048                                                                    27153691.377 6 106556998.57806      1385.106 6        40.944    27153691.074 7 109336742.96407      1421.198 7        42.176
S44        42.000    40422116.707 6 212419836.23206      -521.089 6        37.278
C38        43.000                                                                                                                                    40832035.159 6 212623263.67906     -1766.150 6        37.028                                                                    40832034.463 6 172773877.27506     -1435.387 6        38.039
C05        44.000                                                                                                                                    39164042.189 6 203937476.06406      -454.288 6        36.998    39164038.175 7 157697414.25407      -351.398 7        42.658    39164040.371 6 165716005.68206      -369.453 6        39.508
C08        45.000                                                                                                                                    39343792.348 6 204873632.68406     -1748.799 6        36.828    39343786.259 7 158421361.92107     -1352.240 7        42.068    39343785.671 6 166476658.20406     -1421.178 6        38.562
R11        46.000    22665237.624 7 121116162.75707      1525.898 7        44.457                                                                    22665237.548 7  94201459.85207      1186.883 7        42.762
R19        47.000    20066761.118 6 107344007.82006     -1956.047 6        40.779                                                                    20066760.557 7  83489950.89807     -1521.425 7        45.153
C43        48.000                                                                                                                                    24509751.797 7 127629019.99107     -3122.373 7        43.816                                                                    24509750.754 7 103709157.07507     -2537.349 7        43.712
C42        50.000                                                                                                                                    24305866.951 7 126567068.45907     -2257.051 7        44.665                                                                    24305874.685 7 102846158.27507     -1834.199 7        45.980
S48        51.000    77141635.394 6 405382812.48106      -550.239 6        37.561
G21        52.000    22517007.951 6 118327740.13306      1921.179 6        40.164                                    22517003.269 4  92203453.66904      1497.019 4        25.850
C37        53.000                                                                                                                                    26167039.118 6 136258627.26006     -3419.788 6        40.100                                                                    26167043.541 6 110721311.91706     -2779.087 6        40.880
C60        54.000                                                                                                                                    40422116.844 6 210488766.19306      -516.149 6        40.050                                                                    40422100.873 6 171039332.79406      -419.466 6        39.345
C27        55.000                                                                                                                                    23111184.549 7 120346018.19307      1711.195 7        47.412                                                                    23111182.750 7  97791001.35907      1390.356 7        46.805
R04        56.000    20449670.574 8 109507076.16708      1706.461 8        49.923                                                                    20449669.345 7  85172162.44407      1327.271 7        46.212
C02        57.000                                                                                                                                    40504503.095 5 210917621.80205      -468.829 5        34.195    40504497.830 6 163094876.74706      -362.511 6        40.164    40504500.745 6 171387846.76406      -381.169 6        36.023
I03        58.000   109246585.209 6 352921817.89606      1024.435 6        40.226
C11        59.000                                                                                                                                    26529384.389 6 138145740.24506     -3306.991 6        37.890    26529381.516 7 106823193.45607     -2557.049 7        43.393    26529379.737 6 112254834.04506     -2687.248 6        40.589
C28        60.000                                                                                                                                    21403473.947 8 111453820.69208      -437.895 8        50.833                                                                    21403472.572 8  90565494.94408      -355.922 8        48.556
> 2025 01 01 20 45 20.0000000  0 55
G10         1.000    20683179.960 8 108690946.31608      -111.522 8        51.413                                    20683177.891 8  84694306.12808       -86.900 8        52.490    20683177.615 7  84694283.13407       -86.899 7        45.487
G15         2.000    24460802.049 6 128542387.14506     -2878.932 6        37.081                                    24460798.996 4 100162886.98804     -2243.319 4        27.952    24460799.443 5 100162890.01205     -2243.430 5        34.910
C33         3.000                                                                                                                                    22939061.991 8 119449743.47108       959.428 8        49.148                                                                    22939073.838 8  97062759.97308       779.558 8        49.130
E31         4.000    26777645.602 6 140717512.57606      1475.409 6        39.808                                                                    26777646.393 7 105081268.88307      1101.588 7        43.153    26777645.958 7 107822516.22707      1130.435 7        43.909
S21         5.000    38392422.660 6 201753266.40706      -516.782 6        41.707
E13         6.000    24077182.105 7 126526794.28007     -1947.771 7        46.503                                                                    24077182.094 8  94484502.26508     -1454.506 8        48.982    24077181.754 8  96949284.86908     -1492.448 8        50.290
G23         7.000    21719866.267 7 114138793.02807     -2809.120 7        46.241                                    21719862.133 5  88939357.00305     -2188.927 5        34.814    21719862.637 7  88939356.00607     -2188.872 7        44.612
E15         8.000    28299845.740 6 148717012.09806     -3018.954 6        36.302                                                                    28299846.979 6 111055081.48206     -2254.563 6        40.014    28299846.251 6 113952146.73906     -2313.314 6        40.496
G02         9.000    24673211.133 6 129658633.95406      2333.946 6        39.694                                    24673206.367 3 101032691.66803      1818.649 3        21.048
G26        11.000    25387817.303 5 133414200.54305     -4093.230 5        34.176                                    25387819.397 3 103959286.95403     -3189.528 3        22.152    25387820.143 5 103959306.92405     -3189.722 5        31.577
S27        12.000    39112860.688 6 205539415.95206      -484.762 6        36.291
R20        13.000    20790865.928 6 111178146.63006      1768.726 6        40.343                                                                    20790866.019 7  86471958.83207      1375.668 7        45.976
S36        14.000    38161723.929 7 200541723.14507      -516.153 7        43.490
G27        15.000    20056873.754 8 105399864.79808     -1047.217 8        50.400                                    20056871.619 8  82129922.96408      -816.016 8        52.990    20056872.116 7  82129836.95107      -815.968 7        46.250
S45        17.000    63372582.697 6 333026276.40106      -562.577 6        37.081
E08        18.000    26531132.991 6 139422078.88906      1197.767 6        40.996                                                                    26531131.908 7 104113890.32107       894.385 7        43.896    26531131.296 7 106829900.75007       917.714 7        44.679
G16        19.000    23005179.227 7 120893281.28007     -4007.924 7        43.431                                    23005175.097 4  94202673.57004     -3123.065 4        29.024
E21        20.000    25938984.974 7 136310650.12107     -3392.954 7        43.285                                                                    25938985.561 7 101790634.32507     -2533.747 7        45.350    25938984.910 7 104446017.25207     -2599.823 7        46.335
E26        21.000    23726996.728 7 124686556.85807       442.105 7        47.837                                                                    23726994.483 8  93110288.04708       330.166 8        49.953    23726994.328 8  95539227.66208       338.794 8        51.206
I06        22.000    38539919.486 6 151239139.34106      -301.635 6        40.734
S28        23.000    40855458.631 5 214696879.39805      -508.909 5        33.545
G08        24.000    20815158.584 8 109384410.72908      1280.058 8        48.311                                    20815156.532 8  85234606.29108       997.447 8        48.822    20815157.494 7  85234607.29107       997.494 7        45.157
S23        25.000    38117177.858 7 200307114.93007      -515.610 7        43.697
