     3.04           OBSERVATION DATA    M                   RINEX VERSION / TYPE
ssrcrin-15.6.1x                         20250101 064500 UTC PGM / RUN BY / DATE 
(00000000023479385599111004) Septentrio proprietary         COMMENT             
rref                                                        MARKER NAME         
01                                                          MARKER NUMBER       
geodetic                                                    MARKER TYPE         
NFB                 CLIMERS@TUW                             OBSERVER / AGENCY   
3297213             SEPT ASTERX SB3 PROB4.14.4              REC # / TYPE / VERS 
Unknown             Unknown                                 ANT # / TYPE        
  4127831.7527  1207192.8392  4695247.5154                  APPROX POSITION XYZ 
        0.0000        0.0000        0.0000                  ANTENNA: DELTA H/E/N
G   23 X1  C1C L1C D1C S1C C1W S1W C2W L2W D2W S2W C2L L2L  SYS / # / OBS TYPES 
       D2L S2L C5Q L5Q D5Q S5Q C1L L1L D1L S1L              SYS / # / OBS TYPES 
E   21 X1  C1C L1C D1C S1C C6C L6C D6C S6C C5Q L5Q D5Q S5Q  SYS / # / OBS TYPES 
       C7Q L7Q D7Q S7Q C8Q L8Q D8Q S8Q                      SYS / # / OBS TYPES 
S    9 X1  C1C L1C D1C S1C C5I L5I D5I S5I                  SYS / # / OBS TYPES 
R   17 X1  C1C L1C D1C S1C C2P L2P D2P S2P C2C L2C D2C S2C  SYS / # / OBS TYPES 
       C3Q L3Q D3Q S3Q                                      SYS / # / OBS TYPES 
C   25 X1  C1P L1P D1P S1P C5P L5P D5P S5P C2I L2I D2I S2I  SYS / # / OBS TYPES 
       C7I L7I D7I S7I C6I L6I D6I S6I C7D L7D D7D S7D      SYS / # / OBS TYPES 
J   17 X1  C1C L1C D1C S1C C2L L2L D2L S2L C5Q L5Q D5Q S5Q  SYS / # / OBS TYPES 
       C1L L1L D1L S1L                                      SYS / # / OBS TYPES 
I    5 X1  C5A L5A D5A S5A                                  SYS / # / OBS TYPES 
SEPTENTRIO RECEIVERS OUTPUT ALIGNED CARRIER PHASES.         COMMENT             
NO FURTHER PHASE SHIFT APPLIED IN THE RINEX ENCODER.        COMMENT             
G L1C                                                       SYS / PHASE SHIFT   
G L2W                                                       SYS / PHASE SHIFT   
G L2L  0.00000                                              SYS / PHASE SHIFT   
G L5Q  0.00000                                              SYS / PHASE SHIFT   
G L1L  0.00000                                              SYS / PHASE SHIFT   
E L1C  0.00000                                              SYS / PHASE SHIFT   
E L6C  0.00000                                              SYS / PHASE SHIFT   
E L5Q  0.00000                                              SYS / PHASE SHIFT   
E L7Q  0.00000                                              SYS / PHASE SHIFT   
E L8Q  0.00000                                              SYS / PHASE SHIFT   
S L1C                                                       SYS / PHASE SHIFT   
S L5I                                                       SYS / PHASE SHIFT   
R L1C                                                       SYS / PHASE SHIFT   
R L2P  0.00000                                              SYS / PHASE SHIFT   
R L2C                                                       SYS / PHASE SHIFT   
R L3Q  0.00000                                              SYS / PHASE SHIFT   
C L1P  0.00000                                              SYS / PHASE SHIFT   
C L5P  0.00000                                              SYS / PHASE SHIFT   
C L2I                                                       SYS / PHASE SHIFT   
C L7I                                                       SYS / PHASE SHIFT   
C L6I                                                       SYS / PHASE SHIFT   
C L7D                                                       SYS / PHASE SHIFT   
J L1C                                                       SYS / PHASE SHIFT   
J L2L  0.00000                                              SYS / PHASE SHIFT   
J L5Q  0.00000                                              SYS / PHASE SHIFT   
J L1L  0.00000                                              SYS / PHASE SHIFT   
I L5A                                                       SYS / PHASE SHIFT   
  2025     1     1     6    45    0.0000000     GPS         TIME OF FIRST OBS   
 C1C    0.000 C2C    0.000 C2P    0.000                     GLONASS COD/PHS/BIS 
DBHZ                                                        SIGNAL STRENGTH UNIT
    18                                                      LEAP SECONDS        
 24 R01  1 R02 -4 R03  5 R04  6 R05  1 R06 -4 R07  5 R08  6 GLONASS SLOT / FRQ #
    R09 -2 R10 -7 R11  0 R12 -1 R13 -2 R14 -7 R15  0 R16 -1 GLONASS SLOT / FRQ #
    R17  4 R18 -3 R19  3 R20  2 R21  4 R22 -3 R23  3 R24  2 GLONASS SLOT / FRQ #
                                                            END OF HEADER       
> 2025 01 01 06 45  0.0000000  0 55
G08         1.000    24753269.069 6 130079308.45206      1524.731 6        36.578                                    24753278.151 4 101360542.28804      1188.100 4        27.569    24753278.718 5 101360552.31205      1187.729 5        35.395
R01         2.000    21126783.620 7 112934753.90407      2823.373 7        46.209                                                                    21126784.244 6  87838209.02306      2195.959 6        39.369
G09         3.000    23237951.282 6 122116204.16506     -3472.451 6        41.592                                    23237955.490 6  95155469.60506     -2705.791 6        38.973    23237956.037 6  95155470.58406     -2705.807 6        39.982
E34         4.000    27837497.931 6 146286988.75306     -3534.407 6        38.309                                                                    27837502.892 6 109240273.51206     -2639.309 6        41.111    27837501.939 6 112090021.20606     -2708.235 6        40.734
S21         5.000    38344179.222 7 201499797.24907      -394.550 7        43.700
E05         6.000    22363162.130 7 117519224.90007     -1582.857 7        47.596                                                                    22363163.916 8  87757883.98808     -1181.993 8        50.349    22363163.292 8  90047213.13408     -1212.825 8        51.227
E15         7.000    26096204.590 7 137136480.39407     -2334.949 7        42.284                                                                    26096206.473 7 102407129.72007     -1743.588 7        44.692    26096206.104 7 105078618.50107     -1789.150 7        45.922
R10         8.000    19320827.857 7 102990878.81807      -649.345 7        46.287
E31         9.000    27088184.614 6 142349344.28006     -2426.320 6        38.952                                                                    27088188.331 7 106299848.15407     -1811.611 7        42.047    27088187.701 7 109072886.92507     -1858.877 7        42.457
G18        10.000    25590590.446 6 134479455.68206      1689.773 6        37.720                                    25590588.286 3 104789170.68403      1316.711 3        20.000    25590588.834 6 104789178.69306      1316.529 6        37.198
E09        11.000    28094054.155 6 147635129.70506     -2849.501 6        36.798                                                                    28094065.759 6 110246979.34106     -2127.923 6        40.076    28094064.440 7 113122992.56507     -2183.307 7        42.318
S27        12.000    39002560.050 5 204959741.66805      -419.392 5        35.952
S36        14.000    38112782.673 7 200284521.82807      -395.393 7        44.476
G20        15.000    20638771.619 8 108457466.83608     -1107.085 8        48.015                                    20638767.892 6  84512288.96306      -862.658 6        39.604
R11        16.000    20919466.140 8 111787289.10208      3281.157 8        49.618                                                                    20919466.956 7  86945668.08407      2552.070 7        46.202
S45        17.000    63294937.456 6 332618238.90606      -438.459 6        36.457
E13        18.000    26850953.155 6 141102732.51106       227.948 6        39.462                                                                    26850954.402 7 105368914.66907       170.365 7        43.422    26850953.785 7 108117669.61307       174.755 7        44.173
E24        19.000    25031072.402 7 131539141.75707       108.456 7        45.494                                                                    25031073.720 8  98227286.34808        80.960 8        48.221    25031072.945 8 100789734.59308        83.077 8        49.137
G30        21.000    20327281.392 8 106820595.51808       -65.273 8        50.562                                    20327280.535 8  83236832.34408       -50.862 8        52.475    20327280.907 7  83236836.34007       -50.907 7        45.880
I06        22.000    37877773.788 7 148640693.10107      -324.671 7        42.777
S28        23.000    40775576.380 5 214276948.78305      -399.083 5        35.086
G14        24.000    22892540.128 7 120301109.52907      2938.264 7        43.092                                    22892539.982 5  93741125.26205      2289.560 5        30.257    22892540.517 7  93741127.25007      2289.616 7        42.254
S23        25.000    38047547.902 7 199941155.81507      -392.530 7        44.603
E08        26.000    27589085.503 6 144981626.95906      2058.721 6        38.682                                                                    27589084.205 6 108265499.77006      1537.449 6        40.226    27589084.057 6 111089814.70406      1577.563 6        41.211
C07        27.000                                                                                                                                    40173242.314 6 209192604.65406      1083.227 6        37.781    40173243.802 6 161761000.80206       837.696 6        41.697    40173241.083 6 169986123.19906       880.282 6        38.970
G13        28.000    22261834.950 7 116986738.34007      2490.019 7        44.468                                    22261831.046 4  91158477.59004      1940.274 4        28.370
R09        29.000    21435650.312 7 114465156.77507     -3777.914 7        47.513                                                                    21435650.325 7  89028452.00907     -2938.337 7        44.932
C22        30.000                                                                                                                                    21631368.551 8 112640213.37008     -1515.794 8        52.152                                                                    21631363.163 8  91529381.83908     -1231.836 8        50.340
I01        31.000   344390460.263 6  48321211.75706     -3017.906 6        40.436
E03        32.000    23736967.756 7 124738615.18707       769.687 7        47.622                                                                    23736968.330 8  93148982.05308       574.798 8        50.370    23736968.117 8  95578949.69308       589.806 8        51.562
G05        33.000    21422708.795 7 112577113.24107      1407.543 7        46.599                                    21422705.143 7  87722422.82307      1096.786 7        45.890    21422706.133 7  87722425.82907      1096.733 7        44.004
R24        34.000    23459638.492 7 125449238.22007     -3286.182 7        44.634                                                                    23459636.817 6  97571631.13806     -2555.886 6        37.936
C36        35.000                                                                                                                                    21887977.867 8 113976433.41608     -1102.220 8        50.308                                                                    21887983.435 8  92615207.01008      -895.782 8        50.458
G11        36.000    24352269.939 6 127972028.75406     -3533.948 6        40.696                                    24352268.638 4  99718453.14004     -2753.723 4        24.496    24352267.963 6  99718453.12806     -2753.692 6        38.327
I09        38.000    38814768.997 7 152317388.58107      -871.098 7        42.036
R08        39.000    19220327.263 8 102923975.09408      -709.554 8        50.770                                                                    19220326.010 7  80051977.08407      -551.883 7        47.042
E25        40.000    25668902.360 7 134890998.12207      2418.408 7        43.922                                                                    25668906.187 7 100730295.69507      1805.935 7        46.032    25668905.451 7 103358034.37807      1853.100 7        46.668
G27        41.000    24879247.319 5 130741335.33405       267.518 5        34.671                                    24879249.731 4 101876378.01904       208.455 4        27.641    24879249.964 5 101876382.03705       208.436 5        35.538
S44        42.000    40764320.094 6 214218022.03106      -434.957 6        36.265
C09        43.000                                                                                                                                    39926453.163 6 207907470.39206     -1162.871 6        38.270    39926453.510 7 160767217.36407      -899.229 7        42.169    39926450.721 6 168941816.64206      -945.070 6        38.841
C05        44.000                                                                                                                                    39179205.220 6 204016355.82606      -454.888 6        39.069    39179205.812 7 157758390.69207      -351.778 7        43.941    39179206.411 6 165780087.09006      -369.857 6        40.627
C40        45.000                                                                                                                                    40397233.227 6 210358982.89506      1355.328 6        39.267                                                                    40397236.782 6 170933918.10806      1101.098 6        40.446
C21        46.000                                                                                                                                    22729740.801 8 118359719.49408      1507.071 8        49.789                                                                    22729735.761 8  96176938.42308      1224.475 8        49.653
R17        47.000    23077374.007 7 123491704.17107      -292.180 7        45.518                                                                    23077373.852 6  96049109.22506      -227.222 6        40.925
C06        49.000                                                                                                                                    40793438.961 5 212422040.96605     -1353.187 5        33.347    40793444.289 6 164258145.28106     -1046.516 6        38.664    40793441.894 6 172610259.77206     -1099.512 6        36.321
C16        50.000                                                                                                                                    41326988.137 5 215200347.45605     -1291.417 5        35.757    41326997.799 6 166406531.24006      -998.647 6        37.524    41326992.804 5 174867878.73505     -1049.563 5        32.814
S48        51.000    77069301.214 6 405000468.46606      -380.251 6        38.045
C19        52.000                                                                                                                                    25561631.242 7 133106071.64107     -3461.950 7        42.318                                                                    25561632.550 7 108159566.15307     -2813.266 7        44.257
C60        54.000                                                                                                                                    40764328.401 6 212270603.51706      -430.981 6        39.664                                                                    40764319.982 6 172487190.32606      -350.390 6        38.613
C45        55.000                                                                                                                                    22606782.640 8 117719442.94708      1901.747 8        49.984                                                                    22606776.126 8  95656661.97508      1545.200 8        49.390
C11        56.000                                                                                                                                    26624416.539 5 138640335.20905     -2259.848 5        35.719    26624415.543 6 107205481.67706     -1747.365 6        40.353    26624413.853 6 112656605.70306     -1836.406 6        37.391
C02        57.000                                                                                                                                    40754141.146 5 212217384.08505      -467.067 5        34.167    40754145.566 6 164099892.70406      -360.967 6        40.906    40754145.673 5 172443975.83205      -379.684 5        35.152
I03        58.000   126623083.223 6 421110721.69906       911.495 6        40.720
R07        59.000    21744023.476 7 116397416.26807     -3593.343 7        46.562                                                                    21744027.423 7  90531306.89907     -2794.807 7        44.257
G07        60.000    21408898.738 7 112504527.58707     -2111.738 7        47.433                                    21408895.766 7  87665854.19207     -1645.508 7        46.856    21408895.911 7  87665855.18407     -1645.505 7        44.305
> 2025 01 01 06 45  5.0000000  0 55
G08         1.000    24751819.050 6 130071691.59806      1522.427 6        36.518                                    24751828.733 4 101354607.10304      1186.303 4        27.892    24751829.831 5 101354617.12205      1186.336 5        35.533
R01         2.000    21124143.534 7 112920640.23307      2822.039 7        46.292                                                                    21124144.064 6  87827231.70306      2195.005 6        39.631
G09         3.000    23241255.860 6 122133568.86106     -3473.378 6        41.681                                    23241260.064 6  95169000.47006     -2706.516 6        39.015    23241260.170 6  95169001.43706     -2706.483 6        40.045
E34         4.000    27840861.014 6 146304660.62606     -3534.399 6        37.773                                                                    27840865.741 6 109253469.99806     -2639.387 6        40.975    27840864.925 6 112103561.94806     -2708.121 6        40.861
S21         5.000    38344553.068 7 201501770.08607      -394.638 7        43.230
E05         6.000    22364668.677 7 117527142.25307     -1584.074 7        47.470                                                                    22364670.513 8  87763796.27808     -1182.950 8        50.344    22364669.984 8  90053279.66208     -1213.774 8        51.300
E15         7.000    26098426.947 7 137148160.44507     -2337.039 7        42.262                                                                    26098429.128 7 102415851.82107     -1745.199 7        44.895    26098428.634 7 105087568.12707     -1790.603 7        46.036
R10         8.000    19321439.617 7 102994136.88807      -653.906 7        46.220
E31         9.000    27090493.879 6 142361479.77706     -2427.883 6        38.796                                                                    27090497.798 7 106308910.37207     -1813.141 7        42.180    27090496.993 7 109082185.54607     -1860.474 7        42.472
G18        10.000    25588984.069 6 134471014.05006      1687.098 6        37.599                                    25588981.538 3 104782592.80503      1314.608 3        19.403    25588982.535 6 104782600.82106      1314.433 6        37.331
E09        11.000    28096765.279 6 147649378.03806     -2850.100 6        36.382                                                                    28096776.966 6 110257619.22206     -2128.151 6        40.088    28096776.023 7 113133910.02507     -2183.628 7        42.209
S27        12.000    39002959.415 6 204961838.85706      -419.650 6        36.113
S36        14.000    38113160.699 7 200286498.62807      -395.281 7        44.220
G20        15.000    20639826.517 8 108463010.80208     -1110.565 8        48.366                                    20639822.882 6  84516608.92306      -865.374 6        39.607
R11        16.000    20916397.420 8 111770889.52508      3278.632 8        49.673                                                                    20916398.153 7  86932912.86407      2550.068 7        46.441
S45        17.000    63295310.729 6 332620431.88306      -438.744 6        36.333
E13        18.000    26850737.778 6 141101598.79506       225.577 6        38.988                                                                    26850738.650 7 105368068.07907       168.218 7        43.591    26850738.079 7 108116800.92907       172.778 7        44.214
E24        19.000    25030970.388 7 131538606.07007       105.840 7        45.362                                                                    25030971.790 8  98226886.30908        78.976 8        48.240    25030971.034 8 100789324.11408        81.175 8        49.238
G30        21.000    20327344.753 8 106820928.43108       -67.874 8        50.450                                    20327343.898 8  83237091.74608       -52.884 8        52.495    20327344.240 7  83237095.74107       -52.861 7        45.813
I06        22.000    37878187.619 7 148642316.43507      -324.721 7        42.684
S28        23.000    40775956.754 5 214278945.43005      -399.442 5        34.986
G14        24.000    22889745.515 7 120286421.01207      2937.109 7        43.786                                    22889744.811 5  93729679.65705      2288.658 5        30.830    22889746.137 7  93729681.66307      2288.659 7        43.081
S23        25.000    38047923.084 7 199943118.64607      -392.616 7        44.459
E08        26.000    27587127.175 6 144971333.52106      2058.415 6        38.751                                                                    27587125.612 6 108257813.10206      1537.211 6        40.219    27587125.328 6 111081927.51506      1577.371 6        41.337
C07        27.000                                                                                                                                    40172202.787 6 209187189.85906      1082.598 6        37.803    40172204.281 7 161756813.71407       837.280 7        42.049    40172201.262 6 169981723.19906       879.437 6        39.153
G13        28.000    22259465.940 7 116974290.79007      2489.008 7        44.137                                    22259462.329 4  91148778.18104      1939.493 4        28.455
R09        29.000    21439188.081 7 114484052.73407     -3780.455 7        47.021                                                                    21439189.573 7  89043148.85207     -2940.420 7        44.829
C22        30.000                                                                                                                                    21632824.983 8 112647798.14908     -1518.155 8        52.219                                                                    21632819.689 8  91535545.06508     -1233.664 8        50.511
I01        31.000   344394305.757 6  48336301.51806     -3018.030 6        40.276
E03        32.000    23736235.877 7 124734769.52007       768.539 7        47.676                                                                    23736236.477 8  93146110.28008       573.900 8        50.432    23736236.324 8  95576003.00608       588.946 8        51.622
G05        33.000    21421371.055 7 112570083.73307      1404.330 7        46.565                                    21421367.497 7  87716945.27607      1094.285 7        45.935    21421367.762 7  87716948.27607      1094.341 7        43.759
R24        34.000    23462712.029 7 125465676.02807     -3288.758 7        43.915                                                                    23462711.548 6  97584416.10306     -2557.915 6        38.114
C36        35.000                                                                                                                                    21889037.507 8 113981951.33708     -1104.978 8        50.333                                                                    21889043.126 8  92619690.74008      -897.906 8        50.591
G11        36.000    24355632.667 6 127989700.21106     -3534.802 6        40.906                                    24355631.249 4  99732223.07304     -2754.383 4        24.872    24355631.573 6  99732223.07806     -2754.377 6        38.724
I09        38.000    38815879.714 7 152321744.76707      -871.418 7        42.036
R08        39.000    19220990.991 8 102927530.41508      -712.592 8        50.561                                                                    19220989.914 7  80054742.32107      -554.248 7        46.801
E25        40.000    25666601.744 7 134878909.13507      2417.185 7        43.674                                                                    25666605.823 7 100721268.20107      1805.014 7        46.220    25666605.029 7 103348771.38707      1852.155 7        46.751
G27        41.000    24878994.124 5 130740005.74005       264.288 5        35.029                                    24878996.847 4 101875341.97404       205.948 4        27.389    24878997.578 5 101875345.96505       205.857 5        34.767
S44        42.000    40764733.545 6 214220196.52606      -434.892 6        36.302
C09        43.000                                                                                                                                    39927569.888 6 207913284.81906     -1162.861 6        37.853    39927570.178 7 160771713.43607      -899.177 7        42.150    39927567.560 6 168946541.30306      -944.940 6        39.045
C05        44.000                                                                                                                                    39179642.146 6 204018630.91406      -455.140 6        38.943    39179642.640 7 157760149.90507      -351.849 7        44.205    39179643.405 6 165781935.73606      -369.817 6        40.701
C40        45.000                                                                                                                                    40395932.147 6 210352208.49806      1354.607 6        39.652                                                                    40395935.942 6 170928413.30706      1100.665 6        40.536
C21        46.000                                                                                                                                    22728294.535 8 118352188.54508      1505.302 8        49.761                                                                    22728289.524 8  96170818.87108      1223.174 8        49.836
R17        47.000    23077649.468 7 123493176.71807      -296.648 7        45.704                                                                    23077649.075 6  96050254.54706      -230.747 6        41.306
C06        49.000                                                                                                                                    40794740.265 5 212428806.16805     -1353.179 5        33.772    40794743.800 6 164263376.50306     -1046.152 6        39.006    40794740.918 6 172615757.00906     -1099.506 6        36.314
C16        50.000                                                                                                                                    41328228.701 5 215206804.55105     -1291.306 5        35.657    41328238.080 6 166411524.24006      -998.622 6        37.490    41328232.580 5 174873125.60305     -1049.505 5        32.695
S48        51.000    77069670.043 6 405002369.26106      -380.059 6        38.066
C19        52.000                                                                                                                                    25564956.206 7 133123383.75707     -3462.929 7        42.686                                                                    25564957.261 7 108173633.59307     -2813.946 7        44.415
C60        54.000                                                                                                                                    40764742.254 6 212272758.26006      -431.070 6        39.577                                                                    40764733.934 6 172488941.18106      -350.327 6        38.892
C45        55.000                                                                                                                                    22604957.689 8 117709939.68408      1899.521 8        50.065                                                                    22604951.146 8  95648939.76208      1543.496 8        49.626
C11        56.000                                                                                                                                    26626589.185 6 138651638.62206     -2261.550 6        36.276    26626586.416 6 107214222.25306     -1748.842 6        40.713    26626584.374 6 112665790.67706     -1838.005 6        37.633
C02        57.000                                                                                                                                    40754589.525 5 212219719.19105      -467.061 5        34.510    40754594.003 6 164101698.32706      -361.128 6        40.801    40754594.298 5 172445873.25305      -379.352 5        35.148
I03        58.000   126621922.204 6 421106164.34206       911.356 6        40.684
R07        59.000    21747382.116 7 116415387.84707     -3595.227 7        47.107                                                                    21747384.202 7  90545284.74407     -2796.286 7        43.661
G07        60.000    21410908.624 7 112515090.63707     -2113.420 7        47.288                                    21410905.872 7  87674085.11907     -1646.817 7        46.895    21410906.151 7  87674086.11907     -1646.926 7        44.408
> 2025 01 01 06 45 10.0000000  0 55
G08         1.000    24750371.937 6 130064085.46906      1520.198 6        36.888                                    24750381.376 4 101348680.26604      1184.569 4        28.114    24750382.061 5 101348690.29005      1184.463 5        35.057
R01         2.000    21121503.803 7 112906532.63907      2820.955 7        46.406                                                                    21121504.952 6  87816259.13306      2193.966 6        39.595
G09         3.000    23244560.900 6 122150938.03406     -3474.337 6        41.128                                    23244565.469 6  95182534.83206     -2707.266 6        38.862    23244566.087 6  95182535.81106     -2707.323 6        40.107
E34         4.000    27844223.670 6 146322332.29206     -3534.323 6        37.350                                                                    27844228.456 6 109266666.32106     -2639.210 6        40.689    27844227.606 6 112117102.53306     -2707.991 6        40.751
S21         5.000    38344929.860 7 201503743.15907      -394.700 7        43.554
E05         6.000    22366176.276 7 117535064.98807     -1585.046 7        47.371                                                                    22366178.218 8  87769712.58708     -1183.651 8        50.478    22366177.595 8  90059350.30608     -1214.512 8        51.224
E15         7.000    26100651.464 7 137159850.11307     -2338.854 7        42.114                                                                    26100653.640 7 102424581.09607     -1746.613 7        45.017    26100653.202 7 105096525.13507     -1792.117 7        45.940
R10         8.000    19322054.926 7 102997417.73807      -658.387 7        46.380
E31         9.000    27092805.598 6 142373624.26206     -2429.845 6        39.114                                                                    27092808.582 7 106317979.28207     -1814.416 7        42.142    27092807.986 7 109091491.03007     -1861.632 7        42.263
G18        10.000    25587380.052 6 134462584.93006      1684.605 6        37.289                                    25587377.576 3 104776024.65703      1312.686 3        19.851    25587378.882 6 104776032.65206      1312.672 6        37.856
E09        11.000    28099477.069 6 147663627.85906     -2850.154 6        36.643                                                                    28099488.846 6 110268260.25606     -2128.246 6        40.226    28099487.633 6 113144828.65706     -2183.690 6        41.866
S27        12.000    39003357.385 6 204963935.82606      -419.425 6        36.125
S36        14.000    38113536.933 7 200288475.88007      -395.389 7        44.473
G20        15.000    20640884.649 8 108468571.62008     -1113.850 8        48.198                                    20640881.100 6  84520942.01206      -867.936 6        39.775
R11        16.000    20913330.687 8 111754502.81708      3276.085 8        49.898                                                                    20913331.520 7  86920167.63007      2548.066 7        46.427
S45        17.000    63295691.264 6 332622625.15106      -438.592 6        36.612
E13        18.000    26850524.645 6 141100477.87506       222.865 6        39.372                                                                    26850525.365 7 105367231.01007       166.469 7        43.541    26850524.867 7 108115942.03107       170.856 7        44.134
E24        19.000    25030871.194 7 131538082.93007       103.243 7        45.874                                                                    25030872.198 8  98226495.64508        77.108 8        48.330    25030871.508 8 100788923.26408        79.137 8        49.222
G30        21.000    20327410.254 8 106821273.52408       -70.131 8        50.633                                    20327409.572 8  83237360.64108       -54.647 8        52.618    20327409.848 7  83237364.63907       -54.662 7        45.652
I06        22.000    37878601.519 7 148643940.15707      -324.768 7        42.662
S28        23.000    40776335.357 5 214280941.97205      -399.434 5        35.067
G14        24.000    22886951.825 7 120271738.27007      2935.864 7        44.238                                    22886951.031 5  93718238.56005      2287.686 5        31.600    22886951.846 7  93718240.55807      2287.852 7        43.302
S23        25.000    38048296.653 7 199945081.62107      -392.573 7        44.691
E08        26.000    27585168.332 6 144961040.63106      2058.700 6        38.462                                                                    27585167.152 6 108250126.87206      1537.188 6        40.219    27585166.574 6 111074040.76406      1577.363 6        41.123
C07        27.000                                                                                                                                    40171163.043 6 209181778.11806      1082.099 6        37.898    40171164.904 7 161752628.99107       836.660 7        42.102    40171161.796 6 169977325.67706       879.226 6        39.015
G13        28.000    22257098.240 7 116961848.06307      2488.038 7        44.095                                    22257094.552 4  91139082.54604      1938.730 4        28.559
R09        29.000    21442729.031 7 114502960.77407     -3782.794 7        47.132                                                                    21442730.761 7  89057855.08507     -2942.219 7        45.651
C22        30.000                                                                                                                                    21634283.734 8 112655393.83608     -1520.205 8        52.325                                                                    21634278.412 8  91541717.15308     -1235.219 8        50.417
I01        31.000   344398151.138 6  48351392.04606     -3018.123 6        40.174
E03        32.000    23735505.053 7 124730928.76807       767.701 7        47.493                                                                    23735505.610 8  93143242.17508       573.265 8        50.530    23735505.439 8  95573060.08408       588.241 8        51.585
G05        33.000    21420036.394 7 112563069.23907      1401.402 7        46.429                                    21420032.691 7  87711479.42507      1092.002 7        46.141    21420032.992 7  87711482.42907      1092.015 7        43.310
R24        34.000    23465788.677 7 125482126.34607     -3291.266 7        45.502                                                                    23465788.644 6  97597210.78506     -2559.930 6        39.315
C36        35.000                                                                                                                                    21890099.778 8 113987482.09808     -1107.461 8        50.516                                                                    21890105.260 8  92624184.91608      -899.831 8        50.518
G11        36.000    24358996.335 6 128007375.67506     -3535.381 6        40.539                                    24358994.741 4  99745996.14404     -2754.839 4        25.068    24358995.491 6  99745996.11806     -2754.858 6        39.754
I09        38.000    38816989.818 7 152326101.66907      -871.430 7        42.063
R08        39.000    19221657.916 8 102931100.71708      -715.558 8        50.539                                                                    19221657.033 7  80057519.20807      -556.530 7        47.186
E25        40.000    25664301.958 7 134866825.82007      2416.047 7        43.067                                                                    25664306.411 7 100712244.93307      1804.253 7        46.212    25664305.713 7 103339512.72907      1851.375 7        46.869
G27        41.000    24878744.333 5 130738691.82205       261.176 5        35.181                                    24878746.749 4 101874318.15004       203.512 4        27.389    24878746.728 5 101874322.14405       203.727 5        34.657
S44        42.000    40765148.659 6 214222371.18706      -434.757 6        36.227
C09        43.000                                                                                                                                    39928686.184 6 207919099.04206     -1162.846 6        37.645    39928686.620 7 160776209.31707      -899.245 7        42.229    39928684.188 6 168951265.79006      -944.969 6        39.069
C05        44.000                                                                                                                                    39180079.230 6 204020906.28406      -455.038 6        39.105    39180079.522 7 157761909.34707      -351.861 7        44.272    39180080.282 6 165783784.63606      -369.784 6        40.667
C40        45.000                                                                                                                                    40394632.218 6 210345437.65706      1353.913 6        40.024                                                                    40394635.584 6 170922911.42906      1100.165 6        40.327
C21        46.000                                                                                                                                    22726849.752 8 118344665.59408      1503.820 8        49.883                                                                    22726844.798 8  96164705.84208      1222.006 8        49.801
R17        47.000    23077928.012 7 123494671.09307      -301.030 7        44.438                                                                    23077928.711 6  96051416.81606      -234.032 6        41.847
C06        49.000                                                                                                                                    40796040.253 5 212435570.88505     -1352.815 5        34.671    40796042.539 6 164268607.33306     -1046.119 6        39.123    40796039.804 6 172621253.81106     -1099.438 6        36.083
C16        50.000                                                                                                                                    41329468.591 5 215213260.96605     -1290.949 5        35.148    41329477.317 6 166416516.70006      -998.594 6        37.580    41329472.631 5 174878371.89605     -1048.874 5        32.575
S48        51.000    77070038.822 6 405004270.39506      -380.249 6        37.928
C19        52.000                                                                                                                                    25568281.786 7 133140700.02007     -3463.613 7        42.906                                                                    25568282.695 7 108187704.42107     -2814.499 7        44.235
C60        54.000                                                                                                                                    40765156.036 6 212274913.14606      -430.991 6        39.745                                                                    40765147.675 6 172490692.18106      -350.047 6        38.751
C45        55.000                                                                                                                                    22603134.501 8 117700446.60508      1897.599 8        50.113                                                                    22603128.052 8  95641225.84008      1542.003 8        49.603
C11        56.000                                                                                                                                    26628762.092 5 138662951.29305     -2263.446 5        34.833    26628758.736 6 107222969.86806     -1750.087 6        40.720    26628757.044 6 112674983.06606     -1839.279 6        37.251
C02        57.000                                                                                                                                    40755038.095 5 212222054.47105      -466.976 5        34.467    40755042.793 6 164103504.09606      -361.072 6        40.975    40755042.743 5 172447770.83805      -379.726 5        35.057
I03        58.000   126620760.761 6 421101607.11506       911.471 6        40.639
R07        59.000    21750741.481 7 116433368.30007     -3596.927 7        47.828                                                                    21750743.439 7  90559269.48607     -2797.624 7        43.719
G07        60.000    21412920.215 7 112525661.61607     -2114.981 7        47.511                                    21412917.486 7  87682322.23107     -1648.032 7        47.089    21412917.774 7  87682323.22407     -1647.992 7        44.337
> 2025 01 01 06 45 15.0000000  0 55
G08         1.000    24748926.662 6 130056489.61806      1518.298 6        37.285                                    24748936.041 4 101342761.44304      1183.086 4        28.398    24748936.938 5 101342771.47805      1182.845 5        34.910
R01         2.000    21118866.154 7 112892430.74307      2819.830 7        46.122                                                                    21118866.733 6  87805291.00206      2193.087 6        39.441
G09         3.000    23247867.257 6 122168311.20706     -3475.123 6        40.930                                    23247871.590 6  95196072.30606     -2707.878 6        38.586    23247872.018 6  95196073.28706     -2707.841 6        39.922
E34         4.000    27847586.459 6 146340003.31906     -3534.130 6        37.463                                                                    27847591.070 6 109279862.18106     -2639.056 6        40.739    27847590.297 6 112130642.64006     -2708.033 6        40.753
S21         5.000    38345307.100 7 201505716.19507      -394.500 7        43.712
E05         6.000    22367684.985 7 117542992.65707     -1585.985 7        47.475                                                                    22367686.802 8  87775632.58008     -1184.368 8        50.520    22367686.207 8  90065424.73808     -1215.247 8        51.208
E15         7.000    26102877.744 7 137171548.95407     -2340.674 7        42.372                                                                    26102879.813 7 102433317.22307     -1747.917 7        44.987    26102879.483 7 105105489.16407     -1793.497 7        45.889
R10         8.000    19322674.537 7 103000720.62307      -662.714 7        46.482
E31         9.000    27095118.153 6 142385777.25906     -2431.502 6        39.183                                                                    27095121.260 7 106327054.55907     -1815.701 7        42.009    27095120.576 7 109100803.06107     -1863.009 7        42.243
G18        10.000    25585778.668 6 134454167.96306      1682.375 6        36.688                                    25585775.693 3 104769465.96103      1310.930 3        19.254    25585776.413 6 104769473.95006      1310.758 6        36.783
E09        11.000    28102189.228 6 147677878.77906     -2850.190 6        36.650                                                                    28102200.986 6 110278902.11206     -2128.493 6        40.372    28102199.559 6 113155748.13606     -2184.058 6        41.826
S27        12.000    39003755.722 6 204966032.83106      -419.454 6        36.253
S36        14.000    38113913.318 7 200290452.35307      -395.193 7        44.507
G20        15.000    20641945.926 8 108474148.80508     -1117.087 8        48.184                                    20641942.444 6  84525287.85506      -870.456 6        39.685
R11        16.000    20910266.545 8 111738128.50708      3273.581 8        49.880                                                                    20910267.025 7  86907432.03907      2546.208 7        46.350
S45        17.000    63296060.285 6 332623118.10916      -438.595 6        36.597
E13        18.000    26850313.145 6 141099369.26806       220.501 6        39.216                                                                    26850314.551 7 105366403.14807       164.631 7        43.604    26850313.868 7 108115092.58807       168.916 7        44.147
E24        19.000    25030773.994 7 131537571.88907       101.137 7        45.701                                                                    25030774.963 8  98226114.01308        75.559 8        48.421    25030774.249 8 100788531.67608        77.501 8        49.260
G30        21.000    20327478.329 8 106821630.34608       -72.526 8        50.625                                    20327477.474 8  83237638.67408       -56.514 8        52.570    20327477.926 7  83237642.67507       -56.594 7        45.576
I06        22.000    37879015.207 7 148645563.95607      -324.840 7        42.838
S28        23.000    40776712.977 5 214282938.59005      -399.417 5        35.233
G14        24.000    22884158.341 7 120257060.84207      2935.028 7        43.441                                    22884158.319 5  93706801.60105      2287.033 5        31.600    22884158.646 7  93706803.59807      2286.998 7        43.181
S23        25.000    38048669.456 7 199947044.52907      -392.594 7        44.838
E08        26.000    27583209.361 6 144950747.91006      2058.470 6        38.339                                                                    27583208.441 6 108242440.71806      1537.303 6        40.303    27583208.059 6 111066154.12506      1577.302 6        41.185
C07        27.000                                                                                                                                    40170125.092 6 209176368.99406      1081.466 6        37.769    40170126.100 6 161748446.28506       836.370 6        41.983    40170123.191 6 169972930.31406       878.841 6        38.910
G13        28.000    22254731.446 7 116949409.73407      2487.180 7        44.033                                    22254727.516 4  91129390.33404      1938.068 4        28.521
R09        29.000    21446272.791 7 114521880.44307     -3785.078 7        47.329                                                                    21446273.979 7  89072570.35507     -2944.002 7        45.938
C22        30.000                                                                                                                                    21635744.324 8 112662999.98808     -1522.282 8        52.207                                                                    21635739.108 8  91547897.78208     -1236.958 8        50.241
I01        31.000   344401996.403 6  48366483.05306     -3018.318 6        40.331
E03        32.000    23734775.090 7 124727092.49907       766.795 7        47.377                                                                    23734775.623 8  93140377.41408       572.648 8        50.601    23734775.435 8  95570120.59308       587.564 8        51.534
G05        33.000    21418704.766 7 112556069.25507      1398.547 7        46.213                                    21418700.662 7  87706024.87807      1089.779 7        46.055    21418700.940 7  87706027.88607      1089.798 7        42.974
R24        34.000    23468867.324 7 125498588.87907     -3293.669 7        44.775                                                                    23468865.927 6  97610014.95906     -2561.840 6        38.568
C36        35.000                                                                                                                                    21891164.181 8 113993025.27508     -1109.856 8        50.581                                                                    21891169.799 8  92628689.21008      -901.857 8        50.358
G11        36.000    24362360.692 6 128025054.68206     -3536.128 6        40.043                                    24362359.042 4  99759771.96604     -2755.408 4        24.932    24362359.319 6  99759771.95406     -2755.410 6        39.625
I09        38.000    38818100.593 7 152330458.94007      -871.391 7        42.307
R08        39.000    19222327.157 8 102934685.57308      -718.343 8        50.515                                                                    19222326.514 7  80060307.41507      -558.739 7        47.283
E25        40.000    25662003.708 7 134854747.72307      2415.066 7        42.961                                                                    25662008.103 7 100703225.57407      1803.449 7        46.316    25662007.382 7 103330258.08407      1850.565 7        47.033
G27        41.000    24878496.922 5 130737393.14705       258.334 5        34.743                                    24878499.365 4 101873306.18604       201.295 4        26.922    24878499.054 5 101873310.20905       201.194 5        34.262
S44        42.000    40765563.264 6 214224545.56506      -434.953 6        36.215
C09        43.000                                                                                                                                    39929801.906 6 207924912.60906     -1162.612 6        37.093    39929803.341 7 160780704.72707      -899.042 7        42.057    39929800.865 6 168955989.78806      -944.661 6        39.063
C05        44.000                                                                                                                                    39180516.098 6 204023181.53306      -455.251 6        39.156    39180516.619 7 157763668.66307      -351.857 7        43.991    39180517.338 6 165785633.43606      -369.795 6        40.532
C40        45.000                                                                                                                                    40393332.811 6 210338669.92406      1353.169 6        40.408                                                                    40393335.879 6 170917412.08706      1099.699 6        40.119
C21        46.000                                                                                                                                    22725406.638 8 118337150.19608      1502.343 8        50.042                                                                    22725401.596 8  96158598.97708      1220.723 8        49.530
R17        47.000    23078210.687 7 123496186.87207      -305.202 7        44.685                                                                    23078211.518 6  96052595.76806      -237.475 6        41.354
C06        49.000                                                                                                                                    40797338.755 5 212442334.52605     -1352.192 5        34.690    40797341.422 6 164273837.38106     -1045.853 6        38.946    40797338.736 5 172626749.80605     -1099.049 5        35.833
C16        50.000                                                                                                                                    41330708.211 5 215219716.27405     -1291.044 5        35.419    41330716.805 6 166421508.26606      -998.209 6        36.991    41330712.253 5 174883617.32505     -1049.086 5        32.671
S48        51.000    77070406.613 6 405006171.27706      -380.191 6        38.300
C19        52.000                                                                                                                                    25571607.917 7 133158020.00107     -3464.427 7        42.863                                                                    25571608.835 7 108201778.28407     -2815.110 7        43.862
C60        54.000                                                                                                                                    40765569.710 6 212277067.74206      -430.971 6        39.739                                                                    40765561.520 6 172492442.98306      -350.305 6        38.523
C45        55.000                                                                                                                                    22601313.232 8 117690963.26608      1895.713 8        50.170                                                                    22601306.929 8  95633519.86708      1540.418 8        49.378
C11        56.000                                                                                                                                    26630935.248 5 138674272.52805     -2265.269 5        35.976    26630932.846 6 107231724.21606     -1751.520 6        39.958    26630931.313 6 112684182.53306     -1840.546 6        37.236
C02        57.000                                                                                                                                    40755486.067 5 212224389.59405      -466.833 5        34.700    40755490.907 6 164105309.73106      -361.047 6        40.679    40755491.171 5 172449668.28605      -379.394 5        34.895
I03        58.000   126619599.854 6 421097049.73306       911.572 6        40.644
R07        59.000    21754101.482 7 116451357.34107     -3598.632 7        47.921                                                                    21754103.893 7  90573260.91607     -2798.959 7        43.213
G07        60.000    21414933.591 7 112536240.06807     -2116.406 7        47.401                                    21414930.525 7  87690565.16607     -1649.144 7        46.947    21414930.519 7  87690566.16307     -1649.098 7        43.941
> 2025 01 01 06 45 20.0000000  0 55
G08         1.000    24747483.185 6 130048904.03106      1515.962 6        37.270                                    24747492.605 4 101336850.61804      1181.260 4        28.540    24747493.938 5 101336860.65905      1181.111 5        35.857
R01         2.000    21116228.917 7 112878334.31007      2818.640 7        45.944                                                                    21116229.641 6  87794327.09406      2192.065 6        39.601
G09         3.000    23251173.946 6 122185688.33506     -3475.883 6        40.534                                    23251178.444 6  95209612.86306     -2708.468 6        38.504    23251178.414 6  95209613.84506     -2708.470 6        40.017
E34         4.000    27850949.235 6 146357673.64906     -3534.167 6        37.735                                                                    27850953.776 6 109293057.50606     -2639.276 6        40.732    27850952.948 6 112144182.18506     -2707.959 6        40.522
S21         5.000    38345682.564 7 201507688.96407      -394.819 7        43.310
E05         6.000    22369194.365 7 117550925.22207     -1587.100 7        47.463                                                                    22369196.367 8  87781556.22208     -1185.245 8        50.453    22369195.738 8  90071502.91208     -1216.123 8        51.255
E15         7.000    26105105.561 7 137183256.92107     -2342.518 7        42.114                                                                    26105107.869 7 102442060.16007     -1749.346 7        44.888    26105107.480 7 105114460.17607     -1794.959 7        45.943
R10         8.000    19323298.255 7 103004045.65007      -667.394 7        46.232
E31         9.000    27097432.077 6 142397938.74706     -2433.358 6        39.156                                                                    27097435.632 7 106336136.15707     -1817.139 7        42.015    27097434.782 7 109110121.56507     -1864.369 7        42.193
G18        10.000    25584179.216 6 134445763.23606      1679.661 6        36.299                                    25584176.444 3 104762916.81003      1308.814 3        18.746    25584176.985 6 104762924.81106      1308.744 6        37.319
E09        11.000    28104901.389 6 147692130.76106     -2850.481 6        36.450                                                                    28104913.146 6 110289544.74806     -2128.768 6        40.467    28104911.708 6 113166668.40906     -2184.321 6        41.671
S27        12.000    39004156.679 5 204968129.96905      -419.492 5        35.695
S36        14.000    38114289.654 7 200292429.02807      -395.494 7        44.223
G20        15.000    20643010.608 8 108479742.35508     -1120.453 8        48.409                                    20643006.860 6  84529646.45206      -873.076 6        39.673
R11        16.000    20907204.810 8 111721766.57808      3270.965 8        49.549                                                                    20907205.462 7  86894706.10807      2544.054 7        46.544
S45        17.000    63296439.000 6 332625310.86106      -438.643 6        36.435
E13        18.000    26850104.839 6 141098272.96106       217.907 6        39.024                                                                    26850105.770 7 105365584.47307       162.617 7        43.572    26850105.290 7 108114252.54307       166.924 7        44.114
E24        19.000    25030678.911 7 131537072.93107        98.504 7        45.543                                                                    25030680.038 8  98225741.40908        73.487 8        48.330    25030679.262 8 100788149.35308        75.400 8        49.288
G30        21.000    20327548.415 8 106821998.86408       -74.941 8        50.484                                    20327547.607 8  83237925.82008       -58.394 8        52.552    20327548.072 7  83237929.81507       -58.475 7        45.854
I06        22.000    37879429.042 7 148647187.75607      -324.948 7        43.007
S28        23.000    40777095.448 5 214284935.43805      -399.541 5        34.833
G14        24.000    22881365.967 7 120242388.70607      2933.799 7        43.062                                    22881366.560 5  93695368.76305      2286.078 5        31.094    22881366.628 7  93695370.77007      2286.096 7        43.382
S23        25.000    38049042.161 7 199949007.22207      -392.643 7        44.462
E08        26.000    27581250.852 6 144940455.29206      2058.437 6        38.724                                                                    27581249.906 6 108234754.67706      1537.010 6        40.448    27581249.291 6 111058267.56106      1577.226 6        41.204
