     3.04           OBSERVATION DATA    M                   RINEX VERSION / TYPE
ssrcrin-15.6.1x                         20250101 203000 UTC PGM / RUN BY / DATE 
(00000000023479385599111004) Septentrio proprietary         COMMENT             
rref                                                        MARKER NAME         
01                                                          MARKER NUMBER       
geodetic                                                    MARKER TYPE         
NFB                 CLIMERS@TUW                             OBSERVER / AGENCY   
3297213             SEPT ASTERX SB3 PROB4.14.4              REC # / TYPE / VERS 
Unknown             Unknown                                 ANT # / TYPE        
  4127831.3918  1207193.2387  4695247.7723                  APPROX POSITION XYZ 
        0.0000        0.0000        0.0000                  ANTENNA: DELTA H/E/N
G   23 X1  C1C L1C D1C S1C C1W S1W C2W L2W D2W S2W C2L L2L  SYS / # / OBS TYPES 
       D2L S2L C5Q L5Q D5Q S5Q C1L L1L D1L S1L              SYS / # / OBS TYPES 
E   21 X1  C1C L1C D1C S1C C6C L6C D6C S6C C5Q L5Q D5Q S5Q  SYS / # / OBS TYPES 
       C7Q L7Q D7Q S7Q C8Q L8Q D8Q S8Q                      SYS / # / OBS TYPES 
S    9 X1  C1C L1C D1C S1C C5I L5I D5I S5I                  SYS / # / OBS TYPES 
R   17 X1  C1C L1C D1C S1C C2P L2P D2P S2P C2C L2C D2C S2C  SYS / # / OBS TYPES 
       C3Q L3Q D3Q S3Q                                      SYS / # / OBS TYPES 
C   25 X1  C1P L1P D1P S1P C5P L5P D5P S5P C2I L2I D2I S2I  SYS / # / OBS TYPES 
       C7I L7I D7I S7I C6I L6I D6I S6I C7D L7D D7D S7D      SYS / # / OBS TYPES 
J   17 X1  C1C L1C D1C S1C C2L L2L D2L S2L C5Q L5Q D5Q S5Q  SYS / # / OBS TYPES 
       C1L L1L D1L S1L                                      SYS / # / OBS TYPES 
I    5 X1  C5A L5A D5A S5A                                  SYS / # / OBS TYPES 
SEPTENTRIO RECEIVERS OUTPUT ALIGNED CARRIER PHASES.         COMMENT             
NO FURTHER PHASE SHIFT APPLIED IN THE RINEX ENCODER.        COMMENT             
G L1C                                                       SYS / PHASE SHIFT   
G L2W                                                       SYS / PHASE SHIFT   
G L2L  0.00000                                              SYS / PHASE SHIFT   
G L5Q  0.00000                                              SYS / PHASE SHIFT   
G L1L  0.00000                                              SYS / PHASE SHIFT   
E L1C  0.00000                                              SYS / PHASE SHIFT   
E L6C  0.00000                                              SYS / PHASE SHIFT   
E L5Q  0.00000                                              SYS / PHASE SHIFT   
E L7Q  0.00000                                              SYS / PHASE SHIFT   
E L8Q  0.00000                                              SYS / PHASE SHIFT   
S L1C                                                       SYS / PHASE SHIFT   
S L5I                                                       SYS / PHASE SHIFT   
R L1C                                                       SYS / PHASE SHIFT   
R L2P  0.00000                                              SYS / PHASE SHIFT   
R L2C                                                       SYS / PHASE SHIFT   
R L3Q  0.00000                                              SYS / PHASE SHIFT   
C L1P  0.00000                                              SYS / PHASE SHIFT   
C L5P  0.00000                                              SYS / PHASE SHIFT   
C L2I                                                       SYS / PHASE SHIFT   
C L7I                                                       SYS / PHASE SHIFT   
C L6I                                                       SYS / PHASE SHIFT   
C L7D                                                       SYS / PHASE SHIFT   
J L1C                                                       SYS / PHASE SHIFT   
J L2L  0.00000                                              SYS / PHASE SHIFT   
J L5Q  0.00000                                              SYS / PHASE SHIFT   
J L1L  0.00000                                              SYS / PHASE SHIFT   
I L5A                                                       SYS / PHASE SHIFT   
  2025     1     1    20    30    0.0000000     GPS         TIME OF FIRST OBS   
 C1C    0.000 C2C    0.000 C2P    0.000                     GLONASS COD/PHS/BIS 
DBHZ                                                        SIGNAL STRENGTH UNIT
    18                                                      LEAP SECONDS        
 24 R01  1 R02 -4 R03  5 R04  6 R05  1 R06 -4 R07  5 R08  6 GLONASS SLOT / FRQ #
    R09 -2 R10 -7 R11  0 R12 -1 R13 -2 R14 -7 R15  0 R16 -1 GLONASS SLOT / FRQ #
    R17  4 R18 -3 R19  3 R20  2 R21  4 R22 -3 R23  3 R24  2 GLONASS SLOT / FRQ #
                                                            END OF HEADER       
> 2025 01 01 20 30  0.0000000  0 54
G10         1.000    21011337.729 8 110415425.46308       435.552 8        51.159                                    21011335.454 8  86038056.10208       339.390 8        52.773    21011335.248 7  86038033.10507       339.385 7        45.300
G15         2.000    24301813.495 6 127706900.81106     -2350.064 6        38.676                                    24301810.610 4  99511859.58904     -1831.223 4        29.953    24301810.688 5  99511862.60005     -1831.219 5        35.590
C33         3.000                                                                                                                                    23450293.815 8 122111858.63108      1426.685 8        48.649                                                                    23450305.631 8  99225945.96508      1159.294 8        48.012
E31         4.000    27362445.031 6 143790647.78906      1772.882 6        39.093                                                                    27362446.004 7 107376140.89307      1323.956 7        42.449    27362445.753 7 110177254.66807      1358.420 7        43.090
S21         5.000    38601534.176 6 202852174.31506      -518.285 6        41.869
E13         6.000    24049288.126 7 126380211.62607     -1791.802 7        46.979                                                                    24049287.944 8  94375041.58108     -1338.019 8        49.598    24049287.740 8  96836968.64908     -1372.951 8        50.907
G23         7.000    21565779.716 7 113329064.16707     -2363.833 7        45.523                                    21565775.562 6  88308399.83706     -1841.949 6        36.499    21565776.095 7  88308398.84207     -1841.954 7        45.424
E15         8.000    28069437.113 6 147506203.62806     -3035.926 6        37.251                                                                    28069437.865 6 110150906.07906     -2266.985 6        40.720    28069437.364 6 113024384.19406     -2326.103 6        41.707
G02         9.000    25388940.791 6 133419798.16806      2416.131 6        36.673                                    25388935.682 2 103963464.54302      1882.665 2        16.943
G07        10.000    25712967.675 6 135122592.87506     -1959.622 6        37.713                                    25712963.655 4 105290323.05704     -1527.008 4        25.068    25712964.414 5 105290327.11005     -1527.123 5        32.593
G26        11.000    24964360.362 6 131188943.31006     -4155.630 6        37.406                                    24964362.648 5 102225325.81405     -3238.152 5        32.048    24964362.316 6 102225345.81906     -3238.188 6        38.189
S27        12.000    39327585.266 5 206667849.81305      -486.551 5        35.895
R20        13.000    21414067.446 6 114510686.75806      1987.455 6        39.814                                                                    21414068.100 7  89063934.49507      1545.755 7        45.099
S36        14.000    38371004.348 7 201641517.66207      -517.148 7        43.306
G27        15.000    20218522.031 8 106249333.15208      -532.072 8        50.395                                    20218519.886 8  82791846.66408      -414.602 8        53.879    20218520.276 7  82791760.67007      -414.651 7        46.507
S45        17.000    63582278.489 6 334128461.10806      -564.584 6        36.862
E08        18.000    27069195.332 6 142249614.46306      1515.984 6        40.708                                                                    27069194.348 7 106225360.86607      1132.062 7        42.660    27069194.587 7 108996453.24007      1161.554 7        45.369
G16        19.000    22624838.008 7 118894578.56907     -3746.261 7        45.064                                    22624833.574 5  92645243.97705     -2919.160 5        32.611
E21        20.000    25662606.182 7 134858275.02307     -3179.489 7        44.212                                                                    25662606.581 7 100706069.71207     -2374.273 7        46.549    25662606.143 7 103333159.51907     -2436.232 7        47.686
E26        21.000    24121817.341 7 126761354.20607       644.856 7        47.178                                                                    24121815.370 8  94659649.71808       481.581 8        49.959    24121814.988 8  97129007.45908       494.109 8        51.162
I06        22.000    38768235.650 6 152135100.55606      -307.573 6        41.778
S28        23.000    41065902.624 5 215802791.47805      -510.973 5        33.491
G08        24.000    21373052.531 7 112316164.33007      1659.467 7        46.514                                    21373050.787 7  87519089.58807      1293.090 7        47.242    21373051.748 7  87519090.58007      1293.135 7        44.656
S23        25.000    38326484.136 7 201407030.84107      -517.164 7        43.892
C13        26.000                                                                                                                                    38811802.246 7 202103434.03507     -1507.881 7        42.119    38811803.032 7 156279305.67607     -1165.849 7        42.573    38811801.530 6 164225681.71206     -1225.169 6        40.982
G18        27.000    24189415.493 6 127116582.47906     -3578.973 6        40.389                                    24189412.341 4  99052054.03604     -2788.808 4        26.503    24189412.048 6  99052045.02306     -2788.797 6        41.395
I02        29.000    40447146.766 6 158723384.59806     -1041.010 6        37.527
C14        30.000                                                                                                                                    23284305.089 7 121247521.61007      -165.201 7        46.820    23284300.605 8  93756271.73508      -127.761 8        50.562    23284299.448 8  98523530.97008      -134.283 8        48.518
R02        31.000    24414536.995 6 130280662.62806     -4258.483 6        41.816                                                                    24414538.375 6 101329419.62106     -3312.086 6        39.997
E03        32.000    27550792.367 6 144780395.94306      -730.446 6        38.541                                                                    27550793.345 6 108115243.08206      -545.384 6        41.478    27550792.374 6 110935634.10406      -559.512 6        41.735
G30        33.000    25896929.930 6 136089281.93406      -843.674 6        36.004                                    25896930.047 4 106043599.02404      -657.407 4        26.192    25896930.428 5 106043607.01205      -657.179 5        32.491
R03        34.000    21248466.259 8 113744739.13108     -1423.576 8        49.151                                                                    21248464.669 7  88468153.87107     -1107.216 7        45.273
R10        35.000    21486096.249 7 114533045.56907     -1458.286 7        44.257
R18        36.000    22383931.591 7 119487348.99107     -3456.175 7        45.242                                                                    22383932.312 7  92934808.82307     -2688.182 7        43.627
R09        40.000    22255040.275 7 118840724.23507     -4156.944 7        47.644                                                                    22255039.289 7  92431694.91507     -3233.172 7        43.909
E33        41.000    27783119.432 6 146001341.39506      1931.432 6        38.432                                                                    27783119.874 6 109027000.91806      1442.225 6        40.429    27783119.062 6 111871180.39306      1479.768 6        41.030
S44        42.000    40631505.151 6 213520183.40406      -516.928 6        37.391
C38        43.000                                                                                                                                    40820082.673 6 212561026.02506     -1779.695 6        39.003                                                                    40820081.348 6 172723304.97406     -1446.025 6        38.129
C05        44.000                                                                                                                                    39384012.240 6 205082909.79406      -453.403 6        38.799    39384007.042 7 158583136.30607      -350.806 7        42.214    39384009.523 6 166646764.43806      -368.807 6        40.348
C08        45.000                                                                                                                                    39337244.128 6 204839539.12406     -1734.910 6        38.336    39337238.506 7 158394999.11607     -1341.469 7        42.531    39337237.729 6 166448954.81406     -1409.757 6        39.297
R11        46.000    23284237.640 7 124423907.68307      2187.015 7        43.735                                                                    23284237.104 6  96774149.58706      1700.834 6        41.886
R19        47.000    20060228.903 6 107309064.90106     -1623.302 6        41.290                                                                    20060228.122 7  83462773.38507     -1262.553 7        45.093
C43        48.000                                                                                                                                    24273437.886 7 126398474.60507     -2976.740 7        45.946                                                                    24273436.810 7 102709238.57407     -2418.949 7        44.980
C42        50.000                                                                                                                                    24249442.122 7 126273253.06807     -1789.009 7        45.752                                                                    24249449.828 7 102607409.68907     -1453.854 7        46.864
S48        51.000    77349971.790 6 406477347.18006      -552.615 6        37.614
G21        52.000    23170751.697 6 121763183.42206      2142.451 6        39.399                                    23170747.158 3  94880421.78403      1669.439 3        23.543
C37        53.000                                                                                                                                    25873729.813 7 134731302.50507     -3317.352 7        42.645                                                                    25873733.937 7 109480238.25007     -2695.801 7        42.495
C60        54.000                                                                                                                                    40631505.905 6 211579110.20906      -512.128 6        40.131                                                                    40631489.947 6 171925326.56906      -416.190 6        39.303
C27        55.000                                                                                                                                    23724215.914 7 123538234.31007      1850.558 7        47.185                                                                    23724214.236 7 100384938.43007      1503.658 7        45.774
R04        56.000    21100267.731 8 112990983.78508      2381.596 8        49.893                                                                    21100265.629 7  87881867.26307      1852.351 7        45.842
C02        57.000                                                                                                                                    40722182.120 5 212051128.28605      -464.948 5        34.419    40722175.991 6 163971375.82306      -359.720 6        39.826    40722179.125 6 172308913.58806      -377.938 6        36.733
I03        58.000   109785863.220 6 355038058.52306      1030.092 6        40.367
C11        59.000                                                                                                                                    26252645.377 6 136704698.20706     -3252.945 6        39.222    26252642.727 7 105708890.04507     -2515.381 7        42.284    26252641.298 6 111083870.71306     -2643.312 6        39.769
C28        60.000                                                                                                                                    21651631.261 8 112746043.62608      -151.550 8        50.871                                                                    21651630.148 8  91615532.17308      -123.175 8        48.873
> 2025 01 01 20 30  5.0000000  0 54
G10         1.000    21010924.547 8 110413255.52908       432.712 8        51.221                                    21010922.504 8  86036365.24208       337.179 8        52.700    21010922.403 7  86036342.25307       337.102 7        45.764
G15         2.000    24304050.944 6 127718659.18506     -2352.935 6        38.685                                    24304047.995 4  99521021.96004     -1833.457 4        29.640    24304047.807 5  99521024.97005     -1833.531 5        35.533
C33         3.000                                                                                                                                    23448925.382 8 122104731.49508      1424.398 8        48.594                                                                    23448936.991 8  99220154.58608      1157.434 8        48.170
E31         4.000    27360759.197 6 143781787.38706      1771.698 6        39.168                                                                    27360760.095 7 107369524.33707      1322.707 7        42.423    27360759.597 7 110170465.50307      1357.377 7        43.075
S21         5.000    38602029.006 6 202854765.94306      -518.158 6        41.790
E13         6.000    24050993.498 7 126389173.28307     -1792.637 7        46.882                                                                    24050993.307 8  94381733.72208     -1338.618 8        49.689    24050993.080 8  96843835.36308     -1373.538 8        50.825
G23         7.000    21568030.245 7 113340889.93407     -2366.271 7        45.412                                    21568025.929 6  88317614.72406     -1843.849 6        36.465    21568026.092 7  88317613.72807     -1843.865 7        45.720
E15         8.000    28072325.523 6 147521383.15906     -3035.637 6        36.983                                                                    28072326.350 6 110162241.45406     -2267.006 6        40.768    28072326.048 6 113036015.27206     -2326.047 6        41.764
G02         9.000    25386642.999 6 133407718.43406      2415.987 6        38.748                                    25386637.139 2 103954051.81002      1882.587 2        17.811
G07        10.000    25714834.013 6 135132396.35806     -1961.641 6        36.348                                    25714829.395 4 105297962.13604     -1528.559 4        24.932    25714829.814 5 105297966.14505     -1528.329 5        33.305
G26        11.000    24968314.474 6 131209721.44306     -4155.426 6        38.153                                    24968316.528 5 102241516.53205     -3237.993 5        32.551    24968316.193 6 102241536.51106     -3237.864 6        37.989
S27        12.000    39328047.113 5 206670281.83305      -486.398 5        35.738
R20        13.000    21412209.577 6 114500752.91306      1986.364 6        39.297                                                                    21412210.328 7  89056208.17407      1544.929 7        45.278
S36        14.000    38371495.788 7 201644105.17307      -517.375 7        43.456
G27        15.000    20219029.759 8 106252000.89808      -534.779 8        50.323                                    20219027.550 8  82793925.42508      -416.708 8        53.795    20219028.011 7  82793839.42107      -416.790 7        46.784
S45        17.000    63582770.511 6 334131285.76806      -564.813 6        37.440
E08        18.000    27067753.849 6 142242039.06606      1514.473 6        40.586                                                                    27067752.629 7 106219703.89707      1130.918 7        42.497    27067753.027 7 108990648.69107      1160.425 7        45.082
G16        19.000    22628403.466 7 118913314.44707     -3747.844 7        45.245                                    22628398.951 5  92659843.35705     -2920.396 5        32.617
E21        20.000    25665632.087 7 134874176.08407     -3180.667 7        43.716                                                                    25665632.567 7 100717943.86907     -2375.132 7        46.806    25665632.036 7 103345343.43607     -2437.174 7        47.742
E26        21.000    24121204.401 7 126758133.03007       643.841 7        47.193                                                                    24121202.369 8  94657244.29008       480.786 8        50.078    24121202.015 8  97126539.28508       493.273 8        51.078
I06        22.000    38768627.281 6 152136638.65206      -307.439 6        41.957
S28        23.000    41066388.287 5 215805345.85505      -510.856 5        33.251
G08        24.000    21371474.719 7 112307872.00007      1657.693 7        46.763                                    21371472.814 7  87512628.02607      1291.711 7        47.204    21371473.722 7  87512629.03107      1291.661 7        45.163
S23        25.000    38326977.114 7 201409617.64707      -517.205 7        43.831
C13        26.000                                                                                                                                    38813249.921 7 202110973.40407     -1507.845 7        42.271    38813250.818 7 156285135.60507     -1165.923 7        42.679    38813249.425 6 164231808.06506     -1225.156 6        41.151
G18        27.000    24192821.244 6 127134479.00706     -3579.277 6        39.709                                    24192818.067 4  99065999.37804     -2789.040 4        26.048    24192817.646 6  99065990.39306     -2789.099 6        41.499
I02        29.000    40448472.973 6 158728589.34606     -1040.718 6        37.698
C14        30.000                                                                                                                                    23284465.346 7 121248355.32307      -168.068 7        46.717    23284460.395 8  93756916.42108      -129.931 8        50.646    23284459.512 8  98524208.43908      -136.540 8        48.651
R02        31.000    24418527.965 6 130301960.34606     -4260.346 6        40.710                                                                    24418529.603 6 101345984.50706     -3313.585 6        40.162
E03        32.000    27551488.416 6 144784053.91706      -732.712 6        38.351                                                                    27551489.381 6 108117974.65806      -547.110 6        41.659    27551488.286 6 110938436.93706      -561.266 6        41.659
G30        33.000    25897733.763 5 136093506.67205      -846.409 5        34.752                                    25897734.018 4 106046890.98204      -659.556 4        25.609    25897734.448 5 106046898.98005      -658.948 5        31.841
R03        34.000    21249797.905 8 113751868.81608     -1427.987 8        49.222                                                                    21249796.739 7  88473699.19207     -1110.719 7        45.204
R10        35.000    21487466.047 7 114540348.17407     -1462.577 7        43.954
R18        36.000    22387169.368 7 119504632.57907     -3456.930 7        44.817                                                                    22387170.011 7  92948251.59407     -2688.712 7        43.645
R09        40.000    22258932.373 7 118861514.51507     -4158.945 7        47.068                                                                    22258932.721 7  92447865.11607     -3234.659 7        43.706
E33        41.000    27781282.387 6 145991685.97806      1931.091 6        38.411                                                                    27781282.418 6 109019790.71006      1441.970 6        40.615    27781281.641 6 111863782.08706      1479.540 6        40.987
S44        42.000    40631996.627 6 213522768.08906      -516.694 6        37.516
C38        43.000                                                                                                                                    40821791.690 6 212569924.96706     -1779.639 6        38.351                                                                    40821789.929 6 172730536.09006     -1445.875 6        37.902
C05        44.000                                                                                                                                    39384447.951 6 205085178.19106      -453.434 6        38.742    39384442.842 7 158584890.36407      -350.649 7        42.317    39384445.301 6 166648607.66606      -368.382 6        40.436
C08        45.000                                                                                                                                    39338910.766 6 204848213.77506     -1734.793 6        38.156    39338904.417 7 158401706.88907     -1341.470 7        42.514    39338903.828 6 166456003.65506     -1409.592 6        39.508
R11        46.000    23282193.310 7 124412981.21507      2183.789 7        43.611                                                                    23282192.328 7  96765651.21107      1698.499 7        42.863
R19        47.000    20061747.523 6 107317186.29806     -1625.210 6        41.661                                                                    20061746.213 7  83469090.02307     -1263.930 7        45.586
C43        48.000                                                                                                                                    24276296.588 7 126413360.82407     -2977.458 7        45.833                                                                    24276295.536 7 102721334.83407     -2419.374 7        44.987
C42        50.000                                                                                                                                    24251161.381 7 126282205.67807     -1791.662 7        45.667                                                                    24251169.071 7 102614684.41107     -1455.859 7        47.009
S48        51.000    77350469.817 6 406480110.60706      -552.294 6        37.531
G21        52.000    23168714.142 6 121752474.27906      2141.507 6        39.033                                    23168709.010 3  94872077.00103      1668.723 3        23.238
C37        53.000                                                                                                                                    25876915.926 6 134747891.86306     -3318.040 6        41.952                                                                    25876919.918 7 109493718.42607     -2696.157 7        42.764
C60        54.000                                                                                                                                    40631997.935 6 211581671.41306      -512.063 6        40.119                                                                    40631981.938 6 171927407.74806      -416.124 6        39.760
C27        55.000                                                                                                                                    23722439.413 7 123528983.74507      1849.933 7        47.166                                                                    23722437.723 7 100377421.57807      1503.241 7        45.934
R04        56.000    21098045.434 8 112979084.36708      2378.327 8        49.224                                                                    21098043.439 7  87872612.17807      1849.848 7        46.037
C02        57.000                                                                                                                                    40722628.768 5 212053454.08705      -465.012 5        34.300    40722622.138 6 163973174.26706      -359.715 6        39.994    40722625.738 6 172310803.47406      -377.749 6        36.987
I03        58.000   109784550.485 6 355032908.30206      1030.147 6        40.446
C11        59.000                                                                                                                                    26255769.537 6 136720963.93406     -3253.145 6        39.063    26255767.090 7 105721467.74207     -2515.476 7        42.669    26255764.858 6 111097087.93806     -2643.387 6        39.676
C28        60.000                                                                                                                                    21651777.695 8 112746805.50808      -153.057 8        50.835                                                                    21651776.439 8  91616151.25508      -124.256 8        48.947
> 2025 01 01 20 30 10.0000000  0 54
G10         1.000    21010514.374 8 110411099.86008       429.483 8        51.578                                    21010512.277 8  86034685.49908       334.663 8        52.726    21010512.510 7  86034662.50207       334.657 7        45.579
G15         2.000    24306291.212 6 127730432.26206     -2356.071 6        38.156                                    24306288.234 4  99530195.80404     -1835.899 4        29.867    24306288.120 5  99530198.82405     -1835.964 5        34.857
C33         3.000                                                                                                                                    23447558.768 8 122097615.86908      1421.772 8        48.724                                                                    23447570.494 8  99214372.54808      1155.374 8        48.105
E31         4.000    27359074.463 6 143772933.89406      1769.835 6        39.814                                                                    27359075.521 7 107362912.89607      1321.626 7        42.311    27359074.904 7 110163681.58707      1356.143 7        43.024
S21         5.000    38602521.323 6 202857357.17806      -518.375 6        41.633
E13         6.000    24052699.608 7 126398138.94107     -1793.747 7        47.023                                                                    24052699.496 8  94388428.85308     -1339.447 8        49.623    24052699.177 8  96850705.14908     -1374.400 8        50.935
G23         7.000    21570283.034 7 113352728.20907     -2369.171 7        45.937                                    21570278.687 6  88326839.35006     -1846.108 6        36.499    21570279.017 7  88326838.35307     -1846.036 7        45.783
E15         8.000    28075213.421 6 147536561.84406     -3036.089 6        36.922                                                                    28075214.725 6 110173576.18206     -2266.985 6        40.555    28075214.540 6 113047645.69306     -2326.180 6        41.888
G02         9.000    25384344.184 6 133395640.23506      2415.277 6        38.357                                    25384338.711 2 103944640.25302      1882.051 2        17.698
G07        10.000    25716702.063 5 135142208.95705     -1963.865 5        35.752                                    25716696.744 4 105305608.31804     -1530.274 4        24.767    25716697.329 5 105305612.28405     -1529.778 5        32.988
G26        11.000    24972267.869 6 131230498.39206     -4155.344 6        38.523                                    24972270.181 5 102257706.34905     -3237.928 5        31.796    24972269.302 6 102257726.33006     -3237.874 6        37.595
S27        12.000    39328509.663 5 206672712.99905      -486.100 5        35.386
R20        13.000    21410351.862 6 114490824.24006      1985.136 6        39.186                                                                    21410353.362 7  89048485.87007      1543.847 7        44.715
S36        14.000    38371990.770 7 201646691.51607      -517.295 7        43.530
G27        15.000    20219539.952 8 106254681.94108      -537.802 8        50.792                                    20219537.739 8  82796014.54508      -419.067 8        53.909    20219538.093 7  82795928.54207      -419.038 7        46.538
S45        17.000    63583263.637 6 334132509.77116      -565.057 6        36.904
E08        18.000    27066313.364 6 142234471.03006      1512.759 6        40.520                                                                    27066312.380 7 106214052.43507      1129.562 7        42.233    27066312.823 7 108984849.81307      1159.030 7        45.013
G16        19.000    22631970.082 7 118932058.15007     -3749.784 7        46.087                                    22631965.821 5  92674448.83205     -2921.910 5        32.778
E21        20.000    25668659.177 7 134890083.16107     -3182.270 7        44.382                                                                    25668659.576 7 100729822.52107     -2376.314 7        46.689    25668659.077 7 103357531.96507     -2438.330 7        47.754
E26        21.000    24120592.335 7 126754916.91107       642.410 7        47.371                                                                    24120590.375 8  94654842.63208       479.862 8        50.081    24120589.994 8  97124074.97508       492.362 8        51.102
I06        22.000    38769018.827 6 152138176.22306      -307.595 6        41.988
S28        23.000    41066879.722 5 215807899.27205      -511.140 5        32.994
G08        24.000    21369898.404 7 112299588.68607      1655.521 7        47.215                                    21369896.545 7  87506173.49307      1290.017 7        47.243    21369897.372 7  87506174.48607      1290.127 7        44.716
S23        25.000    38327469.655 7 201412203.83707      -517.443 7        43.901
C13        26.000                                                                                                                                    38814697.759 7 202118513.20807     -1508.199 7        42.063    38814699.004 7 156290965.86407     -1166.315 7        42.737    38814697.339 6 164237934.75506     -1225.476 6        41.178
G18        27.000    24196227.132 6 127152377.05406     -3579.928 6        39.294                                    24196223.959 4  99079945.90204     -2789.562 4        25.609    24196223.477 6  99079936.90306     -2789.571 6        41.371
I02        29.000    40449799.287 6 158733793.48206     -1041.117 6        37.614
C14        30.000                                                                                                                                    23284628.325 7 121249203.39007      -171.248 7        46.673    23284623.602 8  93757572.19908      -132.410 8        51.123    23284622.403 8  98524897.54508      -139.165 8        48.483
R02        31.000    24422519.730 6 130323267.08906     -4262.597 6        39.880                                                                    24422522.183 6 101362556.36606     -3315.300 6        39.643
E03        32.000    27552187.072 6 144787723.40506      -735.247 6        38.501                                                                    27552187.558 6 108120714.84806      -549.068 6        41.340    27552186.659 6 110941248.61606      -563.295 6        41.638
G30        33.000    25898540.073 5 136097744.43505      -849.289 5        34.657                                    25898540.390 4 106050193.16004      -661.770 4        24.932    25898541.465 5 106050201.16105      -661.562 5        31.909
R03        34.000    21251134.312 8 113759020.46008     -1432.739 8        49.613                                                                    21251132.350 7  88479261.57407     -1114.355 7        44.820
R10        35.000    21488839.896 7 114547672.34207     -1467.286 7        43.782
R18        36.000    22390408.576 7 119521919.51407     -3458.009 7        45.181                                                                    22390407.844 7  92961696.97807     -2689.557 7        43.249
R09        40.000    22262828.117 7 118882314.56307     -4161.200 7        47.443                                                                    22262827.474 7  92464042.92707     -3236.580 7        43.642
E33        41.000    27779445.589 6 145982032.05806      1930.429 6        38.547                                                                    27779445.330 6 109012581.64206      1441.469 6        40.574    27779444.598 6 111856384.94806      1479.189 6        40.999
S44        42.000    40632490.120 6 213525352.40406      -517.185 6        37.289
C38        43.000                                                                                                                                    40823500.460 6 212578823.17006     -1779.846 6        38.315                                                                    40823498.743 6 172737766.56806     -1446.183 6        38.045
C05        44.000                                                                                                                                    39384883.415 6 205087446.12406      -453.829 6        38.742    39384878.293 7 158586644.06407      -350.922 7        42.381    39384880.792 6 166650450.52806      -368.716 6        40.272
C08        45.000                                                                                                                                    39340576.365 6 204856888.60506     -1735.198 6        38.126    39340570.416 7 158408414.82307     -1341.760 7        42.626    39340569.540 6 166463052.64606     -1409.961 6        39.216
R11        46.000    23280151.781 7 124402070.94707      2180.232 7        44.385                                                                    23280150.827 7  96757165.42407      1695.798 7        43.064
R19        47.000    20063266.613 6 107325316.47106     -1627.192 6        40.877                                                                    20063265.870 7  83475413.49207     -1265.526 7        45.514
C43        48.000                                                                                                                                    24279156.239 7 126428250.71107     -2978.569 7        45.905                                                                    24279155.087 7 102733434.07407     -2420.388 7        44.962
C42        50.000                                                                                                                                    24252883.177 7 126291171.14607     -1794.601 7        45.804                                                                    24252890.798 7 102621969.57107     -1458.211 7        46.825
S48        51.000    77350969.583 6 406482873.32806      -552.801 6        37.467
G21        52.000    23166676.598 6 121741770.52206      2139.926 6        39.408                                    23166672.155 3  94863736.40803      1667.474 3        23.848
C37        53.000                                                                                                                                    25880102.205 6 134764484.56306     -3319.043 6        41.576                                                                    25880106.367 7 109507201.32007     -2696.975 7        42.576
C60        54.000                                                                                                                                    40632489.707 6 211584232.23906      -512.557 6        39.946                                                                    40632473.780 6 171929488.60506      -416.286 6        39.529
C27        55.000                                                                                                                                    23720663.199 7 123519736.16107      1848.970 7        46.979                                                                    23720661.900 7 100369907.15007      1502.492 7        45.842
R04        56.000    21095825.277 8 112967201.43008      2374.735 8        49.518                                                                    21095824.350 7  87863369.90207      1847.005 7        46.075
C02        57.000                                                                                                                                    40723075.469 5 212055779.51205      -465.189 5        34.695    40723068.769 6 163974972.43206      -359.862 6        39.991    40723072.395 6 172312693.05806      -378.067 6        36.620
I03        58.000   109783238.557 6 355027757.83806      1029.949 6        40.477
C11        59.000                                                                                                                                    26258893.423 6 136737230.75606     -3253.732 6        38.535    26258890.903 7 105734046.27607     -2515.958 7        43.111    26258888.576 6 111110306.03706     -2643.732 6        39.123
C28        60.000                                                                                                                                    21651925.502 8 112747574.51308      -154.777 8        50.809                                                                    21651924.190 8  91616776.12008      -125.699 8        48.856
> 2025 01 01 20 30 15.0000000  0 54
G10         1.000    21010107.037 8 110408959.13008       426.605 8        51.937                                    21010104.903 8  86033017.39908       332.420 8        52.806    21010104.859 7  86032994.40407       332.429 7        45.881
G15         2.000    24308533.940 6 127742220.75206     -2359.320 6        39.045                                    24308531.580 5  99539381.63905     -1838.435 5        30.483    24308532.547 6  99539384.63106     -1838.313 6        36.336
C33         3.000                                                                                                                                    23446194.485 8 122090512.43108      1419.449 8        48.651                                                                    23446206.385 8  99208600.45108      1153.385 8        48.125
E31         4.000    27357390.878 6 143764087.94506      1768.370 6        39.381                                                                    27357392.125 7 107356307.09307      1320.530 7        42.624    27357391.723 7 110156903.48307      1354.920 7        43.196
S21         5.000    38603014.663 6 202859948.61906      -518.355 6        41.666
E13         6.000    24054406.422 7 126407109.24907     -1794.557 7        47.096                                                                    24054406.474 8  94395127.46008     -1340.082 8        49.774    24054406.160 8  96857578.50708     -1375.086 8        50.853
G23         7.000    21572538.293 7 113364579.64607     -2371.648 7        46.353                                    21572533.905 6  88336074.23606     -1848.038 6        36.529    21572534.046 7  88336073.23407     -1847.949 7        45.941
E15         8.000    28078101.653 6 147551740.37406     -3035.834 6        36.975                                                                    28078103.254 6 110184910.81506     -2266.979 6        40.451    28078102.992 6 113059276.00706     -2326.087 6        41.952
G02         9.000    25382045.503 6 133383564.25506      2414.979 6        38.538                                    25382040.655 2 103935230.41702      1881.799 2        17.057
G07        10.000    25718570.648 5 135152031.37505     -1965.427 5        34.910                                    25718566.115 4 105313262.15704     -1531.486 4        24.752    25718566.838 5 105313266.14005     -1531.504 5        32.431
G26        11.000    24976221.569 6 131251274.80506     -4155.140 6        39.132                                    24976223.748 5 102273895.74305     -3237.767 5        32.096    24976223.454 6 102273915.75006     -3237.694 6        37.633
S27        12.000    39328970.052 5 206675144.15805      -486.007 5        35.262
R20        13.000    21408496.978 6 114480901.38706      1984.151 6        39.595                                                                    21408497.996 7  89040768.09107      1543.065 7        44.978
S36        14.000    38372482.555 7 201649277.92007      -517.351 7        43.371
G27        15.000    20220052.873 8 106257376.97308      -540.508 8        50.712                                    20220050.594 8  82798114.56508      -421.175 8        53.923    20220050.862 7  82798028.55507      -421.136 7        46.600
S45        17.000    63583751.326 6 334135334.02106      -564.947 6        37.074
E08        18.000    27064874.970 6 142226911.08306      1511.147 6        40.603                                                                    27064873.705 7 106208407.01907      1128.397 7        42.161    27064874.274 7 108979057.11907      1157.930 7        44.873
G16        19.000    22635538.205 7 118950810.32607     -3751.402 7        45.561                                    22635534.350 5  92689060.90605     -2923.172 5        32.880
E21        20.000    25671687.522 7 134905996.89407     -3183.378 7        44.572                                                                    25671687.803 7 100741706.15707     -2377.315 7        46.876    25671687.430 7 103369725.60207     -2439.266 7        47.803
E26        21.000    24119981.464 7 126751706.52507       641.477 7        47.577                                                                    24119979.481 8  94652445.26908       479.058 8        50.130    24119979.102 8  97121615.07208       491.526 8        51.014
I06        22.000    38769411.137 7 152139713.76607      -307.523 7        42.118
S28        23.000    41067358.141 5 215810452.70905      -510.400 5        33.240
G08        24.000    21368323.901 7 112291315.06807      1653.690 7        47.148                                    21368322.131 7  87499726.51107      1288.589 7        47.333    21368322.809 7  87499727.51907      1288.631 7        44.572
S23        25.000    38327961.399 7 201414790.15607      -517.367 7        43.860
C13        26.000                                                                                                                                    38816145.679 7 202126054.07707     -1508.428 7        42.220    38816147.028 7 156296796.92407     -1166.240 7        42.756    38816145.437 6 164244062.34006     -1225.512 6        40.915
G18        27.000    24199633.962 6 127170277.27906     -3580.379 6        39.483                                    24199630.253 4  99093894.12404     -2789.918 4        25.714    24199629.865 6  99093885.12006     -2789.844 6        41.242
I02        29.000    40451125.540 6 158738997.40806     -1040.744 6        37.735
C14        30.000                                                                                                                                    23284793.578 7 121250066.39907      -174.121 7        46.716    23284789.753 8  93758239.54108      -134.663 8        51.491    23284788.120 8  98525598.83708      -141.590 8        48.502
R02        31.000    24426514.418 6 130344583.69906     -4264.418 6        39.790                                                                    24426516.916 6 101379135.90806     -3316.700 6        39.568
E03        32.000    27552887.510 6 144791405.15906      -737.598 6        38.931                                                                    27552888.305 6 108123464.19106      -550.865 6        41.273    27552887.269 6 110944069.67606      -565.105 6        41.619
G30        33.000    25899349.423 5 136101995.71905      -851.645 5        35.943                                    25899349.257 4 106053505.82904      -663.609 4        25.038    25899350.212 5 106053513.83505      -663.753 5        32.461
R03        34.000    21252474.515 8 113766194.57408     -1437.116 8        48.798                                                                    21252472.536 7  88484841.43407     -1117.810 7        44.364
R10        35.000    21490218.830 7 114555018.40307     -1471.438 7        43.664
R18        36.000    22393648.067 7 119539210.54307     -3458.678 7        45.636                                                                    22393647.758 7  92975145.54707     -2690.056 7        43.630
R09        40.000    22266725.292 7 118903124.87407     -4163.127 7        46.712                                                                    22266725.746 7  92480228.70007     -3237.895 7        44.302
E33        41.000    27777608.770 6 145972380.34406      1930.136 6        38.529                                                                    27777608.711 6 109005374.20106      1441.304 6        40.832    27777607.869 6 111848989.49506      1478.862 6        40.808
S44        42.000    40632979.114 6 213527936.97206      -516.982 6        37.357
C38        43.000                                                                                                                                    40825209.693 6 212587721.30006     -1779.839 6        38.429                                                                    40825207.622 6 172744997.05706     -1446.188 6        37.815
C05        44.000                                                                                                                                    39385319.054 6 205089714.22106      -453.782 6        38.880    39385314.146 7 158588397.89307      -350.753 7        42.449    39385316.373 6 166652293.56406      -368.623 6        40.274
C08        45.000                                                                                                                                    39342242.411 6 204865564.09906     -1735.211 6        38.162    39342236.342 7 158415123.24007     -1341.692 7        42.671    39342235.774 6 166470102.20906     -1409.929 6        39.294
R11        46.000    23278113.717 7 124391177.60307      2177.075 7        44.798                                                                    23278112.179 7  96748692.80807      1693.186 7        42.709
R19        47.000    20064788.249 6 107333456.11606     -1628.975 6        41.092                                                                    20064787.485 7  83481744.32607     -1266.935 7        45.821
C43        48.000                                                                                                                                    24282016.313 7 126443144.89507     -2979.353 7        46.137                                                                    24282015.449 7 102745536.83407     -2421.033 7        45.106
C42        50.000                                                                                                                                    24254607.564 7 126300150.14507     -1797.193 7        46.241                                                                    24254615.153 7 102629265.76107     -1460.359 7        46.802
S48        51.000    77351470.803 6 406485636.29106      -552.506 6        37.527
G21        52.000    23164641.294 6 121731072.76606      2139.034 6        39.610                                    23164636.511 3  94855400.49803      1666.778 3        23.657
C37        53.000                                                                                                                                    25883289.026 6 134781081.24206     -3319.822 6        41.816                                                                    25883293.365 7 109520687.49407     -2697.662 7        42.489
C60        54.000                                                                                                                                    40632981.505 6 211586793.30606      -512.332 6        40.162                                                                    40632965.525 6 171931569.72306      -416.223 6        39.471
C27        55.000                                                                                                                                    23718888.234 7 123510492.20307      1848.292 7        47.203                                                                    23718886.715 7 100362395.69207      1501.959 7        45.758
R04        56.000    21093610.347 8 112955335.55708      2371.436 8        49.564                                                                    21093609.029 7  87854140.90107      1844.466 7        46.499
C02        57.000                                                                                                                                    40723522.426 5 212058105.18705      -464.922 5        34.748    40723515.618 6 163976770.78806      -359.626 6        40.172    40723518.770 6 172314582.90206      -378.159 6        36.386
I03        58.000   109781926.163 6 355022607.65306      1029.982 6        40.400
C11        59.000                                                                                                                                    26262016.355 6 136753499.35906     -3253.989 6        37.830    26262014.848 7 105746626.18307     -2516.118 7        43.124    26262012.605 6 111123525.62306     -2644.125 6        39.195
C28        60.000                                                                                                                                    21652074.740 8 112748351.31908      -156.226 8        51.035                                                                    21652073.342 8  91617407.36008      -126.931 8        48.812
> 2025 01 01 20 30 20.0000000  0 54
G10         1.000    21009702.407 8 110406833.61008       423.584 8        51.369                                    21009700.423 8  86031361.14908       330.065 8        52.857    21009700.387 7  86031338.15507       330.124 7        45.549
G15         2.000    24310780.770 6 127754024.88106     -2362.366 6        39.111                                    24310777.908 5  99548579.66105     -1840.804 5        30.725    24310778.432 6  99548582.63806     -1840.684 6        36.336
C33         3.000                                                                                                                                    23444832.634 8 122083421.46308      1416.899 8        48.413                                                                    23444844.621 8  99202838.44508      1151.420 8        48.124
E31         4.000    27355708.711 6 143755249.91206      1766.721 6        38.919                                                                    27355710.422 7 107349707.23807      1319.376 7        42.696    27355709.895 7 110150131.46107      1353.702 7        43.156
S21         5.000    38603508.384 6 202862540.54106      -518.443 6        41.912
E13         6.000    24056114.463 7 126416084.49207     -1795.481 7        46.844                                                                    24056114.423 8  94401829.74808     -1340.776 8        49.858    24056114.089 8  96864455.63708     -1375.799 8        50.849
G23         7.000    21574796.140 7 113376444.52707     -2374.250 7        45.950                                    21574791.757 6  88345319.59606     -1850.064 6        36.654    21574791.811 7  88345318.59307     -1850.093 7        45.558
E15         8.000    28080990.602 6 147566918.96906     -3035.667 6        36.926                                                                    28080991.516 6 110196245.51306     -2266.937 6        40.348    28080991.400 7 113070906.38407     -2326.129 7        42.082
G02         9.000    25379747.629 6 133371490.73606      2414.404 6        38.003                                    25379743.162 2 103925822.50402      1881.323 2        17.283
G07        10.000    25720441.374 6 135161863.79106     -1967.330 6        37.588                                    25720437.458 4 105320923.77504     -1532.951 4        24.962    25720437.667 5 105320927.78105     -1533.431 5        31.125
G26        11.000    24980175.437 6 131272050.96706     -4155.054 6        38.844                                    24980177.078 5 102290084.94805     -3237.698 5        32.156    24980176.957 6 102290104.94306     -3237.771 6        37.365
S27        12.000    39329434.443 5 206677576.11705      -486.704 5        35.576
R20        13.000    21406642.941 6 114470984.57206      1982.772 6        39.670                                                                    21406643.954 7  89033055.00107      1542.141 7        45.272
S36        14.000    38372976.825 7 201651864.42907      -517.326 7        43.528
G27        15.000    20220568.388 8 106260086.27608      -543.261 8        51.098                                    20220566.163 9  82800225.70909      -423.320 9        54.037    20220566.613 7  82800139.70707      -423.350 7        46.513
S45        17.000    63584238.388 6 334138158.54306      -564.684 6        37.304
E08        18.000    27063438.334 6 142219359.49306      1509.364 6        40.648                                                                    27063436.850 7 106202767.83407      1127.167 7        42.453    27063437.234 7 108973270.83607      1156.529 7        44.786
G16        19.000    22639108.021 7 118969571.24207     -3753.019 7        45.467                                    22639104.507 5  92703679.79105     -2924.430 5        32.862
E21        20.000    25674716.958 7 134921917.58907     -3184.824 7        44.573                                                                    25674717.386 7 100753594.97407     -2378.323 7        46.867    25674717.015 7 103381924.56407     -2440.315 7        47.715
E26        21.000    24119371.841 7 126748502.13207       640.273 7        47.328                                                                    24119369.699 8  94650052.38208       478.139 8        50.229    24119369.298 8  97119159.76208       490.570 8        51.034
I06        22.000    38769802.798 6 152141251.44406      -307.525 6        41.769
S28        23.000    41067847.896 5 215813007.00705      -510.875 5        33.186
G08        24.000    21366751.303 7 112283051.43107      1651.802 7        46.757                                    21366749.609 7  87493287.31107      1287.121 7        47.381    21366750.430 7  87493288.31707      1287.062 7        44.375
S23        25.000    38328454.436 7 201417376.86807      -517.364 7        43.945
C13        26.000                                                                                                                                    38817594.331 7 202133596.31507     -1508.613 7        42.150    38817595.545 7 156302629.05807     -1166.626 7        42.834    38817593.805 6 164250191.02106     -1225.782 6        41.170
G18        27.000    24203040.773 6 127188179.92706     -3580.869 6        39.634                                    24203036.914 4  99107844.23004     -2790.278 4        25.474    24203036.726 6  99107835.22306     -2790.108 6        40.937
I02        29.000    40452451.712 6 158744201.45606     -1040.766 6        37.361
