     3.04           OBSERVATION DATA    M                   RINEX VERSION / TYPE
ssrcrin-15.6.1x                         20250101 123000 UTC PGM / RUN BY / DATE 
(00000000023479385599111004) Septentrio proprietary         COMMENT             
rref                                                        MARKER NAME         
01                                                          MARKER NUMBER       
geodetic                                                    MARKER TYPE         
NFB                 CLIMERS@TUW                             OBSERVER / AGENCY   
3297213             SEPT ASTERX SB3 PROB4.14.4              REC # / TYPE / VERS 
Unknown             Unknown                                 ANT # / TYPE        
  4127831.5654  1207193.5552  4695247.5698                  APPROX POSITION XYZ 
        0.0000        0.0000        0.0000                  ANTENNA: DELTA H/E/N
G   23 X1  C1C L1C D1C S1C C1W S1W C2W L2W D2W S2W C2L L2L  SYS / # / OBS TYPES 
       D2L S2L C5Q L5Q D5Q S5Q C1L L1L D1L S1L              SYS / # / OBS TYPES 
E   21 X1  C1C L1C D1C S1C C6C L6C D6C S6C C5Q L5Q D5Q S5Q  SYS / # / OBS TYPES 
       C7Q L7Q D7Q S7Q C8Q L8Q D8Q S8Q                      SYS / # / OBS TYPES 
S    9 X1  C1C L1C D1C S1C C5I L5I D5I S5I                  SYS / # / OBS TYPES 
R   17 X1  C1C L1C D1C S1C C2P L2P D2P S2P C2C L2C D2C S2C  SYS / # / OBS TYPES 
       C3Q L3Q D3Q S3Q                                      SYS / # / OBS TYPES 
C   25 X1  C1P L1P D1P S1P C5P L5P D5P S5P C2I L2I D2I S2I  SYS / # / OBS TYPES 
       C7I L7I D7I S7I C6I L6I D6I S6I C7D L7D D7D S7D      SYS / # / OBS TYPES 
J   17 X1  C1C L1C D1C S1C C2L L2L D2L S2L C5Q L5Q D5Q S5Q  SYS / # / OBS TYPES 
       C1L L1L D1L S1L                                      SYS / # / OBS TYPES 
I    5 X1  C5A L5A D5A S5A                                  SYS / # / OBS TYPES 
SEPTENTRIO RECEIVERS OUTPUT ALIGNED CARRIER PHASES.         COMMENT             
NO FURTHER PHASE SHIFT APPLIED IN THE RINEX ENCODER.        COMMENT             
G L1C                                                       SYS / PHASE SHIFT   
G L2W                                                       SYS / PHASE SHIFT   
G L2L  0.00000                                              SYS / PHASE SHIFT   
G L5Q  0.00000                                              SYS / PHASE SHIFT   
G L1L  0.00000                                              SYS / PHASE SHIFT   
E L1C  0.00000                                              SYS / PHASE SHIFT   
E L6C  0.00000                                              SYS / PHASE SHIFT   
E L5Q  0.00000                                              SYS / PHASE SHIFT   
E L7Q  0.00000                                              SYS / PHASE SHIFT   
E L8Q  0.00000                                              SYS / PHASE SHIFT   
S L1C                                                       SYS / PHASE SHIFT   
S L5I                                                       SYS / PHASE SHIFT   
R L1C                                                       SYS / PHASE SHIFT   
R L2P  0.00000                                              SYS / PHASE SHIFT   
R L2C                                                       SYS / PHASE SHIFT   
R L3Q  0.00000                                              SYS / PHASE SHIFT   
C L1P  0.00000                                              SYS / PHASE SHIFT   
C L5P  0.00000                                              SYS / PHASE SHIFT   
C L2I                                                       SYS / PHASE SHIFT   
C L7I                                                       SYS / PHASE SHIFT   
C L6I                                                       SYS / PHASE SHIFT   
C L7D                                                       SYS / PHASE SHIFT   
J L1C                                                       SYS / PHASE SHIFT   
J L2L  0.00000                                              SYS / PHASE SHIFT   
J L5Q  0.00000                                              SYS / PHASE SHIFT   
J L1L  0.00000                                              SYS / PHASE SHIFT   
I L5A                                                       SYS / PHASE SHIFT   
  2025     1     1    12    30    0.0000000     GPS         TIME OF FIRST OBS   
 C1C    0.000 C2C    0.000 C2P    0.000                     GLONASS COD/PHS/BIS 
DBHZ                                                        SIGNAL STRENGTH UNIT
    18                                                      LEAP SECONDS        
 24 R01  1 R02 -4 R03  5 R04  6 R05  1 R06 -4 R07  5 R08  6 GLONASS SLOT / FRQ #
    R09 -2 R10 -7 R11  0 R12 -1 R13 -2 R14 -7 R15  0 R16 -1 GLONASS SLOT / FRQ #
    R17  4 R18 -3 R19  3 R20  2 R21  4 R22 -3 R23  3 R24  2 GLONASS SLOT / FRQ #
                                                            END OF HEADER       
> 2025 01 01 12 30  0.0000000  0 54
G19         1.000    21857572.332 7 114862450.14907     -2645.702 7        46.189                                    21857574.062 5  89503290.31705     -2061.586 5        34.938
G25         2.000    22120448.069 7 116243785.43807      2312.886 7        44.343                                    22120457.145 6  90579636.54206      1802.245 6        40.853    22120457.996 6  90579646.55806      1802.228 6        40.884
G24         3.000    20482954.373 8 107638656.82408     -2225.336 8        50.228                                    20482958.976 8  83874308.03708     -1734.025 8        52.114    20482959.256 7  83874305.03507     -1733.949 7        45.925
S21         5.000    38423095.219 7 201914349.26307      -594.222 7        42.957
G06         6.000    23469754.009 6 123334472.82906      1276.965 6        41.259                                    23469763.208 6  96104866.29806       995.033 6        37.815    23469764.348 6  96104857.30506       995.096 6        40.658
G17         7.000    24701540.624 6 129807538.28306     -3905.653 6        40.515                                    24701549.649 5 101148796.09005     -3043.370 5        31.306    24701549.167 5 101148792.08405     -3043.505 5        35.971
R21         8.000    24511866.642 6 131168096.90606     -4494.630 6        39.363                                                                    24511870.332 5 102019730.21005     -3495.814 5        34.886
G11         9.000    24746250.683 6 130042461.20406      2492.958 6        40.184                                    24746263.239 3 101331854.99503      1942.565 3        23.562    24746263.241 6 101331855.02406      1942.567 6        39.105
E30        10.000    23888380.435 8 125534417.03908       293.472 8        48.977                                                                    23888387.683 8  93743338.86008       219.157 8        50.969    23888386.405 8  96188806.37308       224.843 8        51.562
C26        11.000                                                                                                                                    23003895.524 8 119787292.21208     -2533.777 8        49.047                                                                    23003900.279 8  97336995.51008     -2058.905 8        48.001
S27        12.000    39199709.387 6 205995672.45106      -616.658 6        36.299
G15        13.000    24994534.552 6 131346856.61106     -4450.712 6        38.676                                    24994551.021 5 102348105.47705     -3468.063 5        30.340    24994550.259 6 102348097.45106     -3468.066 6        36.189
S36        14.000    38195029.406 7 200716590.05307      -594.749 7        44.631
G12        15.000    20284212.678 8 106594391.65408       246.913 8        50.486                                    20284214.063 8  83060638.06108       192.399 8        51.077    20284214.682 7  83060638.07307       192.396 7        45.728
E29        16.000    26809759.004 6 140886106.32806      1508.094 6        40.515                                                                    26809775.761 7 105207148.94907      1126.141 7        43.947    26809773.620 7 107951683.29207      1155.614 7        44.724
S45        17.000    63387246.588 6 333102622.16606      -657.038 6        36.215
R03        18.000    21810398.447 7 116752645.44907     -4151.651 7        47.961                                                                    21810408.269 7  90807594.92707     -3229.122 7        42.612
C35        19.000                                                                                                                                    23011262.522 8 119825812.01408      -664.046 8        48.477                                                                    23011267.407 7  97368362.29507      -539.605 7        47.700
E11        20.000    27335529.940 6 143649215.60106      -979.942 6        36.117                                                                    27335540.983 6 107270587.09706      -731.825 6        36.730    27335539.052 6 110068940.48906      -750.923 6        37.599
R14        21.000    21346737.837 8 113790153.25508      2100.761 8        50.168                                                                    21346748.960 7  88503511.93507      1633.917 7        46.146
I06        22.000    38409698.312 6 150727917.46506      -552.849 6        41.893
S28        23.000    40890486.210 5 214880704.35105      -603.043 5        34.981
S23        25.000    38133158.328 7 200390895.63407      -598.949 7        45.287
E08        26.000    25875895.074 7 135978586.70307     -3505.214 7        44.278                                                                    25875905.932 7 101542401.99207     -2617.538 7        45.549    25875904.644 7 104191337.38307     -2685.854 7        47.001
C07        27.000                                                                                                                                    39990892.810 6 208242971.93906     -1510.664 6        39.096    39990898.986 7 161026662.45707     -1168.164 7        42.220    39990894.340 6 169214451.06906     -1227.609 6        38.721
I02        29.000    36936857.828 7 144948139.02507      -566.579 7        42.827
G10        30.000    25527642.753 6 134148426.24206     -2936.652 6        37.059                                    25527659.719 4 104531184.36304     -2288.302 4        25.248    25527660.422 5 104531176.37705     -2288.201 5        32.407
E07        31.000    24384441.861 7 128141024.73907     -1175.765 7        47.041                                                                    24384451.801 8  95689720.07708      -878.006 8        49.640    24384450.577 8  98185972.08308      -900.913 8        50.777
C12        32.000                                                                                                                                    24993104.412 6 130145707.88606      2785.850 6        40.114    24993115.477 7 100636988.56607      2154.169 7        47.672    24993111.324 7 105754095.88807      2263.744 7        44.792
E10        33.000    28626238.294 6 150431992.58706     -2180.533 6        36.076                                                                    28626247.778 6 112335678.36406     -1628.401 6        41.609    28626246.219 6 115266159.48606     -1670.905 6        41.159
R23        34.000    20986235.753 7 112262320.38007      2157.477 7        47.002
C24        35.000                                                                                                                                    21404243.697 8 111457550.38108        39.090 8        51.556                                                                    21404245.241 8  90568411.44808        31.719 8        50.474
R05        36.000    23315508.707 7 124634653.30907      2463.021 7        44.244                                                                    23315524.345 7  96938071.30807      1915.641 7        42.224
E27        37.000    27306759.427 6 143497983.56906      1834.631 6        40.648                                                                    27306778.004 7 107157665.54307      1370.105 7        42.121    27306775.387 7 109953071.40107      1405.636 7        42.330
R04        38.000    21077025.381 8 112866417.77908      -820.525 8        50.029                                                                    21077032.660 7  87784976.72007      -638.172 7        45.038
C33        39.000                                                                                                                                    25124137.363 7 130827876.59407     -2949.603 7        44.521                                                                    25124159.975 7 106308419.26107     -2396.821 7        44.113
E25        40.000    28418844.906 5 149341880.87005     -3159.638 5        35.595                                                                    28418862.024 6 111521490.06206     -2359.578 6        39.541    28418859.711 6 114430743.89706     -2421.159 6        40.262
S44        42.000    40779519.426 6 214297766.58706      -525.980 6        37.497
R22        43.000    21265468.915 8 113516642.75208     -1491.292 8        48.840                                                                    21265476.121 7  88290807.94707     -1159.875 7        44.928
C05        44.000                                                                                                                                    39447835.683 6 205415064.96006      -599.615 6        38.538    39447843.492 7 158839930.06407      -463.580 7        42.840    39447842.231 6 166916627.75006      -487.173 6        40.036
C40        45.000                                                                                                                                    40464596.198 6 210709674.77006     -1790.540 6        39.691                                                                    40464604.951 6 171218865.29406     -1455.072 6        38.508
G32        46.000    23559135.213 7 123803964.50507      1529.194 7        44.021                                    23559146.331 6  96470616.19806      1191.574 6        39.721    23559147.310 6  96470618.20906      1191.678 6        40.260
E36        47.000    26786610.114 6 140764646.33406      1321.116 6        40.493                                                                    26786623.934 7 105116562.16707       986.482 7        43.791    26786622.378 7 107858717.50507      1012.285 7        44.665
C41        48.000                                                                                                                                    25353947.616 7 132024632.04007      -536.815 7        43.473                                                                    25353964.754 7 107280895.35607      -436.149 7        44.342
C10        49.000                                                                                                                                    39066596.820 6 203429987.78106     -1248.312 6        40.939    39066603.691 7 157304976.63007      -965.314 7        43.871    39066599.467 6 165303523.93306     -1014.355 6        40.694
C42        50.000                                                                                                                                    27065216.584 5 140935330.76305     -3775.631 5        34.062                                                                    27065241.681 5 114521463.84605     -3068.098 5        35.595
S48        51.000    77131359.198 6 405328540.34106      -602.427 6        38.261
E02        53.000    24117761.689 7 126739742.64907     -2146.805 7        47.541                                                                    24117768.736 8  94643381.57008     -1603.075 8        49.725    24117767.269 8  97112322.00308     -1644.906 8        50.601
C60        54.000                                                                                                                                    40779520.068 6 212349622.27206      -521.310 6        39.282                                                                    40779517.280 6 172551380.31306      -423.614 6        39.868
R12        56.000    21978892.477 7 117407303.95207     -3498.752 7        47.326                                                                    21978902.537 7  91316807.65307     -2721.266 7        42.787
C02        57.000                                                                                                                                    40946238.412 5 213217608.80305      -555.333 5        32.509    40946246.118 5 164873310.71105      -429.270 5        35.986    40946246.337 5 173256724.91005      -451.297 5        32.437
I03        58.000   120053944.228 5 395331889.31305       898.246 5        32.539
C14        59.000                                                                                                                                    25824295.507 6 134473655.49306     -3643.361 6        40.052    25824308.528 7 103983490.43407     -2817.377 7        44.801    25824302.438 7 109270797.46707     -2960.609 7        42.021
R13        60.000    19538235.922 7 104333159.02807     -1236.451 7        46.818
> 2025 01 01 12 30  5.0000000  0 54
G19         1.000    21860090.588 7 114875684.72407     -2648.241 7        46.121                                    21860092.555 5  89513602.95605     -2063.559 5        34.905
G25         2.000    22118248.113 7 116232223.67007      2311.759 7        44.250                                    22118256.995 6  90570627.39306      1801.364 6        40.846    22118257.386 6  90570637.41206      1801.238 6        40.436
G24         3.000    20485072.965 8 107649789.67508     -2227.951 8        50.309                                    20485077.497 8  83882982.98108     -1736.065 8        52.102    20485077.927 7  83882979.98007     -1736.054 7        45.785
S21         5.000    38423662.091 7 201917319.36307      -593.962 7        42.802
G06         6.000    23468540.407 7 123328094.00607      1274.421 7        42.210                                    23468549.471 6  96099895.81006       993.052 6        38.024    23468550.028 6  96099886.82706       993.145 6        40.391
G17         7.000    24705256.747 6 129827067.83906     -3906.282 6        40.477                                    24705265.885 5 101164013.93805     -3043.856 5        31.306    24705265.766 5 101164009.94005     -3044.016 5        35.948
R21         8.000    24516065.978 6 131190574.78606     -4496.299 6        39.006                                                                    24516070.642 5 102037213.18005     -3497.247 5        34.538
G11         9.000    24743879.092 6 130029997.23106      2492.533 6        40.076                                    24743891.419 3 101322142.88803      1942.217 3        23.219    24743891.289 6 101322142.92106      1942.076 6        38.751
E30        10.000    23888101.544 8 125532951.96708       292.341 8        48.839                                                                    23888108.859 8  93742244.81308       218.311 8        50.871    23888107.552 8  96187683.78708       223.963 8        51.380
C26        11.000                                                                                                                                    23006328.956 8 119799963.56508     -2534.867 8        48.802                                                                    23006333.636 8  97347292.00608     -2059.775 8        48.012
S27        12.000    39200294.087 6 205998756.01706      -616.783 6        36.234
G15        13.000    24998769.017 6 131369108.50506     -4450.075 6        38.733                                    24998785.486 5 102365444.50705     -3467.573 5        30.091    24998785.592 6 102365436.45706     -3467.625 6        36.079
S36        14.000    38195595.004 7 200719563.21907      -594.607 7        44.393
G12        15.000    20283978.707 8 106593162.30108       244.739 8        50.625                                    20283980.122 8  83059680.12908       190.702 8        51.071    20283980.708 7  83059680.13107       190.689 7        45.607
E29        16.000    26808325.129 6 140878568.95606      1506.655 6        40.451                                                                    26808341.380 7 105201520.43007      1125.102 7        43.905    26808339.371 7 107945907.95607      1154.405 7        44.447
S45        17.000    63387819.975 6 333105906.85706      -657.334 6        36.072
R03        18.000    21814278.105 8 116773409.32108     -4153.963 8        48.143                                                                    21814287.621 7  90823744.56807     -3230.965 7        43.291
C35        19.000                                                                                                                                    23011901.222 8 119829138.60808      -666.837 8        48.334                                                                    23011906.241 7  97371065.41907      -541.852 7        47.564
E11        20.000    27336463.305 5 143654121.43905      -982.456 5        35.833                                                                    27336474.565 6 107274250.53106      -733.530 6        36.510    27336472.737 6 110072699.50506      -752.831 6        37.554
R14        21.000    21344767.906 8 113779651.31708      2099.889 8        49.383                                                                    21344778.433 7  88495343.78307      1633.270 7        45.389
I06        22.000    38410402.512 6 150730681.74006      -552.821 6        41.673
S28        23.000    40891055.600 5 214883718.54105      -603.002 5        34.900
S23        25.000    38133725.420 7 200393890.00507      -598.799 7        45.026
E08        26.000    25879230.742 7 135996114.97307     -3506.164 7        44.017                                                                    25879241.670 7 101555491.25707     -2618.344 7        45.573    25879240.120 7 104204768.10107     -2686.550 7        46.880
C07        27.000                                                                                                                                    39992343.586 6 208250524.95906     -1510.670 6        39.261    39992349.237 7 161032502.93107     -1168.016 7        42.159    39992344.926 6 169220588.50906     -1227.728 6        38.730
I02        29.000    36937579.579 7 144950972.48507      -566.779 7        42.830
G10        30.000    25530437.948 6 134163113.13806     -2938.231 6        37.134                                    25530454.671 4 104542628.69204     -2289.528 4        25.053    25530454.846 5 104542620.67205     -2289.273 5        32.090
E07        31.000    24385561.580 7 128146909.16507     -1178.074 7        46.882                                                                    24385571.562 8  95694114.28008      -879.771 8        49.613    24385570.433 8  98190480.91908      -902.711 8        50.592
C12        32.000                                                                                                                                    24990430.670 6 130131779.59506      2785.265 6        40.548    24990440.592 7 100626218.37207      2153.765 7        47.450    24990436.510 7 105742778.04307      2263.232 7        44.886
E10        33.000    28628313.652 5 150442900.17805     -2182.323 5        35.433                                                                    28628323.401 6 112343823.72606     -1629.770 6        41.235    28628321.762 6 115274517.32506     -1672.261 6        40.598
R23        34.000    20984220.932 7 112251541.29807      2153.971 7        47.017
C24        35.000                                                                                                                                    21404206.768 8 111457358.42108        37.609 8        51.507                                                                    21404208.325 8  90568255.45908        30.569 8        50.421
R05        36.000    23313206.470 7 124622345.67707      2460.082 7        44.659                                                                    23313222.474 7  96928498.67207      1913.452 7        42.569
E27        37.000    27305014.495 6 143488811.19506      1834.210 6        40.503                                                                    27305032.491 7 107150816.07307      1369.729 7        42.231    27305030.018 7 109946043.24807      1405.414 7        42.146
R04        38.000    21077793.735 8 112870531.16808      -825.079 8        49.892                                                                    21077801.121 7  87788176.00807      -641.668 7        45.121
C33        39.000                                                                                                                                    25126970.284 7 130842628.47607     -2951.259 7        44.764                                                                    25126992.856 7 106320406.33607     -2398.046 7        44.122
E25        40.000    28421851.411 5 149357679.27305     -3159.690 5        35.129                                                                    28421868.430 6 111533287.58106     -2359.474 6        39.529    28421865.845 6 114442849.18206     -2421.056 6        39.907
S44        42.000    40780018.629 6 214300395.95306      -525.856 6        37.051
R22        43.000    21266868.401 8 113524109.57808     -1495.621 8        48.867                                                                    21266875.318 7  88296615.46707     -1163.343 7        45.260
C05        44.000                                                                                                                                    39448411.051 6 205418061.93806      -599.467 6        38.390    39448419.035 7 158842247.51907      -463.556 7        42.758    39448417.568 6 166919063.03806      -487.052 6        40.038
C40        45.000                                                                                                                                    40466315.350 6 210718627.34706     -1790.525 6        39.664                                                                    40466324.255 6 171226139.99706     -1455.158 6        38.520
G32        46.000    23557681.036 7 123796324.08407      1526.849 7        43.835                                    23557692.405 6  96464662.65506      1189.748 6        39.685    23557693.410 6  96464664.64706      1189.849 6        40.040
E36        47.000    26785353.906 6 140758044.96706      1319.390 6        40.496                                                                    26785367.658 7 105111632.61607       985.166 7        43.782    26785366.121 7 107853659.35307      1010.906 7        44.464
C41        48.000                                                                                                                                    25354463.876 7 132027322.54007      -539.601 7        43.060                                                                    25354481.420 7 107283081.60107      -438.409 7        44.209
C10        49.000                                                                                                                                    39067795.235 6 203436229.31806     -1248.271 6        40.710    39067802.210 7 157309802.98807      -965.403 7        43.941    39067798.098 6 165308595.68006     -1014.447 6        40.808
C42        50.000                                                                                                                                    27068841.110 5 140954206.75105     -3774.997 5        34.081                                                                    27068866.575 5 114536802.03905     -3067.381 5        35.210
S48        51.000    77131927.063 6 405331551.67606      -602.514 6        38.255
E02        53.000    24119804.517 7 126750477.92607     -2147.526 7        47.588                                                                    24119811.588 8  94651398.17108     -1603.679 8        49.637    24119810.158 8  97120547.73008     -1645.491 8        50.413
C60        54.000                                                                                                                                    40780020.810 6 212352227.75406      -521.032 6        39.222                                                                    40780017.601 6 172553497.46606      -423.373 6        39.724
R12        56.000    21982168.341 7 117424799.44107     -3499.524 7        47.276                                                                    21982179.255 7  91330415.23007     -2721.838 7        43.494
C02        57.000                                                                                                                                    40946769.426 5 213220384.38205      -555.446 5        31.532    40946779.775 6 164875456.94106      -429.307 6        36.030    40946779.542 5 173258980.22405      -450.847 5        32.461
I03        58.000   120052799.671 5 395327397.75905       898.378 5        32.461
C14        59.000                                                                                                                                    25827794.202 6 134491873.65206     -3643.900 6        39.928    25827807.125 7 103997577.81607     -2817.761 7        44.850    25827800.972 7 109285601.14707     -2960.952 7        42.155
R13        60.000    19539394.734 7 104339345.71207     -1238.391 7        47.120
> 2025 01 01 12 30 10.0000000  0 54
G19         1.000    21862611.666 7 114888933.49907     -2651.168 7        45.688                                    21862613.795 5  89523926.65205     -2065.842 5        34.838
G25         2.000    22116049.523 7 116220669.22807      2310.089 7        44.200                                    22116058.253 6  90561623.94806      1800.065 6        40.813    22116058.680 6  90561633.97106      1800.019 6        40.763
G24         3.000    20487194.207 8 107660936.70708     -2230.793 8        50.266                                    20487198.709 8  83891668.97208     -1738.280 8        52.072    20487198.820 7  83891665.96907     -1738.283 7        46.006
S21         5.000    38424225.247 7 201920290.35607      -594.276 7        42.859
G06         6.000    23467329.226 6 123321728.79906      1271.604 6        41.807                                    23467338.283 6  96094935.93006       990.857 6        38.303    23467339.209 6  96094926.92806       990.922 6        40.441
G17         7.000    24708973.962 6 129846602.45906     -3907.470 6        40.474                                    24708983.171 5 101179235.71705     -3044.778 5        31.419    24708982.573 6 101179231.72806     -3044.893 6        36.208
R21         8.000    24520267.982 6 131213062.63806     -4498.635 6        39.267                                                                    24520272.787 5 102054703.96005     -3498.824 5        35.438
G11         9.000    24741507.555 6 130017537.17206      2491.563 6        39.778                                    24741520.256 3 101312433.83603      1941.452 3        23.238    24741520.715 6 101312433.88506      1941.270 6        39.003
E30        10.000    23887823.917 8 125531493.91708       290.875 8        48.860                                                                    23887831.391 8  93741156.01308       217.205 8        50.837    23887830.110 8  96186566.58208       222.862 8        51.452
C26        11.000                                                                                                                                    23008763.475 8 119812641.77208     -2536.369 8        48.921                                                                    23008768.309 7  97357594.10007     -2061.043 7        47.829
S27        12.000    39200883.890 6 206001840.47206      -616.931 6        36.450
G15        13.000    25003003.601 6 131391359.41806     -4450.087 6        38.625                                    25003019.666 5 102382782.76905     -3467.579 5        30.038    25003020.368 6 102382774.73406     -3467.523 6        36.023
S36        14.000    38196161.210 7 200722536.45107      -594.500 7        44.513
G12        15.000    20283747.332 8 106591945.38708       242.133 8        50.460                                    20283748.541 8  83058731.89108       188.675 8        51.055    20283749.245 7  83058731.89607       188.633 7        45.863
E29        16.000    26806892.529 6 140871040.70906      1504.656 6        40.384                                                                    26806908.733 7 105195898.70507      1123.729 7        43.958    26806906.708 7 107940139.57407      1152.852 7        44.665
S45        17.000    63388388.605 6 333109192.56006      -657.192 6        36.185
R03        18.000    21818159.376 8 116794186.28508     -4156.765 8        48.289                                                                    21818169.506 7  90839904.37107     -3233.027 7        43.594
C35        19.000                                                                                                                                    23012543.155 8 119832480.61608      -669.946 8        48.351                                                                    23012547.958 7  97373781.10307      -544.543 7        47.365
E11        20.000    27337399.446 6 143659040.77406      -985.281 6        36.064                                                                    27337410.468 6 107277924.04306      -735.622 6        36.560    27337408.831 6 110076468.84806      -754.888 6        37.474
R14        21.000    21342798.822 8 113769155.36708      2098.626 8        49.830                                                                    21342808.986 7  88487180.29907      1632.263 7        45.696
I06        22.000    38411107.408 6 150733446.69406      -553.118 6        41.871
S28        23.000    40891631.299 5 214886733.91905      -603.203 5        35.029
S23        25.000    38134297.121 7 200396885.15107      -599.120 7        45.153
E08        26.000    25882567.053 7 136013649.29607     -3507.447 7        43.236                                                                    25882578.342 7 101568585.01007     -2619.180 7        45.574    25882576.833 7 104218203.44807     -2687.568 7        47.050
C07        27.000                                                                                                                                    39993794.223 6 208258079.40506     -1510.957 6        39.084    39993799.955 7 161038344.51507     -1168.447 7        42.063    39993795.646 6 169226727.13406     -1227.874 6        38.712
I02        29.000    36938302.104 7 144953807.49907      -567.175 7        43.039
G10        30.000    25533234.465 6 134177807.81206     -2939.797 6        36.427                                    25533251.179 4 104554079.07504     -2290.741 4        25.278    25533251.188 5 104554071.07405     -2290.390 5        33.018
E07        31.000    24386684.255 7 128152806.60407     -1180.832 7        47.002                                                                    24386693.838 8  95698518.20608      -881.765 8        49.559    24386692.707 8  98194999.72908      -904.805 8        50.668
C12        32.000                                                                                                                                    24987756.682 6 130117855.50906      2784.439 6        40.689    24987766.390 7 100615451.43807      2153.013 7        47.112    24987762.157 7 105731463.64707      2262.287 7        44.674
E10        33.000    28630391.277 5 150453818.77505     -2184.899 5        35.495                                                                    28630401.033 6 112351977.05506     -1631.375 6        40.832    28630399.598 6 115282883.38106     -1674.020 6        40.629
R23        34.000    20982209.425 7 112240781.11207      2150.188 7        47.112
C24        35.000                                                                                                                                    21404171.518 8 111457175.03208        35.839 8        51.498                                                                    21404173.173 8  90568106.46008        29.015 8        50.263
R05        36.000    23310908.278 7 124610054.21507      2456.743 7        45.366                                                                    23310922.904 7  96918938.60007      1910.760 7        42.116
E27        37.000    27303269.323 6 143479642.16706      1833.585 6        40.613                                                                    27303287.590 7 107143969.09007      1369.152 7        42.066    27303285.142 7 109939017.65107      1404.767 7        42.470
R04        38.000    21078565.607 8 112874668.75208      -829.888 8        49.858                                                                    21078573.504 7  87791394.13107      -645.461 7        45.427
C33        39.000                                                                                                                                    25129805.185 7 130857389.75107     -2953.193 7        44.391                                                                    25129827.698 7 106332401.06207     -2399.941 7        44.072
E25        40.000    28424858.252 5 149373478.01605     -3159.914 5        35.310                                                                    28424874.845 6 111545085.35406     -2359.625 6        39.685    28424872.146 6 114454954.70106     -2421.076 6        39.688
S44        42.000    40780520.604 6 214303026.21506      -526.076 6        37.255
R22        43.000    21268271.567 8 113531599.81908     -1500.432 8        48.723                                                                    21268278.783 7  88302441.19207     -1166.967 7        45.279
C05        44.000                                                                                                                                    39448986.603 6 205421059.72706      -599.651 6        38.429    39448994.497 7 158844565.60807      -463.734 7        42.897    39448993.455 6 166921499.00606      -487.365 6        39.802
C40        45.000                                                                                                                                    40468035.379 6 210727581.19806     -1790.956 6        39.958                                                                    40468043.644 6 171233415.75606     -1455.159 6        38.541
G32        46.000    23556229.789 7 123788697.40507      1524.057 7        42.965                                    23556241.078 6  96458719.80406      1187.574 6        39.637    23556241.575 6  96458721.81906      1187.447 6        40.119
E36        47.000    26784099.566 6 140751453.62706      1317.316 6        40.758                                                                    26784113.426 7 105106710.53407       983.711 7        43.657    26784111.917 7 107848608.87907      1009.328 7        44.492
C41        48.000                                                                                                                                    25354983.344 7 132030028.08907      -542.620 7        43.014                                                                    25355000.944 7 107285280.10307      -440.985 7        44.160
C10        49.000                                                                                                                                    39068994.323 6 203442472.73306     -1248.881 6        40.484    39069001.178 7 157314630.78307      -965.749 7        43.998    39068996.942 6 165313668.97006     -1014.908 6        40.391
C42        50.000                                                                                                                                    27072464.994 5 140973080.69805     -3774.489 5        33.856                                                                    27072491.263 5 114552138.61905     -3066.972 5        34.786
S48        51.000    77132493.077 6 405334564.00906      -602.530 6        38.315
E02        53.000    24121848.494 7 126761218.35107     -2148.566 7        47.596                                                                    24121855.418 8  94659418.60708     -1604.539 8        49.531    24121853.953 8  97128777.40008     -1646.338 8        50.454
C60        54.000                                                                                                                                    40780521.108 6 212354834.10406      -521.336 6        39.336                                                                    40780518.306 6 172555615.35206      -423.728 6        39.787
R12        56.000    21985444.148 7 117442300.52407     -3500.748 7        46.591                                                                    21985454.480 7  91344027.15407     -2722.861 7        43.793
C02        57.000                                                                                                                                    40947303.034 5 213223160.65105      -555.107 5        31.525    40947312.976 6 164877603.73106      -429.403 6        36.068    40947312.654 5 173261236.20505      -451.028 5        32.305
I03        58.000   120051655.314 5 395322906.68405       898.176 5        32.569
C14        59.000                                                                                                                                    25831293.439 6 134510095.36206     -3644.656 6        39.279    25831305.941 7 104011667.93007     -2818.335 7        44.590    25831300.444 7 109300407.74907     -2961.761 7        42.118
R13        60.000    19540555.650 7 104345543.77807     -1240.762 7        47.310
> 2025 01 01 12 30 15.0000000  0 54
G19         1.000    21865135.487 7 114902195.61607     -2653.661 7        46.031                                    21865137.565 5  89534260.74505     -2067.786 5        34.895
G25         2.000    22113851.657 7 116209121.26807      2308.993 7        44.015                                    22113860.701 6  90552625.55706      1799.211 6        40.925    22113861.940 6  90552635.56506      1799.352 6        40.584
G24         3.000    20489317.991 8 107672097.09808     -2233.255 8        50.410                                    20489322.457 8  83900365.37608     -1740.199 8        52.083    20489322.570 7  83900362.37607     -1740.164 7        45.624
S21         5.000    38424792.038 7 201923261.68107      -594.126 7        42.897
G06         6.000    23466119.886 6 123315376.36006      1269.292 6        41.447                                    23466129.469 6  96089985.99106       989.054 6        38.324    23466130.684 6  96089976.99806       989.032 6        40.601
G17         7.000    24712692.189 6 129866141.19606     -3908.016 6        40.696                                    24712701.169 5 101194460.70205     -3045.207 5        31.547    24712701.204 6 101194456.72606     -3045.460 6        36.265
R21         8.000    24524472.068 6 131235559.17906     -4500.281 6        39.931                                                                    24524477.147 6 102072201.33506     -3500.321 6        36.019
G11         9.000    24739137.016 6 130005080.21606      2491.157 6        40.005                                    24739149.487 3 101302727.19303      1941.142 3        22.819    24739149.765 6 101302727.23506      1941.099 6        38.766
E30        10.000    23887547.558 8 125530042.04908       289.810 8        48.905                                                                    23887555.080 8  93740071.82908       216.441 8        50.923    23887553.820 8  96185454.11408       222.052 8        51.251
C26        11.000                                                                                                                                    23011199.465 8 119825326.00708     -2537.363 8        48.757                                                                    23011204.242 7  97367901.06307     -2061.760 7        47.742
S27        12.000    39201469.654 6 206004925.05506      -616.818 6        36.310
G15        13.000    25007237.557 6 131413608.54106     -4449.456 6        38.691                                    25007253.487 4 102400119.64104     -3467.085 4        29.962    25007253.532 5 102400111.62305     -3467.207 5        35.657
S36        14.000    38196727.044 7 200725510.05807      -594.639 7        44.551
G12        15.000    20283517.792 8 106590740.21008       239.959 8        50.536                                    20283519.200 8  83057792.79608       186.980 8        51.075    20283519.490 7  83057792.79307       187.041 7        45.896
E29        16.000    26805461.312 6 140863520.80206      1503.302 6        40.584                                                                    26805477.789 7 105190283.24907      1122.501 7        43.926    26805475.657 7 107934377.61907      1151.781 7        44.439
S45        17.000    63388962.081 6 333112478.36806      -657.066 6        36.163
R03        18.000    21822042.481 7 116814975.66807     -4158.919 7        47.479                                                                    21822052.226 7  90856073.83907     -3234.707 7        43.420
C35        19.000                                                                                                                                    23013187.978 8 119835837.21908      -672.658 8        48.333                                                                    23013192.550 7  97376508.60007      -546.544 7        47.346
E11        20.000    27338338.146 5 143663972.73605      -987.445 5        35.719                                                                    27338348.854 6 107281607.00106      -737.376 6        36.522    27338347.374 6 110080247.88906      -756.785 6        37.376
R14        21.000    21340830.446 8 113758664.87708      2097.690 8        49.326                                                                    21340841.323 7  88479021.04907      1631.601 7        45.451
I06        22.000    38411811.597 6 150736211.69606      -552.914 6        41.812
S28        23.000    40892208.259 5 214889749.10605      -603.203 5        34.938
S23        25.000    38134867.132 7 200399880.31307      -598.847 7        45.198
E08        26.000    25885905.107 7 136031188.82607     -3508.288 7        43.579                                                                    25885916.030 7 101581682.67407     -2619.869 7        45.719    25885914.585 7 104231642.78807     -2688.207 7        46.842
C07        27.000                                                                                                                                    39995245.590 6 208265634.39506     -1510.869 6        39.066    39995250.811 7 161044186.51807     -1168.466 7        42.023    39995246.536 6 169232866.16606     -1227.711 6        38.667
I02        29.000    36939024.568 7 144956643.39907      -567.149 7        42.891
G10        30.000    25536031.885 6 134192509.44406     -2940.780 6        36.809                                    25536049.029 4 104565534.88404     -2291.517 4        25.835    25536048.479 5 104565526.86705     -2291.787 5        32.832
E07        31.000    24387808.857 7 128158716.22207     -1183.080 7        47.297                                                                    24387818.416 8  95702931.21808      -883.419 8        49.648    24387817.240 8  98199527.86908      -906.483 8        50.518
C12        32.000                                                                                                                                    24985083.316 6 130103934.80506      2783.974 6        40.501    24985092.920 7 100604687.11707      2152.645 7        46.625    24985088.667 7 105720151.95607      2262.203 7        44.557
E10        33.000    28632471.514 5 150464747.76805     -2187.036 5        35.662                                                                    28632481.006 6 112360138.09506     -1633.206 6        40.782    28632479.736 6 115291257.33506     -1675.790 6        40.536
R23        34.000    20980200.718 7 112230038.92507      2146.779 7        46.883
C24        35.000                                                                                                                                    21404137.863 8 111456999.37508        34.466 8        51.442                                                                    21404139.409 8  90567963.71108        28.066 8        50.171
R05        36.000    23308611.128 7 124597778.14107      2453.784 7        44.608                                                                    23308626.001 6  96909390.50406      1908.526 6        41.766
E27        37.000    27301525.115 6 143470475.65006      1833.291 6        40.713                                                                    27301543.008 7 107137123.98507      1368.865 7        42.136    27301540.724 7 109931993.96707      1404.576 7        42.146
R04        38.000    21079343.106 8 112878829.59908      -834.435 8        50.212                                                                    21079350.368 7  87794630.33607      -648.985 7        45.348
C33        39.000                                                                                                                                    25132641.950 7 130872159.55807     -2954.748 7        44.184                                                                    25132664.257 7 106344402.68307     -2400.834 7        43.869
E25        40.000    28427864.393 5 149389276.22505     -3159.375 5        35.414                                                                    28427881.154 6 111556882.72306     -2359.409 6        39.946    28427878.481 6 114467059.84306     -2420.882 6        39.556
S44        42.000    40781022.607 6 214305656.51606      -526.042 6        37.372
R22        43.000    21269678.756 8 113539112.61208     -1504.715 8        48.823                                                                    21269686.282 7  88308284.46507     -1170.218 7        45.637
C05        44.000                                                                                                                                    39449562.727 6 205424057.51306      -599.312 6        38.300    39449570.259 7 158846883.68607      -463.589 7        42.732    39449569.132 6 166923934.94506      -487.097 6        39.856
C40        45.000                                                                                                                                    40469755.034 6 210736535.47006     -1790.722 6        39.889                                                                    40469763.309 6 171240691.84806     -1455.210 6        38.420
G32        46.000    23554780.823 7 123781083.62207      1521.639 7        43.062                                    23554792.183 6  96452786.99906      1185.686 6        39.694    23554792.585 6  96452789.02906      1185.446 6        40.329
E36        47.000    26782846.950 6 140744871.52306      1315.516 6        41.073                                                                    26782860.998 7 105101795.34807       982.404 7        43.867    26782859.307 7 107843565.44907      1008.098 7        44.245
C41        48.000                                                                                                                                    25355505.712 7 132032747.84707      -545.339 7        42.834                                                                    25355523.333 7 107287490.13507      -443.019 7        43.996
C10        49.000                                                                                                                                    39070193.447 6 203448717.23206     -1248.882 6        40.207    39070200.506 7 157319459.43307      -965.760 7        43.767    39070196.143 6 165318743.14006     -1014.672 6        40.536
C42        50.000                                                                                                                                    27076089.150 5 140991951.82905     -3774.003 5        33.407                                                                    27076115.174 5 114567472.87005     -3066.531 5        34.362
S48        51.000    77133054.010 6 405337576.53806      -602.394 6        38.282
E02        53.000    24123893.002 7 126771963.09507     -2149.262 7        47.460                                                                    24123900.069 8  94667442.25808     -1604.954 8        49.711    24123898.625 8  97137010.36708     -1646.823 8        50.355
C60        54.000                                                                                                                                    40781022.001 6 212357440.47706      -521.102 6        38.904                                                                    40781018.640 6 172557733.23506      -423.355 6        39.330
R12        56.000    21988721.242 7 117459806.44107     -3501.502 7        46.966                                                                    21988731.484 7  91357642.85207     -2723.460 7        43.390
C02        57.000                                                                                                                                    40947838.005 5 213225936.93505      -555.134 5        31.713    40947846.065 6 164879750.52506      -429.212 6        36.042    40947845.881 5 173263492.17205      -451.180 5        32.180
I03        58.000   120050510.056 5 395318415.42205       898.216 5        32.299
C14        59.000                                                                                                                                    25834792.680 6 134528319.77706     -3645.066 6        39.468    25834805.617 7 104025760.13707     -2818.479 7        44.393    25834800.416 7 109315216.52907     -2961.976 7        42.004
R13        60.000    19541718.253 7 104351752.31607     -1242.715 7        46.989
> 2025 01 01 12 30 20.0000000  0 54
G19         1.000    21867661.852 7 114915470.87007     -2656.599 7        45.661                                    21867663.858 5  89544605.08605     -2070.074 5        35.005
G25         2.000    22111655.566 7 116197579.59007      2307.453 7        44.001                                    22111664.343 6  90543632.06306      1798.012 6        40.934    22111665.159 6  90543642.07806      1797.944 6        40.927
G24         3.000    20491444.153 8 107683270.65608     -2236.296 8        50.078                                    20491448.705 8  83909072.03808     -1742.565 8        52.176    20491449.103 7  83909069.04107     -1742.612 7        45.816
S21         5.000    38425358.736 7 201926233.19407      -594.569 7        42.717
G06         6.000    23464913.590 6 123309036.49006      1266.547 6        41.652                                    23464923.123 6  96085045.85806       986.913 6        38.309    23464923.840 6  96085036.86306       986.857 6        40.837
G17         7.000    24716410.981 6 129885683.90506     -3909.152 6        40.737                                    24716419.949 5 101209688.78305     -3046.097 5        31.525    24716419.702 6 101209684.78106     -3045.852 6        36.537
R21         8.000    24528678.204 6 131258064.89006     -4502.250 6        39.703                                                                    24528682.351 6 102089706.01806     -3501.684 6        36.117
G11         9.000    24736766.695 6 129992626.16806      2490.231 6        39.706                                    24736779.442 3 101293022.83403      1940.435 3        22.571    24736779.630 6 101293022.86606      1940.407 6        38.228
E30        10.000    23887272.535 8 125528596.15208       288.347 8        48.745                                                                    23887279.936 8  93738992.10508       215.291 8        51.097    23887278.666 8  96184346.22408       220.915 8        51.284
C26        11.000                                                                                                                                    23013636.447 8 119838016.07008     -2538.838 8        48.558                                                                    23013641.277 7  97378212.78707     -2063.112 7        47.773
S27        12.000    39202055.196 6 206008009.49006      -617.229 6        36.102
G15        13.000    25011471.269 6 131435855.71106     -4449.466 6        38.988                                    25011486.956 4 102417454.99404     -3467.091 4        29.877    25011487.500 5 102417446.96305     -3467.173 5        35.005
S36        14.000    38197292.410 7 200728484.01407      -595.064 7        44.430
G12        15.000    20283290.746 8 106589546.34908       237.413 8        50.508                                    20283292.001 8  83056862.52108       184.998 8        51.152    20283292.723 7  83056862.52407       184.978 7        46.007
E29        16.000    26804031.553 6 140856009.01706      1501.360 6        40.203                                                                    26804048.242 7 105184673.84607      1121.181 7        44.089    26804046.139 7 107928621.87607      1150.351 7        44.451
S45        17.000    63389533.801 6 333115764.18806      -657.462 6        36.042
R03        18.000    21825928.929 7 116835776.84307     -4161.709 7        47.727                                                                    21825938.379 7  90872252.49407     -3236.793 7        43.545
C35        19.000                                                                                                                                    23013835.015 8 119839208.20108      -675.902 8        48.009                                                                    23013839.863 7  97379247.81607      -549.283 7        47.421
E11        20.000    27339278.909 5 143668917.18905      -990.308 5        35.890                                                                    27339289.798 6 107285299.27206      -739.706 6        36.386    27339288.231 6 110084036.47206      -758.998 6        37.108
R14        21.000    21338863.564 8 113748179.25508      2096.305 8        50.329                                                                    21338873.955 7  88470865.59807      1630.428 7        45.502
I06        22.000    38412516.671 6 150738976.57306      -553.274 6        41.878
S28        23.000    40892784.195 5 214892764.40505      -603.211 5        34.724
S23        25.000    38135435.449 7 200402875.54807      -599.330 7        45.074
E08        26.000    25889243.858 7 136048733.34107     -3509.613 7        43.769                                                                    25889254.722 7 101594784.05107     -2620.770 7        45.958    25889253.161 7 104245085.94807     -2689.181 7        46.845
C07        27.000                                                                                                                                    39996696.802 6 208273189.78206     -1511.254 6        38.982    39996701.811 6 161050028.81406     -1168.651 6        41.762    39996697.580 6 169239005.56206     -1228.258 6        38.880
I02        29.000    36939747.495 7 144959480.03407      -567.698 7        42.900
