     3.04           OBSERVATION DATA    M                   RINEX VERSION / TYPE
ssrcrin-15.6.1x                         20250101 103000 UTC PGM / RUN BY / DATE 
(00000000023479385599111004) Septentrio proprietary         COMMENT             
rref                                                        MARKER NAME         
01                                                          MARKER NUMBER       
geodetic                                                    MARKER TYPE         
NFB                 CLIMERS@TUW                             OBSERVER / AGENCY   
3297213             SEPT ASTERX SB3 PROB4.14.4              REC # / TYPE / VERS 
Unknown             Unknown                                 ANT # / TYPE        
  4127832.2883  1207192.8814  4695247.4000                  APPROX POSITION XYZ 
        0.0000        0.0000        0.0000                  ANTENNA: DELTA H/E/N
G   23 X1  C1C L1C D1C S1C C1W S1W C2W L2W D2W S2W C2L L2L  SYS / # / OBS TYPES 
       D2L S2L C5Q L5Q D5Q S5Q C1L L1L D1L S1L              SYS / # / OBS TYPES 
E   21 X1  C1C L1C D1C S1C C6C L6C D6C S6C C5Q L5Q D5Q S5Q  SYS / # / OBS TYPES 
       C7Q L7Q D7Q S7Q C8Q L8Q D8Q S8Q                      SYS / # / OBS TYPES 
S    9 X1  C1C L1C D1C S1C C5I L5I D5I S5I                  SYS / # / OBS TYPES 
R   17 X1  C1C L1C D1C S1C C2P L2P D2P S2P C2C L2C D2C S2C  SYS / # / OBS TYPES 
       C3Q L3Q D3Q S3Q                                      SYS / # / OBS TYPES 
C   25 X1  C1P L1P D1P S1P C5P L5P D5P S5P C2I L2I D2I S2I  SYS / # / OBS TYPES 
       C7I L7I D7I S7I C6I L6I D6I S6I C7D L7D D7D S7D      SYS / # / OBS TYPES 
J   17 X1  C1C L1C D1C S1C C2L L2L D2L S2L C5Q L5Q D5Q S5Q  SYS / # / OBS TYPES 
       C1L L1L D1L S1L                                      SYS / # / OBS TYPES 
I    5 X1  C5A L5A D5A S5A                                  SYS / # / OBS TYPES 
SEPTENTRIO RECEIVERS OUTPUT ALIGNED CARRIER PHASES.         COMMENT             
NO FURTHER PHASE SHIFT APPLIED IN THE RINEX ENCODER.        COMMENT             
G L1C                                                       SYS / PHASE SHIFT   
G L2W                                                       SYS / PHASE SHIFT   
G L2L  0.00000                                              SYS / PHASE SHIFT   
G L5Q  0.00000                                              SYS / PHASE SHIFT   
G L1L  0.00000                                              SYS / PHASE SHIFT   
E L1C  0.00000                                              SYS / PHASE SHIFT   
E L6C  0.00000                                              SYS / PHASE SHIFT   
E L5Q  0.00000                                              SYS / PHASE SHIFT   
E L7Q  0.00000                                              SYS / PHASE SHIFT   
E L8Q  0.00000                                              SYS / PHASE SHIFT   
S L1C                                                       SYS / PHASE SHIFT   
S L5I                                                       SYS / PHASE SHIFT   
R L1C                                                       SYS / PHASE SHIFT   
R L2P  0.00000                                              SYS / PHASE SHIFT   
R L2C                                                       SYS / PHASE SHIFT   
R L3Q  0.00000                                              SYS / PHASE SHIFT   
C L1P  0.00000                                              SYS / PHASE SHIFT   
C L5P  0.00000                                              SYS / PHASE SHIFT   
C L2I                                                       SYS / PHASE SHIFT   
C L7I                                                       SYS / PHASE SHIFT   
C L6I                                                       SYS / PHASE SHIFT   
C L7D                                                       SYS / PHASE SHIFT   
J L1C                                                       SYS / PHASE SHIFT   
J L2L  0.00000                                              SYS / PHASE SHIFT   
J L5Q  0.00000                                              SYS / PHASE SHIFT   
J L1L  0.00000                                              SYS / PHASE SHIFT   
I L5A                                                       SYS / PHASE SHIFT   
  2025     1     1    10    30    0.0000000     GPS         TIME OF FIRST OBS   
 C1C    0.000 C2C    0.000 C2P    0.000                     GLONASS COD/PHS/BIS 
DBHZ                                                        SIGNAL STRENGTH UNIT
    18                                                      LEAP SECONDS        
 24 R01  1 R02 -4 R03  5 R04  6 R05  1 R06 -4 R07  5 R08  6 GLONASS SLOT / FRQ #
    R09 -2 R10 -7 R11  0 R12 -1 R13 -2 R14 -7 R15  0 R16 -1 GLONASS SLOT / FRQ #
    R17  4 R18 -3 R19  3 R20  2 R21  4 R22 -3 R23  3 R24  2 GLONASS SLOT / FRQ #
                                                            END OF HEADER       
> 2025 01 01 10 30  0.0000000  0 54
G19         1.000    22256988.542 7 116961422.42807      1858.655 7        46.043                                    22256989.651 5  91138859.03705      1448.302 5        35.710
R01         2.000    22999527.824 6 122945469.79706     -5075.719 6        40.439                                                                    22999539.344 6  95624276.95206     -3947.758 6        38.030
G24         3.000    21016462.780 7 110442275.36207      1509.221 7        47.678                                    21016466.487 8  86058949.08308      1176.015 8        48.678    21016466.936 7  86058946.09307      1175.961 7        44.519
R02         4.000    19946214.335 8 106436755.79108     -2523.013 8        52.229                                                                    19946219.093 7  82784141.64307     -1962.243 7        47.317
S21         5.000    38549182.302 7 202577067.03307      -517.757 7        42.438
G17         7.000    22102515.259 7 116149666.32607      -567.752 7        46.293                                    22102518.074 7  90506322.73107      -442.405 7        44.232    22102518.454 7  90506318.72807      -442.358 7        42.425
R21         8.000    22608179.233 7 120981003.19207       946.958 7        45.016                                                                    22608188.751 7  94096414.68307       736.612 7        42.650
E12         9.000    28985194.436 5 152318228.83505       289.763 5        30.551                                                                    28985207.278 6 113744183.65406       216.318 6        36.405    28985205.788 6 116711411.74406       222.050 6        36.726
E30        10.000    26435820.893 7 138921285.08507      2070.978 7        42.857                                                                    26435830.096 7 103740019.21407      1546.518 7        45.645    26435828.598 7 106446270.48107      1586.878 7        45.722
C26        11.000                                                                                                                                    21753979.639 8 113278700.72008      -459.913 8        50.509                                                                    21753982.131 8  92048241.75208      -373.629 8        48.982
S27        12.000    39287251.388 6 206455765.41506      -549.911 6        36.325
G15        13.000    20692814.631 8 108741405.47008     -2228.073 8        49.334                                    20692815.465 8  84733528.99008     -1736.159 8        48.893    20692815.376 7  84733520.98807     -1736.133 7        44.898
S36        14.000    38320163.377 7 201374230.17407      -518.755 7        44.289
G12        15.000    23609222.647 7 124067395.66607      3014.421 7        43.998                                    23609227.088 6  96675954.97906      2348.898 6        38.291    23609227.501 6  96675954.99906      2348.871 6        40.105
R11        16.000    22694627.408 7 121273077.15307     -3949.781 7        44.063                                                                    22694637.607 7  94323467.93107     -3072.136 7        43.213
S45        17.000    63504768.998 6 333720284.41406      -572.811 6        36.151
R03        18.000    20880420.368 8 111774478.19608      1797.143 8        50.481                                                                    20880424.696 7  86935707.47207      1397.781 7        45.786
C35        19.000                                                                                                                                    25500770.044 7 132789272.29007      2416.696 7        42.766                                                                    25500777.448 7 107902223.97607      1963.747 7        43.024
G30        21.000    25458648.781 5 133785886.23005     -3695.356 5        33.467                                    25458662.189 3 104248689.83703     -2879.488 3        21.619    25458661.578 5 104248693.82705     -2879.584 5        31.313
I06        22.000    38334021.603 7 150431010.84407      -492.098 7        42.099
S28        23.000    41002753.163 5 215470698.84605      -528.238 5        35.067
G14        24.000    22810109.161 7 119867848.10607     -3486.569 7        44.766                                    22810114.180 5  93403498.33305     -2716.803 5        31.117    22810114.315 7  93403500.32007     -2716.730 7        42.411
S23        25.000    38253698.699 7 201024433.58107      -520.846 7        44.567
E08        26.000    23625543.598 8 124153008.12408      -791.793 8        48.593                                                                    23625547.404 8  92711641.85108      -591.255 8        50.795    23625546.407 8  95130206.20908      -606.764 8        51.044
C07        27.000                                                                                                                                    39079853.545 6 203499008.57606      -979.171 6        40.818    39079856.880 7 157358343.05007      -757.183 7        43.329    39079853.203 6 165359603.48206      -795.576 6        40.832
G13        28.000    21586488.655 8 113437685.40308     -3444.177 8        48.242                                    21586489.885 5  88392960.44005     -2683.769 5        35.619
I02        29.000    37083711.369 7 145524457.92507      -221.166 7        43.147
G10        30.000    24791081.869 6 130277930.52306       950.643 6        41.037                                    24791089.403 5 101515253.63005       740.763 5        34.805    24791089.172 6 101515245.61906       740.710 6        37.709
E07        31.000    25903957.607 7 136126133.89007      1775.400 7        43.247                                                                    25903967.371 7 101652626.51807      1325.732 7        46.365    25903966.066 7 104304432.58607      1360.219 7        46.813
E03        32.000    25578845.141 7 134417644.65707     -3170.758 7        43.577                                                                    25578853.226 7 100376798.94807     -2367.824 7        47.666    25578851.975 7 102995321.80407     -2429.539 7        47.790
E10        33.000    28893133.442 5 151834424.15805      1202.110 5        34.371                                                                    28893151.726 6 113382914.92406       897.719 6        39.174    28893149.640 6 116340719.19606       921.125 6        39.877
G02        34.000    25794831.456 6 135552777.37706      -505.921 6        36.983                                    25794838.636 3 105625581.13003      -394.217 3        18.567
C24        35.000                                                                                                                                    23694608.964 7 123384069.46407      1846.793 7        46.496                                                                    23694611.361 7 100259682.03207      1500.662 7        46.477
G23        36.000    23316908.739 7 122531066.64807     -1495.483 7        43.134                                    23316913.522 4  95478708.62704     -1165.312 4        28.948    23316913.525 7  95478709.60507     -1165.249 7        42.102
R04        38.000    24660684.361 7 132056839.39407      3799.636 7        43.010                                                                    24660686.615 6 102710882.97206      2955.212 6        38.577
C33        39.000                                                                                                                                    24428850.852 7 127207426.57107       901.095 7        45.634                                                                    24428868.769 7 103366525.98607       732.230 7        45.836
E25        40.000    25151852.449 7 132173830.74207     -2640.625 7        44.650                                                                    25151860.716 7  98701226.43407     -1971.854 7        47.903    25151859.377 8 101276034.71708     -2023.332 8        48.167
S44        42.000    40977983.562 6 215340727.43506      -482.985 6        37.115
R22        43.000    24034102.331 6 128295705.32806      3298.967 6        41.359                                                                    24034115.148 6  99785611.54606      2565.877 6        38.940
C05        44.000                                                                                                                                    39535751.123 6 205872905.87306      -555.875 6        37.970    39535757.112 7 159193972.05907      -429.880 7        42.904    39535755.819 6 167288669.30606      -451.785 6        39.156
C40        45.000                                                                                                                                    39191875.506 7 204082336.40607     -1182.124 7        42.722                                                                    39191881.190 7 165833621.41707      -960.525 7        42.271
C21        46.000                                                                                                                                    25723109.089 6 133946798.64806     -4007.387 6        41.569                                                                    25723112.248 7 108842681.00407     -3256.305 7        43.488
R20        47.000    23670032.809 5 126574334.81805     -2330.313 5        30.264                                                                    23670046.518 6  98446764.19406     -1812.467 6        39.393
C10        49.000                                                                                                                                    38603650.458 7 201019345.66507      -604.074 7        42.394    38603654.641 7 155440925.70007      -467.226 7        44.730    38603650.918 6 163344688.15406      -490.824 6        41.240
C42        50.000                                                                                                                                    23248283.569 8 121059826.98008     -2265.448 8        48.264                                                                    23248296.093 8  98371044.30608     -1840.868 8        48.599
S48        51.000    77259142.721 6 405999218.51106      -512.928 6        37.815
E02        53.000    23289852.240 8 122389091.67908      -105.615 8        48.734                                                                    23289856.476 8  91394531.02308       -78.877 8        51.169    23289855.405 8  93778717.41408       -80.932 8        51.100
C60        54.000                                                                                                                                    40977984.991 6 213383101.90306      -478.316 6        40.646                                                                    40977979.255 6 173391173.47006      -388.668 6        39.447
C45        55.000                                                                                                                                    24084114.791 7 125412192.44407     -2967.883 7        46.334                                                                    24084113.040 7 101907629.22007     -2411.665 7        46.238
R12        56.000    19474972.422 8 104031898.33808     -1173.998 8        51.544                                                                    19474976.694 7  80913736.84707      -913.111 7        47.719
C02        57.000                                                                                                                                    41086486.073 5 213947933.63505      -526.334 5        30.287    41086494.044 5 165438047.73305      -406.945 5        35.833    41086493.891 5                      -427.537 5        30.521
I03        58.000   122581410.548 5 405250236.70905       890.743 5        34.562
C14        59.000                                                                                                                                    23311537.495 7 121389224.08507      -660.304 7        46.134    23311539.231 8  93865819.42508      -510.575 8        50.913    23311536.625 8  98638658.39408      -536.490 8        48.304
R13        60.000    20836709.515 7 111266939.78207      1827.658 7        44.701
> 2025 01 01 10 30  5.0000000  0 54
G19         1.000    22255220.821 7 116952134.50407      1856.448 7        45.731                                    22255222.264 5  91131621.69805      1446.578 5        35.510
R01         2.000    23004275.145 6 122970849.09306     -5076.204 6        40.615                                                                    23004286.705 6  95644016.34306     -3948.116 6        38.255
G24         3.000    21015027.459 7 110434733.31307      1507.415 7        47.273                                    21015031.275 8  86053072.16708      1174.608 8        48.720    21015031.806 7  86053069.16407      1174.687 7        44.415
R02         4.000    19948580.256 8 106449380.47708     -2526.933 8        52.297                                                                    19948584.586 7  82793960.82407     -1965.382 7        47.389
S21         5.000    38549673.836 7 202579655.05007      -517.607 7        42.336
G17         7.000    22103057.207 7 116152512.36407      -570.698 7        46.653                                    22103059.695 7  90508540.43207      -444.701 7        44.269    22103059.764 7  90508536.43507      -444.711 7        42.569
R21         8.000    22607295.303 7 120976277.75407       943.047 7        45.126                                                                    22607306.500 7  94092739.38707       733.541 7        44.001
E12         9.000    28984919.575 5 152316785.45205       287.597 5        30.355                                                                    28984932.714 6 113743105.80206       214.881 6        36.363    28984931.145 6 116710305.78906       220.302 6        36.817
E30        10.000    26433850.947 7 138910931.88107      2070.074 7        43.003                                                                    26433859.962 7 103732287.92607      1545.960 7        45.530    26433858.407 7 106438337.50007      1586.331 7        45.830
C26        11.000                                                                                                                                    21754422.115 8 113281003.28108      -461.241 8        50.382                                                                    21754424.340 8  92050112.77108      -374.867 8        49.253
S27        12.000    39287776.110 6 206458513.77706      -549.966 6        36.552
G15        13.000    20694935.796 8 108752553.02108     -2231.010 8        49.247                                    20694936.794 8  84742215.38208     -1738.445 8        48.916    20694937.198 7  84742207.38107     -1738.464 7        44.789
S36        14.000    38320657.938 7 201376822.94507      -518.357 7        44.412
G12        15.000    23606355.519 7 124052325.39907      3013.490 7        43.145                                    23606359.432 6  96664211.94306      2348.171 6        38.399    23606359.988 6  96664211.94506      2348.256 6        39.556
R11        16.000    22698323.781 7 121292826.47107     -3950.015 7        43.937                                                                    22698332.970 7  94338828.45707     -3072.131 7        42.838
S45        17.000    63505264.230 6 333723148.31206      -572.695 6        36.159
R03        18.000    20878743.621 8 111765501.36608      1793.522 8        50.388                                                                    20878747.852 7  86928725.49607      1394.977 7        46.120
C35        19.000                                                                                                                                    25498450.130 7 132777189.93707      2416.197 7        42.838                                                                    25498457.187 7 107892406.08207      1963.270 7        43.098
G30        21.000    25462164.832 5 133804362.68105     -3695.515 5        33.940                                    25462177.815 3 104263087.05003     -2879.635 3        21.810    25462178.511 5 104263091.06205     -2879.906 5        31.268
I06        22.000    38334647.966 7 150433470.46207      -491.931 7        42.256
S28        23.000    41003255.858 5 215473340.96705      -528.306 5        35.295
G14        24.000    22813426.630 7 119885283.29807     -3487.422 7        44.119                                    22813432.075 5  93417084.15005     -2717.467 5        31.049    22813432.668 7  93417086.14007     -2717.554 7        42.808
S23        25.000    38254193.914 7 201027037.03207      -520.647 7        44.652
E08        26.000    23626297.880 8 124156971.88008      -793.840 8        48.683                                                                    23626301.674 8  92714601.78908      -592.720 8        50.727    23626300.742 8  95133243.36208      -608.229 8        51.051
C07        27.000                                                                                                                                    39080793.538 6 203503904.76706      -979.459 6        40.591    39080797.144 7 157362129.08107      -757.377 7        43.446    39080793.440 6 165363582.02806      -795.924 6        40.920
G13        28.000    21589766.850 8 113454910.79608     -3445.991 8        48.375                                    21589767.821 5  88406382.79505     -2685.182 5        35.538
I02        29.000    37083993.214 7 145525564.01107      -221.320 7        43.213
G10        30.000    24790178.794 6 130273183.98306       947.890 6        41.199                                    24790186.100 5 101511555.01505       738.617 5        34.900    24790185.856 6 101511547.01206       738.638 6        37.868
E07        31.000    25902268.783 7 136117259.68407      1774.351 7        43.441                                                                    25902278.713 7 101645999.67307      1325.001 7        46.373    25902277.428 7 104297632.86307      1359.479 7        46.910
E03        32.000    25581862.407 7 134433500.90107     -3171.737 7        43.791                                                                    25581870.472 7 100388639.62507     -2368.453 7        47.402    25581869.443 7 103007471.37207     -2430.364 7        47.999
E10        33.000    28891990.796 5 151828417.22905      1200.583 5        35.252                                                                    28892008.545 6 113378429.22206       896.542 6        39.006    28892006.631 6 116336116.48206       919.788 6        40.012
G02        34.000    25795313.862 6 135555312.37906      -508.299 6        37.569                                    25795321.173 3 105627556.47303      -396.046 3        18.418
C24        35.000                                                                                                                                    23692836.000 7 123374837.08207      1846.039 7        46.424                                                                    23692838.350 7 100252179.97507      1499.988 7        46.625
G23        36.000    23318332.724 7 122538550.60907     -1498.173 7        42.726                                    23318337.774 4  95484540.26404     -1167.407 4        28.872    23318337.875 6  95484541.25806     -1167.482 6        41.812
R04        38.000    24657136.517 6 132037842.03906      3799.106 6        41.831                                                                    24657139.909 6 102696107.16606      2954.934 6        38.111
C33        39.000                                                                                                                                    24427987.054 7 127202927.16807       898.527 7        45.371                                                                    24428004.705 7 103362869.85907       730.117 7        45.998
E25        40.000    25154365.261 7 132187035.30507     -2641.326 7        44.798                                                                    25154373.446 7  98711086.97107     -1972.398 7        47.815    25154372.180 8 101286152.48508     -2023.879 8        48.203
S44        42.000    40978441.438 6 215343140.07906      -482.497 6        37.191
R22        43.000    24031012.664 6 128279211.53506      3298.470 6        41.897                                                                    24031025.603 6  99772783.09406      2565.380 6        39.802
C05        44.000                                                                                                                                    39536284.909 6 205875684.83506      -555.820 6        37.671    39536290.917 7 159196120.90207      -429.734 7        43.009    39536289.490 6 167290927.43106      -451.695 6        39.246
C40        45.000                                                                                                                                    39193010.626 7 204088247.70307     -1182.469 7        42.586                                                                    39193016.473 7 165838424.82007      -961.000 7        42.565
C21        46.000                                                                                                                                    25726957.057 6 133966836.08806     -4007.707 6        41.278                                                                    25726960.236 7 108858963.01607     -3256.622 7        43.788
R20        47.000    23672214.804 5 126585995.59405     -2334.317 5        30.174                                                                    23672227.634 6  98455833.67206     -1815.472 6        40.122
C10        49.000                                                                                                                                    38604230.723 7 201022367.44207      -604.649 7        42.245    38604235.053 7 155443262.32307      -467.523 7        44.808    38604231.181 6 163347143.60206      -491.337 6        41.547
C42        50.000                                                                                                                                    23250460.209 8 121071159.56608     -2267.735 8        48.066                                                                    23250472.425 8  98380252.94308     -1842.740 8        48.733
S48        51.000    77259636.755 6 406001781.84206      -512.569 6        38.147
E02        53.000    23289953.561 8 122389623.86408      -107.302 8        48.796                                                                    23289957.763 8  91394928.43008       -80.097 8        51.031    23289956.662 8  93779125.19008       -82.202 8        51.200
C60        54.000                                                                                                                                    40978444.007 6 213385492.62706      -478.051 6        40.615                                                                    40978438.451 6 173393116.13206      -388.390 6        39.748
C45        55.000                                                                                                                                    24086964.386 7 125427032.75207     -2968.259 7        45.810                                                                    24086963.050 7 101919688.16207     -2412.053 7        46.347
R12        56.000    19476072.373 8 104037773.65808     -1176.214 8        51.518                                                                    19476076.602 7  80918306.52107      -914.815 7        47.938
C02        57.000                                                                                                                                    41086991.317 5 213950563.80005      -525.389 5        30.241    41086999.645 5 165440081.58205      -406.706 5        35.952    41086998.558 5                      -427.331 5        30.860
I03        58.000   122580276.432 5 405245783.39605       890.594 5        34.448
C14        59.000                                                                                                                                    23312172.610 7 121392532.26007      -663.163 7        45.869    23312174.475 8  93868377.50208      -512.731 8        51.017    23312171.929 8  98641346.54708      -538.907 8        48.475
R13        60.000    20834998.101 7 111257805.93007      1825.762 7        44.153
> 2025 01 01 10 30 10.0000000  0 54
G19         1.000    22253456.231 7 116942858.52907      1854.084 7        45.901                                    22253457.024 5  91124393.67105      1444.738 5        35.486
R01         2.000    23009024.349 6 122996233.06606     -5077.172 6        40.882                                                                    23009036.842 6  95663759.34706     -3948.970 6        38.261
G24         3.000    21013593.798 7 110427200.99307      1505.519 7        47.169                                    21013597.928 8  86047202.83108      1173.130 8        48.827    21013598.447 7  86047199.84207      1173.176 7        44.618
R02         4.000    19950949.800 8 106462026.20908     -2531.177 8        52.068                                                                    19950954.147 7  82803796.38307     -1968.703 7        47.328
S21         5.000    38550166.376 7 202582243.12707      -517.645 7        42.392
G17         7.000    22103602.009 7 116155374.63807      -574.038 7        46.696                                    22103604.419 7  90510770.78407      -447.303 7        44.420    22103604.386 7  90510766.79207      -447.320 7        42.910
R21         8.000    22606417.007 7 120971572.61507       939.052 7        44.653                                                                    22606426.157 7  94089079.86907       730.387 7        43.005
E12         9.000    28984647.120 5 152315353.82405       285.063 5        30.785                                                                    28984660.347 6 113742036.71206       212.934 6        36.140    28984658.619 6 116709208.80806       218.541 6        36.612
E30        10.000    26431881.626 7 138900583.61307      2069.108 7        42.851                                                                    26431890.731 7 103724560.32707      1545.165 7        45.586    26431889.116 7 106430408.31807      1585.462 7        45.711
C26        11.000                                                                                                                                    21754865.724 8 113283314.02808      -462.973 8        50.470                                                                    21754868.064 8  92051990.43308      -376.182 8        49.078
S27        12.000    39288293.741 6 206461262.76106      -550.016 6        36.703
G15        13.000    20697060.410 8 108763716.76508     -2234.340 8        49.531                                    20697061.203 8  84750914.39108     -1741.044 8        49.050    20697061.567 7  84750906.38107     -1741.003 7        44.922
S36        14.000    38321150.545 7 201379416.07507      -518.695 7        44.567
G12        15.000    23603488.521 7 124037260.76307      3012.365 7        42.773                                    23603492.746 6  96652473.28906      2347.291 6        38.535    23603492.422 6  96652473.30406      2347.348 6        39.775
R11        16.000    22702020.711 7 121312577.73107     -3950.329 7        44.543                                                                    22702028.859 7  94354190.50807     -3072.502 7        42.070
S45        17.000    63505760.263 6 333726012.52406      -572.923 6        36.291
R03        18.000    20877070.082 8 111756543.67308      1789.649 8        50.484                                                                    20877074.450 7  86921758.41707      1391.927 7        46.087
C35        19.000                                                                                                                                    25496130.428 7 132765111.16107      2415.440 7        43.215                                                                    25496137.466 7 107882591.08207      1962.769 7        42.754
G30        21.000    25465680.538 5 133822840.98805     -3695.918 5        34.148                                    25465694.138 3 104277485.70003     -2879.929 3        21.786    25465694.546 5 104277489.68905     -2879.937 5        30.687
I06        22.000    38335274.770 7 150435930.31907      -491.908 7        42.231
S28        23.000    41003760.418 5 215475983.06705      -528.200 5        35.205
G14        24.000    22816745.247 7 119902723.94007     -3488.565 7        43.067                                    22816751.097 5  93430674.21405     -2718.355 5        30.943    22816751.467 7  93430676.19407     -2718.354 7        43.376
S23        25.000    38254690.510 7 201029640.74807      -520.646 7        44.777
E08        26.000    23627054.362 8 124160946.62908      -795.990 8        48.693                                                                    23627058.093 8  92717569.93908      -594.419 8        50.807    23627057.059 8  95136288.94308      -609.936 8        50.984
C07        27.000                                                                                                                                    39081734.831 6 203508803.93806      -980.089 6        40.818    39081737.986 7 157365917.42507      -757.905 7        43.560    39081734.346 6 165367562.99406      -796.348 6        40.965
G13        28.000    21593046.632 8 113472146.47408     -3448.146 8        48.340                                    21593047.698 5  88419813.16405     -2686.860 5        35.786
I02        29.000    37084275.429 7 145526671.63007      -221.464 7        43.255
G10        30.000    24789279.043 6 130268452.04306       945.058 6        41.754                                    24789285.555 5 101507867.76905       736.413 5        35.195    24789285.503 6 101507859.76906       736.383 6        38.093
E07        31.000    25900581.638 7 136108391.45307      1773.088 7        43.388                                                                    25900591.091 7 101639377.30407      1324.064 7        46.398    25900589.853 7 104290837.73407      1358.565 7        46.954
E03        32.000    25584880.876 7 134449363.23107     -3172.987 7        43.970                                                                    25584889.025 7 100400484.85907     -2369.553 7        47.445    25584887.964 7 103019625.60407     -2431.289 7        47.906
E10        33.000    28890849.750 5 151822419.51805      1198.597 5        35.724                                                                    28890867.374 6 113373950.39006       895.126 6        39.141    28890865.279 6 116331520.82306       918.390 6        39.706
G02        34.000    25795798.839 6 135557861.13706      -511.290 6        37.629                                    25795806.049 3 105629542.54903      -398.406 3        18.657
C24        35.000                                                                                                                                    23691063.748 7 123365609.51307      1845.133 7        46.379                                                                    23691066.302 7 100244681.81807      1499.246 7        46.510
G23        36.000    23319759.407 7 122546050.26507     -1501.533 7        42.836                                    23319765.040 4  95490384.13404     -1170.021 4        29.137    23319765.081 7  95490385.12607     -1169.957 7        42.123
R04        38.000    24653590.026 7 132018848.58707      3798.265 7        42.356                                                                    24653592.412 6 102681334.39706      2954.292 6        38.357
C33        39.000                                                                                                                                    24427125.712 7 127198441.17607       895.877 7        45.776                                                                    24427143.215 7 103359224.59907       728.089 7        45.816
E25        40.000    25156878.952 7 132200244.94607     -2642.351 7        44.755                                                                    25156887.175 7  98720951.29007     -1973.259 7        47.868    25156885.834 8 101296274.13408     -2024.660 8        48.193
S44        42.000    40978900.177 6 215345552.80606      -482.565 6        37.210
R22        43.000    24027923.727 6 128262721.70306      3297.614 6        41.595                                                                    24027936.647 6  99759957.70906      2564.892 6        39.910
C05        44.000                                                                                                                                    39536818.374 6 205878463.92006      -555.780 6        37.981    39536824.511 7 159198269.84307      -429.777 7        43.058    39536823.303 6 167293185.63406      -451.662 6        39.108
C40        45.000                                                                                                                                    39194146.288 7 204094162.65907     -1183.275 7        42.703                                                                    39194152.382 7 165843231.18907      -961.571 7        42.372
C21        46.000                                                                                                                                    25730805.429 6 133986875.70406     -4008.044 6        41.313                                                                    25730808.672 7 108875246.79807     -3256.838 7        43.663
R20        47.000    23674399.172 5 126597675.97905     -2338.495 5        30.068                                                                    23674411.770 6  98464918.42106     -1818.293 6        40.005
C10        49.000                                                                                                                                    38604811.749 7 201025392.41107      -605.238 7        42.417    38604816.121 7 155445601.42507      -467.955 7        44.707    38604812.188 6 163349601.63306      -491.801 6        41.373
C42        50.000                                                                                                                                    23252638.824 7 121082504.74507     -2270.228 7        47.970                                                                    23252651.180 8  98389471.80308     -1844.756 8        48.651
S48        51.000    77260124.864 6 406004345.25506      -512.431 6        38.108
E02        53.000    23290056.669 8 122390165.42808      -109.216 8        48.686                                                                    23290060.823 8  91395332.83908       -81.570 8        51.110    23290059.743 8  93779540.14908       -83.683 8        51.147
C60        54.000                                                                                                                                    40978903.051 6 213387883.42706      -478.178 6        40.584                                                                    40978897.526 6 173395058.85706      -388.504 6        39.574
C45        55.000                                                                                                                                    24089815.207 7 125441876.41307     -2969.017 7        45.592                                                                    24089813.664 7 101931749.82107     -2412.574 7        46.257
R12        56.000    19477174.304 8 104043661.22208     -1178.668 8        51.458                                                                    19477178.963 8  80922885.73008      -916.708 8        48.029
C02        57.000                                                                                                                                    41087495.564 5 213953194.08305      -526.100 5        30.113    41087504.590 6 165442115.45506      -406.702 6        36.023    41087504.567 5                      -427.788 5        30.521
I03        58.000   122579141.685 5 405241330.03405       890.695 5        34.314
C14        59.000                                                                                                                                    23312810.411 7 121395855.41007      -666.116 7        46.075    23312812.913 8  93870947.16408      -515.049 8        50.975    23312810.079 8  98644046.86208      -541.206 8        48.344
R13        60.000    20833289.780 7 111248682.06607      1823.873 7        44.494
> 2025 01 01 10 30 15.0000000  0 54
G19         1.000    22251693.128 7 116933594.33507      1851.573 7        45.649                                    22251694.011 5  91117174.82305      1442.783 5        35.600
R01         2.000    23013773.929 6 123021621.28906     -5078.178 6        41.066                                                                    23013785.169 6  95683505.66406     -3949.711 6        38.072
G24         3.000    21012162.663 7 110419678.27907      1503.516 7        47.270                                    21012166.401 8  86041340.97908      1171.569 8        48.960    21012166.757 7  86041337.98907      1171.581 7        44.442
R02         4.000    19953323.464 8 106474692.74508     -2535.497 8        52.291                                                                    19953328.205 7  82813648.11607     -1971.981 7        47.322
S21         5.000    38550661.023 7 202584831.02907      -517.730 7        42.354
G17         7.000    22104149.421 7 116158253.00107      -577.379 7        46.697                                    22104152.197 7  90513013.67607      -449.907 7        44.540    22104152.144 7  90513009.68407      -450.015 7        43.052
R21         8.000    22605540.876 7 120966887.61307       934.914 7        43.922                                                                    22605550.931 7  94085436.01807       727.110 7        42.785
E12         9.000    28984377.457 5 152313933.77905       282.770 5        31.321                                                                    28984390.047 6 113740976.28706       211.166 6        36.276    28984388.369 6 116708120.72706       216.656 6        36.707
E30        10.000    26429913.186 7 138890240.19607      2068.140 7        43.170                                                                    26429922.488 7 103716836.34307      1544.375 7        45.741    26429920.826 7 106422482.84207      1584.654 7        45.744
C26        11.000                                                                                                                                    21755310.834 8 113285632.81908      -464.683 8        50.414                                                                    21755313.372 8  92053874.65308      -377.715 8        49.034
S27        12.000    39288823.015 6 206464011.93806      -549.790 6        36.597
G15        13.000    20699187.684 8 108774896.60008     -2237.669 8        49.140                                    20699188.676 8  84759625.94108     -1743.635 8        49.169    20699188.616 7  84759617.93607     -1743.587 7        44.941
S36        14.000    38321644.673 7 201382010.56607      -518.945 7        44.551
G12        15.000    23600622.999 7 124022201.66307      3011.200 7        42.899                                    23600627.026 6  96640738.94906      2346.383 6        38.646    23600627.632 6  96640738.97406      2346.287 6        40.286
R11        16.000    22705718.267 7 121332330.73907     -3950.890 7        45.845                                                                    22705725.621 6  94369553.93106     -3072.956 6        41.356
S45        17.000    63506259.327 6 333728876.75806      -573.052 6        36.306
R03        18.000    20875400.568 8 111747604.96308      1785.821 8        50.097                                                                    20875404.659 7  86914806.09707      1389.021 7        46.329
C35        19.000                                                                                                                                    25493811.322 7 132753035.83807      2414.549 7        42.908                                                                    25493818.352 7 107872778.90407      1962.007 7        42.413
G30        21.000    25469197.043 5 133841320.97105     -3696.161 5        34.295                                    25469210.644 3 104291885.66603     -2880.117 3        21.810    25469210.596 4 104291889.64504     -2880.293 4        29.905
I06        22.000    38335901.489 7 150438390.31307      -492.073 7        42.199
S28        23.000    41004261.705 5 215478625.57705      -528.423 5        35.243
G14        24.000    22820065.506 7 119920169.89707     -3489.792 7        43.103                                    22820071.236 5  93444268.42005     -2719.306 5        31.155    22820070.989 7  93444270.40007     -2719.345 7        43.517
S23        25.000    38255185.889 7 201032244.57807      -520.907 7        44.731
E08        26.000    23627812.833 8 124164932.26208      -798.324 8        48.735                                                                    23627816.539 8  92720546.21308      -596.126 8        50.830    23627815.527 8  95139342.85408      -611.646 8        50.932
C07        27.000                                                                                                                                    39082676.325 6 203513705.92706      -980.809 6        40.827    39082679.458 7 157369707.94307      -758.354 7        43.704    39082675.785 6 165371546.27406      -797.100 6        40.658
G13        28.000    21596328.420 8 113489392.29008     -3450.316 8        48.364                                    21596329.521 5  88433251.43205     -2688.548 5        35.829
I02        29.000    37084558.004 7 145527780.40007      -221.923 7        43.156
G10        30.000    24788380.809 6 130263734.54006       941.947 6        40.932                                    24788387.792 5 101504191.77905       733.993 5        35.367    24788387.807 6 101504183.77406       733.958 6        38.195
E07        31.000    25898894.956 7 136099529.11207      1771.767 7        43.280                                                                    25898904.606 7 101632759.32107      1323.079 7        46.423    25898903.414 7 104284047.10107      1357.655 7        46.722
E03        32.000    25587900.608 7 134465231.50007     -3174.292 7        44.432                                                                    25587908.759 7 100412334.51207     -2370.405 7        47.354    25587907.526 7 103031784.39107     -2432.253 7        47.871
E10        33.000    28889709.504 5 151816430.82605      1196.911 5        35.776                                                                    28889727.768 6 113369478.34106       893.593 6        38.751    28889725.723 6 116326932.10506       916.963 6        39.568
G02        34.000    25796286.382 6 135560423.46806      -513.967 6        36.817                                    25796293.519 3 105631539.17803      -400.474 3        19.134
C24        35.000                                                                                                                                    23689292.732 7 123356386.62407      1844.001 7        46.326                                                                    23689295.123 7 100237187.48407      1498.327 7        46.445
G23        36.000    23321189.949 7 122553565.42107     -1504.763 7        42.709                                    23321195.109 4  95496240.08504     -1172.536 4        29.251    23321194.954 6  95496241.07506     -1172.496 6        41.635
R04        38.000    24650043.990 7 131999858.86707      3797.427 7        42.227                                                                    24650045.545 6 102666564.51906      2953.684 6        38.102
C33        39.000                                                                                                                                    24426266.864 7 127193968.47107       893.063 7        45.989                                                                    24426284.295 7 103355590.18407       725.612 7        45.788
E25        40.000    25159393.686 7 132213459.51007     -2643.466 7        44.933                                                                    25159401.889 7  98730819.28407     -1974.019 7        47.906    25159400.452 8 101306399.56108     -2025.501 8        48.115
S44        42.000    40979357.884 6 215347965.45206      -482.424 6        37.319
R22        43.000    24024835.376 6 128246235.70606      3296.837 6        41.271                                                                    24024848.301 6  99747135.30706      2564.197 6        39.517
C05        44.000                                                                                                                                    39537352.415 6 205881242.98306      -555.894 6        37.694    39537358.168 7 159200418.76507      -429.871 7        43.071    39537356.996 6 167295443.83806      -451.712 6        39.087
C40        45.000                                                                                                                                    39195283.380 7 204100081.11907     -1184.170 7        42.595                                                                    39195288.897 7 165848040.42507      -962.277 7        42.279
C21        46.000                                                                                                                                    25734653.616 6 134006917.37906     -4008.642 6        41.402                                                                    25734657.649 7 108891532.26707     -3257.418 7        43.623
R20        47.000    23676587.521 5 126609375.89605     -2341.303 5        30.287                                                                    23676599.602 6  98474018.43406     -1821.639 6        40.513
C10        49.000                                                                                                                                    38605393.317 7 201028420.45607      -605.948 7        42.311    38605397.374 7 155447942.90907      -468.646 7        44.673    38605393.694 6 163352062.19106      -492.542 6        41.399
C42        50.000                                                                                                                                    23254819.847 8 121093862.37108     -2272.836 8        48.110                                                                    23254832.297 8  98398700.81108     -1847.052 8        48.536
S48        51.000    77260615.575 6 406006908.67406      -512.670 6        38.093
E02        53.000    23290161.460 8 122390716.22708      -111.224 8        48.954                                                                    23290165.623 8  91395744.14808       -83.042 8        51.139    23290164.569 8  93779962.18808       -85.224 8        51.025
C60        54.000                                                                                                                                    40979362.085 6 213390274.15706      -478.191 6        40.613                                                                    40979356.694 6 173397001.53106      -388.628 6        39.513
C45        55.000                                                                                                                                    24092666.244 7 125456723.29807     -2969.758 7        45.076                                                                    24092664.823 7 101943814.12207     -2413.334 7        46.189
R12        56.000    19478278.660 8 104049560.90708     -1181.204 8        50.917                                                                    19478283.573 7  80927474.36407      -918.736 7        47.753
C02        57.000                                                                                                                                    41088001.841 5 213955824.19605      -526.074 5        30.196    41088009.548 5 165444149.22405      -406.732 5        35.848    41088009.203 5                      -427.403 5        30.596
I03        58.000   122578007.233 5 405236876.47805       890.882 5        34.405
C14        59.000                                                                                                                                    23313451.686 7 121399193.37207      -669.163 7        46.062    23313454.001 8  93873528.27308      -517.415 8        51.080    23313451.199 8  98646759.24108      -543.889 8        48.291
R13        60.000    20831583.042 7 111239568.06907      1821.739 7        44.166
> 2025 01 01 10 30 20.0000000  0 54
G19         1.000    22249932.793 7 116924342.49707      1849.210 7        46.410                                    22249933.457 5  91109965.60805      1440.940 5        35.705
R01         2.000    23018524.371 6 123047014.31306     -5079.132 6        41.676                                                                    23018536.536 6  95703255.70406     -3950.410 6        37.989
G24         3.000    21010733.399 7 110412165.72407      1501.589 7        47.368                                    21010736.796 8  86035487.04408      1170.066 8        48.916    21010737.273 7  86035484.05907      1169.985 7        44.569
R02         4.000    19955701.472 8 106487380.79308     -2539.713 8        52.235                                                                    19955705.824 7  82823516.58107     -1975.415 7        47.181
S21         5.000    38551152.302 7 202587419.69107      -517.793 7        42.354
G17         7.000    22104700.333 7 116161147.96007      -580.638 7        46.598                                    22104703.110 7  90515269.49807      -452.445 7        44.460    22104702.875 7  90515265.49307      -452.363 7        42.358
R21         8.000    22604669.057 7 120962223.40407       930.765 7        44.254                                                                    22604679.136 7  94081808.34107       723.942 7        43.213
E12         9.000    28984109.983 5 152312525.85805       280.341 5        31.751                                                                    28984122.139 6 113739924.92306       209.425 6        36.087    28984120.651 6 116707041.93306       215.001 6        36.465
E30        10.000    26427945.595 7 138879902.15207      2067.046 7        42.610                                                                    26427955.298 7 103709116.36807      1543.628 7        45.649    26427953.531 7 106414561.48307      1583.852 7        45.678
C26        11.000                                                                                                                                    21755757.887 8 113287960.17808      -466.260 8        50.548                                                                    21755760.334 8  92055765.81908      -378.942 8        49.096
S27        12.000    39289343.821 6 206466761.60306      -549.825 6        36.544
G15        13.000    20701318.259 8 108786093.07608     -2240.920 8        48.861                                    20701319.302 8  84768350.45508     -1746.168 8        49.080    20701319.618 7  84768342.45107     -1746.187 7        45.162
S36        14.000    38322138.770 7 201384605.68407      -519.032 7        44.473
G12        15.000    23597758.671 7 124007148.62007      3010.065 7        43.132                                    23597762.500 6  96629009.33006      2345.500 6        38.541    23597762.782 6  96629009.34206      2345.551 6        39.916
R11        16.000    22709414.225 7 121352086.03307     -3951.269 7        45.685                                                                    22709422.693 7  94384919.10807     -3073.186 7        42.049
S45        17.000    63506754.922 6 333731741.60406      -573.173 6        36.310
R03        18.000    20873733.889 8 111738685.37308      1781.949 8        50.531                                                                    20873738.644 7  86907868.64507      1385.993 7        46.418
C35        19.000                                                                                                                                    25491492.759 7 132740964.48607      2413.945 7        42.531                                                                    25491499.889 7 107862969.96407      1961.418 7        42.136
G30        21.000    25472715.028 5 133859803.22505     -3696.730 5        34.648                                    25472727.839 3 104306287.39003     -2880.562 3        22.400    25472729.015 5 104306291.40905     -2880.317 5        30.491
I06        22.000    38336528.881 7 150440850.78907      -492.019 7        42.072
S28        23.000    41004763.331 5 215481268.39505      -528.535 5        35.281
G14        24.000    22823386.734 7 119937621.68007     -3490.873 7        43.458                                    22823392.261 5  93457867.16205     -2720.156 5        31.102    22823391.851 7  93457869.14907     -2720.174 7        42.938
S23        25.000    38255681.944 7 201034848.94107      -520.906 7        44.743
E08        26.000    23628573.374 8 124168929.26708      -800.498 8        48.665                                                                    23628577.183 8  92723530.97608      -597.773 8        50.835    23628576.170 8  95142405.48808      -613.377 8        50.941
C07        27.000                                                                                                                                    39083618.584 6 203518611.25606      -981.295 6        40.937    39083621.595 7 157373501.05107      -758.877 7        43.892    39083617.796 6 165375532.24906      -797.440 6        40.722
G13        28.000    21599612.583 8 113506648.73008     -3452.296 8        48.446                                    21599613.292 5  88446697.98405     -2690.095 5        35.757
I02        29.000    37084840.729 7 145528890.62107      -222.172 7        43.029
G10        30.000    24787485.678 6 130259032.00506       939.050 6        40.872                                    24787492.868 5 101500527.44505       731.727 5        35.300    24787493.266 6 101500519.44706       731.820 6        38.180
E07        31.000    25897209.793 7 136090673.17307      1770.625 7        43.073                                                                    25897219.398 7 101626146.12607      1322.228 7        46.374    25897218.167 7 104277261.39007      1356.710 7        46.818
