     3.04           OBSERVATION DATA    M                   RINEX VERSION / TYPE
ssrcrin-15.6.1x                         20250101 163000 UTC PGM / RUN BY / DATE 
(00000000023479385599111004) Septentrio proprietary         COMMENT             
rref                                                        MARKER NAME         
01                                                          MARKER NUMBER       
geodetic                                                    MARKER TYPE         
NFB                 CLIMERS@TUW                             OBSERVER / AGENCY   
3297213             SEPT ASTERX SB3 PROB4.14.4              REC # / TYPE / VERS 
Unknown             Unknown                                 ANT # / TYPE        
  4127830.3536  1207192.6864  4695246.8461                  APPROX POSITION XYZ 
        0.0000        0.0000        0.0000                  ANTENNA: DELTA H/E/N
G   23 X1  C1C L1C D1C S1C C1W S1W C2W L2W D2W S2W C2L L2L  SYS / # / OBS TYPES 
       D2L S2L C5Q L5Q D5Q S5Q C1L L1L D1L S1L              SYS / # / OBS TYPES 
E   21 X1  C1C L1C D1C S1C C6C L6C D6C S6C C5Q L5Q D5Q S5Q  SYS / # / OBS TYPES 
       C7Q L7Q D7Q S7Q C8Q L8Q D8Q S8Q                      SYS / # / OBS TYPES 
S    9 X1  C1C L1C D1C S1C C5I L5I D5I S5I                  SYS / # / OBS TYPES 
R   17 X1  C1C L1C D1C S1C C2P L2P D2P S2P C2C L2C D2C S2C  SYS / # / OBS TYPES 
       C3Q L3Q D3Q S3Q                                      SYS / # / OBS TYPES 
C   25 X1  C1P L1P D1P S1P C5P L5P D5P S5P C2I L2I D2I S2I  SYS / # / OBS TYPES 
       C7I L7I D7I S7I C6I L6I D6I S6I C7D L7D D7D S7D      SYS / # / OBS TYPES 
J   17 X1  C1C L1C D1C S1C C2L L2L D2L S2L C5Q L5Q D5Q S5Q  SYS / # / OBS TYPES 
       C1L L1L D1L S1L                                      SYS / # / OBS TYPES 
I    5 X1  C5A L5A D5A S5A                                  SYS / # / OBS TYPES 
SEPTENTRIO RECEIVERS OUTPUT ALIGNED CARRIER PHASES.         COMMENT             
NO FURTHER PHASE SHIFT APPLIED IN THE RINEX ENCODER.        COMMENT             
G L1C                                                       SYS / PHASE SHIFT   
G L2W                                                       SYS / PHASE SHIFT   
G L2L  0.00000                                              SYS / PHASE SHIFT   
G L5Q  0.00000                                              SYS / PHASE SHIFT   
G L1L  0.00000                                              SYS / PHASE SHIFT   
E L1C  0.00000                                              SYS / PHASE SHIFT   
E L6C  0.00000                                              SYS / PHASE SHIFT   
E L5Q  0.00000                                              SYS / PHASE SHIFT   
E L7Q  0.00000                                              SYS / PHASE SHIFT   
E L8Q  0.00000                                              SYS / PHASE SHIFT   
S L1C                                                       SYS / PHASE SHIFT   
S L5I                                                       SYS / PHASE SHIFT   
R L1C                                                       SYS / PHASE SHIFT   
R L2P  0.00000                                              SYS / PHASE SHIFT   
R L2C                                                       SYS / PHASE SHIFT   
R L3Q  0.00000                                              SYS / PHASE SHIFT   
C L1P  0.00000                                              SYS / PHASE SHIFT   
C L5P  0.00000                                              SYS / PHASE SHIFT   
C L2I                                                       SYS / PHASE SHIFT   
C L7I                                                       SYS / PHASE SHIFT   
C L6I                                                       SYS / PHASE SHIFT   
C L7D                                                       SYS / PHASE SHIFT   
J L1C                                                       SYS / PHASE SHIFT   
J L2L  0.00000                                              SYS / PHASE SHIFT   
J L5Q  0.00000                                              SYS / PHASE SHIFT   
J L1L  0.00000                                              SYS / PHASE SHIFT   
I L5A                                                       SYS / PHASE SHIFT   
  2025     1     1    16    30    0.0000000     GPS         TIME OF FIRST OBS   
 C1C    0.000 C2C    0.000 C2P    0.000                     GLONASS COD/PHS/BIS 
DBHZ                                                        SIGNAL STRENGTH UNIT
    18                                                      LEAP SECONDS        
 24 R01  1 R02 -4 R03  5 R04  6 R05  1 R06 -4 R07  5 R08  6 GLONASS SLOT / FRQ #
    R09 -2 R10 -7 R11  0 R12 -1 R13 -2 R14 -7 R15  0 R16 -1 GLONASS SLOT / FRQ #
    R17  4 R18 -3 R19  3 R20  2 R21  4 R22 -3 R23  3 R24  2 GLONASS SLOT / FRQ #
                                                            END OF HEADER       
> 2025 01 01 16 30  0.0000000  0 56
G20         1.000    23902841.907 6 125610475.25206     -1560.531 6        39.444                                    23902838.378 3  97878363.46403     -1216.002 3        22.362
G25         2.000    21903383.196 7 115103238.29207     -3499.868 7        45.669                                    21903383.527 7  89690933.11907     -2727.170 7        44.089    21903384.027 7  89690943.12007     -2727.309 7        42.009
G05         3.000    23345822.500 7 122683248.54807       863.622 7        42.681                                    23345818.637 6  95597390.75406       672.947 6        38.204    23345820.165 6  95597389.77806       672.730 6        39.072
G29         4.000    20727951.706 8 108926478.96708     -1589.065 8        48.667                                    20727948.477 8  84877939.08108     -1238.234 8        50.553    20727948.848 7  84877942.08807     -1238.263 7        46.164
S21         5.000    38599362.649 7 202840694.18207      -581.316 7        42.847
E13         6.000    26257717.590 7 137985485.89607      2439.138 7        42.694                                                                    26257725.029 7 103041287.77107      1821.396 7        45.919    26257723.959 7 105729294.32407      1868.938 7        46.428
E19         7.000    27911858.038 5 146677724.93605     -2599.562 5        31.162                                                                    27911871.908 5 109532060.77605     -1941.224 5        34.390    27911870.305 5 112389421.63905     -1991.831 5        35.643
E15         8.000    23816695.584 8 125157881.76308       203.183 8        48.612                                                                    23816697.769 8  93462219.56008       151.721 8        51.479    23816697.207 8  95900341.16008       155.670 8        51.931
G11         9.000    25637071.418 6 134723986.26806     -4122.864 6        37.210                                    25637069.472 3 104979855.42803     -3212.598 3        18.298    25637068.747 5 104979855.43405     -3212.720 5        35.790
E30        10.000    26039080.327 7 136836487.22007     -2855.980 7        43.763                                                                    26039083.098 7 102183215.57707     -2132.719 7        47.867    26039082.048 8 104848851.55708     -2188.407 8        48.237
G26        11.000    21930307.495 7 115244900.67407      1922.055 7        45.353                                    21930307.631 7  89801400.32107      1497.700 7        44.603    21930307.800 7  89801420.33507      1497.630 7        42.781
S27        12.000    39392363.472 6 207008205.89506      -569.801 6        36.578
R15        13.000    19344570.463 8 103371815.36008     -1448.382 8        52.217                                                                    19344571.005 7  80400441.21507     -1126.563 7        47.432
S36        14.000    38371377.899 7 201643384.37507      -580.627 7        44.569
G12        15.000    25603117.451 5 134545442.26705     -4201.848 5        32.713                                    25603116.836 2 104840683.05102     -3274.139 2        17.623    25603117.375 4 104840683.09304     -3274.321 4        28.256
S45        17.000    63580162.858 6 334116271.89706      -640.863 6        36.495
G31        18.000    21824795.899 7 114690347.29807      -962.601 7        47.785                                    21824793.965 7  89369248.68907      -750.082 7        45.989    21824794.609 7  89369227.69407      -750.072 7        43.117
G16        19.000    24385768.061 6 128148297.88306      2972.055 6        38.138                                    24385764.836 3  99855927.22703      2315.885 3        18.328
E21        20.000    25775537.357 7 135451717.28207      1663.823 7        43.786                                                                    25775539.314 7 101149219.80107      1242.381 7        47.201    25775538.656 7 103787870.60607      1274.757 7        47.980
R14        21.000    22293073.234 7 118834752.01607     -4544.938 7        47.187                                                                    22293077.230 7  92427114.39107     -3534.953 7        44.421
I06        22.000    38869948.659 6 152534172.87706      -463.861 6        40.901
S28        23.000    41077544.815 5 215863949.28605      -580.280 5        34.448
E34        24.000    25617501.757 7 134621190.88207     -2601.506 7        44.331                                                                    25617502.287 7 100528998.15307     -1942.729 7        47.133    25617502.039 8 103151473.59608     -1993.376 8        48.193
S23        25.000    38321643.032 7 201381521.94707      -584.323 7        45.059
C13        26.000                                                                                                                                    38471398.411 7 200330849.05207       600.235 7        43.818    38471400.846 7 154908626.56207       464.058 7        44.349    38471398.952 7 162785308.05007       487.722 7        42.470
G18        27.000    21955006.876 7 115374640.61007      2088.289 7        47.989                                    21955005.627 6  89902477.95206      1627.234 6        37.191    21955005.826 7  89902468.96107      1627.239 7        45.117
R24        28.000    21827520.107 7 116721907.73307     -4172.694 7        47.143                                                                    21827520.684 7  90783887.67707     -3245.514 7        43.755
I02        29.000    38238473.532 6 150056058.71006      -905.772 6        41.816
G28        30.000    22099033.226 7 116131368.38707     -2620.615 7        47.085                                    22099032.687 6  90492066.39706     -2042.038 6        36.083    22099032.515 7  90492063.40607     -2042.065 7        44.986
G04        31.000    25312733.533 6 133019323.03706      -981.081 6        38.177                                    25312731.954 3 103651424.48103      -764.452 3        18.925    25312732.327 6 103651432.47906      -764.622 6        36.008
C12        32.000                                                                                                                                    23710978.090 7 123469550.85907     -3023.554 7        44.606    23710974.544 8  95474615.79608     -2338.090 8        49.617    23710973.457 7 100329215.92807     -2457.034 7        46.895
R17        33.000    19254012.478 8 103032459.03308      -735.207 8        51.835                                                                    19254012.068 7  80136520.51207      -571.842 7        46.606
R08        34.000    24003319.963 6 128536700.47906       347.618 6        37.425                                                                    24003320.355 6  99972990.76506       270.172 6        38.895
R18        36.000    21089114.033 8 112575460.46808      2611.622 8        49.483                                                                    21089118.702 7  87558879.47707      2031.238 7        45.980
E27        37.000    23527490.400 8 123638020.68708      -644.836 8        48.784                                                                    23527491.118 8  92327242.16408      -481.635 8        51.453    23527490.512 8  94735759.44808      -494.181 8        51.593
R16        38.000    20977971.754 8 112060666.10908      2577.910 8        50.597                                                                    20977972.476 7  87158347.95507      2005.000 7        47.458
C22        39.000                                                                                                                                    26760148.362 6 139347118.71006       911.513 6        40.198                                                                    26760143.044 6 113230928.56706       740.618 6        39.264
R07        40.000    24322236.160 7 130198825.03807     -2431.738 7        44.217                                                                    24322236.092 6 101265758.33906     -1891.317 6        39.874
C34        41.000                                                                                                                                    21813485.383 8 113588868.04008     -1678.558 8        50.459                                                                    21813485.546 8  92300396.39908     -1364.095 8        49.399
S44        42.000    40741034.281 6 214095707.12806      -508.625 6        37.512
C38        43.000                                                                                                                                    38822847.058 7 202160912.19807      -171.310 7        44.090                                                                    38822845.755 7 164272363.30907      -139.254 7        43.609
C05        44.000                                                                                                                                    39557172.251 6 205984556.13806      -521.901 6        37.887    39557171.341 7 159280334.35407      -403.636 7        43.409    39557172.240 6 167379416.23506      -424.256 6        39.952
C08        45.000                                                                                                                                    38314976.304 6 199516316.14706       441.724 6        41.657    38314970.527 7 154278744.01907       341.488 7        45.046    38314970.134 7 162123398.97607       358.738 7        42.557
E04        46.000    28621637.505 6 150407719.16306      -407.053 6        36.643                                                                    28621638.276 6 112317460.89106      -304.064 6        40.150    28621638.124 6 115247479.22206      -312.028 6        41.504
C43        48.000                                                                                                                                    22357332.320 8 116420782.38408      1080.018 8        50.223                                                                    22357332.989 8  94601540.26008       877.538 8        48.723
C10        49.000                                                                                                                                    41184355.342 5 214457828.24505     -1255.006 5        34.838    41184353.025 6 165832434.17306      -970.450 6        38.907    41184350.629 5 174264573.14105     -1019.763 5        34.729
C44        50.000                                                                                                                                    25527308.494 6 132927511.97306     -3604.161 6        41.640                                                                    25527308.145 6 108014539.91706     -2928.693 6        41.671
S48        51.000    77322069.308 6 406330316.64206      -617.441 6        38.174
C37        53.000                                                                                                                                    26437328.721 6 137666120.85206      2521.416 6        40.110                                                                    26437333.597 6 111865019.99006      2048.684 6        41.933
C60        54.000                                                                                                                                    40741031.753 6 212149401.53606      -504.033 6        38.138                                                                    40741018.957 6 172388726.05106      -409.520 6        40.186
C25        55.000                                                                                                                                    22501893.406 8 117173438.05508     -2701.410 8        50.173                                                                    22501893.125 8  95213090.74208     -2195.156 8        49.013
C23        56.000                                                                                                                                    22824077.140 8 118851291.07608       490.844 8        49.926                                                                    22824069.859 8  96576515.84408       398.793 8        50.308
C02        57.000                                                                                                                                    40932462.729 5 213146076.55605      -486.129 5        33.641    40932459.386 6 164818048.26106      -376.077 6        39.691    40932461.943 5 173198639.93505      -395.281 5        34.362
I03        58.000   115086269.091 6 375837928.29806      1013.005 6        41.066
C11        59.000                                                                                                                                    21659514.067 8 112787068.14908      -206.067 8        48.877    21659511.988 8  87214262.13808      -159.397 8        52.176    21659510.550 8  91648837.80408      -167.555 8        49.292
C19        60.000                                                                                                                                    27530968.848 6 143360976.75306     -1290.660 6        36.650                                                                    27530966.634 6 116492529.14306     -1048.705 6        39.411
> 2025 01 01 16 30  5.0000000  0 57
G20         1.000    23904328.857 6 125618285.31506     -1563.366 6        40.269                                    23904324.410 3  97884449.22103     -1218.212 3        22.476
G25         2.000    21906713.972 7 115120741.34207     -3501.300 7        46.308                                    21906714.269 7  89704571.86207     -2728.287 7        44.051    21906714.943 6  89704581.87206     -2728.247 6        41.819
G05         3.000    23345002.170 7 122678938.05707       860.735 7        43.545                                    23344998.372 6  95594031.94806       670.700 6        38.282    23344999.286 6  95594030.95606       670.693 6        39.045
G29         4.000    20729464.520 8 108934428.67608     -1590.733 8        48.641                                    20729461.240 8  84884133.67208     -1239.536 8        50.453    20729461.462 7  84884136.67407     -1239.479 7        45.875
S21         5.000    38599920.328 7 202843600.80107      -581.127 7        42.887
E13         6.000    26255397.228 7 137973292.05207      2438.382 7        42.629                                                                    26255404.625 7 103032182.05507      1820.879 7        45.904    26255403.391 7 105719951.05907      1868.381 7        46.318
E19         7.000    27914331.628 5 146690726.22705     -2600.697 5        31.351                                                                    27914345.933 5 109541769.48005     -1942.187 5        34.271    27914344.588 5 112399383.64805     -1993.017 5        35.729
E15         8.000    23816503.452 8 125156871.33008       201.078 8        48.354                                                                    23816505.499 8  93461465.04108       150.150 8        51.434    23816504.932 8  95899566.95608       154.054 8        51.850
G11         9.000    25640993.828 6 134744602.19606     -4123.112 6        37.263                                    25640992.565 3 104995919.81203     -3212.811 3        18.239    25640991.565 5 104995919.84005     -3213.014 5        35.976
E30        10.000    26041798.222 7 136850768.91107     -2856.819 7        43.920                                                                    26041800.895 7 102193880.47707     -2133.288 7        47.990    26041799.898 8 104859794.67108     -2188.923 8        48.267
G26        11.000    21928479.662 7 115235294.48607      1920.572 7        45.914                                    21928479.600 7  89793915.00707      1496.544 7        44.557    21928479.602 7  89793935.02307      1496.489 7        42.885
S27        12.000    39392910.289 6 207011053.42306      -569.550 6        36.624
R15        13.000    19345927.616 8 103379066.80808     -1452.122 8        52.258                                                                    19345927.786 7  80406081.24807     -1129.436 7        47.315
S36        14.000    38371928.293 7 201646287.62207      -580.687 7        44.423
G12        15.000    25607114.161 5 134566452.45405     -4202.034 5        33.066                                    25607115.012 2 104857054.64202     -3274.344 2        16.943    25607114.538 4 104857054.62304     -3274.509 4        27.485
S45        17.000    63580718.743 6 334119475.98206      -640.808 6        36.628
G31        18.000    21825713.663 7 114695168.44507      -965.771 7        47.953                                    21825711.372 7  89373005.44707      -752.553 7        45.902    21825711.701 7  89372984.45807      -752.548 7        43.264
G16        19.000    24382940.256 6 128133438.07406      2971.874 6        37.490                                    24382937.040 3  99844348.18003      2315.740 3        18.030
E21        20.000    25773954.638 7 135443399.84407      1663.359 7        43.446                                                                    25773956.443 7 101143008.76807      1242.094 7        47.227    25773955.861 7 103781497.53807      1274.512 7        47.886
R14        21.000    22297335.942 7 118857480.40407     -4546.365 7        47.650                                                                    22297340.728 7  92444792.03107     -3536.121 7        44.206
I06        22.000    38870539.428 6 152536491.45306      -463.506 6        40.996
S28        23.000    41078099.319 5 215866849.53805      -579.512 5        34.819
E34        24.000    25619977.582 7 134634202.13107     -2602.923 7        44.292                                                                    25619978.220 7 100538714.35107     -1943.741 7        47.081    25619977.977 8 103161443.26308     -1994.456 8        48.076
S23        25.000    38322198.676 7 201384444.07507      -584.308 7        45.007
C13        26.000                                                                                                                                    38470822.562 7 200327850.10907       599.427 7        43.879    38470824.909 7 154906307.60107       463.505 7        44.302    38470822.986 7 162782871.15107       487.213 7        42.366
G18        27.000    21953020.784 8 115364204.54608      2086.273 8        48.163                                    21953019.654 6  89894345.98606      1625.666 6        37.236    21953019.831 7  89894336.99907      1625.624 7        45.023
R24        28.000    21831422.793 7 116742774.51407     -4173.860 7        47.519                                                                    21831422.989 7  90800117.39007     -3246.310 7        43.251
I02        29.000    38239627.699 6 150060587.71406      -905.711 6        41.700
G28        30.000    22101527.876 7 116144477.96507     -2623.133 7        47.048                                    22101527.347 5  90502281.66105     -2044.000 5        35.990    22101527.463 7  90502278.66907     -2043.940 7        44.513
G04        31.000    25313667.989 6 133024236.03806      -983.862 6        38.159                                    25313666.885 3 103655252.77603      -766.645 3        18.716    25313667.653 6 103655260.74706      -766.668 6        37.229
C12        32.000                                                                                                                                    23713881.294 7 123484671.12707     -3024.438 7        44.570    23713878.409 8  95486307.74508     -2338.694 8        49.608    23713877.194 7 100341502.36807     -2457.534 7        46.748
R17        33.000    19254700.883 8 103036143.91908      -738.617 8        51.751                                                                    19254700.619 7  80139386.55207      -574.490 7        46.494
R08        34.000    24002997.531 6 128534972.64306       343.739 6        37.981                                                                    24002996.736 6  99971646.86906       267.414 6        39.213
C24        35.000                                                                                                                                                                                                                                                                    26394971.074 3                     -3277.889 3        20.048
R18        36.000    21086669.249 8 112562408.02608      2609.415 8        49.766                                                                    21086673.554 7  87548727.63507      2029.456 7        45.986
E27        37.000    23528104.549 8 123641248.77008      -646.225 8        48.747                                                                    23528105.432 8  92329652.76008      -482.578 8        51.403    23528104.795 8  94738232.93008      -495.185 8        51.576
R16        38.000    20975560.113 8 112047782.06208      2575.867 8        50.798                                                                    20975559.977 7  87148327.03907      2003.423 7        46.816
C22        39.000                                                                                                                                    26759273.899 6 139342566.14806       909.573 6        40.222                                                                    26759268.753 6 113227229.22106       739.307 6        38.937
R07        40.000    24324509.403 7 130210991.64807     -2434.895 7        44.456                                                                    24324509.425 6 101275221.23706     -1893.904 6        40.431
C34        41.000                                                                                                                                    21815097.898 8 113597265.49408     -1680.298 8        50.417                                                                    21815098.180 8  92307220.01008     -1365.283 8        49.345
S44        42.000    40741517.547 6 214098249.77706      -508.460 6        37.440
C38        43.000                                                                                                                                    38823012.058 7 202161770.94507      -172.074 7        44.172                                                                    38823010.614 7 164273061.10807      -139.879 7        43.528
C05        44.000                                                                                                                                    39557673.373 6 205987165.32206      -521.863 6        37.834    39557672.516 7 159282351.96107      -403.459 7        43.164    39557673.263 6 167381536.41206      -423.921 6        39.787
C08        45.000                                                                                                                                    38314552.920 6 199514110.59206       440.672 6        41.979    38314547.191 7 154277038.55207       340.743 7        44.939    38314546.505 7 162121606.77307       358.225 7        42.432
E04        46.000    28622025.648 6 150409760.02906      -409.296 6        36.295                                                                    28622026.915 6 112318984.93706      -305.560 6        40.679    28622026.288 6 115249043.01506      -313.369 6        41.621
C43        48.000                                                                                                                                    22356296.183 8 116415386.66208      1078.343 8        50.348                                                                    22356296.744 8  94597155.80408       876.278 8        48.631
C10        49.000                                                                                                                                    41185560.191 5 214464102.91505     -1254.812 5        35.010    41185558.146 6 165837286.14106      -970.394 6        38.673    41185555.726 5 174269671.80005     -1019.456 5        34.505
C44        50.000                                                                                                                                    25530769.350 6 132945532.79606     -3604.107 6        41.607                                                                    25530768.819 6 108029183.29206     -2928.573 6        41.380
S48        51.000    77322633.238 6 406333403.45806      -617.291 6        38.015
C37        53.000                                                                                                                                    26434907.930 6 137653515.63506      2520.800 6        39.547                                                                    26434912.731 7 111854777.23607      2048.369 7        42.036
C60        54.000                                                                                                                                    40741515.869 6 212151921.05606      -503.611 6        38.243                                                                    40741502.684 6 172390773.37906      -409.236 6        40.050
C25        55.000                                                                                                                                    22504487.923 8 117186949.88808     -2703.255 8        50.445                                                                    22504487.867 8  95224070.21508     -2196.627 8        48.937
C23        56.000                                                                                                                                    22823606.855 8 118848842.67808       488.628 8        49.858                                                                    22823599.594 8  96574526.32308       397.072 8        50.280
C02        57.000                                                                                                                                    40932929.642 5 213148507.02105      -485.895 5        34.052    40932926.478 6 164819927.66506      -375.840 6        39.465    40932928.731 5 173200614.89705      -395.013 5        34.400
I03        58.000   115084978.003 6 375832863.15706      1013.143 6        41.149
C11        59.000                                                                                                                                    21659712.694 8 112788103.94908      -208.108 8        48.889    21659710.850 8  87215063.11408      -160.955 8        52.101    21659709.422 8  91649679.49708      -169.016 8        49.247
C19        60.000                                                                                                                                    27532209.561 6 143367436.21106     -1293.101 6        36.790                                                                    27532207.215 6 116497777.95306     -1050.718 6        39.351
> 2025 01 01 16 30 10.0000000  0 56
G20         1.000    23905817.705 6 125626110.48906     -1566.605 6        40.160                                    23905813.219 3  97890546.75603     -1220.732 3        22.609
G25         2.000    21910046.345 7 115138252.64807     -3502.930 7        46.279                                    21910046.522 7  89718217.04407     -2729.559 7        44.114    21910047.327 6  89718227.06106     -2729.661 6        41.886
G05         3.000    23344184.681 7 122674642.33707       857.719 7        44.129                                    23344180.892 6  95590684.64606       668.352 6        38.510    23344181.775 6  95590683.65006       668.429 6        38.973
G29         4.000    20730979.446 8 108942388.00408     -1592.722 8        48.637                                    20730975.841 8  84890335.76208     -1241.088 8        50.469    20730975.666 7  84890338.77307     -1241.168 7        45.771
S21         5.000    38600470.422 7 202846507.56307      -581.408 7        42.889
E13         6.000    26253077.823 7 137961102.85907      2437.343 7        42.489                                                                    26253085.105 7 103023079.80507      1820.183 7        45.980    26253084.008 7 105710611.35207      1867.740 7        46.332
E19         7.000    27916807.126 5 146703734.39705     -2602.284 5        31.819                                                                    27916821.497 5 109551483.37405     -1943.059 5        34.124    27916819.798 5 112409350.93905     -1993.991 5        35.681
E15         8.000    23816313.420 8 125155872.51008       198.725 8        48.339                                                                    23816315.416 8  93460719.18808       148.413 8        51.542    23816314.909 8  95898801.64208       152.273 8        51.802
G11         9.000    25644917.488 6 134765221.32706     -4124.018 6        36.957                                    25644916.209 3 105011986.69003     -3213.507 3        18.000    25644915.549 6 105011986.68406     -3213.458 6        36.181
E30        10.000    26044517.101 7 136865055.45007     -2857.649 7        44.057                                                                    26044519.559 8 102204549.01408     -2134.003 8        48.100    26044518.569 8 104870741.51708     -2189.675 8        48.217
G26        11.000    21926653.254 7 115225697.02507      1918.715 7        45.776                                    21926653.238 7  89786436.48807      1495.095 7        44.584    21926653.420 7  89786456.49407      1495.070 7        42.747
S27        12.000    39393450.586 6 207013901.41706      -569.627 6        36.582
R15        13.000    19347288.236 8 103386338.07908     -1456.125 8        51.994                                                                    19347288.727 7  80411736.68307     -1132.537 7        47.282
S36        14.000    38372482.340 7 201649191.71907      -580.510 7        44.390
G12        15.000    25611112.893 5 134587464.21905     -4202.673 5        32.641                                    25611113.354 2 104873427.44102     -3274.821 2        15.333    25611113.578 4 104873427.42104     -3274.412 4        27.222
S45        17.000    63581272.191 6 334122679.92106      -640.776 6        36.529
G31        18.000    21826634.321 7 114700006.69607      -969.264 7        47.480                                    21826632.044 7  89376775.53607      -755.275 7        45.907    21826632.409 7  89376754.53207      -755.235 7        43.238
G16        19.000    24380112.122 6 128118580.25206      2971.352 6        38.342                                    24380109.745 3  99832770.66503      2315.341 3        18.507
E21        20.000    25772372.493 7 135435085.49907      1662.579 7        43.295                                                                    25772374.262 7 101136800.03207      1241.626 7        47.219    25772373.648 7 103775126.83207      1273.949 7        47.932
R14        21.000    22301601.770 7 118880217.18607     -4548.079 7        46.533                                                                    22301606.380 7  92462476.18507     -3537.416 7        44.123
I06        22.000    38871130.387 6 152538809.76706      -463.452 6        40.984
S28        23.000    41078649.883 5 215869749.84505      -580.034 5        34.567
E34        24.000    25622455.213 7 134647221.46607     -2604.605 7        44.176                                                                    25622455.737 7 100548436.58907     -1944.953 7        47.198    25622455.465 8 103171419.12108     -1995.679 8        48.058
S23        25.000    38322756.073 7 201387366.27607      -584.578 7        44.936
C13        26.000                                                                                                                                    38470247.899 7 200324855.95007       598.422 7        43.865    38470249.943 7 154903992.34007       462.774 7        44.476    38470248.126 7 162780438.17907       486.185 7        42.533
G18        27.000    21951036.829 7 115353779.47607      2084.025 7        47.617                                    21951035.778 6  89886222.57606      1623.910 6        37.229    21951036.272 7  89886213.59207      1623.855 7        45.416
R24        28.000    21835326.912 7 116763647.79107     -4175.230 7        47.490                                                                    21835326.199 7  90816352.15207     -3247.404 7        43.096
I02        29.000    38240781.795 6 150065117.23106      -906.025 6        41.766
G28        30.000    22104025.188 7 116157601.19307     -2625.930 7        46.478                                    22104024.592 5  90512507.56305     -2046.179 5        35.952    22104024.983 7  90512504.56307     -2046.202 7        45.055
G04        31.000    25314605.439 6 133029163.54506      -986.954 6        37.686                                    25314604.624 3 103659092.37703      -769.040 3        19.433    25314604.708 6 103659100.37206      -769.009 6        36.779
C12        32.000                                                                                                                                    23716785.926 7 123499796.64007     -3025.558 7        44.808    23716782.870 8  95498003.76808     -2339.515 8        49.340    23716781.867 7 100353793.09907     -2458.562 7        46.834
R17        33.000    19255393.209 8 103039847.00808      -742.360 8        51.949                                                                    19255392.868 7  80142266.75607      -577.419 7        46.881
R08        34.000    24002678.369 6 128533264.47306       339.815 6        37.482                                                                    24002677.758 6  99970318.29706       264.261 6        38.961
R18        36.000    21084226.428 8 112549368.01008      2606.846 8        49.470                                                                    21084230.655 7  87538585.44707      2027.499 7        46.032
E27        37.000    23528720.457 8 123644484.62508      -647.836 8        48.489                                                                    23528721.156 8  92332069.16208      -483.791 8        51.516    23528720.541 8  94740712.36508      -496.410 8        51.424
R16        38.000    20973150.654 8 112034909.28008      2573.561 8        50.893                                                                    20973150.259 7  87138314.88007      2001.621 7        46.646
C22        39.000                                                                                                                                    26758401.506 6 139338024.39206       907.412 6        39.928                                                                    26758396.564 6 113223538.68206       737.226 6        39.198
R07        40.000    24326785.347 7 130223175.79007     -2438.483 7        44.361                                                                    24326785.656 6 101284697.76506     -1896.582 6        40.257
C34        41.000                                                                                                                                    21816712.422 8 113605672.15308     -1682.131 8        50.535                                                                    21816712.599 8  92314051.12408     -1366.959 8        49.405
S44        42.000    40741999.459 6 214100792.44406      -508.377 6        37.229
C38        43.000                                                                                                                                    38823178.324 7 202162634.94007      -173.272 7        44.087                                                                    38823176.558 7 164273763.16207      -140.783 7        43.672
C05        44.000                                                                                                                                    39558174.208 6 205989774.36406      -521.791 6        37.856    39558173.423 7 159284369.44107      -403.351 7        43.172    39558174.223 6 167383656.47706      -423.951 6        40.033
C08        45.000                                                                                                                                    38314130.674 7 199511910.55707       439.593 7        42.226    38314124.821 7 154275337.35107       339.930 7        45.062    38314124.070 7 162119819.06707       357.193 7        42.591
E04        46.000    28622416.149 5 150411812.40405      -411.621 5        35.700                                                                    28622417.424 6 112320517.51206      -307.234 6        40.348    28622416.761 6 115250615.56406      -315.300 6        41.220
C43        48.000                                                                                                                                    22355261.758 8 116410000.07108      1076.495 8        50.378                                                                    22355262.251 8  94592778.78108       874.762 8        48.767
C10        49.000                                                                                                                                    41186763.810 5 214470377.68705     -1254.910 5        34.562    41186762.825 6 165842138.17306      -970.204 6        38.652    41186760.822 5 174274770.56905     -1019.774 5        34.819
C44        50.000                                                                                                                                    25534230.373 6 132963554.87406     -3604.458 6        41.666                                                                    25534229.790 6 108043827.69406     -2928.916 6        41.647
S48        51.000    77323192.222 6 406336490.19906      -617.132 6        38.345
C37        53.000                                                                                                                                    26432488.690 6 137640914.07706      2519.909 6        39.766                                                                    26432492.277 6 111844537.44206      2047.686 6        41.828
C60        54.000                                                                                                                                    40741999.479 6 212154440.62406      -503.883 6        38.273                                                                    40741986.585 6 172392820.73806      -409.458 6        40.083
C25        55.000                                                                                                                                    22507084.943 8 117200472.18008     -2705.376 8        50.652                                                                    22507084.777 8  95235058.18908     -2198.400 8        48.984
C23        56.000                                                                                                                                    22823138.793 8 118846406.50308       486.092 8        49.956                                                                    22823131.809 8  96572546.75308       394.982 8        50.315
C02        57.000                                                                                                                                    40933395.773 5 213150937.45805      -485.999 5        33.952    40933393.092 6 164821807.01106      -375.766 6        39.523    40933395.216 5 173202589.80305      -394.951 5        34.590
I03        58.000   115083687.204 6 375827797.86606      1013.197 6        41.235
C11        59.000                                                                                                                                    21659913.519 8 112789150.50908      -210.285 8        49.006    21659911.677 8  87215872.39408      -162.589 8        52.031    21659910.332 8  91650529.92508      -170.909 8        49.331
C19        60.000                                                                                                                                    27533452.267 6 143373908.52706     -1295.817 6        37.051                                                                    27533449.947 6 116503037.17206     -1052.966 6        39.829
> 2025 01 01 16 30 15.0000000  0 57
G20         1.000    23907309.267 6 125633950.36106     -1569.598 6        39.964                                    23907304.921 3  97896655.76203     -1223.053 3        22.705
G25         2.000    21913380.184 7 115155771.91807     -3504.744 7        45.282                                    21913380.282 7  89731868.43307     -2730.969 7        43.941    21913380.757 6  89731878.43606     -2730.888 6        41.561
G05         3.000    23343369.642 7 122670361.11307       854.768 7        43.441                                    23343366.171 6  95587348.63706       666.051 6        38.517    23343367.292 6  95587347.65106       665.960 6        39.213
G29         4.000    20732495.624 8 108950356.67908     -1594.731 8        48.789                                    20732492.218 8  84896545.13008     -1242.650 8        50.370    20732492.485 7  84896548.13207     -1242.634 7        45.672
S21         5.000    38601022.538 7 202849414.03107      -581.333 7        43.064
E13         6.000    26250758.808 7 137948917.96107      2436.526 7        42.339                                                                    26250766.406 7 103013980.77007      1819.471 7        45.986    26250765.261 7 105701274.94407      1866.873 7        46.391
E19         7.000    27919284.301 5 146716749.21305     -2603.776 5        31.962                                                                    27919297.927 5 109561202.18005     -1944.315 5        34.090    27919296.268 5 112419323.27805     -1995.139 5        35.371
E15         8.000    23816125.400 8 125154884.96808       196.306 8        48.244                                                                    23816127.453 8  93459981.76108       146.544 8        51.507    23816126.931 8  95898044.97408       150.389 8        51.854
G11         9.000    25648842.093 6 134785843.41606     -4124.717 6        36.378                                    25648840.357 2 105028055.86602     -3214.070 2        17.585    25648840.064 5 105028055.86905     -3214.113 5        35.071
E30        10.000    26047236.578 7 136879346.54107     -2858.740 7        44.131                                                                    26047239.009 7 102215220.93407     -2134.747 7        47.964    26047238.111 8 104881691.83208     -2190.472 8        48.277
G26        11.000    21924828.159 7 115216107.96807      1916.974 7        45.720                                    21924828.480 7  89778964.52107      1493.738 7        44.470    21924828.957 7  89778984.53807      1493.688 7        42.705
S27        12.000    39393991.263 6 207016748.70506      -569.157 6        36.594
R15        13.000    19348652.273 8 103393628.60708     -1460.060 8        52.277                                                                    19348653.130 7  80417407.11107     -1135.615 7        47.120
S36        14.000    38373034.510 7 201652095.44607      -580.785 7        44.412
G12        15.000    25615111.294 5 134608477.25705     -4202.873 5        31.940                                    25615112.053 2 104889801.25102     -3274.950 2        15.095    25615111.348 4 104889801.24204     -3274.916 4        27.329
S45        17.000    63581828.466 6 334125883.44106      -640.799 6        36.548
G31        18.000    21827558.152 7 114704861.67807      -972.707 7        47.388                                    21827555.890 7  89380558.65707      -757.955 7        45.776    21827556.231 7  89380537.67607      -758.028 7        42.899
G16        19.000    24377285.360 6 128103724.12006      2971.003 6        38.532                                    24377282.776 3  99821194.48503      2315.056 3        18.567
E21        20.000    25770791.144 7 135426773.93207      1661.889 7        43.371                                                                    25770792.610 7 101130593.37607      1241.063 7        47.199    25770791.966 7 103768758.25707      1273.510 7        47.880
R14        21.000    22305867.787 7 118902961.86607     -4549.851 7        46.473                                                                    22305873.648 7  92480166.46907     -3538.717 7        44.397
I06        22.000    38871720.774 6 152541127.56906      -463.602 6        41.125
S28        23.000    41079203.407 5 215872649.66605      -579.932 5        34.405
E34        24.000    25624934.232 7 134660248.52107     -2606.283 7        44.227                                                                    25624934.717 7 100558164.59207     -1946.193 7        47.066    25624934.513 8 103181400.90308     -1997.037 8        48.070
S23        25.000    38323311.015 7 201390288.03207      -584.364 7        44.959
C13        26.000                                                                                                                                    38469673.443 7 200321866.38807       597.368 7        43.837    38469675.744 7 154901680.64107       461.937 7        44.603    38469673.913 7 162778008.91007       485.473 7        42.518
G18        27.000    21949054.761 7 115343365.08907      2081.735 7        47.712                                    21949053.978 6  89878107.50106      1622.123 6        37.206    21949054.254 7  89878098.50307      1622.169 7        45.174
R24        28.000    21839231.281 7 116784527.33507     -4176.573 7        47.926                                                                    21839230.879 7  90832591.79807     -3248.499 7        43.507
I02        29.000    38241936.577 6 150069647.09806      -906.059 6        41.647
G28        30.000    22106524.884 7 116170737.73107     -2628.751 7        47.013                                    22106524.372 5  90522743.83305     -2048.383 5        35.790    22106524.519 7  90522740.84707     -2048.350 7        44.739
G04        31.000    25315546.922 6 133034105.32506      -990.005 6        37.032                                    25315545.011 3 103662943.10903      -771.418 3        19.015    25315546.651 6 103662951.08606      -771.175 6        37.142
C12        32.000                                                                                                                                    23719692.014 7 123514927.00707     -3026.605 7        44.978    23719688.474 8  95509703.53408     -2340.418 8        49.132    23719687.540 7 100366087.75007     -2459.250 7        46.877
R17        33.000    19256088.285 8 103043568.04908      -746.135 8        51.783                                                                    19256088.263 7  80145160.91707      -580.361 7        46.418
R08        34.000    24002362.321 6 128531575.72206       335.665 6        37.429                                                                    24002362.730 6  99969004.82806       261.190 6        39.423
C24        35.000                                                                                                                                                                                                                                                                    26402725.686 3                     -3281.329 3        19.672
R18        36.000    21081785.916 8 112536339.98608      2604.314 8        49.549                                                                    21081789.360 7  87528452.58107      2025.531 7        45.308
E27        37.000    23529337.683 8 123647727.93308      -649.492 8        48.513                                                                    23529338.292 8  92334491.12508      -485.013 8        51.494    23529337.704 8  94743197.51008      -497.654 8        51.488
R16        38.000    20970741.856 8 112022047.58708      2571.156 8        50.411                                                                    20970742.695 7  87128311.36507      1999.775 7        46.778
C22        39.000                                                                                                                                    26757532.028 6 139333493.06706       905.216 6        40.219                                                                    26757526.262 6 113219856.60506       735.527 6        39.189
R07        40.000    24329063.585 7 130235376.91707     -2442.057 7        43.630                                                                    24329065.282 6 101294187.52606     -1899.223 6        40.341
C34        41.000                                                                                                                                    21818328.580 8 113614087.69308     -1684.042 8        50.545                                                                    21818328.706 8  92320889.43408     -1368.375 8        49.406
S44        42.000    40742486.445 6 214103334.76906      -508.560 6        37.198
C38        43.000                                                                                                                                    38823345.472 7 202163503.85607      -174.344 7        43.915                                                                    38823343.472 7 164274469.23707      -141.689 7        43.541
C05        44.000                                                                                                                                    39558675.034 6 205992382.94006      -521.848 6        37.970    39558674.115 7 159286386.59107      -403.468 7        43.128    39558675.259 6 167385776.16406      -423.769 6        39.961
C08        45.000                                                                                                                                    38313709.477 7 199509715.73607       438.374 7        42.135    38313703.343 7 154273640.16607       338.955 7        45.031    38313702.637 7 162118035.57407       356.288 7        42.527
E04        46.000    28622808.664 5 150413876.27305      -414.051 5        35.971                                                                    28622810.063 6 112322058.76306      -309.218 6        40.307    28622809.668 6 115252197.01806      -317.199 6        41.275
C43        48.000                                                                                                                                    22354228.999 8 116404622.30208      1074.524 8        50.367                                                                    22354229.468 8  94588408.91808       873.181 8        48.769
C10        49.000                                                                                                                                    41187969.136 5 214476652.26205     -1254.894 5        34.762    41187967.965 6 165846990.06106      -970.392 6        38.727    41187965.657 5 174279869.15105     -1019.567 5        34.543
C44        50.000                                                                                                                                    25537691.771 6 132981577.83406     -3604.778 6        41.664                                                                    25537690.854 6 108058472.80506     -2929.101 6        41.802
S48        51.000    77323751.510 6 406339576.69006      -617.282 6        38.165
C37        53.000                                                                                                                                    26430069.683 6 137628315.85006      2519.144 6        40.348                                                                    26430072.962 6 111834300.37206      2047.120 6        41.928
C60        54.000                                                                                                                                    40742483.483 6 212156959.83606      -503.729 6        38.285                                                                    40742470.320 6 172394867.80106      -409.263 6        40.076
C25        55.000                                                                                                                                    22509683.638 8 117214004.60308     -2707.614 8        50.677                                                                    22509683.514 8  95246054.38408     -2200.098 8        48.978
C23        56.000                                                                                                                                    22822673.436 8 118843982.21708       483.622 8        49.969                                                                    22822666.171 8  96570576.83608       393.017 8        50.251
C02        57.000                                                                                                                                    40933862.655 5 213153367.38905      -485.972 5        33.892    40933859.755 6 164823686.00906      -375.853 6        39.613    40933862.120 5 173204564.34005      -394.750 5        34.281
I03        58.000   115082396.452 6 375822732.20106      1013.166 6        41.163
C11        59.000                                                                                                                                    21660116.553 8 112790207.49208      -212.490 8        49.031    21660114.584 8  87216689.74708      -164.342 8        51.922    21660113.287 8  91651388.82308      -172.599 8        49.270
C19        60.000                                                                                                                                    27534698.682 6 143380393.28306     -1298.306 6        36.503                                                                    27534695.739 6 116508306.45406     -1054.931 6        39.318
> 2025 01 01 16 30 20.0000000  0 57
G20         1.000    23908804.081 6 125641805.85706     -1572.594 6        39.799                                    23908799.950 3  97902776.93503     -1225.395 3        22.819
G25         2.000    21916715.148 7 115173299.97307     -3506.371 7        45.181                                    21916715.737 7  89745526.66407     -2732.236 7        43.833    21916716.271 6  89745536.66006     -2732.135 6        41.948
G05         3.000    23342557.349 7 122666095.25707       851.810 7        43.490                                    23342554.357 6  95584024.60206       663.746 6        38.577    23342555.270 6  95584023.60806       663.756 6        39.222
G29         4.000    20734013.924 8 108958335.56608     -1596.639 8        48.968                                    20734010.539 8  84902762.45808     -1244.137 8        50.347    20734010.885 7  84902765.46307     -1244.140 7        46.033
S21         5.000    38601577.761 7 202852320.84107      -581.243 7        42.684
