     3.04           OBSERVATION DATA    M                   RINEX VERSION / TYPE
ssrcrin-15.6.1x                         20250101 170000 UTC PGM / RUN BY / DATE 
(00000000023479385599111004) Septentrio proprietary         COMMENT             
rref                                                        MARKER NAME         
01                                                          MARKER NUMBER       
geodetic                                                    MARKER TYPE         
NFB                 CLIMERS@TUW                             OBSERVER / AGENCY   
3297213             SEPT ASTERX SB3 PROB4.14.4              REC # / TYPE / VERS 
Unknown             Unknown                                 ANT # / TYPE        
  4127831.1152  1207192.9246  4695247.3209                  APPROX POSITION XYZ 
        0.0000        0.0000        0.0000                  ANTENNA: DELTA H/E/N
G   23 X1  C1C L1C D1C S1C C1W S1W C2W L2W D2W S2W C2L L2L  SYS / # / OBS TYPES 
       D2L S2L C5Q L5Q D5Q S5Q C1L L1L D1L S1L              SYS / # / OBS TYPES 
E   21 X1  C1C L1C D1C S1C C6C L6C D6C S6C C5Q L5Q D5Q S5Q  SYS / # / OBS TYPES 
       C7Q L7Q D7Q S7Q C8Q L8Q D8Q S8Q                      SYS / # / OBS TYPES 
S    9 X1  C1C L1C D1C S1C C5I L5I D5I S5I                  SYS / # / OBS TYPES 
R   17 X1  C1C L1C D1C S1C C2P L2P D2P S2P C2C L2C D2C S2C  SYS / # / OBS TYPES 
       C3Q L3Q D3Q S3Q                                      SYS / # / OBS TYPES 
C   25 X1  C1P L1P D1P S1P C5P L5P D5P S5P C2I L2I D2I S2I  SYS / # / OBS TYPES 
       C7I L7I D7I S7I C6I L6I D6I S6I C7D L7D D7D S7D      SYS / # / OBS TYPES 
J   17 X1  C1C L1C D1C S1C C2L L2L D2L S2L C5Q L5Q D5Q S5Q  SYS / # / OBS TYPES 
       C1L L1L D1L S1L                                      SYS / # / OBS TYPES 
I    5 X1  C5A L5A D5A S5A                                  SYS / # / OBS TYPES 
SEPTENTRIO RECEIVERS OUTPUT ALIGNED CARRIER PHASES.         COMMENT             
NO FURTHER PHASE SHIFT APPLIED IN THE RINEX ENCODER.        COMMENT             
G L1C                                                       SYS / PHASE SHIFT   
G L2W                                                       SYS / PHASE SHIFT   
G L2L  0.00000                                              SYS / PHASE SHIFT   
G L5Q  0.00000                                              SYS / PHASE SHIFT   
G L1L  0.00000                                              SYS / PHASE SHIFT   
E L1C  0.00000                                              SYS / PHASE SHIFT   
E L6C  0.00000                                              SYS / PHASE SHIFT   
E L5Q  0.00000                                              SYS / PHASE SHIFT   
E L7Q  0.00000                                              SYS / PHASE SHIFT   
E L8Q  0.00000                                              SYS / PHASE SHIFT   
S L1C                                                       SYS / PHASE SHIFT   
S L5I                                                       SYS / PHASE SHIFT   
R L1C                                                       SYS / PHASE SHIFT   
R L2P  0.00000                                              SYS / PHASE SHIFT   
R L2C                                                       SYS / PHASE SHIFT   
R L3Q  0.00000                                              SYS / PHASE SHIFT   
C L1P  0.00000                                              SYS / PHASE SHIFT   
C L5P  0.00000                                              SYS / PHASE SHIFT   
C L2I                                                       SYS / PHASE SHIFT   
C L7I                                                       SYS / PHASE SHIFT   
C L6I                                                       SYS / PHASE SHIFT   
C L7D                                                       SYS / PHASE SHIFT   
J L1C                                                       SYS / PHASE SHIFT   
J L2L  0.00000                                              SYS / PHASE SHIFT   
J L5Q  0.00000                                              SYS / PHASE SHIFT   
J L1L  0.00000                                              SYS / PHASE SHIFT   
I L5A                                                       SYS / PHASE SHIFT   
  2025     1     1    17     0    0.0000000     GPS         TIME OF FIRST OBS   
 C1C    0.000 C2C    0.000 C2P    0.000                     GLONASS COD/PHS/BIS 
DBHZ                                                        SIGNAL STRENGTH UNIT
    18                                                      LEAP SECONDS        
 24 R01  1 R02 -4 R03  5 R04  6 R05  1 R06 -4 R07  5 R08  6 GLONASS SLOT / FRQ #
    R09 -2 R10 -7 R11  0 R12 -1 R13 -2 R14 -7 R15  0 R16 -1 GLONASS SLOT / FRQ #
    R17  4 R18 -3 R19  3 R20  2 R21  4 R22 -3 R23  3 R24  2 GLONASS SLOT / FRQ #
                                                            END OF HEADER       
> 2025 01 01 17 00  0.0000000  0 56
G20         1.000    24314951.264 6 127776129.16606     -2567.701 6        39.057                                    24314946.866 3  99565887.21803     -2000.808 3        19.433
G25         2.000    22893721.207 7 120307494.43907     -4002.974 7        42.916                                    22893721.505 6  93746196.47106     -3119.201 6        39.405    22893723.000 6  93746206.46606     -3119.138 6        40.620
G05         3.000    22944363.273 7 120573579.56807      -299.134 7        44.602                                    22944360.054 6  93953495.64206      -233.095 6        40.405    22944360.525 6  93953494.65806      -233.060 6        40.696
G29         4.000    21083966.775 7 110797357.81407     -2220.750 7        47.916                                    21083962.684 8  86335768.77008     -1730.452 8        48.227    21083963.318 7  86335771.76607     -1730.409 7        44.299
S21         5.000    38497052.265 7 202303056.16307      -571.621 7        42.612
E13         6.000    25188049.789 7 132364399.55307      2029.976 7        45.246                                                                    25188053.292 7  98843739.76107      1515.946 7        47.768    25188052.638 8 101422243.14808      1555.433 8        48.597
E15         8.000    23589344.319 8 123963158.85608      -621.565 8        48.099                                                                    23589345.289 8  92570061.11408      -464.122 8        50.876    23589344.923 8  94984908.46708      -476.262 8        51.599
E06         9.000    28870479.174 5 151715391.55205      -173.407 5        34.529                                                                    28870482.610 6 113293991.03806      -129.539 6        37.172    28870482.126 6 116249483.76106      -133.141 6        38.330
E30        10.000    26773769.659 7 140697304.65207     -3174.578 7        42.182                                                                    26773772.468 7 105066293.18907     -2370.526 7        44.960    26773771.344 7 107807139.92907     -2432.401 7        45.351
G26        11.000    21092671.058 7 110843110.51207      1179.036 7        47.671                                    21092670.454 8  86371438.31208       918.728 8        48.586    21092670.506 7  86371458.32407       918.751 7        45.002
S27        12.000    39285321.073 6 206445700.08206      -555.770 6        36.023
R15        13.000    19767442.148 8 105631518.66508     -2823.859 8        52.060                                                                    19767442.639 7  82157989.52807     -2196.382 7        47.009
S36        14.000    38268846.129 7 201104602.84807      -570.765 7        44.150
S45        17.000    63478848.608 6 333584206.86406      -629.527 6        36.578
G31        18.000    22058010.842 7 115915910.09707     -2123.836 7        47.046                                    22058007.828 7  90324235.68907     -1654.937 7        44.781    22058008.328 7  90324214.69107     -1654.921 7        43.299
G16        19.000    23103872.614 6 121411921.13606      2724.293 6        40.989                                    23103867.989 4  94606809.89504      2122.820 4        25.519
E21        20.000    24950785.075 7 131117633.17007      1378.734 7        45.263                                                                    24950785.042 8  97912734.40308      1029.577 8        48.302    24950784.708 8 100466954.45708      1056.488 8        49.237
R14        21.000    23609637.435 7 125852747.72107     -4972.496 7        43.306                                                                    23609644.246 6  97885546.81106     -3867.491 6        39.823
I06        22.000    38777817.605 6 152172652.08806      -441.540 6        41.054
S28        23.000    40974588.510 5 215322896.62805      -569.334 5        34.333
E34        24.000    26296217.681 6 138187868.27106     -3078.321 6        41.723                                                                    26296218.137 7 103192426.39207     -2298.708 7        44.634    26296217.887 7 105884382.54307     -2358.768 7        45.613
S23        25.000    38220306.053 7 200849011.65907      -574.248 7        44.668
C13        26.000                                                                                                                                    38024819.331 7 198005400.28707       246.284 7        44.802    38024820.404 7 153110444.60107       190.441 7        45.175    38024818.490 7 160895692.49807       200.114 7        42.940
G18        27.000    21086559.497 8 110810950.00808      1201.340 8        48.546                                    21086556.588 6  86346363.14806       936.109 6        40.226    21086556.694 7  86346354.15707       936.080 7        47.533
R24        28.000    22990324.811 7 122939941.24207     -4460.663 7        44.011                                                                    22990325.014 6  95620135.76006     -3469.602 6        39.369
I02        29.000    38361847.796 6 150540217.41406      -939.091 6        41.254
G28        30.000    22847529.492 7 120064740.88607     -3446.802 7        44.548                                    22847528.810 5  93557031.72105     -2685.823 5        32.066    22847528.974 7  93557028.72907     -2685.778 7        43.041
G04        31.000    25519978.784 6 134108407.85306     -1949.989 6        36.397                                    25519977.324 2 104500062.66902     -1519.502 2        15.619    25519977.178 5 104500070.66805     -1519.605 5        35.014
C12        32.000                                                                                                                                    24510135.130 7 127630970.24407     -3305.479 7        42.434    24510131.629 7  98692489.21907     -2555.934 7        47.643    24510130.304 7 103710710.04607     -2685.999 7        44.919
R17        33.000    19409914.022 8 103866733.46208     -1934.155 8        51.777                                                                    19409912.793 7  80785404.00907     -1504.343 7        47.209
R08        34.000    23831524.803 6 127616749.13906     -1118.046 6        37.161                                                                    23831524.912 6  99257473.47506      -869.497 6        40.296
R18        36.000    20069256.632 8 107131437.59808      1630.512 8        51.163                                                                    20069257.922 7  83324651.47807      1268.159 7        47.070
E27        37.000    23547105.290 8 123741106.41108     -1228.971 8        48.455                                                                    23547105.346 8  92404224.38508      -917.680 8        50.865    23547104.926 8  94814749.59508      -941.611 8        51.215
R16        38.000    19970581.200 8 106679373.07508      1550.327 8        52.443                                                                    19970581.190 8  82972899.89208      1205.797 8        48.496
C22        39.000                                                                                                                                    26289791.327 6 136897856.32606        47.307 6        40.098                                                                    26289786.064 6 111240703.93406        38.368 6        40.465
R09        40.000    24255897.379 6 129525179.34006      3719.364 6        41.161                                                                    24255897.852 6 100741822.91906      2892.964 6        40.250
C34        41.000                                                                                                                                    22198997.456 8 115596339.48508     -2260.487 8        49.623                                                                    22198997.213 8  93931633.27408     -1836.898 8        49.062
S44        42.000    40614752.481 6 213432150.96206      -504.873 6        37.868
C38        43.000                                                                                                                                    38646076.687 7 201240423.03407      -537.533 7        43.405                                                                    38646074.619 7 163524391.11107      -436.846 7        43.759
C05        44.000                                                                                                                                    39435253.977 6 205349713.60406      -507.381 6        37.826    39435251.260 7 158789438.47107      -392.270 7        42.552    39435253.173 6 166863558.41106      -412.412 6        40.527
C08        45.000                                                                                                                                    37931209.363 7 197517949.06607        42.856 7        42.193    37931203.864 7 152733481.77207        33.110 7        46.367    37931202.914 7 160499563.58607        34.803 7        42.808
E04        46.000    28603282.960 6 150311274.32906     -1229.540 6        36.571                                                                    28603283.895 6 112245442.45906      -918.008 6        40.048    28603283.117 6 115173581.79006      -941.946 6        40.327
R19        47.000    23525046.728 5 125843329.79205      3349.896 5        34.505                                                                    23525055.867 6  97878269.49906      2605.477 6        36.370
C43        48.000                                                                                                                                    21798663.881 8 113511675.18908       415.482 8        51.350                                                                    21798663.110 8  92237657.92808       337.544 8        49.221
C10        49.000                                                                                                                                    41319954.342 5 215163925.81605     -1266.611 5        31.721    41319953.214 5 166378431.56905      -979.651 5        35.429    41319951.450 5 174838333.65605     -1029.605 5        32.174
C44        50.000                                                                                                                                    26480004.386 6 137888444.01006     -3621.312 6        39.378                                                                    26480003.830 6 112045702.67406     -2942.792 6        39.111
S48        51.000    77222940.837 6 405809592.77806      -609.622 6        37.905
R01        52.000    23856257.703 6 127525402.05706      1894.948 6        38.745                                                                    23856259.653 5  99186413.86505      1473.539 5        33.084
C37        53.000                                                                                                                                    25324111.044 7 131869312.28807      2145.293 7        42.413                                                                    25324114.756 7 107154640.19807      1743.026 7        44.107
C60        54.000                                                                                                                                    40614759.388 6 211491877.78506      -500.181 6        40.527                                                                    40614745.872 6 171854436.70206      -406.462 6        40.462
C25        55.000                                                                                                                                    23255409.973 8 121097200.23208     -3361.555 8        48.772                                                                    23255409.606 7  98401469.57507     -2731.609 7        47.219
C23        56.000                                                                                                                                    22513271.827 8 117232859.67108      -444.601 8        50.779                                                                    22513263.942 8  95261410.47408      -361.432 8        50.239
C02        57.000                                                                                                                                    40798972.462 5 212450960.28105      -476.391 5        34.343    40798968.270 6 164280541.91906      -368.318 6        38.781    40798971.047 5 172633802.33005      -387.176 5        35.719
I03        58.000   114318944.200 6 372826789.41606      1025.231 6        41.652
C11        59.000                                                                                                                                    21559920.472 8 112268476.43508      -937.740 8        49.148    21559917.738 8  86813258.14108      -725.143 8        52.143    21559916.671 8  91227442.81208      -762.121 8        49.063
C28        60.000                                                                                                                                    26135421.915 6 136094103.02606      2468.777 6        41.123                                                                    26135429.621 6 110587699.17106      2006.047 6        38.489
> 2025 01 01 17 00  5.0000000  0 56
G20         1.000    24317395.397 6 127788974.52006     -2570.268 6        39.318                                    24317391.376 3  99575896.60503     -2002.811 3        20.024
G25         2.000    22897530.459 7 120327512.20207     -4004.141 7        42.148                                    22897530.894 6  93761794.72506     -3120.108 6        39.610    22897532.124 6  93761804.72006     -3120.072 6        40.508
G05         3.000    22944649.512 7 120575084.08207      -302.507 7        44.399                                    22944646.341 6  93954668.00006      -235.723 6        40.329    22944645.929 6  93954667.01706      -235.851 6        40.322
G29         4.000    21086080.583 8 110808465.95208     -2222.342 8        48.082                                    21086076.478 8  86344424.46808     -1731.695 8        48.191    21086077.024 7  86344427.46307     -1731.588 7        44.324
S21         5.000    38497594.731 7 202305914.56407      -571.577 7        42.866
E13         6.000    25186118.820 7 132354253.35607      2028.588 7        45.350                                                                    25186122.581 7  98836163.09207      1514.874 7        47.535    25186121.836 8 101414468.81208      1554.390 8        48.525
E15         8.000    23589936.927 8 123966272.76808      -623.760 8        48.258                                                                    23589937.848 8  92572386.44508      -465.820 8        50.674    23589937.465 8  94987294.45508      -477.987 8        51.515
E06         9.000    28870645.370 5 151716265.02405      -175.758 5        34.643                                                                    28870648.711 6 113294643.15906      -131.054 6        37.051    28870648.338 6 116250152.90906      -134.523 6        38.483
E30        10.000    26776790.721 7 140713179.71207     -3175.266 7        42.258                                                                    26776793.213 7 105078147.94007     -2371.073 7        44.585    26776792.307 7 107819303.93607     -2433.056 7        45.290
G26        11.000    21091550.609 7 110837221.89307      1176.604 7        47.744                                    21091549.879 8  86366849.78908       916.832 8        48.604    21091550.157 7  86366869.79407       916.889 7        44.968
S27        12.000    39285845.876 6 206448479.23506      -555.599 6        36.072
R15        13.000    19770085.974 8 105645647.59708     -2827.464 8        52.014                                                                    19770086.468 7  82168978.70107     -2199.125 7        47.099
S36        14.000    38269388.809 7 201107456.67107      -570.582 7        44.212
S45        17.000    63479391.879 6 333587355.27406      -629.628 6        36.507
G31        18.000    22060033.018 7 115926537.04907     -2126.782 7        47.066                                    22060030.093 7  90332516.43207     -1657.233 7        44.799    22060030.251 7  90332495.43107     -1657.249 7        43.046
G16        19.000    23101280.842 6 121398302.45106      2723.286 6        41.416                                    23101276.366 4  94596197.94104      2122.044 4        25.579
E21        20.000    24949473.688 7 131110742.38307      1377.742 7        45.458                                                                    24949473.727 8  97907588.69008      1028.817 8        48.102    24949473.419 8 100461674.50608      1055.699 8        49.184
R14        21.000    23614302.245 7 125877612.49407     -4973.224 7        43.579                                                                    23614308.296 6  97904886.03406     -3868.023 6        39.856
I06        22.000    38778380.285 6 152174860.15706      -441.641 6        41.106
S28        23.000    40975131.400 5 215325742.69005      -569.129 5        34.538
E34        24.000    26299147.069 6 138203262.96206     -3079.364 6        41.456                                                                    26299147.561 7 103203922.44807     -2299.532 7        44.409    26299147.354 7 105896178.49107     -2359.587 7        45.529
S23        25.000    38220854.404 7 200851883.09907      -574.208 7        44.814
C13        26.000                                                                                                                                    38024583.083 7 198004172.00207       245.331 7        44.950    38024584.627 7 153109494.82607       189.675 7        45.205    38024582.582 7 160894694.42507       199.264 7        42.969
G18        27.000    21085417.835 8 110804950.48508      1198.636 8        48.873                                    21085414.893 6  86341688.21506       933.998 6        40.210    21085415.317 7  86341679.23007       933.978 7        47.891
R24        28.000    22994495.259 7 122962245.77307     -4460.961 7        43.227                                                                    22994495.665 6  95637483.74706     -3469.688 6        39.697
I02        29.000    38363044.985 6 150544913.69506      -939.218 6        41.204
G28        30.000    22850809.153 7 120081979.72607     -3448.539 7        44.415                                    22850809.192 5  93570464.58305     -2687.175 5        32.138    22850809.734 7  93570461.58407     -2687.240 7        43.340
G04        31.000    25521835.512 6 134118165.08106     -1952.607 6        36.091                                    25521833.991 2 104507665.75402     -1521.535 2        15.952    25521833.434 5 104507673.75905     -1521.354 5        34.662
C12        32.000                                                                                                                                    24513309.036 7 127647499.30507     -3305.883 7        42.360    24513305.756 7  98705270.53707     -2556.419 7        47.501    24513304.616 7 103724141.26507     -2686.447 7        44.972
R17        33.000    19411722.846 8 103876412.26608     -1937.117 8        52.007                                                                    19411721.511 7  80792931.96807     -1506.700 7        47.236
R08        34.000    23832571.404 6 127622350.58206     -1122.210 6        37.936                                                                    23832570.426 6  99261830.22906      -872.785 6        40.379
R18        36.000    20067731.018 8 107123292.84308      1627.582 8        51.350                                                                    20067732.004 7  83318316.70107      1265.830 7        46.919
E27        37.000    23548275.561 8 123747255.71408     -1230.650 8        48.564                                                                    23548275.550 8  92408816.40508      -918.978 8        50.727    23548275.098 8  94819461.40308      -942.943 8        51.061
R16        38.000    19969131.398 8 106671630.67608      1546.807 8        52.033                                                                    19969131.510 8  82966878.03208      1203.088 8        48.410
C22        39.000                                                                                                                                    26289747.265 6 136897626.92506        44.657 6        40.179                                                                    26289742.025 6 111240517.51906        36.228 6        40.441
R09        40.000    24252414.532 6 129506582.68806      3719.248 6        41.828                                                                    24252415.550 6 100727358.97806      2892.718 6        41.380
C34        41.000                                                                                                                                    22201168.580 8 115607646.02708     -2261.957 8        49.717                                                                    22201168.512 8  93940820.76708     -1838.019 8        49.148
S44        42.000    40615231.973 6 213434675.02006      -504.605 6        37.894
C38        43.000                                                                                                                                    38646593.746 7 201243113.68807      -538.599 7        43.723                                                                    38646591.312 7 163526577.47507      -437.536 7        43.645
C05        44.000                                                                                                                                    39435741.473 6 205352250.81206      -507.370 6        38.147    39435738.331 7 158791400.42007      -392.247 7        42.512    39435740.455 6 166865620.12506      -412.262 6        40.563
C08        45.000                                                                                                                                    37931168.098 7 197517738.22807        41.622 7        42.068    37931163.334 7 152733318.74307        32.286 7        46.220    37931162.299 7 160499392.27407        33.822 7        42.912
E04        46.000    28604453.852 6 150317426.36606     -1231.469 6        36.586                                                                    28604454.582 6 112250036.52306      -919.567 6        40.026    28604453.990 6 115178295.70606      -943.540 6        40.193
R19        47.000    23521915.812 5 125826583.41305      3348.856 5        34.176                                                                    23521924.236 6  97865244.61606      2604.711 6        36.416
C43        48.000                                                                                                                                    21798266.078 8 113509602.88508       413.598 8        51.378                                                                    21798265.083 8  92235974.01208       336.092 8        49.197
C10        49.000                                                                                                                                    41321171.831 5 215170260.75505     -1266.927 5        31.887    41321169.731 5 166383330.11905      -979.729 5        35.410    41321167.870 5 174843481.25605     -1029.335 5        31.970
C44        50.000                                                                                                                                    26483481.774 6 137906551.51906     -3621.331 6        39.354                                                                    26483481.238 6 112060416.50706     -2942.697 6        38.913
S48        51.000    77223496.378 6 405812640.60106      -609.497 6        37.958
R01        52.000    23854487.625 6 127515935.36106      1891.965 6        39.012                                                                    23854488.554 5  99179050.89205      1471.668 5        32.395
C37        53.000                                                                                                                                    25322052.553 7 131858590.38307      2143.777 7        42.779                                                                    25322055.850 7 107145927.75007      1741.956 7        44.108
C60        54.000                                                                                                                                    40615239.949 6 211494378.91906      -500.245 6        40.505                                                                    40615226.227 6 171856469.07106      -406.342 6        40.367
C25        55.000                                                                                                                                    23258638.861 8 121114012.51408     -3363.122 8        48.901                                                                    23258638.171 7  98415130.93007     -2732.793 7        47.262
C23        56.000                                                                                                                                    22513700.043 8 117235090.19708      -447.398 8        50.954                                                                    22513692.267 8  95263222.95608      -363.601 8        50.254
C02        57.000                                                                                                                                    40799430.365 5 212453341.94805      -476.302 5        34.090    40799425.967 6 164282383.60606      -368.469 6        38.724    40799428.028 5 172635737.65005      -386.972 5        35.948
I03        58.000   114317638.479 6 372821663.60006      1025.294 6        41.819
C11        59.000                                                                                                                                    21560821.727 8 112273170.32908      -939.644 8        49.309    21560819.201 8  86816887.76308      -726.569 8        52.015    21560818.074 8  91231256.98208      -763.570 8        49.036
C28        60.000                                                                                                                                    26133051.717 6 136081760.64006      2468.249 6        41.344                                                                    26133059.394 6 110577670.01906      2005.855 6        38.321
> 2025 01 01 17 00 10.0000000  0 56
G20         1.000    24319841.902 6 127801832.43606     -2572.907 6        39.336                                    24319838.114 3  99585915.77303     -2004.870 3        20.286
G25         2.000    22901340.618 6 120347535.57606     -4005.252 6        41.778                                    22901341.427 6  93777397.34606     -3120.973 6        39.459    22901342.226 6  93777407.34706     -3120.914 6        40.470
G05         3.000    22944938.820 7 120576605.61607      -306.049 7        44.187                                    22944935.802 6  93955853.61706      -238.482 6        40.334    22944935.832 6  93955852.62906      -238.428 6        40.057
G29         4.000    21088195.852 8 110819581.96608     -2224.059 8        48.047                                    21088191.779 8  86353086.30008     -1733.033 8        48.290    21088192.360 7  86353089.29907     -1732.951 7        43.996
S21         5.000    38498139.956 7 202308772.66107      -571.589 7        42.827
E13         6.000    25184189.407 7 132344113.78607      2027.231 7        45.088                                                                    25184193.040 7  98828591.38007      1513.868 7        47.504    25184192.365 8 101406699.57708      1553.341 8        48.512
E15         8.000    23590531.675 8 123969397.76508      -626.190 8        48.326                                                                    23590532.490 8  92574720.05808      -467.619 8        50.640    23590532.179 8  94989688.94008      -479.795 8        51.633
E06         9.000    28870813.844 5 151717149.77905      -178.045 5        34.605                                                                    28870817.634 6 113295303.80006      -132.950 6        37.240    28870816.836 6 116250830.77506      -136.393 6        38.429
E30        10.000    26779812.221 7 140729058.66607     -3176.240 7        42.201                                                                    26779814.762 7 105090005.61007     -2371.894 7        44.330    26779814.105 7 107831470.92807     -2433.773 7        45.458
G26        11.000    21090432.226 7 110831345.13307      1174.081 7        47.788                                    21090431.558 8  86362270.50508       914.866 8        48.724    21090431.726 7  86362290.50607       914.833 7        44.674
S27        12.000    39286376.211 6 206451257.95806      -555.808 6        36.110
R15        13.000    19772733.865 8 105659794.44408     -2831.226 8        52.494                                                                    19772734.085 7  82179981.80007     -2202.041 7        47.411
S36        14.000    38269932.948 7 201110311.21207      -570.665 7        44.358
S45        17.000    63479942.783 6 333590503.38906      -629.606 6        36.688
G31        18.000    22062058.078 7 115937178.75207     -2129.865 7        46.753                                    22062055.148 7  90340808.67807     -1659.637 7        44.892    22062055.272 7  90340787.68307     -1659.659 7        42.938
G16        19.000    23098689.906 6 121384688.79106      2722.229 6        41.099                                    23098685.826 4  94585589.90804      2121.213 4        25.684
E21        20.000    24948163.234 7 131103856.45407      1376.626 7        45.586                                                                    24948163.386 8  97902446.61608      1028.030 8        48.074    24948163.029 8 100456398.28908      1054.801 8        49.160
R14        21.000    23618967.152 7 125902480.63207     -4974.051 7        43.930                                                                    23618973.198 6  97924227.89506     -3868.721 6        39.613
I06        22.000    38778942.643 6 152177067.83406      -441.566 6        40.953
S28        23.000    40975676.321 5 215328588.32305      -569.129 5        34.800
E34        24.000    26302077.656 6 138218662.76206     -3080.558 6        41.395                                                                    26302078.091 7 103215422.29107     -2300.392 7        44.479    26302077.765 7 105907978.32907     -2360.424 7        45.460
S23        25.000    38221400.501 7 200854754.09507      -574.236 7        44.933
C13        26.000                                                                                                                                    38024347.453 7 198002948.70307       244.064 7        44.811    38024349.820 7 153108548.90007       188.798 7        45.147    38024347.645 7 160893700.39207       198.375 7        42.789
G18        27.000    21084278.599 8 110798964.36908      1195.906 8        48.744                                    21084275.730 6  86337023.72106       931.871 6        40.336    21084275.857 7  86337014.72607       931.846 7        47.274
R24        28.000    22998666.867 7 122984552.01607     -4461.466 7        43.179                                                                    22998667.147 6  95654833.01806     -3469.974 6        39.886
I02        29.000    38364241.489 6 150549610.70906      -939.467 6        41.368
G28        30.000    22854091.854 7 120099227.64507     -3450.514 7        43.860                                    22854091.345 5  93583904.52105     -2688.712 5        32.168    22854091.742 7  93583901.53007     -2688.770 7        42.734
G04        31.000    25523694.931 5 134127934.16405     -1954.917 5        35.448                                    25523693.018 2 104515278.04202     -1523.316 2        15.048    25523692.529 5 104515286.00905     -1523.335 5        34.019
C12        32.000                                                                                                                                    24516483.722 7 127664030.98507     -3306.665 7        42.305    24516480.412 7  98718053.88107     -2556.891 7        47.339    24516479.488 7 103737574.58807     -2686.785 7        44.816
R17        33.000    19413534.265 8 103886105.86808     -1940.219 8        51.724                                                                    19413533.043 7  80800471.45507     -1509.067 7        47.084
R08        34.000    23833620.881 6 127627972.30006     -1126.261 6        38.072                                                                    23833620.607 6  99266202.73106      -876.210 6        39.159
R18        36.000    20066208.081 8 107115162.64308      1624.563 8        51.354                                                                    20066208.951 7  83311993.23707      1263.512 7        46.857
E27        37.000    23549447.293 8 123753413.37108     -1232.433 8        48.698                                                                    23549447.301 8  92413414.66408      -920.325 8        50.687    23549446.836 8  94824179.61608      -944.334 8        51.145
R16        38.000    19967685.358 8 106663905.40708      1543.276 8        52.095                                                                    19967685.497 8  82960869.49208      1200.370 8        48.053
C22        39.000                                                                                                                                    26289705.526 6 136897410.56206        41.992 6        39.919                                                                    26289700.735 6 111240341.69106        34.090 6        40.522
R09        40.000    24248932.260 7 129487987.38907      3718.988 7        42.531                                                                    24248933.839 6 100712896.12506      2892.359 6        41.406
C34        41.000                                                                                                                                    22203341.368 8 115618959.47608     -2263.398 8        49.841                                                                    22203341.133 8  93950013.86708     -1839.162 8        48.872
S44        42.000    40615711.434 6 213437198.98306      -504.730 6        38.003
C38        43.000                                                                                                                                    38647111.462 7 201245809.20307      -539.573 7        43.517                                                                    38647108.944 7 163528767.80407      -438.492 7        43.488
C05        44.000                                                                                                                                    39436228.701 6 205354787.79506      -507.464 6        38.210    39436225.658 7 158793362.18807      -392.387 7        42.298    39436227.687 6 166867681.62106      -412.227 6        40.238
C08        45.000                                                                                                                                    37931128.304 7 197517532.90307        40.412 7        42.155    37931123.993 7 152733159.97207        31.313 7        46.103    37931122.860 7 160499225.41707        33.010 7        42.508
E04        46.000    28605626.579 6 150323589.34306     -1233.882 6        36.439                                                                    28605627.552 6 112254638.75806      -921.359 6        40.007    28605626.620 6 115183018.00106      -945.417 6        40.210
R19        47.000    23518786.116 5 125809842.48205      3347.547 5        33.868                                                                    23518795.063 6  97852223.98006      2603.671 6        37.841
C43        48.000                                                                                                                                    21797869.905 8 113507539.77908       411.668 8        51.307                                                                    21797868.834 8  92234297.56808       334.607 8        49.009
C10        49.000                                                                                                                                    41322387.859 5 215176595.84605     -1266.923 5        32.162    41322386.149 5 166388228.81705      -979.961 5        34.852    41322384.228 5 174848629.03105     -1029.416 5        32.365
C44        50.000                                                                                                                                    26486959.252 6 137924658.34706     -3621.410 6        39.441                                                                    26486958.542 6 112075129.77306     -2942.590 6        38.730
S48        51.000    77224048.292 6 405815688.21706      -609.500 6        38.165
R01        52.000    23852718.706 6 127506482.95806      1888.882 6        38.649                                                                    23852720.348 5  99171699.00405      1469.068 5        31.985
C37        53.000                                                                                                                                    25319995.309 7 131847875.35607      2142.198 7        43.139                                                                    25319998.136 7 107137220.89807      1740.890 7        43.831
C60        54.000                                                                                                                                    40615720.219 6 211496879.91706      -500.313 6        40.670                                                                    40615706.269 6 171858501.34406      -406.465 6        40.095
C25        55.000                                                                                                                                    23261868.833 8 121130832.51108     -3364.830 8        48.843                                                                    23261868.282 7  98428798.54307     -2734.191 7        47.015
C23        56.000                                                                                                                                    22514131.070 8 117237334.25908      -450.227 8        50.982                                                                    22514123.161 8  95265046.42608      -365.722 8        49.985
C02        57.000                                                                                                                                    40799886.905 5 212455723.48805      -476.154 5        34.438    40799883.329 6 164284225.15206      -368.347 6        38.652    40799885.466 5 172637672.82805      -386.974 5        35.609
I03        58.000   114316332.051 6 372816537.60106      1025.074 6        41.714
C11        59.000                                                                                                                                    21561724.981 8 112277873.65508      -941.649 8        49.289    21561722.386 8  86820524.68408      -728.176 8        51.945    21561721.308 8  91235078.81208      -765.091 8        48.883
C28        60.000                                                                                                                                    26130680.967 6 136069420.53906      2467.662 6        41.051                                                                    26130689.616 6 110567642.75306      2005.222 6        38.126
> 2025 01 01 17 00 15.0000000  0 56
G20         1.000    24322291.528 6 127814702.74206     -2575.583 6        39.129                                    24322287.173 3  99595944.59603     -2006.940 3        20.143
G25         2.000    22905152.281 6 120367564.40006     -4006.517 6        41.800                                    22905153.021 6  93793004.21806     -3121.958 6        39.465    22905153.549 6  93793014.21806     -3122.055 6        40.992
G05         3.000    22945232.113 7 120578144.17007      -309.515 7        44.233                                    22945228.461 6  93957052.50406      -241.182 6        40.496    22945228.306 6  93957051.51706      -241.207 6        40.195
G29         4.000    21090312.667 7 110830705.70007     -2225.612 7        47.870                                    21090308.570 8  86361754.14808     -1734.244 8        48.499    21090309.232 7  86361757.15207     -1734.293 7        44.241
S21         5.000    38498683.611 7 202311630.51707      -571.390 7        42.762
E13         6.000    25182261.183 7 132333980.72207      2025.906 7        45.064                                                                    25182264.754 7  98821024.51207      1512.787 7        47.533    25182264.104 8 101398935.30808      1552.291 8        48.518
E15         8.000    23591128.423 8 123972533.68108      -628.369 8        48.330                                                                    23591129.220 8  92577061.81908      -469.259 8        50.627    23591128.904 8  94992091.79508      -481.517 8        51.498
E06         9.000    28870983.988 5 151718046.00805      -180.318 5        35.005                                                                    28870988.185 6 113295973.19406      -134.740 6        38.592    28870987.309 6 116251517.61206      -138.163 6        40.169
E30        10.000    26782834.791 7 140744941.36607     -3177.090 7        42.066                                                                    26782837.165 7 105101866.06407     -2372.470 7        44.238    26782836.482 7 107843640.78507     -2434.330 7        45.353
G26        11.000    21089316.106 7 110825480.06507      1171.675 7        47.626                                    21089315.459 8  86357700.33008       912.994 8        48.963    21089315.732 7  86357720.33507       913.062 7        44.787
S27        12.000    39286907.354 6 206454036.52506      -555.806 6        36.291
R15        13.000    19775384.562 8 105673959.07508     -2834.829 8        52.292                                                                    19775384.414 7  82190998.73307     -2204.917 7        47.289
S36        14.000    38270474.327 7 201113166.01907      -571.088 7        44.325
S45        17.000    63480486.456 6 333593651.13606      -629.624 6        36.737
G31        18.000    22064085.873 7 115947835.04607     -2132.838 7        47.124                                    22064082.961 7  90349112.29007     -1661.953 7        45.142    22064083.779 7  90349091.29207     -1661.883 7        42.825
G16        19.000    23096100.461 6 121371080.02106      2721.227 6        41.251                                    23096096.184 4  94574985.68404      2120.436 4        26.072
E21        20.000    24946853.904 7 131096975.23407      1375.723 7        45.688                                                                    24946853.920 8  97897308.05108      1027.262 8        48.117    24946853.579 8 100451125.67108      1054.079 8        49.173
R14        21.000    23623633.424 7 125927352.25707     -4974.776 7        44.048                                                                    23623639.016 6  97943572.44506     -3869.327 6        39.589
I06        22.000    38779505.174 6 152179275.03706      -441.501 6        41.032
S28        23.000    40976218.760 5 215331433.56705      -569.116 5        34.743
E34        24.000    26305009.248 6 138234067.53106     -3081.688 6        41.588                                                                    26305009.514 7 103226925.84207     -2301.243 7        44.518    26305009.159 7 105919781.97207     -2361.233 7        45.403
S23        25.000    38221946.115 7 200857624.77307      -574.331 7        44.831
C13        26.000                                                                                                                                    38024113.452 7 198001730.16807       243.073 7        44.734    38024115.688 7 153107606.65707       188.055 7        44.879    38024113.614 7 160892710.22307       197.564 7        42.715
G18        27.000    21083142.004 8 110792991.50808      1193.128 8        48.691                                    21083139.110 6  86332369.55806       929.707 6        40.586    21083139.464 7  86332360.56207       929.698 7        47.394
R24        28.000    23002839.865 7 123006859.66407     -4461.777 7        44.328                                                                    23002839.107 6  95672183.40306     -3470.326 6        40.102
I02        29.000    38365438.752 6 150554307.89406      -939.699 6        41.309
G28        30.000    22857376.131 7 120116484.44407     -3452.325 7        44.524                                    22857375.260 5  93597351.37905     -2690.119 5        32.156    22857375.593 7  93597348.37807     -2690.181 7        43.570
G04        31.000    25525556.949 5 134137715.17705     -1957.450 5        34.810                                    25525554.068 2 104522899.59102     -1525.307 2        15.190    25525554.716 5 104522907.59005     -1525.465 5        33.485
C12        32.000                                                                                                                                    24519658.934 7 127680565.16107     -3307.114 7        42.216    24519655.643 7  98730839.14707     -2557.382 7        47.285    24519654.786 7 103751009.95107     -2687.343 7        44.780
R17        33.000    19415348.462 8 103895813.99608     -1943.158 8        51.886                                                                    19415347.362 7  80808022.23107     -1511.339 7        47.407
R08        34.000    23834674.076 6 127633614.26006     -1130.710 6        36.813                                                                    23834674.053 6  99270590.95506      -879.342 6        39.276
R18        36.000    20064687.592 8 107107046.88008      1621.588 8        51.491                                                                    20064688.583 7  83305680.99307      1261.204 7        46.716
E27        37.000    23550620.594 8 123759579.23708     -1234.106 8        48.555                                                                    23550620.567 8  92418019.05208      -921.598 8        50.625    23550620.159 8  94828904.11908      -945.643 8        51.115
R16        38.000    19966242.434 8 106656197.13708      1539.858 8        51.890                                                                    19966242.042 7  82954874.17507      1197.707 7        47.976
C22        39.000                                                                                                                                    26289666.441 6 136897207.02606        39.219 6        40.036                                                                    26289661.600 6 111240176.31206        32.011 6        40.782
R09        40.000    24245450.474 7 129469393.10207      3718.632 7        42.267                                                                    24245451.395 6 100698433.93606      2892.241 6        41.430
C34        41.000                                                                                                                                    22205515.339 8 115630279.66508     -2264.824 8        49.980                                                                    22205515.090 8  93959212.43908     -1840.231 8        48.892
S44        42.000    40616195.040 6 213439722.64606      -504.766 6        38.009
C38        43.000                                                                                                                                    38647629.920 7 201248509.43207      -540.524 7        43.606                                                                    38647627.530 7 163530961.96007      -439.285 7        43.608
C05        44.000                                                                                                                                    39436715.696 6 205357324.30606      -507.317 6        38.015    39436712.680 7 158795323.59907      -392.362 7        42.392    39436714.754 6 166869742.74806      -412.182 6        40.248
C08        45.000                                                                                                                                    37931090.350 7 197517332.91907        39.428 7        42.313    37931085.455 7 152733005.35207        30.473 7        45.955    37931084.475 7 160499062.91807        32.040 7        42.544
E04        46.000    28606801.510 6 150329763.15906     -1236.208 6        36.798                                                                    28606802.328 6 112259249.07906      -923.141 6        39.447    28606801.439 6 115187748.59406      -947.160 6        40.286
R19        47.000    23515658.060 5 125793106.74305      3346.781 5        33.731                                                                    23515667.346 6  97839207.33706      2602.759 6        38.501
C43        48.000                                                                                                                                    21797475.407 8 113505485.69708       409.823 8        51.367                                                                    21797474.367 8  92232628.46308       333.103 8        48.994
C10        49.000                                                                                                                                    41323603.349 5 215182930.99705     -1267.265 5        32.162    41323603.475 5 166393127.54205      -979.679 5        35.143    41323600.990 5 174853776.85205     -1029.912 5        32.126
C44        50.000                                                                                                                                    26490436.221 6 137942764.38206     -3621.187 6        39.156                                                                    26490435.484 6 112089842.37806     -2942.377 6        38.652
S48        51.000    77224598.972 6 405818735.50206      -609.792 6        38.114
R01        52.000    23850952.927 6 127497044.75206      1886.259 6        39.898                                                                    23850955.153 5  99164358.19405      1466.898 5        32.120
C37        53.000                                                                                                                                    25317938.773 7 131837167.01607      2140.923 7        43.585                                                                    25317941.692 7 107128519.50107      1739.724 7        43.917
C60        54.000                                                                                                                                    40616200.364 6 211499380.64306      -500.251 6        40.708                                                                    40616186.687 6 171860533.38906      -406.403 6        40.219
C25        55.000                                                                                                                                    23265100.521 8 121147660.05208     -3366.381 8        48.765                                                                    23265099.966 7  98442472.28807     -2735.367 7        46.996
C23        56.000                                                                                                                                    22514564.677 8 117239591.68408      -452.967 8        51.177                                                                    22514556.706 8  95266880.77208      -368.036 8        49.897
C02        57.000                                                                                                                                    40800344.226 5 212458104.58405      -476.175 5        34.333    40800340.441 6 164286066.39306      -368.132 6        38.462    40800342.855 5 172639607.67905      -386.931 5        35.495
I03        58.000   114315025.863 6 372811411.23506      1025.272 6        41.723
C11        59.000                                                                                                                                    21562630.288 8 112282586.25008      -943.581 8        49.456    21562627.440 8  86824168.76608      -729.667 8        51.981    21562626.272 8  91238908.18308      -766.635 8        48.810
C28        60.000                                                                                                                                    26128311.180 6 136057082.56006      2467.303 6        40.846                                                                    26128320.126 6 110557617.20206      2004.951 6        38.108
> 2025 01 01 17 00 20.0000000  0 56
G20         1.000    24324743.255 6 127827585.40706     -2577.759 6        39.324                                    24324738.775 3  99605983.03803     -2008.661 3        19.910
G25         2.000    22908964.696 7 120387598.60707     -4007.272 7        42.129                                    22908965.633 6  93808615.28206     -3122.547 6        39.450    22908966.088 6  93808625.28006     -3122.552 6        41.287
G05         3.000    22945528.037 7 120579699.67607      -312.715 7        44.339                                    22945524.353 6  93958264.59306      -243.676 6        40.267    22945524.733 6  93958263.59206      -243.716 6        40.248
G29         4.000    21092430.630 7 110841837.10507     -2227.011 7        47.757                                    21092426.804 8  86370427.97008     -1735.334 8        48.306    21092427.492 7  86370430.96807     -1735.309 7        44.450
S21         5.000    38499224.677 7 202314487.98307      -571.268 7        42.720
E13         6.000    25180334.515 7 132323854.11807      2024.785 7        45.013                                                                    25180337.708 7  98813462.48107      1512.020 7        47.568    25180336.903 8 101391175.99708      1551.456 8        48.686
E15         8.000    23591727.013 8 123975680.49008      -630.400 8        48.167                                                                    23591728.001 8  92579411.71208      -470.721 8        50.679    23591727.687 8  94994502.99008      -483.054 8        51.647
E06         9.000    28871156.616 5 151718953.02605      -182.539 5        35.443                                                                    28871160.730 6 113296650.48906      -136.009 6        38.492    28871160.262 6 116252212.60406      -139.766 6        40.246
