     3.04           OBSERVATION DATA    M                   RINEX VERSION / TYPE
ssrcrin-15.6.1x                         20250101 193000 UTC PGM / RUN BY / DATE 
(00000000023479385599111004) Septentrio proprietary         COMMENT             
rref                                                        MARKER NAME         
01                                                          MARKER NUMBER       
geodetic                                                    MARKER TYPE         
NFB                 CLIMERS@TUW                             OBSERVER / AGENCY   
3297213             SEPT ASTERX SB3 PROB4.14.4              REC # / TYPE / VERS 
Unknown             Unknown                                 ANT # / TYPE        
  4127831.7439  1207192.8599  4695247.9340                  APPROX POSITION XYZ 
        0.0000        0.0000        0.0000                  ANTENNA: DELTA H/E/N
G   23 X1  C1C L1C D1C S1C C1W S1W C2W L2W D2W S2W C2L L2L  SYS / # / OBS TYPES 
       D2L S2L C5Q L5Q D5Q S5Q C1L L1L D1L S1L              SYS / # / OBS TYPES 
E   21 X1  C1C L1C D1C S1C C6C L6C D6C S6C C5Q L5Q D5Q S5Q  SYS / # / OBS TYPES 
       C7Q L7Q D7Q S7Q C8Q L8Q D8Q S8Q                      SYS / # / OBS TYPES 
S    9 X1  C1C L1C D1C S1C C5I L5I D5I S5I                  SYS / # / OBS TYPES 
R   17 X1  C1C L1C D1C S1C C2P L2P D2P S2P C2C L2C D2C S2C  SYS / # / OBS TYPES 
       C3Q L3Q D3Q S3Q                                      SYS / # / OBS TYPES 
C   25 X1  C1P L1P D1P S1P C5P L5P D5P S5P C2I L2I D2I S2I  SYS / # / OBS TYPES 
       C7I L7I D7I S7I C6I L6I D6I S6I C7D L7D D7D S7D      SYS / # / OBS TYPES 
J   17 X1  C1C L1C D1C S1C C2L L2L D2L S2L C5Q L5Q D5Q S5Q  SYS / # / OBS TYPES 
       C1L L1L D1L S1L                                      SYS / # / OBS TYPES 
I    5 X1  C5A L5A D5A S5A                                  SYS / # / OBS TYPES 
SEPTENTRIO RECEIVERS OUTPUT ALIGNED CARRIER PHASES.         COMMENT             
NO FURTHER PHASE SHIFT APPLIED IN THE RINEX ENCODER.        COMMENT             
G L1C                                                       SYS / PHASE SHIFT   
G L2W                                                       SYS / PHASE SHIFT   
G L2L  0.00000                                              SYS / PHASE SHIFT   
G L5Q  0.00000                                              SYS / PHASE SHIFT   
G L1L  0.00000                                              SYS / PHASE SHIFT   
E L1C  0.00000                                              SYS / PHASE SHIFT   
E L6C  0.00000                                              SYS / PHASE SHIFT   
E L5Q  0.00000                                              SYS / PHASE SHIFT   
E L7Q  0.00000                                              SYS / PHASE SHIFT   
E L8Q  0.00000                                              SYS / PHASE SHIFT   
S L1C                                                       SYS / PHASE SHIFT   
S L5I                                                       SYS / PHASE SHIFT   
R L1C                                                       SYS / PHASE SHIFT   
R L2P  0.00000                                              SYS / PHASE SHIFT   
R L2C                                                       SYS / PHASE SHIFT   
R L3Q  0.00000                                              SYS / PHASE SHIFT   
C L1P  0.00000                                              SYS / PHASE SHIFT   
C L5P  0.00000                                              SYS / PHASE SHIFT   
C L2I                                                       SYS / PHASE SHIFT   
C L7I                                                       SYS / PHASE SHIFT   
C L6I                                                       SYS / PHASE SHIFT   
C L7D                                                       SYS / PHASE SHIFT   
J L1C                                                       SYS / PHASE SHIFT   
J L2L  0.00000                                              SYS / PHASE SHIFT   
J L5Q  0.00000                                              SYS / PHASE SHIFT   
J L1L  0.00000                                              SYS / PHASE SHIFT   
I L5A                                                       SYS / PHASE SHIFT   
  2025     1     1    19    30    0.0000000     GPS         TIME OF FIRST OBS   
 C1C    0.000 C2C    0.000 C2P    0.000                     GLONASS COD/PHS/BIS 
DBHZ                                                        SIGNAL STRENGTH UNIT
    18                                                      LEAP SECONDS        
 24 R01  1 R02 -4 R03  5 R04  6 R05  1 R06 -4 R07  5 R08  6 GLONASS SLOT / FRQ #
    R09 -2 R10 -7 R11  0 R12 -1 R13 -2 R14 -7 R15  0 R16 -1 GLONASS SLOT / FRQ #
    R17  4 R18 -3 R19  3 R20  2 R21  4 R22 -3 R23  3 R24  2 GLONASS SLOT / FRQ #
                                                            END OF HEADER       
> 2025 01 01 19 30  0.0000000  0 56
G10         1.000    22280183.520 7 117083245.05607      2277.509 7        47.684                                    22280182.412 7  91233756.76807      1774.681 7        47.088    22280181.984 7  91233733.77307      1774.634 7        42.679
G15         2.000    23803938.728 6 125090563.58206        54.778 6        40.522                                    23803934.557 5  97473158.67105        42.689 5        33.760    23803934.639 6  97473161.65906        42.667 6        37.440
C33         3.000                                                                                                                                    25214697.380 7 131299558.90807      2627.249 7        42.847                                                                    25214710.800 7 106691701.87807      2134.721 7        44.739
G29         4.000    25731451.504 4 135220024.61104     -3883.326 4        27.078                                    25731449.679 1 105366410.93901     -3025.903 1         8.000    25731447.497 3 105366413.91403     -3025.790 3        23.505
S21         5.000    38540384.823 7 202530827.10607      -532.873 7        42.125
E13         6.000    23379944.681 8 122862789.79608      -972.614 8        48.245                                                                    23379944.883 8  91748395.53708      -726.264 8        50.800    23379944.351 8  94141801.38408      -745.213 8        51.426
G23         7.000    20975528.605 7 110227271.31507      -142.319 7        47.822                                    20975524.615 6  85891417.74906      -110.897 6        39.411    20975525.068 7  85891416.74407      -110.932 7        47.039
E15         8.000    26294398.859 6 138178321.57406     -2971.328 6        41.990                                                                    26294399.541 7 103185281.24407     -2218.790 7        44.769    26294399.331 7 105877047.22607     -2276.620 7        45.854
E05         9.000    27208575.226 5 142982026.26605     -1247.480 5        34.600                                                                    27208576.767 6 106772298.74206      -931.632 6        39.862    27208576.364 6 109557664.77306      -955.800 6        41.299
G07        10.000    25233878.187 6 132604956.45806      -217.895 6        40.386                                    25233874.170 5 103328528.66505      -169.787 5        31.547    25233874.404 6 103328532.69106      -169.756 6        36.510
G26        11.000    22520450.755 7 118346141.26607     -3643.103 7        45.097                                    22520450.333 7  92217955.22307     -2838.782 7        43.581    22520449.898 7  92217975.21907     -2838.727 7        42.506
S27        12.000    39287783.998 5 206458702.45105      -502.896 5        35.781
R20        13.000    23286457.177 5 124523190.59705      2642.739 5        35.848                                                                    23286460.208 6  96851433.69006      2055.440 6        39.363
S36        14.000    38310565.030 7 201323901.91307      -531.871 7        43.767
G27        15.000    20782858.534 8 109214942.65608      1214.938 8        48.690                                    20782856.401 8  85102711.31308       946.706 8        51.196    20782856.888 7  85102625.30707       946.680 7        45.520
S45        17.000    63522715.762 6 333814332.22606      -583.071 6        37.093
E08        18.000    28684886.262 5 150740109.54905      2164.639 5        32.407                                                                    28684887.023 6 112565660.38406      1616.348 6        37.270    28684886.229 6 115502152.48506      1658.541 6        37.236
G16        19.000    20908578.161 8 109875584.09708     -1953.360 8        48.637                                    20908573.331 6  85617458.79806     -1522.101 6        39.483
E21        20.000    24182962.902 8 127082707.45008     -1913.618 8        48.141                                                                    24182962.653 8  94899642.22908     -1429.000 8        49.884    24182962.305 8  97375259.67608     -1466.231 8        50.797
E26        21.000    25138067.158 7 132101776.21407      1450.047 7        45.470                                                                    25138065.876 7  98647624.93407      1082.805 7        47.895    25138065.477 8 101221017.07208      1111.046 8        49.048
I06        22.000    38770116.507 6 152142482.47006      -340.908 6        41.414
S28        23.000    41009656.717 5 215507203.85605      -525.919 5        33.509
G08        24.000    23173784.782 6 121779070.14806      2584.057 6        41.971                                    23173783.025 6  94892781.29606      2013.548 6        36.881    23173783.676 6  94892782.29206      2013.414 6        38.312
S23        25.000    38265722.052 7 201087706.56307      -532.682 7        44.305
C13        26.000                                                                                                                                    38138551.868 7 198597647.11007     -1264.247 7        43.987    38138553.147 7 153568409.83407      -977.708 7        45.171    38138551.211 7 161376943.44607     -1027.371 7        42.396
G18        27.000    22191456.742 7 116617243.88407     -3027.248 7        46.139                                    22191452.895 5  90870752.60205     -2358.894 5        34.971    22191452.677 7  90870743.60207     -2358.919 7        44.656
I02        29.000    39778962.733 6 156101292.41306     -1058.209 6        40.067
C14        30.000                                                                                                                                    24154664.276 7 125779697.93007      1706.723 7        43.862    24154660.031 7  97260835.47007      1319.818 7        47.951    24154658.457 7 102206293.49407      1386.820 7        45.660
R02        31.000    22520263.052 7 120172478.55007     -1971.391 7        46.527                                                                    22520262.962 6  93467504.16006     -1533.442 6        41.216
E03        32.000    27921041.898 6 146726073.78606       879.027 6        37.811                                                                    27921041.907 6 109568185.86206       656.426 6        40.276    27921041.622 7 112426479.56107       673.538 7        42.074
R17        33.000    24233619.283 6 129679358.68706     -3924.816 6        41.030                                                                    24233619.108 6 100861890.45906     -3052.441 6        38.715
R03        34.000    21673639.508 8 116020714.21408      1695.937 8        48.349                                                                    21673637.922 7  90238354.57107      1319.014 7        45.056
R10        35.000    21883584.165 7 116651876.31107      1682.678 7        42.427
R18        36.000    20575391.051 8 109833243.21408     -2727.356 8        48.710                                                                    20575390.606 7  85426061.98907     -2121.320 7        45.994
E27        37.000    27162670.106 6 142741011.81406     -3676.610 6        41.159                                                                    27162671.692 7 106592460.62007     -2745.520 7        44.515    27162671.025 7 109373114.29407     -2817.152 7        44.798
R16        38.000    22519441.989 7 120294916.91207     -4885.610 7        46.116                                                                    22519444.191 7  93562762.40307     -3799.815 7        42.910
G13        39.000    24918944.521 5 130949932.03505      -562.230 5        35.071                                    24918941.292 2 102038896.39502      -438.069 2        14.667
R09        40.000    20470316.095 8 109310418.11308     -1734.554 8        50.130                                                                    20470315.174 8  85019238.55008     -1349.133 8        48.539
C34        41.000                                                                                                                                    26471063.809 6 137842089.30206     -3337.661 6        39.616                                                                    26471065.044 6 112008122.67406     -2712.370 6        40.029
S44        42.000    40578636.943 6 213242365.13906      -510.160 6        37.501
C38        43.000                                                                                                                                    39897118.171 6 207754921.46506     -1719.175 6        41.602                                                                    39897116.291 6 168817954.11206     -1397.033 6        40.789
C05        44.000                                                                                                                                    39366523.747 6 204991841.15406      -462.439 6        39.168    39366519.291 7 158512716.11207      -357.603 7        43.642    39366520.050 6 166572763.60906      -375.997 6        39.474
C08        45.000                                                                                                                                    38491887.176 6 200437547.44906     -1531.444 6        40.191    38491880.502 7 154991101.53707     -1184.067 7        43.206    38491880.019 6 162871977.30906     -1244.455 6        41.437
C21        46.000                                                                                                                                    25989310.861 7 135333162.21707     -2357.960 7        42.317                                                                    25989305.529 6 109969254.31206     -1916.096 6        41.366
R19        47.000    19732403.409 7 105555417.07207      -204.539 7        42.626                                                                    19732401.567 7  82098825.26907      -159.118 7        45.553
C43        48.000                                                                                                                                    22739822.696 8 118412548.25008     -2293.257 8        48.820                                                                    22739821.273 8  96220021.24408     -1863.530 8        48.664
C42        50.000                                                                                                                                    24016285.441 7 125059143.84907       265.881 7        46.448                                                                    24016293.238 7 101620846.05607       215.946 7        46.885
S48        51.000    77283069.627 6 406125446.46906      -570.590 6        37.720
C37        53.000                                                                                                                                    24202070.731 7 126026557.54207     -2199.747 7        45.717                                                                    24202074.274 7 102406923.98407     -1787.614 7        46.626
C60        54.000                                                                                                                                    40578639.436 6 211303817.56006      -505.532 6        40.367                                                                    40578623.188 6 171701628.43906      -410.901 6        39.396
C27        55.000                                                                                                                                    25436291.329 7 132453450.74507      2193.639 7        43.228                                                                    25436289.431 6 107629280.59706      1782.352 6        41.263
C23        56.000                                                                                                                                    25980369.524 6 135286915.36806     -3785.406 6        41.628                                                                    25980362.628 7 109931803.36907     -3076.050 7        42.337
C02        57.000                                                                                                                                    40701139.433 5 211941557.21605      -461.076 5        34.495    40701134.069 6 163886648.31106      -356.412 6        40.157    40701137.262 6 172219877.96206      -374.723 6        36.393
I03        58.000   111035288.506 6 359941067.81506      1040.797 6        40.822
C11        59.000                                                                                                                                    24396298.402 7 127038233.24307     -2956.517 7        42.635    24396295.226 7  98234171.43107     -2286.154 7        47.750    24396293.325 7 103229080.36307     -2402.475 7        44.578
C28        60.000                                                                                                                                    22197525.194 8 115588654.04708       831.532 8        50.059                                                                    22197523.788 8  93925385.78808       675.606 8        48.400
> 2025 01 01 19 30  5.0000000  0 56
G10         1.000    22278017.126 7 117071862.26807      2275.490 7        47.767                                    22278016.224 7  91224887.06807      1773.108 7        47.148    22278016.007 7  91224864.07107      1773.110 7        42.561
G15         2.000    23803887.386 6 125090297.76906        51.408 6        40.648                                    23803884.135 5  97472951.53905        40.057 5        34.048    23803884.573 6  97472954.52606        40.230 6        38.033
C33         3.000                                                                                                                                    25212175.217 7 131286425.13507      2626.310 7        42.827                                                                    25212188.491 7 106681029.64407      2134.081 7        44.543
G29         4.000    25735145.902 4 135239441.39704     -3883.904 4        27.748                                    25735144.625 1 105381540.95901     -3026.410 1         7.875    25735145.130 4                     -3025.409 4        24.075
S21         5.000    38540888.931 7 202533491.23407      -532.938 7        42.009
E13         6.000    23380870.724 8 122867656.43308      -974.112 8        48.338                                                                    23380871.018 8  91752029.71108      -727.474 8        50.908    23380870.451 8  94145530.36208      -746.385 8        51.341
G23         7.000    20975665.598 7 110227991.24907      -145.798 7        47.874                                    20975661.643 6  85891978.73506      -113.611 6        39.526    20975661.789 7  85891977.73907      -113.608 7        47.354
E15         8.000    26297226.069 6 138193178.42506     -2971.680 6        41.778                                                                    26297226.690 7 103196375.64707     -2219.065 7        44.885    26297226.595 7 105888431.05007     -2276.936 7        45.970
E05         9.000    27209763.090 5 142988269.03105     -1249.429 5        34.329                                                                    27209764.435 6 106776960.58406      -933.411 6        39.700    27209764.339 6 109562448.22206      -957.505 6        41.008
G07        10.000    25234086.371 6 132606052.74006      -220.656 6        41.089                                    25234082.834 5 103329382.91405      -171.938 5        31.811    25234082.954 6 103329386.91006      -171.922 6        36.405
G26        11.000    22523917.919 7 118364360.16907     -3644.713 7        44.989                                    22523917.240 7  92232151.76907     -2840.036 7        43.594    22523917.142 7  92232171.77207     -2839.978 7        42.152
S27        12.000    39288263.727 6 206461217.15006      -503.044 6        36.125
R20        13.000    23283986.058 6 124509978.42306      2642.200 6        36.382                                                                    23283990.515 6  96841157.57406      2054.843 6        39.775
S36        14.000    38311070.422 7 201326561.25307      -532.004 7        43.718
G27        15.000    20781703.971 8 109208872.96208      1212.829 8        49.023                                    20781701.381 8  85097981.68108       945.061 8        51.321    20781701.762 7  85097895.67507       945.076 7        45.430
S45        17.000    63523223.483 6 333817246.55506      -582.870 6        37.112
E08        18.000    28682827.033 5 150729287.78005      2164.372 5        32.772                                                                    28682827.692 6 112557579.17806      1616.047 6        37.342    28682827.166 6 115493860.47106      1658.313 6        37.698
G16        19.000    20910438.196 8 109885358.76808     -1956.592 8        48.727                                    20910433.423 6  85625075.42306     -1524.617 6        39.598
E21        20.000    24184784.778 8 127092280.72808     -1915.754 8        48.187                                                                    24184784.396 8  94906791.11408     -1430.645 8        49.984    24184784.090 8  97382595.05108     -1467.948 8        50.711
E26        21.000    25136688.257 7 132094529.02007      1448.783 7        45.401                                                                    25136686.813 7  98642213.06807      1081.897 7        47.987    25136686.418 8 101215464.03208      1110.126 8        49.064
I06        22.000    38770550.876 6 152144186.58606      -340.920 6        41.542
S28        23.000    41010155.616 5 215509834.01405      -526.170 5        33.904
G08        24.000    23171326.198 7 121766151.74107      2583.232 7        42.152                                    23171324.764 6  94882715.00406      2012.909 6        36.877    23171325.272 6  94882716.01106      2012.785 6        38.378
S23        25.000    38266229.545 7 201090370.14907      -532.811 7        44.316
C13        26.000                                                                                                                                    38139765.977 7 198603969.96007     -1264.952 7        44.023    38139767.265 7 153573299.05807      -978.164 7        45.090    38139765.310 7 161382081.30707     -1027.936 7        42.305
G18        27.000    22194337.905 7 116632383.15607     -3028.546 7        46.241                                    22194333.761 5  90882549.44205     -2359.909 5        35.033    22194333.785 7  90882540.44707     -2359.891 7        44.321
I02        29.000    39780310.940 6 156106583.84206     -1058.574 6        40.276
C14        30.000                                                                                                                                    24153025.960 7 125771169.14407      1704.622 7        43.960    24153022.155 8  97254240.48808      1318.149 8        48.019    24153020.416 7 102199363.18807      1385.134 7        45.533
R02        31.000    22522112.557 7 120182345.84007     -1975.609 7        46.533                                                                    22522111.849 6  93475178.70606     -1536.591 6        40.841
E03        32.000    27920206.321 6 146721683.08606       877.229 6        38.075                                                                    27920206.484 6 109564907.10806       654.931 6        40.596    27920206.187 6 112423115.28106       671.977 6        41.833
R17        33.000    24237286.595 6 129698982.14206     -3924.688 6        40.303                                                                    24237286.654 6 100877153.16906     -3052.523 6        39.303
R03        34.000    21672056.619 8 116012243.51408      1692.267 8        48.436                                                                    21672055.626 7  90231766.26207      1316.186 7        44.959
R10        35.000    21882008.090 7 116643472.95807      1678.714 7        43.634
R18        36.000    20577945.970 8 109846883.08208     -2728.748 8        48.589                                                                    20577946.495 7  85436670.77507     -2122.357 7        46.296
E27        37.000    27166168.111 6 142759396.39506     -3677.379 6        40.393                                                                    27166170.239 7 106606189.34907     -2746.014 7        44.585    27166169.547 7 109387201.17107     -2817.676 7        44.823
R16        38.000    22524015.920 7 120319347.96307     -4886.978 7        46.082                                                                    22524018.002 7  93581764.32707     -3801.070 7        43.886
G13        39.000    24919480.697 5 130952751.22405      -565.434 5        35.109                                    24919477.784 2 102041093.17102      -440.604 2        13.576
R09        40.000    20471942.550 8 109319101.94008     -1739.023 8        50.274                                                                    20471941.415 8  85025992.63808     -1352.590 8        48.636
C34        41.000                                                                                                                                    26474268.812 6 137858778.40006     -3337.888 6        39.919                                                                    26474269.885 6 112021683.93506     -2712.357 6        39.739
S44        42.000    40579124.609 6 213244916.09406      -510.346 6        37.391
C38        43.000                                                                                                                                    39898769.101 6 207763517.65406     -1719.492 6        41.692                                                                    39898767.118 6 168824939.23306     -1397.249 6        40.641
C05        44.000                                                                                                                                    39366967.994 6 204994153.06706      -462.294 6        38.964    39366963.207 7 158514503.84007      -357.514 7        43.625    39366964.114 6 166574642.25506      -375.743 6        39.523
C08        45.000                                                                                                                                    38493357.965 6 200445205.30506     -1531.933 6        40.362    38493351.344 7 154997023.07407     -1184.574 7        43.350    38493350.668 6 162878199.94806     -1244.675 6        41.092
C21        46.000                                                                                                                                    25991575.973 7 135344957.79407     -2360.486 7        42.519                                                                    25991570.506 6 109978839.21606     -1917.978 6        41.120
R19        47.000    19732595.071 7 105556444.85207      -206.712 7        42.595                                                                    19732593.744 7  82099624.63607      -160.692 7        45.321
C43        48.000                                                                                                                                    22742025.097 8 118424017.11508     -2294.370 8        49.159                                                                    22742023.749 8  96229340.66408     -1864.396 8        48.559
C42        50.000                                                                                                                                    24016031.628 7 125057821.24407       263.037 7        46.421                                                                    24016039.323 7 101619771.35507       213.718 7        46.801
S48        51.000    77283586.913 6 406128298.79106      -570.473 6        37.648
C37        53.000                                                                                                                                    24204184.098 7 126037562.22407     -2202.186 7        45.877                                                                    24204187.559 7 102415866.21107     -1789.451 7        46.643
C60        54.000                                                                                                                                    40579125.028 6 211306345.31906      -505.733 6        40.317                                                                    40579108.672 6 171703682.47506      -410.916 6        39.480
C27        55.000                                                                                                                                    25434184.722 7 132442483.19407      2193.326 7        42.686                                                                    25434183.297 6 107620368.58306      1782.162 6        41.297
C23        56.000                                                                                                                                    25984004.511 7 135305842.47507     -3785.657 7        42.017                                                                    25983997.451 7 109947183.20107     -3076.046 7        42.146
C02        57.000                                                                                                                                    40701581.972 5 211943862.80605      -461.132 5        34.471    40701576.930 6 163888431.14206      -356.633 6        40.057    40701580.180 6 172221751.46206      -374.786 6        36.533
I03        58.000   111033962.303 6 359935863.61706      1040.723 6        40.768
C11        59.000                                                                                                                                    24399137.124 7 127053017.18507     -2957.097 7        42.813    24399134.354 7  98245603.31007     -2286.691 7        47.884    24399132.345 7 103241093.53907     -2402.901 7        44.417
C28        60.000                                                                                                                                    22196727.320 8 115584499.21208       830.219 8        50.074                                                                    22196725.892 8  93922009.66108       674.624 8        48.287
> 2025 01 01 19 30 10.0000000  0 56
G10         1.000    22275853.497 8 117060489.58608      2273.754 8        48.123                                    22275852.003 7  91216025.24307      1771.754 7        47.166    22275852.253 7  91216002.23707      1771.764 7        43.122
G15         2.000    23803839.919 6 125090048.64106        48.308 6        40.527                                    23803836.915 5  97472757.41605        37.637 5        34.114    23803837.231 6  97472760.42306        37.496 6        37.622
C33         3.000                                                                                                                                    25209653.998 7 131273295.93407      2625.635 7        42.984                                                                    25209667.095 7 106670361.09007      2133.463 7        44.631
G29         4.000    25738841.220 4 135258860.00004     -3883.773 4        27.078                                    25738839.804 1 105396672.35501     -3026.451 1         6.875    25738842.952 3                     -3025.449 3        23.962
S21         5.000    38541394.792 6 202536155.48906      -532.700 6        41.983
E13         6.000    23381798.291 8 122872530.31808      -975.271 8        48.178                                                                    23381798.456 8  91755669.30608      -728.289 8        50.901    23381797.946 8  94149264.90308      -747.254 8        51.421
G23         7.000    20975806.039 8 110228728.02108      -148.778 8        48.020                                    20975801.864 6  85892552.84506      -115.934 6        39.541    20975802.018 7  85892551.84907      -115.973 7        47.233
E15         8.000    26300053.590 6 138208037.11506     -2971.732 6        41.235                                                                    26300054.433 7 103207471.41507     -2219.162 7        44.880    26300054.126 7 105899816.27607     -2276.993 7        45.980
E05         9.000    27210952.954 5 142994523.30605     -1251.721 5        34.810                                                                    27210954.697 6 106781630.90406      -934.602 6        39.784    27210954.580 6 109567240.41706      -959.157 6        41.266
G07        10.000    25234297.306 6 132607162.63906      -223.172 6        39.943                                    25234294.136 5 103330247.77805      -173.911 5        31.781    25234293.669 6 103330251.76206      -173.794 6        36.616
G26        11.000    22527386.106 7 118382587.22707     -3646.047 7        44.907                                    22527385.681 7  92246354.66407     -2841.078 7        43.530    22527385.516 7  92246374.66807     -2841.060 7        42.214
S27        12.000    39288737.419 5 206463731.74605      -502.823 5        35.957
R20        13.000    23281518.237 6 124496770.14406      2641.497 6        36.673                                                                    23281519.966 6  96830884.50306      2054.372 6        40.167
S36        14.000    38311575.880 7 201329220.58507      -531.735 7        43.780
G27        15.000    20780550.860 8 109202813.48908      1211.131 8        48.895                                    20780548.302 8  85093260.01208       943.740 8        51.295    20780548.699 7  85093174.01707       943.668 7        45.285
S45        17.000    63523729.326 6 333820160.77006      -582.638 6        37.263
E08        18.000    28680767.969 5 150718467.29105      2164.235 5        33.192                                                                    28680768.536 6 112549498.95806      1616.137 6        37.248    28680767.812 6 115485569.47606      1658.171 6        37.883
G16        19.000    20912301.504 8 109895149.47508     -1959.476 8        48.670                                    20912296.534 6  85632704.54206     -1526.865 6        39.501
E21        20.000    24186608.609 7 127101864.82007     -1917.661 7        47.955                                                                    24186608.208 8  94913948.06308     -1432.029 8        49.923    24186607.857 8  97389938.70808     -1469.401 8        50.865
E26        21.000    25135310.291 7 132087287.58807      1447.989 7        45.384                                                                    25135308.793 7  98636805.50907      1081.298 7        47.931    25135308.427 8 101209915.41208      1109.452 8        49.108
I06        22.000    38770985.377 6 152145890.61006      -340.626 6        41.471
S28        23.000    41010659.282 5 215512465.09805      -525.928 5        33.802
G08        24.000    23168868.738 7 121753237.22807      2582.813 7        42.726                                    23168867.205 6  94872651.74006      2012.582 6        36.896    23168867.671 6  94872652.74606      2012.621 6        38.051
S23        25.000    38266735.219 7 201093034.01107      -532.645 7        44.238
C13        26.000                                                                                                                                    38140980.698 7 198610295.59907     -1265.155 7        44.066    38140981.855 7 153578190.45207      -978.301 7        45.099    38140980.039 7 161387221.39407     -1028.107 7        42.368
G18        27.000    22197219.921 7 116647528.74007     -3029.506 7        46.115                                    22197215.815 5  90894351.19305     -2360.656 5        34.990    22197216.210 7  90894342.19107     -2360.713 7        44.307
I02        29.000    39781659.869 6 156111875.92206     -1058.274 6        40.379
C14        30.000                                                                                                                                    24151390.017 7 125762650.80807      1702.867 7        44.087    24151386.376 7  97247653.58007      1316.746 7        47.913    24151384.691 7 102192441.34807      1383.542 7        45.409
R02        31.000    22523964.979 7 120192234.20707     -1979.566 7        46.389                                                                    22523965.375 6  93482869.65506     -1539.640 6        41.197
E03        32.000    27919372.641 6 146717302.19906       875.438 6        37.966                                                                    27919372.701 6 109561635.65106       653.742 6        40.496    27919372.560 7 112419758.46607       670.781 7        42.028
R17        33.000    24240953.946 6 129718605.44606     -3924.385 6        41.089                                                                    24240953.257 6 100892415.71106     -3052.350 6        38.934
R03        34.000    21670477.471 8 116003791.25308      1688.823 8        49.137                                                                    21670476.574 7  90225192.28707      1313.502 7        45.189
R10        35.000    21880436.095 7 116635088.95807      1675.131 7        43.513
R18        36.000    20580502.678 8 109860529.87208     -2729.827 8        48.865                                                                    20580503.057 7  85447284.94307     -2123.264 7        46.483
E27        37.000    27169667.292 6 142777783.71806     -3677.521 6        39.655                                                                    27169669.195 7 106619920.14307     -2746.246 7        44.509    27169668.401 7 109401290.15807     -2817.784 7        44.746
R16        38.000    22528591.075 7 120343785.33007     -4887.887 7        46.643                                                                    22528592.318 7  93600771.13807     -3801.686 7        44.036
G13        39.000    24920020.254 5 130955586.64205      -568.433 5        35.248                                    24920017.464 2 102043302.60502      -442.899 2        12.606
R09        40.000    20473573.233 8 109327807.83108     -1742.971 8        50.900                                                                    20473572.351 8  85032763.90008     -1355.850 8        48.528
C34        41.000                                                                                                                                    26477474.077 6 137875468.20706     -3337.883 6        40.200                                                                    26477474.890 6 112035245.75706     -2712.387 6        39.688
S44        42.000    40579607.097 6 213247467.32606      -510.034 6        37.505
C38        43.000                                                                                                                                    39900420.597 6 207772115.29106     -1719.444 6        41.900                                                                    39900418.173 6 168831925.51006     -1397.246 6        40.765
C05        44.000                                                                                                                                    39367411.655 6 204996465.16706      -462.166 6        39.162    39367407.145 7 158516291.71007      -357.513 7        43.759    39367408.155 6 166576521.02106      -375.805 6        39.589
C08        45.000                                                                                                                                    38494829.151 6 200452865.70706     -1532.115 6        40.386    38494822.348 7 155002946.58607     -1184.729 7        43.458    38494821.788 6 162884424.65406     -1245.031 6        40.818
C21        46.000                                                                                                                                    25993843.123 7 135356765.35107     -2362.496 7        42.432                                                                    25993837.951 6 109988433.82406     -1919.925 6        40.810
R19        47.000    19732788.834 7 105557483.45507      -208.590 7        42.698                                                                    19732788.007 7  82100432.45307      -162.185 7        45.219
C43        48.000                                                                                                                                    22744228.775 8 118435491.63908     -2295.242 8        49.347                                                                    22744227.296 8  96238664.65508     -1865.203 8        48.512
C42        50.000                                                                                                                                    24015780.582 7 125056512.85007       260.450 7        46.463                                                                    24015787.980 7 101618708.17707       211.541 7        46.844
S48        51.000    77284101.284 6 406131151.19206      -570.343 6        37.902
C37        53.000                                                                                                                                    24206299.967 7 126048578.47707     -2204.225 7        46.056                                                                    24206303.184 7 102424817.81207     -1791.147 7        46.433
C60        54.000                                                                                                                                    40579610.073 6 211308873.36606      -505.490 6        40.389                                                                    40579593.888 6 171705736.71706      -410.793 6        39.420
C27        55.000                                                                                                                                    25432078.730 7 132431517.45107      2193.163 7        42.785                                                                    25432077.335 6 107611458.02706      1782.014 6        41.025
C23        56.000                                                                                                                                    25987639.307 6 135324770.73406     -3785.554 6        41.864                                                                    25987632.474 7 109962563.94707     -3076.198 7        42.093
C02        57.000                                                                                                                                    40702025.481 5 211946168.63305      -461.046 5        34.667    40702019.902 6 163890214.16006      -356.291 6        40.017    40702022.746 6 172223625.13506      -374.608 6        36.193
I03        58.000   111032635.817 6 359930659.64906      1040.910 6        40.815
C11        59.000                                                                                                                                    24401976.396 7 127067804.00107     -2957.341 7        42.978    24401973.652 7  98257037.41307     -2286.858 7        47.692    24401971.998 7 103253109.03807     -2403.204 7        44.328
C28        60.000                                                                                                                                    22195930.741 8 115580350.75308       829.233 8        50.094                                                                    22195929.222 8  93918638.69808       673.715 8        48.226
> 2025 01 01 19 30 15.0000000  0 56
G10         1.000    22273691.386 8 117049126.95808      2271.760 8        48.097                                    22273689.772 7  91207171.25207      1770.201 7        47.268    22273690.226 7  91207148.26507      1770.105 7        43.299
G15         2.000    23803796.428 6 125089816.16306        44.977 6        40.417                                    23803792.838 5  97472576.25905        35.045 5        34.095    23803792.584 6  97472579.24706        35.152 6        37.675
C33         3.000                                                                                                                                    25207134.155 7 131260171.23607      2624.598 7        43.299                                                                    25207146.694 7 106659696.20007      2132.714 7        44.632
G29         4.000    25742536.847 4 135278280.26204     -3884.150 4        26.419                                    25742535.377 1 105411805.02101     -3026.615 1         7.375    25742533.530 3                     -3026.913 3        22.857
S21         5.000    38541902.643 7 202538819.74707      -532.704 7        42.040
E13         6.000    23382727.272 8 122877411.41408      -976.751 8        48.054                                                                    23382727.261 8  91759314.29008      -729.464 8        50.808    23382726.778 8  94153004.97008      -748.398 8        51.438
G23         7.000    20975949.299 7 110229481.61307      -152.244 7        47.854                                    20975945.318 6  85893140.06206      -118.629 6        39.559    20975945.324 7  85893139.06107      -118.636 7        47.192
E15         8.000    26302881.755 6 138222897.61706     -2972.138 6        41.375                                                                    26302882.329 7 103218568.53407     -2219.398 7        44.882    26302881.956 7 105911202.88707     -2277.273 7        46.017
E05         9.000    27212145.705 5 143000789.00405     -1254.291 5        34.324                                                                    27212147.384 6 106786309.75706      -936.516 6        39.574    27212147.034 6 109572041.32306      -960.996 6        40.787
G07        10.000    25234510.430 6 132608286.16906      -225.938 6        39.195                                    25234508.054 5 103331123.26005      -176.053 5        31.924    25234507.009 6 103331127.24506      -175.899 6        36.370
G26        11.000    22530856.452 7 118400822.36907     -3647.722 7        44.838                                    22530855.696 7  92260563.85907     -2842.380 7        43.481    22530856.042 7  92260583.85607     -2842.285 7        42.677
S27        12.000    39289216.970 6 206466245.85106      -502.592 6        36.019
R20        13.000    23279048.326 5 124483565.65505      2640.541 5        35.590                                                                    23279050.647 6  96820614.35906      2053.769 6        39.865
S36        14.000    38312082.775 7 201331879.63707      -531.633 7        43.712
G27        15.000    20779399.568 8 109196764.25708      1208.953 8        48.916                                    20779397.177 8  85088546.32108       942.040 8        51.316    20779397.653 7  85088460.31607       942.031 7        45.702
S45        17.000    63524233.560 6 333823075.10106      -582.609 6        36.960
E08        18.000    28678709.286 5 150707648.09805      2163.970 5        32.964                                                                    28678709.840 6 112541419.71306      1615.753 6        37.410    28678708.836 6 115477279.45106      1658.034 6        37.784
G16        19.000    20914167.408 8 109904956.15808     -1962.779 8        48.621                                    20914162.698 6  85640346.11206     -1529.440 6        39.510
E21        20.000    24188434.343 7 127111459.66407     -1919.938 7        47.993                                                                    24188434.049 8  94921113.04008     -1433.649 8        49.858    24188433.693 8  97397290.59708     -1471.090 8        50.828
E26        21.000    25133933.501 7 132080051.86607      1446.762 7        45.180                                                                    25133931.809 7  98631402.22707      1080.351 7        47.837    25133931.449 8 101204371.16308      1108.574 8        49.021
I06        22.000    38771419.367 6 152147594.56406      -340.711 6        41.306
S28        23.000    41011160.694 5 215515096.20805      -526.217 5        33.701
G08        24.000    23166411.920 7 121740326.53407      2581.962 7        42.290                                    23166410.383 6  94862591.46306      2011.922 6        36.866    23166410.843 6  94862592.46106      2011.894 6        38.108
S23        25.000    38267241.683 7 201095697.97007      -532.625 7        44.209
C13        26.000                                                                                                                                    38142195.865 7 198616623.98007     -1265.844 7        44.068    38142197.149 7 153583083.96207      -978.815 7        45.040    38142195.423 7 161392363.72107     -1028.598 7        42.402
G18        27.000    22200103.177 7 116662680.59307     -3030.854 7        46.123                                    22200099.082 5  90906157.83505     -2361.707 5        34.986    22200099.535 7  90906148.83707     -2361.685 7        44.522
I02        29.000    39783008.482 6 156117168.05106     -1058.385 6        40.222
C14        30.000                                                                                                                                    24149756.335 7 125754142.86407      1700.728 7        43.645    24149752.439 7  97241074.70907      1315.068 7        47.669    24149750.925 7 102185527.93807      1381.991 7        45.678
R02        31.000    22525821.600 7 120202143.59007     -1983.841 7        46.489                                                                    22525822.637 7  93490576.96107     -1542.996 7        42.449
E03        32.000    27918540.820 6 146712931.00506       873.493 6        37.841                                                                    27918540.936 6 109558371.45206       652.183 6        40.434    27918540.817 6 112416409.12206       669.246 6        41.652
R17        33.000    24244621.178 6 129738228.49706     -3924.438 6        41.020                                                                    24244619.500 6 100907678.07606     -3052.319 6        38.628
R03        34.000    21668902.655 8 115995357.32808      1685.068 8        49.148                                                                    21668900.929 7  90218632.57307      1310.596 7        44.817
R10        35.000    21878866.776 7 116626724.39407      1671.186 7        43.611
R18        36.000    20583060.667 8 109874183.47308     -2731.250 8        48.621                                                                    20583060.578 7  85457904.40807     -2124.341 7        46.711
E27        37.000    27173166.975 6 142796173.76606     -3678.156 6        39.270                                                                    27173168.586 7 106633652.95207     -2746.585 7        44.197    27173167.687 7 109415381.22007     -2818.298 7        44.724
R16        38.000    22533168.005 7 120368229.28607     -4889.221 7        46.977                                                                    22533168.361 7  93619783.10007     -3802.782 7        43.517
G13        39.000    24920563.202 5 130958438.32905      -571.628 5        35.090                                    24920560.122 2 102045524.68002      -445.415 2        12.788
R09        40.000    20475208.241 8 109336536.04808     -1747.742 8        50.633                                                                    20475206.364 8  85039552.48108     -1359.308 8        48.395
C34        41.000                                                                                                                                    26480679.291 6 137892158.67606     -3338.040 6        40.291                                                                    26480680.047 6 112048808.12206     -2712.231 6        39.844
S44        42.000    40580093.592 6 213250018.81906      -510.312 6        37.429
C38        43.000                                                                                                                                    39902071.967 6 207780714.32106     -1719.744 6        41.702                                                                    39902069.479 6 168838912.89406     -1397.519 6        40.937
C05        44.000                                                                                                                                    39367855.459 6 204998777.39706      -462.303 6        39.120    39367851.432 7 158518079.66507      -357.423 7        43.536    39367852.192 6 166578399.87606      -375.697 6        39.718
C08        45.000                                                                                                                                    38496300.792 6 200460528.69106     -1532.759 6        40.184    38496294.262 7 155008872.09807     -1185.199 7        43.640    38496293.333 6 162890651.44506     -1245.380 6        41.080
C21        46.000                                                                                                                                    25996112.970 7 135368584.86407     -2364.908 7        42.292                                                                    25996107.869 6 109998038.10906     -1921.558 6        40.923
R19        47.000    19732984.224 7 105558532.85407      -210.849 7        42.425                                                                    19732984.103 7  82101248.65007      -163.986 7        45.238
C43        48.000                                                                                                                                    22746433.423 8 118446971.77608     -2296.384 8        49.339                                                                    22746431.933 8  96247993.19308     -1866.046 8        48.652
C42        50.000                                                                                                                                    24015532.257 7 125055218.62407       257.537 7        46.815                                                                    24015539.467 7 101617656.50707       209.300 7        46.867
S48        51.000    77284617.314 6 406134003.76506      -570.331 6        37.611
C37        53.000                                                                                                                                    24208417.882 7 126059606.25407     -2206.485 7        46.057                                                                    24208420.965 7 102433778.77707     -1792.971 7        46.605
C60        54.000                                                                                                                                    40580095.870 6 211311401.64906      -505.615 6        40.386                                                                    40580079.604 6 171707791.14206      -410.746 6        39.538
C27        55.000                                                                                                                                    25429973.177 7 132420553.47207      2192.811 7        42.713                                                                    25429971.859 6 107602548.87106      1781.879 6        41.149
C23        56.000                                                                                                                                    25991274.215 6 135343700.09606     -3785.818 6        41.125                                                                    25991267.404 7 109977945.56707     -3076.242 7        42.042
C02        57.000                                                                                                                                    40702468.243 5 211948474.66105      -461.034 5        34.933    40702462.298 6 163891997.32806      -356.539 6        39.937    40702465.602 6 172225498.94706      -374.500 6        36.605
I03        58.000   111031309.692 6 359925455.87806      1040.947 6        40.658
C11        59.000                                                                                                                                    24404816.992 7 127082593.66107     -2958.138 7        42.838    24404813.423 7  98268473.70207     -2287.279 7        47.480    24404812.173 7 103265126.83607     -2403.626 7        44.451
C28        60.000                                                                                                                                    22195135.207 8 115576208.61608       827.957 8        50.032                                                                    22195133.795 8  93915272.86208       672.762 8        48.373
> 2025 01 01 19 30 20.0000000  0 56
G10         1.000    22271530.689 8 117037774.06608      2269.410 8        48.219                                    22271529.397 7  91198324.85207      1768.371 7        47.225    22271529.193 7  91198301.85507      1768.422 7        42.978
G15         2.000    23803755.065 6 125089599.98406        41.508 6        39.982                                    23803751.703 5  97472407.81405        32.347 5        33.748    23803751.559 6  97472410.82006        32.326 6        37.773
C33         3.000                                                                                                                                    25204614.735 7 131247050.75207      2623.408 7        43.183                                                                    25204626.959 7 106649034.72307      2131.830 7        44.700
G29         4.000    25746233.686 4 135297701.92004     -3884.129 4        26.515                                    25746231.191 1 105426938.60201     -3026.260 1         5.571    25746231.244 3                     -3028.108 3        20.952
S21         5.000    38542412.113 7 202541483.75507      -532.971 7        42.248
E13         6.000    23383657.307 8 122882299.38408      -978.504 8        48.139                                                                    23383657.457 8  91762964.39508      -730.696 8        50.708    23383656.884 8  94156750.29808      -749.714 8        51.383
G23         7.000    20976095.943 7 110230251.66607      -155.821 7        47.743                                    20976091.871 6  85893740.10606      -121.422 6        39.423    20976091.906 7  85893739.11007      -121.439 7        47.323
E15         8.000    26305709.970 6 138237759.56806     -2972.697 6        41.669                                                                    26305710.445 7 103229666.74707     -2219.906 7        44.873    26305710.020 7 105922590.61707     -2277.766 7        45.977
E05         9.000    27213339.715 5 143007065.80905     -1256.492 5        34.424                                                                    27213341.877 6 106790996.90906      -938.468 6        39.270    27213341.334 6 109576850.74106      -962.852 6        40.484
