     3.04           OBSERVATION DATA    M                   RINEX VERSION / TYPE
ssrcrin-15.6.1x                         20250101 131500 UTC PGM / RUN BY / DATE 
(00000000023479385599111004) Septentrio proprietary         COMMENT             
rref                                                        MARKER NAME         
01                                                          MARKER NUMBER       
geodetic                                                    MARKER TYPE         
NFB                 CLIMERS@TUW                             OBSERVER / AGENCY   
3297213             SEPT ASTERX SB3 PROB4.14.4              REC # / TYPE / VERS 
Unknown             Unknown                                 ANT # / TYPE        
  4127831.5156  1207193.7654  4695247.4351                  APPROX POSITION XYZ 
        0.0000        0.0000        0.0000                  ANTENNA: DELTA H/E/N
G   23 X1  C1C L1C D1C S1C C1W S1W C2W L2W D2W S2W C2L L2L  SYS / # / OBS TYPES 
       D2L S2L C5Q L5Q D5Q S5Q C1L L1L D1L S1L              SYS / # / OBS TYPES 
E   21 X1  C1C L1C D1C S1C C6C L6C D6C S6C C5Q L5Q D5Q S5Q  SYS / # / OBS TYPES 
       C7Q L7Q D7Q S7Q C8Q L8Q D8Q S8Q                      SYS / # / OBS TYPES 
S    9 X1  C1C L1C D1C S1C C5I L5I D5I S5I                  SYS / # / OBS TYPES 
R   17 X1  C1C L1C D1C S1C C2P L2P D2P S2P C2C L2C D2C S2C  SYS / # / OBS TYPES 
       C3Q L3Q D3Q S3Q                                      SYS / # / OBS TYPES 
C   25 X1  C1P L1P D1P S1P C5P L5P D5P S5P C2I L2I D2I S2I  SYS / # / OBS TYPES 
       C7I L7I D7I S7I C6I L6I D6I S6I C7D L7D D7D S7D      SYS / # / OBS TYPES 
J   17 X1  C1C L1C D1C S1C C2L L2L D2L S2L C5Q L5Q D5Q S5Q  SYS / # / OBS TYPES 
       C1L L1L D1L S1L                                      SYS / # / OBS TYPES 
I    5 X1  C5A L5A D5A S5A                                  SYS / # / OBS TYPES 
SEPTENTRIO RECEIVERS OUTPUT ALIGNED CARRIER PHASES.         COMMENT             
NO FURTHER PHASE SHIFT APPLIED IN THE RINEX ENCODER.        COMMENT             
G L1C                                                       SYS / PHASE SHIFT   
G L2W                                                       SYS / PHASE SHIFT   
G L2L  0.00000                                              SYS / PHASE SHIFT   
G L5Q  0.00000                                              SYS / PHASE SHIFT   
G L1L  0.00000                                              SYS / PHASE SHIFT   
E L1C  0.00000                                              SYS / PHASE SHIFT   
E L6C  0.00000                                              SYS / PHASE SHIFT   
E L5Q  0.00000                                              SYS / PHASE SHIFT   
E L7Q  0.00000                                              SYS / PHASE SHIFT   
E L8Q  0.00000                                              SYS / PHASE SHIFT   
S L1C                                                       SYS / PHASE SHIFT   
S L5I                                                       SYS / PHASE SHIFT   
R L1C                                                       SYS / PHASE SHIFT   
R L2P  0.00000                                              SYS / PHASE SHIFT   
R L2C                                                       SYS / PHASE SHIFT   
R L3Q  0.00000                                              SYS / PHASE SHIFT   
C L1P  0.00000                                              SYS / PHASE SHIFT   
C L5P  0.00000                                              SYS / PHASE SHIFT   
C L2I                                                       SYS / PHASE SHIFT   
C L7I                                                       SYS / PHASE SHIFT   
C L6I                                                       SYS / PHASE SHIFT   
C L7D                                                       SYS / PHASE SHIFT   
J L1C                                                       SYS / PHASE SHIFT   
J L2L  0.00000                                              SYS / PHASE SHIFT   
J L5Q  0.00000                                              SYS / PHASE SHIFT   
J L1L  0.00000                                              SYS / PHASE SHIFT   
I L5A                                                       SYS / PHASE SHIFT   
  2025     1     1    13    15    0.0000000     GPS         TIME OF FIRST OBS   
 C1C    0.000 C2C    0.000 C2P    0.000                     GLONASS COD/PHS/BIS 
DBHZ                                                        SIGNAL STRENGTH UNIT
    18                                                      LEAP SECONDS        
 24 R01  1 R02 -4 R03  5 R04  6 R05  1 R06 -4 R07  5 R08  6 GLONASS SLOT / FRQ #
    R09 -2 R10 -7 R11  0 R12 -1 R13 -2 R14 -7 R15  0 R16 -1 GLONASS SLOT / FRQ #
    R17  4 R18 -3 R19  3 R20  2 R21  4 R22 -3 R23  3 R24  2 GLONASS SLOT / FRQ #
                                                            END OF HEADER       
> 2025 01 01 13 15  0.0000000  0 55
G19         1.000    23233733.055 6 122094194.74306     -3768.069 6        40.844                                    23233737.262 4  95138408.10004     -2936.159 4        26.802
G25         2.000    20833760.802 7 109482242.68107      1486.895 7        47.468                                    20833766.900 7  85310913.31607      1158.617 7        46.704    20833767.439 7  85310923.32107      1158.580 7        44.275
G24         3.000    21670855.507 7 113881099.75407     -3503.198 7        47.567                                    21670861.104 7  88738544.67407     -2729.760 7        47.262    21670861.111 7  88738541.67307     -2729.694 7        43.856
G29         4.000    24026837.622 7 126262016.50907      3075.984 7        42.040                                    24026848.047 5  98386093.14205      2396.851 5        34.752    24026848.788 6  98386096.16906      2397.029 6        36.352
S21         5.000    38431580.494 7 201958932.12307      -605.883 7        42.806
G06         6.000    22917322.571 7 120431458.87107      -369.452 7        43.359                                    22917329.749 6  93842785.86806      -287.884 6        40.136    22917330.394 6  93842776.86306      -287.857 6        40.646
G11         9.000    23321888.796 7 122557497.38207      1746.922 7        44.284                                    23321894.660 4  95499442.91204      1361.230 4        29.801    23321895.134 6  95499442.92606      1361.181 6        41.950
E30        10.000    23605109.325 8 124045828.62608      -349.840 8        49.099                                                                    23605116.240 8  92631733.23608      -261.282 8        50.745    23605115.288 8  95048202.03408      -268.093 8        51.350
C26        11.000                                                                                                                                    24177977.386 7 125901022.47707     -3132.939 7        45.803                                                                    24177983.435 7 102304897.24707     -2545.711 7        45.085
S27        12.000    39218436.980 5 206094110.29905      -622.909 5        35.924
R15        13.000    24060474.943 6 128571883.29106      2848.039 6        41.020                                                                    24060493.409 6 100000418.22206      2215.148 6        37.561
S36        14.000    38203745.243 7 200762391.47907      -606.380 7        44.602
G12        15.000    20176809.290 8 106029988.71108      -985.863 8        51.273                                    20176810.270 8  82620845.34908      -768.208 8        52.112    20176810.960 7  82620845.35207      -768.223 7        46.753
E29        16.000    25998838.299 7 136624731.88907       423.016 7        43.086                                                                    25998851.862 7 102024966.39607       315.891 7        45.580    25998850.027 7 104686485.83207       324.002 7        45.925
S45        17.000    63399476.047 6 333166634.98506      -670.071 6        36.155
R03        18.000    23834558.342 7 127587992.87207     -4858.614 7        44.024                                                                    23834574.205 6  99235053.89906     -3778.828 6        37.573
C35        19.000                                                                                                                                    23452075.780 7 122121240.95607     -2152.802 7        47.223                                                                    23452081.218 7  99233585.45207     -1749.222 7        46.137
E11        20.000    27877421.426 5 146496942.96205     -2258.238 5        33.862                                                                    27877427.489 6 109397156.64906     -1686.153 6        36.881    27877426.673 6 112250983.48406     -1730.234 6        37.119
R14        21.000    20148999.780 8 107405579.88008      1391.286 8        51.888                                                                    20149007.933 7  83537743.97507      1082.115 7        47.868
I06        22.000    38491236.207 6 151047895.77206      -554.685 6        41.402
S28        23.000    40903104.852 5 214947041.38905      -613.478 5        35.176
E34        24.000    26685835.299 6 140235141.23806      2226.677 6        41.712                                                                    26685849.465 7 104721180.44607      1662.816 7        44.578    26685847.887 7 107453023.39807      1706.150 7        45.324
S23        25.000    38144164.481 7 200448752.52307      -610.873 7        45.223
E08        26.000    27480440.763 6 144410434.34306     -3826.172 6        39.432                                                                    27480459.010 7 107838883.05807     -2857.260 7        42.214    27480455.869 7 110652077.78707     -2931.706 7        42.345
C07        27.000                                                                                                                                    40484383.111 6 210812721.15906     -1538.516 6        36.643    40484389.549 6 163013758.77606     -1189.681 6        40.841    40484384.733 6 171302585.35106     -1250.175 6        37.520
R24        28.000    21948610.257 7 117369260.77407      3542.246 7        47.664                                                                    21948619.859 7  91287342.95507      2755.024 7        43.390
I02        29.000    37057840.829 7 145422905.41207      -654.211 7        42.415
G28        30.000    24956930.479 6 131149466.10406      2953.493 6        39.544                                    24956945.626 3 102194416.71803      2301.424 3        21.167    24956945.842 6 102194413.71806      2301.474 6        38.772
E07        31.000    25012745.656 7 131442762.14007     -2397.623 7        45.821                                                                    25012756.991 8  98155297.26108     -1790.458 8        48.401    25012755.491 8 100715869.36708     -1837.147 8        49.125
C12        32.000                                                                                                                                    23397741.098 7 121838321.45607      2109.182 7        45.115    23397746.937 8  94213212.44608      1630.896 8        50.722    23397744.097 7  99003681.64507      1713.892 7        47.774
R23        34.000    20161191.614 7 107848923.22107      -185.039 7        47.879
C24        35.000                                                                                                                                    21312459.218 8 110979613.76008      -863.319 8        51.333                                                                    21312460.654 8  90180050.28108      -701.448 8        49.655
R05        36.000    22264554.585 7 119016734.87607       386.902 7        47.134                                                                    22264568.039 7  92568587.93707       300.894 7        44.182
E27        37.000    26137668.635 7 137354424.29207      1541.950 7        43.164                                                                    26137682.254 7 102569959.55807      1151.475 7        45.409    26137680.078 7 105245684.16707      1181.484 7        45.368
R04        38.000    21791598.455 8 116692895.39908     -3095.816 8        48.501                                                                    21791608.791 7  90761117.89607     -2407.968 7        43.117
C33        39.000                                                                                                                                    26533831.887 6 138168433.93506     -3527.589 6        41.049                                                                    26533858.131 6 112273205.12006     -2866.307 6        40.319
C32        40.000                                                                                                                                    26820170.379 6 139659597.41206       512.516 6        40.355                                                                    26820179.304 6 113484880.80906       416.664 6        40.760
C34        41.000                                                                                                                                    24841114.531 7 129354313.73507      2825.521 7        43.996                                                                    24841124.239 7 105111068.41407      2295.997 7        42.878
S44        42.000    40750799.057 6 214146890.02206      -529.639 6        36.900
R22        43.000    22289606.474 7 118983535.79307     -3620.676 7        45.269                                                                    22289614.839 7  92542830.90707     -2816.205 7        43.712
C05        44.000                                                                                                                                    39458348.901 6 205469822.08306      -597.455 6        38.925    39458355.933 7 158882274.86307      -461.921 7        42.447    39458354.560 6 166961124.90906      -485.309 6        39.285
C40        45.000                                                                                                                                    41096948.548 6 214002575.65906     -1789.929 6        37.932                                                                    41096953.589 6 173894633.06106     -1454.461 6        37.819
G32        46.000    22871769.772 7 120191869.99607       -82.354 7        46.496                                    22871778.692 7  93656005.87007       -64.176 7        42.506    22871779.252 6  93656007.88206       -64.280 6        41.869
E36        47.000    26099319.781 7 137152948.86707       127.381 7        42.701                                                                    26099331.272 7 102419526.04807        95.102 7        45.512    26099329.806 7 105091322.66507        97.606 7        45.797
C41        48.000                                                                                                                                    25716657.104 6 133913328.80106     -1973.562 6        41.940                                                                    25716675.604 7 108815610.29207     -1603.675 7        42.624
C10        49.000                                                                                                                                    39436652.276 6 205356965.61006     -1324.113 6        39.294    39436659.140 7 158795038.67407     -1023.839 7        42.487    39436654.734 6 166869351.70806     -1076.044 6        39.892
C44        50.000                                                                                                                                    22180982.128 8 115502219.10608       709.373 8        50.407                                                                    22180985.721 8  93855043.12708       576.473 8        48.871
S48        51.000    77140735.511 6 405377376.49206      -619.956 6        37.652
E02        53.000    25026381.208 7 131514559.78807     -2532.875 7        45.731                                                                    25026389.170 8  98208988.61008     -1891.400 8        48.085    25026387.511 8 100770945.25608     -1940.784 8        48.332
C60        54.000                                                                                                                                    40750805.325 6 212200117.55306      -524.823 6        39.697                                                                    40750801.070 6 172429900.60506      -426.472 6        40.207
C25        55.000                                                                                                                                    23340520.206 7 121540267.78807      1782.988 7        46.843                                                                    23340526.407 7  98761471.93407      1448.829 7        46.757
R12        56.000    23563435.319 7 125871598.20107     -3930.935 7        43.714                                                                    23563447.144 6  97900136.55206     -3057.392 6        40.396
C02        57.000                                                                                                                                    40933055.586 5 213148978.01405      -550.564 5        32.359    40933063.780 6 164820244.36306      -425.703 6        36.295    40933063.802 5 173200959.38205      -447.363 5        32.539
I03        58.000   119130479.885 5 391708029.60705       914.996 5        31.955
R13        60.000    20147441.296 7 107586278.94807     -2353.251 7        46.233
> 2025 01 01 13 15  5.0000000  0 55
G19         1.000    23237320.014 6 122113039.09806     -3769.821 6        41.287                                    23237323.387 4  95153091.98904     -2937.512 4        27.317
G25         2.000    20832346.995 7 109474813.33107      1484.762 7        47.523                                    20832353.139 7  85305124.22407      1156.957 7        46.833    20832353.972 7  85305134.22607      1156.988 7        44.378
G24         3.000    21674189.569 7 113898621.08407     -3505.473 7        47.902                                    21674195.204 7  88752197.64407     -2731.535 7        47.313    21674195.482 7  88752194.64807     -2731.538 7        43.771
G29         4.000    24023911.992 7 126246639.17407      3074.868 7        42.529                                    24023921.630 5  98374110.88405      2395.985 5        35.162    24023922.671 6  98374113.93506      2395.799 6        37.474
S21         5.000    38432156.921 7 201961962.55407      -606.292 7        42.999
G06         6.000    22917675.964 7 120433315.45107      -373.316 7        43.141                                    22917683.141 6  93844232.56406      -290.900 6        40.284    22917684.338 6  93844223.56306      -290.878 6        41.847
G11         9.000    23320227.794 7 122548768.52507      1744.482 7        43.609                                    23320233.538 4  95492641.25804      1359.331 4        29.829    23320233.826 6  95492641.26606      1359.524 6        41.926
E30        10.000    23605442.956 8 124047581.61108      -351.392 8        48.917                                                                    23605449.813 8  92633042.28808      -262.420 8        50.727    23605448.849 8  95049545.22808      -269.221 8        51.499
C26        11.000                                                                                                                                    24180986.132 7 125916690.32307     -3134.248 7        46.316                                                                    24180992.458 7 102317628.64307     -2546.746 7        45.323
S27        12.000    39219030.968 6 206097225.61606      -623.333 6        36.265
R15        13.000    24057810.763 7 128557643.49307      2847.802 7        42.823                                                                    24057829.488 6  99989342.85206      2214.998 6        37.637
S36        14.000    38204322.645 7 200765423.65007      -606.648 7        44.710
G12        15.000    20177748.230 8 106034924.06708      -988.354 8        50.971                                    20177749.427 8  82624691.08108      -770.147 8        52.182    20177749.747 7  82624691.08607      -770.161 7        46.962
E29        16.000    25998437.110 7 136622623.42007       420.406 7        42.921                                                                    25998450.561 7 102023391.90607       313.853 7        45.529    25998448.752 7 104684870.25707       322.018 7        46.026
S45        17.000    63400059.790 6 333169986.14006      -670.437 6        36.408
R03        18.000    23839096.388 7 127612287.27707     -4859.338 7        44.059                                                                    23839113.003 6  99253949.48206     -3779.423 6        37.301
C35        19.000                                                                                                                                    23454144.383 7 122132011.78807     -2155.659 7        47.641                                                                    23454149.681 7  99242337.62107     -1751.532 7        46.331
E11        20.000    27879570.687 5 146508238.97105     -2260.588 5        33.868                                                                    27879577.175 6 109405592.03106     -1687.969 6        36.465    27879576.012 6 112259638.92306     -1732.051 6        37.168
R14        21.000    20147695.380 8 107398628.01108      1389.337 8        51.787                                                                    20147703.782 7  83532336.98107      1080.563 7        47.725
I06        22.000    38491942.838 6 151050670.13106      -554.921 6        41.416
S28        23.000    40903687.285 5 214950107.65905      -613.561 5        35.233
E34        24.000    26683717.118 6 140224010.65506      2225.510 6        41.566                                                                    26683731.504 7 104712868.70107      1661.787 7        44.811    26683729.691 7 107444494.81407      1705.248 7        45.183
S23        25.000    38144746.655 7 200451807.43207      -611.206 7        45.341
E08        26.000    27484081.196 6 144429565.81506     -3826.469 6        39.240                                                                    27484099.638 6 107853169.48406     -2857.595 6        41.876    27484096.409 7 110666736.92107     -2932.050 7        42.091
C07        27.000                                                                                                                                    40485860.426 6 210820414.13006     -1538.844 6        36.994    40485866.703 6 163019707.47806     -1189.923 6        40.984    40485862.059 6 171308836.52406     -1250.392 6        37.531
R24        28.000    21945299.364 8 117351554.52308      3540.165 8        48.149                                                                    21945307.998 7  91273571.45107      2753.454 7        43.740
I02        29.000    37058674.777 7 145426177.08207      -654.424 7        42.440
G28        30.000    24954120.618 6 131134699.72606      2952.900 6        39.102                                    24954135.560 3 102182910.44703      2300.982 3        21.714    24954135.606 6 102182907.45206      2301.046 6        38.510
E07        31.000    25015028.092 7 131454755.68507     -2399.917 7        45.705                                                                    25015039.288 8  98164253.45808     -1792.113 8        48.324    25015037.812 8 100725059.21008     -1838.886 8        49.205
C12        32.000                                                                                                                                    23395717.716 7 121827780.77807      2107.075 7        45.735    23395722.492 8  94205061.75208      1629.292 8        50.672    23395719.865 8  98995116.48908      1712.310 8        48.009
R23        34.000    20161367.257 8 107849861.11608      -190.161 8        48.521
C24        35.000                                                                                                                                    21313289.210 8 110983935.24308      -865.353 8        51.378                                                                    21313290.544 8  90183561.83308      -703.077 8        49.797
R05        36.000    22264194.410 7 119014811.80107       382.122 7        46.735                                                                    22264207.210 7  92567092.24207       297.234 7        43.443
E27        37.000    26136201.584 7 137346716.43307      1541.054 7        42.933                                                                    26136215.540 7 102564203.71007      1150.787 7        45.296    26136213.354 7 105239778.16607      1180.805 7        45.499
R04        38.000    21794491.025 8 116708383.87908     -3099.639 8        48.669                                                                    21794501.012 7  90773164.45307     -2410.774 7        43.211
C33        39.000                                                                                                                                    26537219.209 6 138186073.10806     -3528.200 6        40.324                                                                    26537245.518 6 112287538.34306     -2866.871 6        40.560
C32        40.000                                                                                                                                    26819679.297 6 139657041.59306       509.640 6        39.288                                                                    26819688.392 6 113482804.07606       414.327 6        40.789
C34        41.000                                                                                                                                    24838401.626 7 129340188.51607      2824.479 7        44.147                                                                    24838411.868 7 105099590.55607      2295.304 7        43.295
S44        42.000    40751304.136 6 214149539.25706      -530.195 6        37.456
R22        43.000    22293000.154 7 119001647.82607     -3624.332 7        45.684                                                                    22293008.560 7  92556918.02407     -2818.828 7        44.293
C05        44.000                                                                                                                                    39458922.664 6 205472809.52106      -597.712 6        38.718    39458929.526 7 158884584.94407      -462.290 7        42.354    39458928.233 6 166963552.44806      -485.599 6        39.498
C40        45.000                                                                                                                                    41098667.130 6 214011526.18806     -1790.473 6        37.686                                                                    41098672.228 6 173901906.15806     -1454.603 6        38.027
G32        46.000    22871849.721 7 120192290.50507       -85.951 7        46.124                                    22871858.699 7  93656333.54407       -66.972 7        42.645    22871859.394 7  93656335.54207       -66.911 7        42.019
E36        47.000    26099200.135 7 137152318.75907       124.455 7        42.747                                                                    26099211.304 7 102419055.53207        93.043 7        45.359    26099209.830 7 105090839.86907        95.443 7        45.911
C41        48.000                                                                                                                                    25718553.663 6 133923203.15006     -1976.235 6        41.857                                                                    25718571.975 7 108823633.96907     -1605.779 7        42.783
C10        49.000                                                                                                                                    39437923.545 6 205363586.47906     -1324.432 6        38.982    39437930.534 7 158800158.34707     -1024.151 7        42.387    39437926.308 6 166874731.67006     -1076.061 6        40.007
C44        50.000                                                                                                                                    22180302.499 8 115498679.65008       706.328 8        50.481                                                                    22180306.032 8  93852167.03008       574.037 8        49.025
S48        51.000    77141312.248 6 405380476.78606      -620.186 6        38.111
E02        53.000    25028791.181 7 131527226.06607     -2533.721 7        45.413                                                                    25028799.521 8  98218447.18808     -1892.059 8        48.011    25028797.764 8 100780650.57608     -1941.408 8        48.283
C60        54.000                                                                                                                                    40751309.232 6 212202742.68206      -525.216 6        39.820                                                                    40751305.057 6 172432033.76106      -426.782 6        40.584
C25        55.000                                                                                                                                    23338809.034 7 121531355.46107      1781.779 7        46.857                                                                    23338814.929 7  98754229.94107      1448.048 7        46.942
R12        56.000    23567115.048 7 125891255.40707     -3931.955 7        43.153                                                                    23567126.887 6  97915425.46406     -3058.176 6        40.498
C02        57.000                                                                                                                                    40933584.605 5 213151731.39205      -550.842 5        32.114    40933592.366 6 164822373.45206      -426.038 6        36.189    40933592.209 5 173203196.78005      -447.760 5        32.617
I03        58.000   119129314.636 5 391703457.17705       914.746 5        31.804
R13        60.000    20149645.828 7 107598050.83907     -2355.530 7        46.574
> 2025 01 01 13 15 10.0000000  0 55
G19         1.000    23240907.116 6 122131890.79106     -3771.245 6        41.702                                    23240910.934 4  95167781.60404     -2938.636 4        27.341
G25         2.000    20830935.082 7 109467392.79507      1482.960 7        47.377                                    20830941.041 7  85299341.99907      1155.549 7        46.663    20830941.630 7  85299352.01007      1155.534 7        44.170
G24         3.000    21677525.577 7 113916152.35507     -3507.524 7        47.666                                    21677531.231 7  88765858.35907     -2733.132 7        47.118    21677531.781 7  88765855.34907     -2733.141 7        43.953
G29         4.000    24020986.339 7 126231266.08507      3073.927 7        42.605                                    24020996.236 5  98362131.93805      2395.252 5        35.410    24020997.466 6  98362134.97506      2395.276 6        38.234
S21         5.000    38432732.397 7 201964993.09107      -606.429 7        42.921
G06         6.000    22918032.353 7 120435188.97807      -376.614 7        42.557                                    22918039.744 6  93845692.46106      -293.467 6        40.100    22918040.776 6  93845683.46606      -293.506 6        41.549
G11         9.000    23318568.912 7 122540050.37107      1742.326 7        43.424                                    23318574.293 4  95485847.94204      1357.646 4        29.469    23318574.903 6  95485847.96806      1357.585 6        41.385
E30        10.000    23605777.766 8 124049340.35108      -352.528 8        48.913                                                                    23605784.513 8  92634355.63308      -263.258 8        50.664    23605783.535 8  95050892.83908      -270.125 8        51.409
C26        11.000                                                                                                                                    24183996.362 7 125932363.19407     -3135.313 7        46.343                                                                    24184002.267 7 102330364.10607     -2547.474 7        45.198
S27        12.000    39219625.023 6 206100341.13306      -623.545 6        36.234
R15        13.000    24055146.615 7 128543403.17207      2847.861 7        42.246                                                                    24055165.186 6  99978267.00706      2214.935 6        38.096
S36        14.000    38204900.424 7 200768455.41807      -606.755 7        44.737
G12        15.000    20178689.296 8 106039870.49808      -990.646 8        50.722                                    20178690.704 8  82628545.44708      -771.931 8        52.004    20178691.210 7  82628545.44607      -771.910 7        47.040
E29        16.000    25998038.046 7 136620526.48107       418.002 7        42.650                                                                    25998051.569 7 102021826.01007       312.143 7        45.430    25998049.675 7 104683263.51407       320.224 7        45.896
S45        17.000    63400644.397 6 333173337.48906      -670.444 6        36.189
R03        18.000    23843634.349 7 127636582.76507     -4859.391 7        43.369                                                                    23843652.102 6  99272845.89306     -3779.567 6        38.213
C35        19.000                                                                                                                                    23456215.567 7 122142795.06607     -2158.144 7        47.407                                                                    23456220.514 7  99251099.90607     -1753.475 7        46.165
E11        20.000    27881722.346 5 146519545.59405     -2262.640 5        33.587                                                                    27881728.772 6 109414035.37706     -1689.596 6        36.767    27881727.346 6 112268302.48806     -1733.700 6        37.032
R14        21.000    20146392.719 8 107391684.44708      1387.663 8        51.823                                                                    20146400.753 7  83526936.44307      1079.345 7        47.184
I06        22.000    38492650.090 6 151053444.50006      -555.149 6        41.342
S28        23.000    40904269.048 5 214953173.76405      -613.527 5        35.181
E34        24.000    26681599.632 6 140212884.80706      2224.367 6        40.803                                                                    26681614.409 7 104704560.45407      1661.147 7        45.035    26681612.360 7 107435969.83507      1704.541 7        44.999
S23        25.000    38145329.316 7 200454862.36307      -611.245 7        45.332
E08        26.000    27487722.279 6 144448698.05706     -3826.836 6        38.829                                                                    27487740.427 6 107867456.45406     -2857.675 6        41.807    27487737.326 6 110681396.61206     -2932.217 6        41.936
C07        27.000                                                                                                                                    40487338.594 6 210828107.09006     -1538.850 6        36.684    40487344.287 6 163025656.17706     -1189.878 6        40.632    40487339.632 6 171315087.70406     -1250.356 6        37.059
R24        28.000    21941989.896 7 117333857.15107      3538.394 7        47.786                                                                    21941999.308 7  91259806.88907      2752.068 7        44.166
I02        29.000    37059508.337 7 145429449.45107      -654.889 7        42.246
G28        30.000    24951310.198 6 131119935.20706      2952.427 6        39.625                                    24951325.887 3 102171405.62903      2300.598 3        21.024    24951325.836 6 102171402.60906      2300.671 6        38.628
E07        31.000    25017312.128 7 131466759.25407     -2401.896 7        45.398                                                                    25017323.478 8  98173217.14008     -1793.664 8        48.217    25017322.006 8 100734256.73008     -1840.452 8        49.089
C12        32.000                                                                                                                                    23393696.025 7 121817249.14907      2105.177 7        45.684    23393700.078 8  94196918.05308      1627.885 8        50.638    23393697.418 7  98986558.68807      1710.828 7        47.898
R23        34.000    20161547.912 8 107850822.98708      -194.981 8        48.734
C24        35.000                                                                                                                                    21314120.910 8 110988265.69508      -867.221 8        51.249                                                                    21314122.149 8  90187080.66908      -704.447 8        49.598
R05        36.000    22263839.780 7 119012910.91907       377.783 7        46.714                                                                    22263851.592 7  92565613.75207       293.786 7        42.438
E27        37.000    26134735.317 7 137339011.48807      1540.476 7        42.684                                                                    26134749.261 7 102558450.03707      1150.423 7        45.294    26134747.170 7 105233874.39107      1180.352 7        45.464
R04        38.000    21797386.559 8 116723889.86708     -3103.125 8        48.252                                                                    21797396.442 7  90785224.62107     -2413.537 7        43.845
C33        39.000                                                                                                                                    26540606.765 6 138203714.40206     -3528.682 6        40.486                                                                    26540633.456 6 112301873.29506     -2867.259 6        40.288
C32        40.000                                                                                                                                    26819190.158 6 139654498.63606       507.121 6        39.495                                                                    26819200.355 6 113480737.67806       412.296 6        41.116
C34        41.000                                                                                                                                    24835689.339 7 129326066.49207      2823.866 7        44.014                                                                    24835700.302 7 105088115.30507      2294.844 7        43.528
S44        42.000    40751806.134 6 214152188.54506      -530.131 6        37.282
R22        43.000    22296395.166 7 119019775.68107     -3627.368 7        45.099                                                                    22296403.852 7  92571017.44607     -2821.202 7        43.500
C05        44.000                                                                                                                                    39459496.043 6 205475796.98006      -597.728 6        38.682    39459503.181 7 158886895.02907      -462.117 7        42.286    39459501.857 6 166965979.99106      -485.490 6        39.396
C40        45.000                                                                                                                                    41100386.298 6 214020476.31806     -1790.276 6        37.418                                                                    41100390.876 6 173909178.95006     -1454.544 6        37.716
G32        46.000    22871932.608 7 120192727.29807       -89.213 7        46.455                                    22871941.795 7  93656673.90707       -69.519 7        42.447    22871942.286 6  93656675.91106       -69.454 6        41.743
E36        47.000    26099082.434 7 137151701.16707       122.045 7        42.880                                                                    26099093.734 7 102418594.36007        91.115 7        45.366    26099092.310 7 105090366.66607        93.502 7        45.831
C41        48.000                                                                                                                                    25720452.337 6 133933089.22306     -1978.523 6        41.859                                                                    25720470.550 7 108831667.19707     -1607.690 7        42.425
C10        49.000                                                                                                                                    39439195.470 6 205370207.75806     -1324.721 6        38.613    39439201.946 7 158805278.32507     -1024.150 7        42.459    39439197.782 6 166880111.98106     -1076.063 6        39.763
C44        50.000                                                                                                                                    22179625.300 8 115495153.49108       703.657 8        50.411                                                                    22179628.835 8  93849301.73408       571.945 8        48.793
S48        51.000    77141891.345 6 405383577.28506      -620.275 6        38.117
E02        53.000    25031202.010 7 131539895.33807     -2534.378 7        45.081                                                                    25031210.436 7  98227907.99907     -1892.511 7        47.978    25031208.700 8 100790358.19308     -1941.939 8        48.290
C60        54.000                                                                                                                                    40751813.117 6 212205367.91206      -525.291 6        39.733                                                                    40751809.143 6 172434166.95606      -426.570 6        40.448
C25        55.000                                                                                                                                    23337098.439 7 121522447.34207      1780.974 7        46.828                                                                    23337104.223 7  98746991.37707      1447.344 7        46.660
R12        56.000    23570794.785 7 125910915.85307     -3932.674 7        42.525                                                                    23570807.054 6  97930716.91306     -3058.644 6        40.093
C02        57.000                                                                                                                                    40934113.205 5 213154484.74405      -550.463 5        32.198    40934121.305 6 164824502.53106      -425.926 6        36.253    40934121.434 5 173205434.08405      -447.352 5        32.054
I03        58.000   119128148.293 5 391698884.62405       914.313 5        31.924
R13        60.000    20151852.163 7 107609832.84507     -2357.653 7        46.487
> 2025 01 01 13 15 15.0000000  0 55
G19         1.000    23244495.348 6 122150749.60606     -3772.699 6        41.497                                    23244499.805 4  95182476.76504     -2939.765 4        27.413
G25         2.000    20829524.797 7 109459980.90507      1481.482 7        47.316                                    20829530.602 7  85293566.51107      1154.399 7        46.797    20829531.350 7  85293576.52007      1154.371 7        44.113
G24         3.000    21680863.604 7 113933693.32707     -3509.332 7        47.729                                    21680869.163 7  88779526.63207     -2734.539 7        47.265    21680869.438 7  88779523.62207     -2734.461 7        44.014
G29         4.000    24018061.635 7 126215897.00707      3073.254 7        42.358                                    24018071.697 5  98350156.11805      2394.727 5        35.552    24018071.928 6  98350159.15406      2394.753 6        38.544
S21         5.000    38433307.533 7 201968023.53107      -606.302 7        43.043
G06         6.000    22918391.876 7 120437079.25407      -379.886 7        42.882                                    22918399.544 6  93847165.41306      -296.019 6        40.188    22918400.382 6  93847156.42306      -296.003 6        41.516
G11         9.000    23316911.914 7 122531342.71907      1740.377 7        43.991                                    23316917.145 4  95479062.80604      1356.131 4        29.573    23316917.493 6  95479062.82906      1356.188 6        41.778
E30        10.000    23606113.385 8 124051104.67208      -353.582 8        48.953                                                                    23606120.201 8  92635673.15108      -264.046 8        50.763    23606119.283 8  95052244.72808      -270.911 8        51.378
C26        11.000                                                                                                                                    24187007.063 7 125948040.89807     -3136.161 7        46.240                                                                    24187013.086 7 102343103.49907     -2548.334 7        45.217
S27        12.000    39220213.762 6 206103456.54506      -623.302 6        36.370
R15        13.000    24052480.909 6 128529162.34206      2848.180 6        41.063                                                                    24052499.871 6  99967190.78406      2215.085 6        37.841
S36        14.000    38205477.844 7 200771487.37807      -606.452 7        44.817
G12        15.000    20179632.927 8 106044827.78508      -992.724 8        51.337                                    20179634.042 8  82632408.26708      -773.552 8        52.114    20179634.345 7  82632408.26107      -773.438 7        47.022
E29        16.000    25997640.947 7 136618440.89307       415.879 7        42.855                                                                    25997654.703 7 102020268.59507       310.656 7        45.497    25997652.927 7 104681665.46807       318.646 7        45.884
S45        17.000    63401227.814 6 333176688.84906      -670.621 6        36.541
R03        18.000    23848172.751 7 127660879.07907     -4859.572 7        42.409                                                                    23848190.976 6  99291742.95906     -3779.608 6        38.120
C35        19.000                                                                                                                                    23458288.504 7 122153590.54707     -2160.439 7        47.089                                                                    23458293.671 7  99259872.08907     -1755.554 7        46.240
E11        20.000    27883875.757 5 146530862.50805     -2264.499 5        33.425                                                                    27883882.319 6 109422486.38706     -1690.785 6        36.733    27883880.878 6 112276973.97306     -1735.366 6        36.870
R14        21.000    20145092.001 8 107384748.87308      1386.157 8        51.617                                                                    20145099.870 7  83521542.12307      1078.108 7        47.736
I06        22.000    38493357.075 6 151056218.72306      -554.907 6        41.464
S28        23.000    40904854.307 5 214956239.91805      -613.358 5        35.414
E34        24.000    26679483.404 6 140201763.44606      2223.719 6        40.934                                                                    26679498.069 7 104696255.59907      1660.572 7        45.293    26679495.989 7 107427448.31407      1703.900 7        44.912
S23        25.000    38145909.433 7 200457917.18107      -611.100 7        45.532
E08        26.000    27491363.233 6 144467830.77706     -3826.833 6        38.751                                                                    27491381.292 6 107881743.81006     -2857.612 6        41.723    27491378.415 7 110696056.68707     -2932.176 7        42.119
C07        27.000                                                                                                                                    40488816.083 6 210835799.88806     -1538.830 6        36.892    40488821.030 6 163031604.73106     -1189.730 6        40.872    40488816.721 6 171321338.71006     -1250.366 6        37.293
R24        28.000    21938681.737 7 117316168.34907      3536.787 7        47.005                                                                    21938691.331 7  91246048.96107      2750.904 7        43.771
I02        29.000    37060342.501 7 145432722.64407      -654.839 7        42.394
G28        30.000    24948501.462 6 131105172.28806      2952.186 6        39.868                                    24948516.724 3 102159902.05103      2300.414 3        21.381    24948516.952 6 102159899.04106      2300.473 6        38.889
E07        31.000    25019598.067 7 131478772.64607     -2403.893 7        45.469                                                                    25019609.655 8  98182188.15608     -1795.066 8        48.324    25019608.158 8 100743461.77708     -1841.927 8        49.064
C12        32.000                                                                                                                                    23391674.938 7 121806726.38107      2103.401 7        45.743    23391679.531 8  94188781.20808      1626.566 8        50.567    23391676.638 7  98978008.08907      1709.262 7        47.980
R23        34.000    20161731.772 8 107851808.64908      -199.614 8        48.286
C24        35.000                                                                                                                                    21314954.124 8 110992604.89208      -868.845 8        51.236                                                                    21314955.435 8  90190606.61508      -706.009 8        49.697
R05        36.000    22263487.962 7 119011031.96407       373.481 7        45.691                                                                    22263501.450 7  92564152.37207       290.383 7        42.777
E27        37.000    26133269.605 7 137331309.28007      1540.010 7        42.912                                                                    26133283.593 7 102552698.40507      1150.078 7        45.372    26133281.489 7 105227972.72107      1179.988 7        45.395
R04        38.000    21800285.480 8 116739413.06408     -3106.475 8        48.219                                                                    21800294.671 7  90797298.19107     -2415.987 7        43.283
C33        39.000                                                                                                                                    26543995.577 6 138221357.59306     -3529.066 6        40.925                                                                    26544021.390 6 112316209.78506     -2867.411 6        40.312
C32        40.000                                                                                                                                    26818704.903 6 139651968.11206       504.773 6        40.000                                                                    26818714.562 6 113478681.25706       410.076 6        41.337
C34        41.000                                                                                                                                    24832977.416 7 129311947.46207      2823.401 7        43.824                                                                    24832988.843 7 105076642.47907      2294.206 7        43.956
S44        42.000    40752312.415 6 214154837.71806      -530.020 6        37.410
R22        43.000    22299794.041 7 119037919.15807     -3630.432 7        45.237                                                                    22299802.576 7  92585129.03007     -2823.574 7        43.824
C05        44.000                                                                                                                                    39460070.293 6 205478784.24006      -597.616 6        38.622    39460076.895 7 158889204.97707      -462.061 7        42.449    39460075.593 6 166968407.37306      -485.667 6        39.450
C40        45.000                                                                                                                                    41102105.110 6 214029425.92406     -1790.117 6        37.327                                                                    41102109.525 6 173916451.30206     -1454.509 6        37.777
G32        46.000    22872019.202 7 120193180.17907       -92.353 7        46.400                                    22872027.972 7  93657026.81007       -71.967 7        42.563    22872028.233 6  93657028.81706       -71.868 6        41.151
E36        47.000    26098967.543 7 137151095.89207       119.738 7        43.191                                                                    26098978.540 7 102418142.38907        89.362 7        45.380    26098977.144 7 105089902.90807        91.658 7        45.785
C41        48.000                                                                                                                                    25722353.049 7 133942986.85507     -1980.792 7        42.116                                                                    25722371.273 7 108839709.80707     -1609.669 7        42.440
C10        49.000                                                                                                                                    39440466.201 6 205376829.22406     -1324.374 6        38.538    39440473.587 7 158810398.45607     -1024.115 7        42.576    39440469.360 6 166885492.45606     -1076.258 6        39.715
C44        50.000                                                                                                                                    22178950.358 8 115491640.44708       701.121 8        50.349                                                                    22178954.175 8  93846447.09408       569.748 8        48.870
S48        51.000    77142470.841 6 405386677.62506      -620.183 6        38.069
E02        53.000    25033613.576 7 131552567.40307     -2534.872 7        45.427                                                                    25033621.829 8  98237370.89308     -1892.908 8        48.113    25033620.272 8 100800067.94108     -1942.210 8        48.329
C60        54.000                                                                                                                                    40752317.288 6 212207993.01006      -525.215 6        39.652                                                                    40752313.372 6 172436300.07806      -426.796 6        40.534
C25        55.000                                                                                                                                    23335388.287 7 121513543.23407      1780.275 7        46.838                                                                    23335394.242 7  98739756.06407      1446.723 7        46.785
R12        56.000    23574475.932 7 125930579.45207     -3933.104 7        42.938                                                                    23574488.652 6  97946010.82506     -3059.047 6        39.523
C02        57.000                                                                                                                                    40934641.710 5 213157237.92105      -550.692 5        32.054    40934649.672 6 164826631.45506      -425.982 6        36.299    40934650.123 5 173207671.23505      -447.339 5        32.054
I03        58.000   119126982.557 5 391694311.76605       914.377 5        31.977
R13        60.000    20154060.139 7 107621624.85307     -2359.541 7        46.182
> 2025 01 01 13 15 20.0000000  0 55
G19         1.000    23248085.258 6 122169615.16606     -3773.814 6        41.013                                    23248089.811 4  95197177.19304     -2940.627 4        27.090
G25         2.000    20828115.633 7 109452577.30307      1479.920 7        47.193                                    20828121.736 7  85287797.48307      1153.182 7        46.759    20828122.545 7  85287807.48407      1153.262 7        44.090
G24         3.000    21684203.451 7 113951243.67607     -3511.052 7        47.535                                    21684208.893 7  88793202.21507     -2735.884 7        47.203    21684208.975 7  88793199.20707     -2735.813 7        43.407
G29         4.000    24015137.651 7 126200531.66207      3072.641 7        42.593                                    24015147.788 5  98338183.20005      2394.252 5        35.581    24015147.643 6  98338186.23606      2394.285 6        38.087
S21         5.000    38433887.439 7 201971053.55807      -606.011 7        42.925
G06         6.000    22918754.996 7 120438985.95307      -382.995 7        42.847                                    22918762.412 6  93848651.16606      -298.442 6        40.212    22918762.836 6  93848642.17606      -298.504 6        41.507
G11         9.000    23315256.872 7 122522645.25807      1738.472 7        43.922                                    23315261.992 4  95472285.61304      1354.644 4        29.697    23315262.908 7  95472285.63007      1354.557 7        42.406
E30        10.000    23606450.198 8 124052874.21008      -354.440 8        49.146                                                                    23606456.962 8  92636994.55508      -264.634 8        50.637    23606455.962 8  95053600.60708      -271.557 8        51.386
C26        11.000                                                                                                                                    24190018.728 7 125963723.10507     -3136.969 7        45.708                                                                    24190024.654 7 102355846.56607     -2548.954 7        45.404
S27        12.000    39220807.692 6 206106571.27906      -622.958 6        36.560
R15        13.000    24049815.284 6 128514920.28906      2848.400 6        41.681                                                                    24049834.967 6  99956113.66506      2215.369 6        37.845
S36        14.000    38206052.935 7 200774518.77207      -606.279 7        44.852
G12        15.000    20180578.504 8 106049795.61508      -994.661 8        51.157                                    20180579.392 8  82636279.30608      -775.061 8        52.107    20180579.789 7  82636279.30707      -775.090 7        47.026
E29        16.000    25997246.630 7 136616366.33207       413.797 7        43.147                                                                    25997259.915 7 102018719.41907       308.982 7        45.359    25997258.106 7 104680075.88107       317.006 7        45.860
S45        17.000    63401809.335 6 333180039.69706      -670.326 6        36.253
R03        18.000    23852711.616 7 127685175.61507     -4859.333 7        42.800                                                                    23852729.914 6  99310640.21106     -3779.555 6        37.539
C35        19.000                                                                                                                                    23460364.011 7 122164397.89407     -2162.614 7        47.174                                                                    23460369.172 7  99268653.95307     -1757.272 7        46.271
E11        20.000    27886031.685 5 146542189.50405     -2266.745 5        33.904                                                                    27886037.598 6 109430944.93206     -1692.653 6        36.484    27886036.137 6 112285653.14906     -1736.785 6        36.526
