     3.04           OBSERVATION DATA    M                   RINEX VERSION / TYPE
ssrcrin-15.6.1x                         20250101 211500 UTC PGM / RUN BY / DATE 
(00000000023479385599111004) Septentrio proprietary         COMMENT             
rref                                                        MARKER NAME         
01                                                          MARKER NUMBER       
geodetic                                                    MARKER TYPE         
NFB                 CLIMERS@TUW                             OBSERVER / AGENCY   
3297213             SEPT ASTERX SB3 PROB4.14.4              REC # / TYPE / VERS 
Unknown             Unknown                                 ANT # / TYPE        
  4127831.9188  1207193.3516  4695248.0731                  APPROX POSITION XYZ 
        0.0000        0.0000        0.0000                  ANTENNA: DELTA H/E/N
G   23 X1  C1C L1C D1C S1C C1W S1W C2W L2W D2W S2W C2L L2L  SYS / # / OBS TYPES 
       D2L S2L C5Q L5Q D5Q S5Q C1L L1L D1L S1L              SYS / # / OBS TYPES 
E   21 X1  C1C L1C D1C S1C C6C L6C D6C S6C C5Q L5Q D5Q S5Q  SYS / # / OBS TYPES 
       C7Q L7Q D7Q S7Q C8Q L8Q D8Q S8Q                      SYS / # / OBS TYPES 
S    9 X1  C1C L1C D1C S1C C5I L5I D5I S5I                  SYS / # / OBS TYPES 
R   17 X1  C1C L1C D1C S1C C2P L2P D2P S2P C2C L2C D2C S2C  SYS / # / OBS TYPES 
       C3Q L3Q D3Q S3Q                                      SYS / # / OBS TYPES 
C   25 X1  C1P L1P D1P S1P C5P L5P D5P S5P C2I L2I D2I S2I  SYS / # / OBS TYPES 
       C7I L7I D7I S7I C6I L6I D6I S6I C7D L7D D7D S7D      SYS / # / OBS TYPES 
J   17 X1  C1C L1C D1C S1C C2L L2L D2L S2L C5Q L5Q D5Q S5Q  SYS / # / OBS TYPES 
       C1L L1L D1L S1L                                      SYS / # / OBS TYPES 
I    5 X1  C5A L5A D5A S5A                                  SYS / # / OBS TYPES 
SEPTENTRIO RECEIVERS OUTPUT ALIGNED CARRIER PHASES.         COMMENT             
NO FURTHER PHASE SHIFT APPLIED IN THE RINEX ENCODER.        COMMENT             
G L1C                                                       SYS / PHASE SHIFT   
G L2W                                                       SYS / PHASE SHIFT   
G L2L  0.00000                                              SYS / PHASE SHIFT   
G L5Q  0.00000                                              SYS / PHASE SHIFT   
G L1L  0.00000                                              SYS / PHASE SHIFT   
E L1C  0.00000                                              SYS / PHASE SHIFT   
E L6C  0.00000                                              SYS / PHASE SHIFT   
E L5Q  0.00000                                              SYS / PHASE SHIFT   
E L7Q  0.00000                                              SYS / PHASE SHIFT   
E L8Q  0.00000                                              SYS / PHASE SHIFT   
S L1C                                                       SYS / PHASE SHIFT   
S L5I                                                       SYS / PHASE SHIFT   
R L1C                                                       SYS / PHASE SHIFT   
R L2P  0.00000                                              SYS / PHASE SHIFT   
R L2C                                                       SYS / PHASE SHIFT   
R L3Q  0.00000                                              SYS / PHASE SHIFT   
C L1P  0.00000                                              SYS / PHASE SHIFT   
C L5P  0.00000                                              SYS / PHASE SHIFT   
C L2I                                                       SYS / PHASE SHIFT   
C L7I                                                       SYS / PHASE SHIFT   
C L6I                                                       SYS / PHASE SHIFT   
C L7D                                                       SYS / PHASE SHIFT   
J L1C                                                       SYS / PHASE SHIFT   
J L2L  0.00000                                              SYS / PHASE SHIFT   
J L5Q  0.00000                                              SYS / PHASE SHIFT   
J L1L  0.00000                                              SYS / PHASE SHIFT   
I L5A                                                       SYS / PHASE SHIFT   
  2025     1     1    21    15    0.0000000     GPS         TIME OF FIRST OBS   
 C1C    0.000 C2C    0.000 C2P    0.000                     GLONASS COD/PHS/BIS 
DBHZ                                                        SIGNAL STRENGTH UNIT
    18                                                      LEAP SECONDS        
 24 R01  1 R02 -4 R03  5 R04  6 R05  1 R06 -4 R07  5 R08  6 GLONASS SLOT / FRQ #
    R09 -2 R10 -7 R11  0 R12 -1 R13 -2 R14 -7 R15  0 R16 -1 GLONASS SLOT / FRQ #
    R17  4 R18 -3 R19  3 R20  2 R21  4 R22 -3 R23  3 R24  2 GLONASS SLOT / FRQ #
                                                            END OF HEADER       
> 2025 01 01 21 15  0.0000000  0 53
G10         1.000    20897524.390 8 109817333.16308     -1139.033 8        50.932                                    20897522.249 8  85572010.11008      -887.560 8        52.422    20897522.211 7  85571987.11607      -887.602 7        45.931
C33         3.000                                                                                                                                    22780373.762 8 118623412.20508       -44.787 8        49.475                                                                    22780385.116 8  96391298.42508       -36.398 8        49.290
E31         4.000    26393265.570 6 138697588.31606       769.446 6        41.287                                                                    26393266.105 7 103572885.59707       574.665 7        44.564    26393265.726 7 106274783.61607       589.694 7        45.189
S21         5.000    38567146.084 7 202671441.32607      -513.288 7        42.025
E13         6.000    24781617.310 7 130228622.73507     -2200.846 7        45.254                                                                    24781617.523 8  97248853.69908     -1643.537 8        48.129    24781617.243 8  99785749.93408     -1686.427 8        48.871
G23         7.000    22790156.552 7 119763204.17507     -3462.314 7        44.051                                    22790153.470 5  93322013.71305     -2697.907 5        30.566    22790153.197 7  93322012.72307     -2698.001 7        42.586
G02         9.000    23914689.927 6 125672584.62606      2138.375 6        41.652                                    23914683.889 4  97926681.33004      1666.278 4        26.659
C30        11.000                                                                                                                                    26785755.803 6 139480464.16706      2476.301 6        38.435                                                                    26785757.001 6 113339302.90806      2012.263 6        38.637
S27        12.000    39276668.832 6 206400267.60506      -481.007 6        36.401
R20        13.000    20282960.685 6 108462153.51206      1264.142 6        40.429                                                                    20282962.175 7  84359519.55807       983.240 7        47.085
S36        14.000    38336134.586 7 201458256.89207      -512.465 7        43.528
G27        15.000    20581169.324 8 108155054.29708     -2040.631 8        50.535                                    20581166.883 8  84276823.69708     -1590.103 8        52.342    20581167.286 7  84276737.69607     -1590.127 7        45.684
S45        17.000    63545983.143 6 333937114.92106      -556.788 6        37.308
E08        18.000    26248190.890 7 137935214.89307       448.930 7        42.205                                                                    26248189.581 7 103003571.28507       335.126 7        44.533    26248189.185 7 105690616.69907       343.937 7        46.049
G16        19.000    24414639.660 6 128300027.70706     -4257.128 6        39.559                                    24414636.494 3  99974159.84703     -3317.241 3        22.248
E21        20.000    27137307.910 6 142607867.35106     -3645.145 6        38.745                                                                    27137309.417 7 106493097.96307     -2722.002 7        43.016    27137308.496 7 109271154.30207     -2792.984 7        43.892
E26        21.000    23642115.114 8 124240500.35108        63.139 8        48.122                                                                    23642112.847 8  92777193.86208        47.183 8        50.484    23642112.445 8  95197444.07108        48.394 8        51.130
I06        22.000    38674507.237 6 151767288.07106      -290.856 6        41.669
S28        23.000    41027526.595 5 215601106.99005      -505.255 5        33.713
G08        24.000    20526646.284 8 107868266.26408       393.996 8        49.940                                    20526644.122 8  84053194.72708       307.012 8        50.805    20526644.885 7  84053195.72807       307.015 7        45.845
S23        25.000    38291422.971 7 201222766.14207      -511.664 7        44.223
C13        26.000                                                                                                                                    39309713.554 6 204696187.59406     -1549.212 6        40.253    39309715.268 6 158284186.06506     -1197.955 6        41.249    39309713.668 6 166332505.45206     -1258.873 6        39.492
G18        27.000    25765859.549 5 135400815.81305     -3691.216 5        35.767                                    25765857.700 2 105507291.92102     -2876.270 2        17.208    25765858.514 6 105507282.93406     -2876.200 6        36.919
R21        29.000    24198817.360 7 129492752.28607      2911.795 7        43.520                                                                    24198815.455 5 100716585.83905      2264.703 5        35.452
C14        30.000                                                                                                                                    23481725.456 7 122275540.57607     -1725.803 7        45.845    23481720.682 8  94551201.33608     -1334.538 8        50.055    23481719.636 7  99358880.68907     -1402.422 7        47.633
R05        31.000    21734366.207 8 116182658.02208      3514.702 8        48.684                                                                    21734365.724 7  90364294.01907      2733.679 7        44.745
E03        32.000    27952022.260 6 146888863.49606     -1967.588 6        37.720                                                                    27952023.412 6 109689745.63206     -1469.422 6        40.973    27952023.013 6 112551210.92806     -1507.660 6        41.897
R03        34.000    22231625.871 7 119007654.49807     -3536.803 7        46.739                                                                    22231623.302 7  92561529.97807     -2750.925 7        42.178
R10        35.000    22466828.584 6 119760890.29506     -3452.403 6        41.940
R18        36.000    23927400.665 6 127726467.44106     -3807.965 6        41.290                                                                    23927402.412 6  99343006.32106     -2961.760 6        40.164
G32        37.000    23795270.546 7 125045005.80307      2400.546 7        42.760                                    23795269.587 6  97437662.48806      1870.558 6        38.486    23795270.140 6  97437671.47606      1870.673 6        39.198
E07        38.000    27011976.934 6 141948884.02106      2327.975 6        38.742                                                                    27011978.906 7 106000819.30707      1738.536 7        44.283    27011978.435 7 108766051.47407      1783.870 7        44.372
C41        39.000                                                                                                                                    24207430.648 7 126054458.30607      2542.728 7        46.479                                                                    24207436.818 7 102429598.17707      2066.022 7        46.342
R09        40.000    24234471.433 6 129410728.15506     -4659.134 6        41.807                                                                    24234473.613 6 100652795.96106     -3623.760 6        38.375
E33        41.000    26550438.076 6 139523571.31706      1696.698 6        41.373                                                                    26550437.093 7 104189709.57107      1266.992 7        43.742    26550436.440 7 106907698.30507      1300.016 7        44.245
S44        42.000    40600431.345 6 213356890.55906      -527.450 6        37.327
C38        43.000                                                                                                                                    41429167.704 5 215732681.14405     -1711.132 5        34.333                                                                    41429166.887 5 175300532.23905     -1390.222 5        34.109
C05        44.000                                                                                                                                    39320189.147 6 204750563.96606      -455.409 6        38.517    39320184.508 7 158326144.72007      -352.158 7        43.018    39320186.211 6 166376705.64706      -370.179 6        39.468
C08        45.000                                                                                                                                    39942772.736 6 207992680.33706     -1736.512 6        36.174    39942768.355 6 160833206.25406     -1342.703 6        40.880    39942766.873 6 169011138.99306     -1411.068 6        37.728
R11        46.000    22400353.366 7 119700701.86607        28.389 7        46.663                                                                    22400351.773 7  93100547.00207        22.176 7        44.223
R19        47.000    20824131.563 6 111395421.33506     -2575.736 6        40.520                                                                    20824130.970 7  86641049.09507     -2003.413 7        43.970
C43        48.000                                                                                                                                    25623343.686 6 133427780.17006     -3363.528 6        41.812                                                                    25623343.810 6 108421122.58106     -2733.119 6        41.032
C42        50.000                                                                                                                                    25215868.230 7 131305678.21507     -3012.680 7        42.923                                                                    25215876.345 7 106696665.37607     -2448.232 7        44.020
S48        51.000    77319049.013 6 406315475.28506      -543.157 6        37.444
G21        52.000    21943002.520 7 115311325.25707      1452.388 7        42.643                                    21942997.660 5  89853001.35905      1131.731 5        30.740
C37        53.000                                                                                                                                    27344551.614 6 142390204.81106     -3402.793 6        37.267                                                                    27344557.585 6 115703713.14206     -2765.080 6        36.979
C60        54.000                                                                                                                                    40600432.770 6 211417301.83206      -522.671 6        40.260                                                                    40600416.365 6 171793843.93906      -424.876 6        39.117
C27        55.000                                                                                                                                    22581858.245 8 117589680.03608      1359.244 8        49.097                                                                    22581857.134 8  95551250.74508      1104.448 8        48.344
R04        56.000    20135120.319 8 107822670.70608       141.318 8        51.434                                                                    20135118.137 7  83862069.66507       109.936 7        47.757
C02        57.000                                                                                                                                    40666658.908 5 211762003.80905      -475.648 5        34.395    40666652.386 6 163747805.94806      -367.762 6        40.298    40666655.717 5 172073975.90905      -386.606 5        35.167
I03        58.000   108783327.696 6 351103892.26706      1013.226 6        40.541
C36        59.000                                                                                                                                    26226027.931 6 136565804.80006      -227.752 6        40.207                                                                    26226032.912 6 110970931.25006      -184.941 6        40.996
C28        60.000                                                                                                                                    21654396.028 8 112760436.34808     -1032.124 8        51.027                                                                    21654394.686 8  91627226.88808      -838.702 8        48.696
> 2025 01 01 21 15  5.0000000  0 53
G10         1.000    20898609.783 8 109823036.25908     -1142.169 8        51.046                                    20898607.507 8  85576454.08308      -890.001 8        52.438    20898607.420 7  85576431.08707      -889.995 7        45.547
C33         3.000                                                                                                                                    22780418.573 8 118623644.78008       -48.142 8        49.450                                                                    22780429.793 8  96391487.41808       -39.094 8        49.273
E31         4.000    26392534.508 6 138693747.16606       766.876 6        41.490                                                                    26392535.252 7 103570017.21907       572.754 7        44.755    26392534.738 7 106271840.41507       587.680 7        45.353
S21         5.000    38567637.949 7 202674008.57307      -513.643 7        42.049
E13         6.000    24783711.824 7 130239630.13107     -2202.018 7        45.320                                                                    24783712.138 8  97257073.50008     -1644.336 8        48.216    24783711.797 8  99794184.16508     -1687.206 8        49.019
G23         7.000    22793452.129 7 119780520.86007     -3464.262 7        44.003                                    22793448.626 5  93335507.24205     -2699.418 5        30.551    22793448.519 7  93335506.24407     -2699.294 7        42.055
G02         9.000    23912656.126 7 125661895.83807      2137.320 7        42.129                                    23912649.989 4  97918352.41104      1665.442 4        26.623
C30        11.000                                                                                                                                    26783378.347 6 139468083.33706      2476.039 6        38.153                                                                    26783379.722 6 113329242.50406      2011.933 6        38.396
S27        12.000    39277124.535 6 206402674.36506      -481.511 6        36.163
R20        13.000    20281779.866 6 108455837.82006      1262.172 6        40.772                                                                    20281781.141 7  84354607.34907       981.719 7        46.701
S36        14.000    38336622.556 7 201460820.45907      -512.940 7        43.534
G27        15.000    20583112.205 8 108165265.57408     -2043.733 8        50.273                                    20583110.022 8  84284780.53708     -1592.518 8        52.309    20583110.550 7  84284694.53507     -1592.516 7        45.672
S45        17.000    63546466.065 6 333939900.24206      -557.152 6        37.191
E08        18.000    26247765.167 7 137932977.31107       446.243 7        42.246                                                                    26247763.884 7 103001900.35607       333.167 7        44.564    26247763.316 7 105688902.18507       341.912 7        46.078
G16        19.000    24418690.863 6 128321315.02406     -4257.788 6        39.946                                    24418687.104 3  99990747.34703     -3317.760 3        22.229
E21        20.000    27140776.578 6 142626095.11606     -3646.046 6        39.420                                                                    27140777.989 7 106506709.58907     -2722.549 7        43.225    27140777.321 7 109285121.01307     -2793.600 7        43.905
E26        21.000    23642055.696 8 124240188.48208        61.735 8        48.229                                                                    23642053.498 8  92776960.97508        46.087 8        50.553    23642053.070 8  95197205.11008        47.226 8        51.213
I06        22.000    38674877.883 6 151768743.18206      -291.230 6        41.442
S28        23.000    41028010.331 5 215603634.66905      -505.899 5        33.545
G08        24.000    20526272.867 8 107866304.42608       390.797 8        49.722                                    20526270.808 8  84051666.02108       304.516 8        50.831    20526271.702 7  84051667.03307       304.428 7        45.896
S23        25.000    38291909.747 7 201225325.80507      -512.029 7        44.063
C13        26.000                                                                                                                                    39311201.453 6 204703934.62306     -1549.499 6        40.315    39311203.186 6 158290176.55006     -1198.205 6        41.287    39311201.357 6 166338800.54006     -1258.997 6        39.562
G18        27.000    25769371.844 5 135419272.53505     -3691.811 5        35.843                                    25769369.842 2 105521673.79402     -2876.734 2        17.358    25769370.462 6 105521664.81606     -2876.640 6        36.556
R21        29.000    24196096.866 7 129478193.64507      2911.491 7        42.882                                                                    24196095.086 5 100705262.45205      2264.771 5        35.419
C14        30.000                                                                                                                                    23483384.654 7 122284177.65207     -1728.946 7        45.577    23483379.815 8  94557880.07008     -1336.919 8        50.272    23483378.303 7  99365899.02907     -1404.862 7        47.467
R05        31.000    21731079.350 7 116165090.94907      3512.277 7        47.903                                                                    21731079.303 7  90350630.76607      2731.772 7        44.763
E03        32.000    27953895.431 6 146898707.98106     -1970.016 6        37.611                                                                    27953896.932 6 109697097.07006     -1471.113 6        40.982    27953896.383 6 112558754.15106     -1509.598 6        41.831
R03        34.000    22234930.786 7 119025347.45007     -3540.298 7        46.499                                                                    22234929.218 7  92575291.14407     -2753.548 7        42.171
R10        35.000    22470068.677 7 119778160.27907     -3455.572 7        42.516
R18        36.000    23930968.323 6 127745510.05406     -3809.122 6        40.942                                                                    23930969.758 6  99357817.23406     -2962.567 6        39.568
G32        37.000    23792987.595 7 125033006.93607      2399.024 7        42.535                                    23792986.063 6  97428312.72006      1869.371 6        38.282    23792987.120 6  97428321.73006      1869.268 6        39.270
E07        38.000    27009762.442 6 141937246.67206      2326.917 6        38.712                                                                    27009764.461 7 105992129.08707      1737.631 7        44.334    27009763.833 7 108757134.53507      1783.100 7        44.316
C41        39.000                                                                                                                                    24204990.261 7 126041749.68207      2540.844 7        46.033                                                                    24204996.301 7 102419271.39107      2064.740 7        46.345
R09        40.000    24238834.379 7 129434025.14307     -4659.464 7        42.051                                                                    24238837.103 6 100670915.80106     -3624.059 6        38.835
E33        41.000    26548824.634 6 139515090.49806      1695.651 6        41.185                                                                    26548823.162 7 104183376.49307      1266.368 7        43.818    26548822.573 7 106901200.02007      1299.371 7        44.263
S44        42.000    40600933.553 6 213359529.47206      -527.918 6        37.028
C38        43.000                                                                                                                                    41430810.520 5 215741236.99005     -1711.364 5        34.771                                                                    41430810.007 5 175307484.61505     -1390.787 5        34.162
C05        44.000                                                                                                                                    39320626.593 6 204752842.11306      -455.841 6        38.366    39320622.114 7 158327906.33907      -352.474 7        42.872    39320623.889 6 166378556.84306      -370.181 6        39.465
C08        45.000                                                                                                                                    39944440.371 6 208001364.05506     -1736.857 6        36.045    39944436.018 6 160839921.06506     -1343.003 6        40.927    39944434.425 6 169018195.24506     -1411.390 6        37.565
R11        46.000    22400328.592 7 119700571.96607        23.602 7        46.440                                                                    22400327.510 7  93100445.97007        18.265 7        43.122
R19        47.000    20826540.111 6 111408305.86606     -2577.790 6        40.367                                                                    20826539.310 7  86651070.39207     -2005.050 7        43.587
C43        48.000                                                                                                                                    25626574.316 7 133444600.43507     -3364.469 7        42.254                                                                    25626573.950 6 108434790.44006     -2733.922 6        41.054
C42        50.000                                                                                                                                    25218762.157 7 131320748.08907     -3015.065 7        42.990                                                                    25218770.306 7 106708910.87007     -2449.957 7        43.873
S48        51.000    77319546.714 6 406318192.52306      -543.540 6        37.701
G21        52.000    21941622.138 7 115304068.59707      1450.533 7        42.527                                    21941616.881 5  89847346.82405      1130.287 5        30.709
C37        53.000                                                                                                                                    27347818.800 6 142407218.91906     -3402.759 6        36.563                                                                    27347824.974 6 115717538.48706     -2765.030 6        37.316
C60        54.000                                                                                                                                    40600934.812 6 211419916.77506      -523.191 6        39.979                                                                    40600918.533 6 171795968.80106      -425.027 6        39.090
C27        55.000                                                                                                                                    22580553.859 8 117582887.98708      1357.723 8        48.998                                                                    22580552.772 8  95545731.65208      1103.284 8        48.267
R04        56.000    20134990.833 8 107821976.87908       136.305 8        51.178                                                                    20134988.868 8  83861530.01908       106.029 8        48.044
C02        57.000                                                                                                                                    40667115.890 5 211764384.08005      -476.210 5        34.381    40667109.627 6 163749646.52606      -368.198 6        40.160    40667112.632 5 172075910.07405      -386.802 5        35.224
I03        58.000   108782036.924 6 351098826.97806      1012.910 6        40.384
C36        59.000                                                                                                                                    26226247.833 6 136566951.10506      -230.677 6        40.293                                                                    26226253.070 6 110971862.73906      -187.575 6        40.992
C28        60.000                                                                                                                                    21655388.077 8 112765602.33208     -1034.230 8        51.013                                                                    21655386.789 8  91631424.68908      -840.411 8        48.722
> 2025 01 01 21 15 10.0000000  0 53
G10         1.000    20899697.641 8 109828753.10508     -1144.791 8        51.076                                    20899695.386 8  85580908.76708      -892.045 8        52.427    20899695.226 7  85580885.77507      -892.062 7        45.819
C33         3.000                                                                                                                                    22780466.237 8 118623891.97108       -50.935 8        49.614                                                                    22780477.251 8  96391688.27808       -41.471 8        49.387
E31         4.000    26391805.797 6 138689916.99006       765.008 6        41.664                                                                    26391806.331 7 103567157.03507       571.179 7        44.877    26391805.929 7 106268905.61607       586.055 7        45.245
S21         5.000    38568123.527 6 202676575.56806      -513.347 6        41.933
E13         6.000    24785807.101 7 130250640.72007     -2202.493 7        45.225                                                                    24785807.478 8  97265295.69108     -1644.704 8        48.244    24785806.956 8  99802620.84808     -1687.553 8        48.923
G23         7.000    22796748.675 7 119797844.78507     -3465.494 7        43.575                                    22796745.245 5  93349006.40205     -2700.387 5        30.566    22796745.724 7  93349005.40907     -2700.359 7        42.400
G02         9.000    23910622.704 7 125651210.16207      2136.837 7        42.227                                    23910616.536 4  97910025.91904      1665.073 4        26.874
C30        11.000                                                                                                                                    26781001.122 6 139455701.94406      2476.200 6        38.111                                                                    26781001.860 6 113319181.60206      2012.055 6        38.213
S27        12.000    39277586.579 6 206405081.22106      -481.522 6        36.015
R20        13.000    20280600.930 6 108449530.14006      1260.631 6        41.030                                                                    20280601.565 7  84349701.37207       980.557 7        46.913
S36        14.000    38337112.642 7 201463384.42007      -512.770 7        43.460
G27        15.000    20585058.088 8 108175490.44208     -2046.370 8        50.210                                    20585055.750 8  84292747.96608     -1594.574 8        52.318    20585056.210 7  84292661.96007     -1594.500 7        45.583
S45        17.000    63546950.046 6 333942685.50506      -556.968 6        37.388
E08        18.000    26247341.564 7 137930751.23207       444.067 7        42.184                                                                    26247340.229 7 103000238.02807       331.634 7        44.734    26247339.784 7 105687196.49507       340.294 7        46.004
G16        19.000    24422742.043 6 128342603.56406     -4257.863 6        40.427                                    24422737.992 3 100007335.79903     -3317.826 3        22.724
E21        20.000    27144245.547 6 142644324.89406     -3646.067 6        40.112                                                                    27144246.937 7 106520322.73707     -2722.762 7        43.221    27144246.529 7 109299089.29207     -2793.798 7        43.803
E26        21.000    23641997.276 8 124239881.84308        60.770 8        48.355                                                                    23641995.137 8  92776731.98808        45.357 8        50.631    23641994.749 8  95196970.14708        46.559 8        51.120
I06        22.000    38675248.729 6 151770198.14606      -290.877 6        41.368
S28        23.000    41028486.510 5 215606162.37705      -505.657 5        33.401
G08        24.000    20525901.870 8 107864356.28008       388.243 8        49.640                                    20525900.102 8  84050147.98308       302.525 8        50.844    20525901.073 7  84050148.99107       302.497 7        46.082
S23        25.000    38292396.036 7 201227885.29207      -511.989 7        44.057
C13        26.000                                                                                                                                    39312689.203 6 204711681.58606     -1549.436 6        40.205    39312690.932 6 158296166.98006     -1198.217 6        41.578    39312689.142 6 166345095.57306     -1259.096 6        39.751
G18        27.000    25772883.666 5 135437729.48105     -3691.376 5        35.562                                    25772882.060 2 105536055.86002     -2876.401 2        16.943    25772882.156 6 105536046.86106     -2876.495 6        36.359
R21        29.000    24193375.648 6 129463634.34306      2911.567 6        41.495                                                                    24193374.480 6 100693938.57406      2264.848 6        36.000
C14        30.000                                                                                                                                    23485045.111 7 122292828.12207     -1731.506 7        45.400    23485041.074 8  94564569.15808     -1338.870 8        50.331    23485039.539 7  99372928.23807     -1407.069 7        47.608
R05        31.000    21727794.596 8 116147534.20408      3510.294 8        48.230                                                                    21727795.272 7  90336975.52607      2730.261 7        45.282
E03        32.000    27955770.466 6 146908562.81306     -1971.972 6        37.611                                                                    27955772.162 6 109704456.20306     -1472.696 6        41.070    27955771.863 6 112566305.25106     -1510.973 6        41.881
R03        34.000    22238238.606 7 119043055.92807     -3543.242 7        46.039                                                                    22238236.486 6  92589064.39706     -2755.859 6        41.948
R10        35.000    22473312.251 7 119795444.18707     -3458.196 7        42.700
R18        36.000    23934535.866 6 127764555.31006     -3809.356 6        40.977                                                                    23934537.564 6  99372630.21306     -2962.758 6        40.093
G32        37.000    23790705.425 7 125021014.35007      2397.884 7        42.332                                    23790703.855 6  97418967.84506      1868.479 6        38.123    23790705.312 6  97418976.84606      1868.608 6        39.625
E07        38.000    27007548.640 6 141925612.62106      2326.396 6        39.276                                                                    27007550.803 7 105983441.31207      1737.305 7        44.491    27007549.939 7 108748220.12607      1782.672 7        44.256
C41        39.000                                                                                                                                    24202551.183 7 126029048.02007      2539.645 7        45.863                                                                    24202557.256 7 102408950.25407      2063.568 7        46.538
R09        40.000    24243198.152 7 129457321.41507     -4659.410 7        42.110                                                                    24243199.548 6 100689035.10006     -3623.709 6        38.480
E33        41.000    26547210.854 6 139506611.96406      1695.339 6        41.485                                                                    26547209.677 7 104177045.13707      1266.117 7        44.048    26547209.267 7 106894703.49507      1299.156 7        44.268
S44        42.000    40601435.300 6 213362168.52506      -527.923 6        36.915
C38        43.000                                                                                                                                    41432453.558 5 215749791.89405     -1710.943 5        34.681                                                                    41432452.930 5 175314436.14505     -1390.341 5        34.490
C05        44.000                                                                                                                                    39321064.092 6 204755120.31606      -455.614 6        38.315    39321059.658 7 158329667.97807      -352.316 7        42.984    39321061.392 6 166380408.07206      -370.435 6        39.637
C08        45.000                                                                                                                                    39946107.626 5 208010047.17505     -1736.619 5        35.724    39946103.512 6 160846635.36506     -1342.845 6        40.861    39946101.972 6 169025250.94306     -1411.229 6        37.338
R11        46.000    22400308.679 7 119700464.16607        19.319 7        46.200                                                                    22400306.309 7  93100362.11407        15.085 7        42.914
R19        47.000    20828950.350 6 111421198.92006     -2579.485 6        40.288                                                                    20828949.237 7  86661098.31107     -2006.277 7        43.452
C43        48.000                                                                                                                                    25629805.433 7 133461423.66207     -3364.933 7        42.294                                                                    25629804.690 6 108448460.67706     -2734.381 6        41.139
C42        50.000                                                                                                                                    25221658.276 7 131335826.91007     -3016.724 7        42.605                                                                    25221665.978 7 106721163.63907     -2451.452 7        43.841
S48        51.000    77320040.001 6 406320909.79106      -543.414 6        37.611
G21        52.000    21940242.066 7 115296818.83107      1449.224 7        42.387                                    21940237.278 5  89841697.65305      1129.266 5        30.770
C37        53.000                                                                                                                                    27351085.416 6 142424230.93806     -3402.281 6        36.752                                                                    27351092.039 6 115731362.09806     -2764.762 6        37.062
C60        54.000                                                                                                                                    40601436.636 6 211422531.81706      -523.039 6        39.931                                                                    40601420.741 6 171798093.74406      -425.119 6        39.180
C27        55.000                                                                                                                                    22579250.993 8 117576101.74408      1356.598 8        48.838                                                                    22579249.515 8  95540217.26208      1102.310 8        48.422
R04        56.000    20134864.896 8 107821306.41008       131.716 8        51.037                                                                    20134863.548 7  83861008.55007       102.509 7        47.690
C02        57.000                                                                                                                                    40667572.796 5 211766764.50405      -476.349 5        33.928    40667567.083 6 163751487.20106      -368.080 6        40.322    40667569.793 5 172077844.34905      -387.079 5        35.229
I03        58.000   108780745.852 6 351093761.88506      1012.916 6        40.453
C36        59.000                                                                                                                                    26226470.526 6 136568110.55406      -233.293 6        40.188                                                                    26226475.563 6 110972804.87306      -189.608 6        41.225
C28        60.000                                                                                                                                    21656382.041 8 112770776.95708     -1035.803 8        50.942                                                                    21656380.558 8  91635629.48808      -841.760 8        48.786
> 2025 01 01 21 15 15.0000000  0 53
G10         1.000    20900788.018 8 109834483.96708     -1147.628 8        51.035                                    20900785.929 8  85585374.37308      -894.256 8        52.507    20900785.785 7  85585351.38207      -894.222 7        45.986
C33         3.000                                                                                                                                    22780516.529 8 118624154.07808       -54.034 8        49.823                                                                    22780527.683 8  96391901.25708       -43.908 8        49.295
E31         4.000    26391078.945 6 138686098.07306       762.560 6        41.235                                                                    26391079.656 7 103564305.25907       569.448 7        44.558    26391079.170 7 106265979.44207       584.293 7        45.138
S21         5.000    38568612.284 7 202679142.68307      -513.517 7        42.227
E13         6.000    24787903.072 7 130261654.82607     -2203.276 7        45.341                                                                    24787903.385 8  97273520.50108     -1645.274 8        48.103    24787902.875 8  99811060.22608     -1688.262 8        48.899
G23         7.000    22800046.704 7 119815176.21207     -3467.181 7        43.056                                    22800043.286 5  93362511.40905     -2701.699 5        30.626    22800043.711 7  93362510.41107     -2701.724 7        42.580
G02         9.000    23908590.072 7 125640527.91607      2135.956 7        42.322                                    23908583.723 4  97901702.08804      1664.383 4        27.030
C30        11.000                                                                                                                                    26778622.638 6 139443320.31906      2476.247 6        38.174                                                                    26778623.999 6 113309120.50406      2012.256 6        38.198
S27        12.000    39278039.036 6 206407487.90406      -481.516 6        36.412
R20        13.000    20279422.502 6 108443230.82906      1258.862 6        40.710                                                                    20279423.650 7  84344801.90307       979.104 7        46.799
S36        14.000    38337597.719 7 201465948.47207      -512.944 7        43.663
G27        15.000    20587006.526 8 108185729.18608     -2049.282 8        50.066                                    20587004.117 8  84300726.20508     -1596.844 8        52.389    20587004.395 7  84300640.20507     -1596.814 7        45.418
S45        17.000    63547435.879 6 333945471.16106      -557.118 6        37.293
E08        18.000    26246920.210 7 137928536.98807       441.635 7        42.155                                                                    26246918.840 7 102998584.54607       329.667 7        44.530    26246918.600 7 105685499.87407       338.313 7        45.977
G16        19.000    24426793.338 6 128363893.57106     -4258.261 6        40.708                                    24426789.403 3 100023925.39103     -3318.114 3        23.029
E21        20.000    27147715.351 6 142662557.00306     -3646.752 6        40.834                                                                    27147716.429 7 106533937.61107     -2723.305 7        43.045    27147716.102 7 109313059.32607     -2794.257 7        43.852
E26        21.000    23641939.952 8 124239580.74308        59.529 8        48.227                                                                    23641937.860 8  92776507.13808        44.471 8        50.542    23641937.455 8  95196739.43108        45.668 8        51.014
I06        22.000    38675619.609 6 151771653.23206      -291.118 6        41.321
S28        23.000    41028971.913 5 215608690.55305      -505.850 5        33.473
G08        24.000    20525533.668 8 107862422.15908       385.258 8        49.570                                    20525532.060 8  84048640.87308       300.200 8        50.988    20525532.792 7  84048641.87507       300.210 7        46.071
S23        25.000    38292883.993 7 201230445.14307      -512.099 7        44.095
C13        26.000                                                                                                                                    39314176.668 6 204719428.77806     -1549.706 6        40.110    39314178.801 6 158302157.59906     -1198.204 6        41.552    39314177.013 6 166351390.79506     -1259.220 6        39.769
G18        27.000    25776396.767 5 135456186.97205     -3691.658 5        35.771                                    25776394.488 2 105550438.32902     -2876.615 2        17.057    25776394.610 6 105550429.34306     -2876.560 6        36.654
R21        29.000    24190654.379 6 129449074.86206      2911.695 6        41.723                                                                    24190653.790 5 100682614.54305      2264.725 5        34.971
C14        30.000                                                                                                                                    23486708.688 7 122301492.34007     -1734.329 7        45.145    23486704.500 8  94571268.86808     -1341.053 8        50.183    23486703.403 7  99379968.60407     -1409.216 7        47.522
R05        31.000    21724512.583 7 116129987.99207      3508.097 7        47.947                                                                    21724513.023 7  90323328.47707      2728.490 7        44.871
E03        32.000    27957648.104 6 146918428.37306     -1974.348 6        37.539                                                                    27957649.650 6 109711823.33206     -1474.326 6        40.932    27957649.216 6 112573864.56806     -1512.783 6        41.721
R03        34.000    22241549.625 7 119060780.27907     -3546.604 7        46.340                                                                    22241547.825 7  92602849.99607     -2758.405 7        42.053
R10        35.000    22476556.896 7 119812742.21607     -3461.224 7        42.652
R18        36.000    23938104.347 6 127783603.51006     -3810.047 6        40.984                                                                    23938106.500 6  99387445.48906     -2963.398 6        40.644
G32        37.000    23788423.952 6 125009028.38006      2396.388 6        41.592                                    23788423.001 6  97409628.13506      1867.314 6        38.192    23788424.216 6  97409637.14406      1867.355 6        39.922
E07        38.000    27005335.474 6 141913982.18206      2325.629 6        39.423                                                                    27005337.570 7 105974756.24307      1736.648 7        44.465    27005336.811 7 108739308.49207      1781.989 7        44.191
C41        39.000                                                                                                                                    24200113.814 7 126016353.62307      2538.100 7        46.363                                                                    24200119.420 7 102398635.01107      2062.411 7        46.408
R09        40.000    24247560.255 7 129480617.17807     -4659.283 7        43.132                                                                    24247562.724 6 100707153.99806     -3623.946 6        38.811
E33        41.000    26545598.162 6 139498136.05406      1694.791 6        41.530                                                                    26545596.737 7 104170715.72807      1265.583 7        43.947    26545596.300 7 106888208.96907      1298.619 7        44.199
S44        42.000    40601939.203 6 213364807.96206      -528.087 6        37.149
C38        43.000                                                                                                                                    41434096.451 5 215758346.11605     -1710.878 5        34.910                                                                    41434095.664 5 175321387.15305     -1390.277 5        34.167
C05        44.000                                                                                                                                    39321501.658 6 204757398.82906      -455.851 6        38.456    39321497.023 7 158331429.88107      -352.481 7        43.058    39321498.802 6 166382259.53406      -370.298 6        39.553
C08        45.000                                                                                                                                    39947775.319 6 208018730.17506     -1736.697 6        36.038    39947771.028 6 160853349.60906     -1342.932 6        41.113    39947769.518 6 169032306.59006     -1411.151 6        37.350
R11        46.000    22400292.893 7 119700378.70407        14.742 7        46.039                                                                    22400291.417 7  93100295.67407        11.474 7        43.448
R19        47.000    20831362.198 6 111434100.63306     -2581.378 6        40.665                                                                    20831360.836 7  86671132.95807     -2007.712 7        43.346
C43        48.000                                                                                                                                    25633036.592 7 133478250.16007     -3365.762 7        42.254                                                                    25633036.063 6 108462133.54006     -2734.837 6        40.975
C42        50.000                                                                                                                                    25224555.968 7 131350914.96807     -3018.583 7        42.423                                                                    25224563.379 7 106733423.90307     -2452.915 7        43.562
S48        51.000    77320536.740 6 406323627.32606      -543.649 6        37.724
G21        52.000    21938863.931 7 115289576.27307      1447.646 7        42.631                                    21938859.071 5  89836054.11005      1128.041 5        30.800
C37        53.000                                                                                                                                    27354351.601 6 142441241.08406     -3401.884 6        36.877                                                                    27354359.020 6 115745184.22306     -2764.597 6        37.168
C60        54.000                                                                                                                                    40601939.340 6 211425147.27106      -523.305 6        40.062                                                                    40601922.913 6 171800218.99106      -425.079 6        38.949
C27        55.000                                                                                                                                    22577948.980 8 117569321.59308      1355.326 8        48.822                                                                    22577947.515 8  95534707.82408      1101.351 8        48.320
R04        56.000    20134744.319 8 107820659.57808       126.893 8        51.024                                                                    20134742.529 7  83860505.45607        98.696 7        47.360
C02        57.000                                                                                                                                    40668030.256 5 211769145.29705      -476.148 5        34.019    40668023.819 6 163753328.19606      -368.372 6        40.250    40668027.079 5 172079778.93705      -386.926 5        35.176
I03        58.000   108779455.342 6 351088697.18306      1012.778 6        40.601
C36        59.000                                                                                                                                    26226696.312 6 136569283.44706      -236.068 6        40.784                                                                    26226700.762 6 110973757.93906      -191.772 6        41.166
C28        60.000                                                                                                                                    21657377.513 8 112775960.51508     -1037.675 8        50.935                                                                    21657375.979 8  91639841.54208      -843.174 8        48.680
> 2025 01 01 21 15 20.0000000  0 53
G10         1.000    20901881.278 8 109840228.58608     -1150.456 8        50.928                                    20901879.094 8  85589850.70008      -896.460 8        52.431    20901879.103 7  85589827.70307      -896.491 7        45.830
C33         3.000                                                                                                                                    22780569.423 8 118624430.83308       -56.958 8        49.700                                                                    22780580.816 8  96392126.15508       -46.189 8        49.380
E31         4.000    26390354.190 6 138682290.21506       760.290 6        41.480                                                                    26390354.958 7 103561461.72907       567.746 7        44.734    26390354.586 7 106263061.73207       582.577 7        45.099
S21         5.000    38569103.336 6 202681709.70506      -513.463 6        41.890
E13         6.000    24789999.913 7 130272672.17007     -2203.941 7        45.315                                                                    24789999.965 8  97281747.74508     -1645.823 8        48.081    24789999.383 8  99819502.08608     -1688.710 8        48.832
G23         7.000    22803346.168 7 119832514.86007     -3468.567 7        43.217                                    22803342.798 5  93376022.04005     -2702.781 5        30.423    22803343.027 7  93376021.04507     -2702.843 7        43.018
G02         9.000    23906557.959 7 125629848.80807      2135.379 7        42.360                                    23906551.626 4  97893380.71504      1663.930 4        26.802
C30        11.000                                                                                                                                    26776244.776 6 139430938.17306      2476.362 6        37.720                                                                    26776246.219 6 113299059.02206      2012.185 6        38.471
S27        12.000    39278496.679 6 206409895.05406      -481.576 6        36.329
R20        13.000    20278245.617 6 108436939.60906      1257.330 6        40.858                                                                    20278247.583 7  84339908.73107       977.917 7        46.991
S36        14.000    38338088.739 7 201468512.17407      -512.848 7        43.354
G27        15.000    20588957.439 8 108195981.52608     -2052.013 8        50.140                                    20588955.072 8  84308715.04308     -1598.971 8        52.227    20588955.754 7  84308629.04007     -1598.960 7        45.988
S45        17.000    63547921.153 6 333946656.84216      -557.130 6        37.032
E08        18.000    26246501.337 7 137926334.31207       439.227 7        42.110                                                                    26246499.688 7 102996939.69207       327.915 7        44.585    26246499.509 7 105683812.11107       336.535 7        46.001
G16        19.000    24430844.384 6 128385184.78906     -4258.536 6        40.725                                    24430841.122 3 100040515.93303     -3318.331 3        22.648
E21        20.000    27151185.092 6 142680791.17406     -3647.283 6        40.961                                                                    27151186.381 7 106547554.01507     -2723.558 7        42.931    27151186.020 7 109327030.95407     -2794.635 7        43.719
E26        21.000    23641883.735 8 124239284.91908        58.500 8        48.085                                                                    23641881.533 8  92776286.23108        43.715 8        50.539    23641881.146 8  95196512.76508        44.835 8        51.041
I06        22.000    38675990.080 6 151773108.21006      -291.046 6        41.502
S28        23.000    41029454.026 5 215611218.30205      -505.823 5        33.245
G08        24.000    20525168.482 8 107860501.75808       382.644 8        49.678                                    20525166.631 8  84047144.45808       298.164 8        50.906    20525167.265 7  84047145.45707       298.164 7        46.283
S23        25.000    38293371.900 7 201233005.00207      -512.016 7        44.081
C13        26.000                                                                                                                                    39315664.634 6 204727175.88506     -1549.581 6        40.062    39315666.507 6 158308148.15206     -1198.223 6        41.795    39315664.723 6 166357685.95606     -1259.135 6        39.922
G18        27.000    25779908.856 6 135474644.74606     -3691.868 6        36.045                                    25779906.729 2 105564821.03702     -2876.777 2        16.755    25779907.537 6 105564812.02306     -2876.752 6        36.590
R21        29.000    24187932.869 7 129434514.75807      2911.787 7        42.053                                                                    24187932.415 5 100671290.01905      2264.794 5        35.581
C14        30.000                                                                                                                                    23488374.919 7 122310169.95807     -1736.949 7        45.102    23488370.984 8  94577978.96308     -1343.174 8        50.027    23488369.792 7  99387019.89307     -1411.336 7        47.657
