     3.04           OBSERVATION DATA    M                   RINEX VERSION / TYPE
ssrcrin-15.6.1x                         20250101 153000 UTC PGM / RUN BY / DATE 
(00000000023479385599111004) Septentrio proprietary         COMMENT             
rref                                                        MARKER NAME         
01                                                          MARKER NUMBER       
geodetic                                                    MARKER TYPE         
NFB                 CLIMERS@TUW                             OBSERVER / AGENCY   
3297213             SEPT ASTERX SB3 PROB4.14.4              REC # / TYPE / VERS 
Unknown             Unknown                                 ANT # / TYPE        
  4127831.4222  1207194.1004  4695247.8952                  APPROX POSITION XYZ 
        0.0000        0.0000        0.0000                  ANTENNA: DELTA H/E/N
G   23 X1  C1C L1C D1C S1C C1W S1W C2W L2W D2W S2W C2L L2L  SYS / # / OBS TYPES 
       D2L S2L C5Q L5Q D5Q S5Q C1L L1L D1L S1L              SYS / # / OBS TYPES 
E   21 X1  C1C L1C D1C S1C C6C L6C D6C S6C C5Q L5Q D5Q S5Q  SYS / # / OBS TYPES 
       C7Q L7Q D7Q S7Q C8Q L8Q D8Q S8Q                      SYS / # / OBS TYPES 
S    9 X1  C1C L1C D1C S1C C5I L5I D5I S5I                  SYS / # / OBS TYPES 
R   17 X1  C1C L1C D1C S1C C2P L2P D2P S2P C2C L2C D2C S2C  SYS / # / OBS TYPES 
       C3Q L3Q D3Q S3Q                                      SYS / # / OBS TYPES 
C   25 X1  C1P L1P D1P S1P C5P L5P D5P S5P C2I L2I D2I S2I  SYS / # / OBS TYPES 
       C7I L7I D7I S7I C6I L6I D6I S6I C7D L7D D7D S7D      SYS / # / OBS TYPES 
J   17 X1  C1C L1C D1C S1C C2L L2L D2L S2L C5Q L5Q D5Q S5Q  SYS / # / OBS TYPES 
       C1L L1L D1L S1L                                      SYS / # / OBS TYPES 
I    5 X1  C5A L5A D5A S5A                                  SYS / # / OBS TYPES 
SEPTENTRIO RECEIVERS OUTPUT ALIGNED CARRIER PHASES.         COMMENT             
NO FURTHER PHASE SHIFT APPLIED IN THE RINEX ENCODER.        COMMENT             
G L1C                                                       SYS / PHASE SHIFT   
G L2W                                                       SYS / PHASE SHIFT   
G L2L  0.00000                                              SYS / PHASE SHIFT   
G L5Q  0.00000                                              SYS / PHASE SHIFT   
G L1L  0.00000                                              SYS / PHASE SHIFT   
E L1C  0.00000                                              SYS / PHASE SHIFT   
E L6C  0.00000                                              SYS / PHASE SHIFT   
E L5Q  0.00000                                              SYS / PHASE SHIFT   
E L7Q  0.00000                                              SYS / PHASE SHIFT   
E L8Q  0.00000                                              SYS / PHASE SHIFT   
S L1C                                                       SYS / PHASE SHIFT   
S L5I                                                       SYS / PHASE SHIFT   
R L1C                                                       SYS / PHASE SHIFT   
R L2P  0.00000                                              SYS / PHASE SHIFT   
R L2C                                                       SYS / PHASE SHIFT   
R L3Q  0.00000                                              SYS / PHASE SHIFT   
C L1P  0.00000                                              SYS / PHASE SHIFT   
C L5P  0.00000                                              SYS / PHASE SHIFT   
C L2I                                                       SYS / PHASE SHIFT   
C L7I                                                       SYS / PHASE SHIFT   
C L6I                                                       SYS / PHASE SHIFT   
C L7D                                                       SYS / PHASE SHIFT   
J L1C                                                       SYS / PHASE SHIFT   
J L2L  0.00000                                              SYS / PHASE SHIFT   
J L5Q  0.00000                                              SYS / PHASE SHIFT   
J L1L  0.00000                                              SYS / PHASE SHIFT   
I L5A                                                       SYS / PHASE SHIFT   
  2025     1     1    15    30    0.0000000     GPS         TIME OF FIRST OBS   
 C1C    0.000 C2C    0.000 C2P    0.000                     GLONASS COD/PHS/BIS 
DBHZ                                                        SIGNAL STRENGTH UNIT
    18                                                      LEAP SECONDS        
 24 R01  1 R02 -4 R03  5 R04  6 R05  1 R06 -4 R07  5 R08  6 GLONASS SLOT / FRQ #
    R09 -2 R10 -7 R11  0 R12 -1 R13 -2 R14 -7 R15  0 R16 -1 GLONASS SLOT / FRQ #
    R17  4 R18 -3 R19  3 R20  2 R21  4 R22 -3 R23  3 R24  2 GLONASS SLOT / FRQ #
                                                            END OF HEADER       
> 2025 01 01 15 30  0.0000000  0 57
G20         1.000    23878995.867 6 125485111.30606       570.846 6        41.638                                    23878994.790 4  97780664.71204       444.809 4        24.586
G25         2.000    20270978.071 8 106524872.06908     -2066.493 8        49.259                                    20270979.709 8  83006487.07308     -1610.256 8        50.046    20270980.447 7  83006497.07507     -1610.219 7        44.271
G05         3.000    24816021.214 6 130409097.59106      2313.619 6        39.384                                    24816024.143 5 101617507.96205      1802.814 5        31.419    24816024.881 6 101617506.96506      1803.002 6        36.004
G29         4.000    20454898.710 8 107491528.93308       -28.566 8        50.620                                    20454897.977 8  83759784.58408       -22.264 8        52.820    20454898.385 7  83759787.58807       -22.199 7        46.720
S21         5.000    38490849.776 7 202270401.21807      -612.294 7        43.503
E13         6.000    28366428.497 5 149066597.54005      2713.966 5        32.359                                                                    28366454.287 5 111316072.80805      2026.510 5        35.724    28366451.440 6 114219951.58006      2079.421 6        36.091
E19         7.000    26857622.175 5 141137725.85305     -1242.266 5        35.348                                                                    26857632.465 6 105395062.83906      -927.758 6        37.418    26857630.873 6 108144500.34606      -951.782 6        38.177
E15         8.000    24793859.450 7 130292848.06307      1703.821 7        46.946                                                                    24793865.915 8  97296753.99408      1272.292 8        49.237    24793864.726 8  99834909.05608      1305.502 8        49.368
G11         9.000    23405727.443 7 122998190.20807     -3062.978 7        43.420                                    23405726.411 4  95842869.35504     -2386.740 4        29.251    23405726.384 6  95842869.36206     -2386.797 6        41.962
E30        10.000    24630250.167 7 129433015.92307     -2120.789 7        47.647                                                                    24630254.059 8  96654643.79408     -1583.682 8        49.785    24630253.353 8  99176056.81008     -1625.048 8        50.570
G26        11.000    23863469.811 6 125403572.17106      2697.972 6        40.184                                    23863480.959 5  97717205.76805      2102.288 5        34.071    23863481.473 6  97717225.81206      2102.160 6        38.541
S27        12.000    39288928.609 6 206464549.57206      -609.637 6        37.013
R15        13.000    19567845.691 8 104564895.18608      1086.765 8        52.302                                                                    19567848.533 7  81328383.26307       845.306 7        47.457
S36        14.000    38263139.033 7 201074528.61307      -612.229 7        45.077
G12        15.000    23160006.556 7 121706799.62707     -3720.303 7        43.909                                    23160007.370 6  94836542.68306     -2898.935 6        40.038    23160008.253 6  94836542.68806     -2898.966 6        39.937
E29        16.000    27331495.693 6 143627820.70106     -2958.968 6        39.898                                                                    27331514.444 6 107254524.26906     -2209.596 6        41.170    27331512.284 7 110052469.43507     -2267.255 7        42.421
S45        17.000    63468723.692 6 333530969.72206      -674.880 6        36.340
G31        18.000    22288882.227 7 117129080.75107      1366.396 7        45.837                                    22288883.470 7  91269546.42907      1064.724 7        42.571    22288883.841 6  91269525.44206      1064.811 6        41.902
E21        20.000    27311907.308 6 143525216.59606      1882.497 6        39.991                                                                    27311922.722 7 107178078.40607      1405.625 7        42.252    27311920.733 7 109974009.97407      1442.411 7        42.794
R14        21.000    20046876.739 8 106861264.81808     -2839.500 8        52.120                                                                    20046880.805 7  83114402.77107     -2208.493 7        47.625
I06        22.000    38721154.021 6 151950192.92106      -515.044 6        41.816
S28        23.000    40969048.688 5 215293693.73505      -613.674 5        34.814
E34        24.000    24608524.027 7 129318931.34207     -1119.180 7        46.612                                                                    24608528.217 8  96569504.84908      -835.769 8        48.886    24608527.559 8  99088690.76508      -857.559 8        49.698
S23        25.000    38210658.250 7 200798233.95407      -616.512 7        45.070
C13        26.000                                                                                                                                    39403208.333 6 205182968.80606      1195.532 6        40.636    39403215.906 7 158660577.28507       924.541 7        42.119    39403212.609 6 166728039.88906       971.492 6        40.226
G18        27.000    24101376.065 7 126653738.77307      3111.968 7        43.088                                    24101383.699 4  98691348.29004      2424.896 4        27.042    24101384.306 6  98691339.32006      2424.932 6        40.901
R24        28.000    19810738.342 8 105937222.96008     -2435.544 8        51.283                                                                    19810741.266 7  82395788.85007     -1894.297 7        47.175
I02        29.000    37734578.396 7 148078615.29507      -848.023 7        42.491
G28        30.000    21362434.313 7 112260493.52607      -327.687 7        47.382                                    21362435.550 6  87475794.56606      -255.344 6        37.924    21362435.765 7  87475791.57407      -255.342 7        46.202
G04        31.000    25660475.108 6 134846704.00106      1077.265 6        36.442                                    25660475.139 2 105075353.65602       839.424 2        16.641    25660475.391 5 105075361.64805       839.347 5        35.943
C12        32.000                                                                                                                                    22266846.211 7 115949539.64007     -1888.819 7        47.762    22266845.791 8  89659655.08508     -1460.548 8        51.989    22266844.461 8  94218581.95408     -1534.756 8        49.746
R17        33.000    19964906.592 8 106836533.95108      1929.045 8        51.939                                                                    19964910.083 7  83095229.55207      1500.413 7        46.692
R23        34.000    24214584.148 6 129531908.78106     -4970.946 6        38.480
C24        35.000                                                                                                                                    24017862.870 7 125067341.75007     -3581.627 7        45.538                                                                    24017865.352 7 101627479.44307     -2910.298 7        46.342
R18        36.000    23619892.933 7 126084694.33907      3796.539 7        43.405                                                                    23619912.102 6  98066001.91606      2952.860 6        41.135
E27        37.000    23726983.908 8 124686324.86408       295.777 8        48.528                                                                    23726987.909 8  93110054.36708       220.854 8        51.096    23726987.099 8  95538994.27808       226.628 8        51.518
R16        38.000    23370617.535 7 124841670.17507      3377.768 7        46.169                                                                    23370623.291 6  97099108.50306      2627.181 6        41.118
R06        39.000    23961155.952 5 127861315.06005     -2515.975 5        32.245
R07        40.000    23920666.629 7 128049186.72407       405.471 7        42.406                                                                    23920666.725 6  99593816.43606       315.067 6        39.982
C34        41.000                                                                                                                                    21464559.495 8 111771874.18708      -130.830 8        51.054                                                                    21464561.984 8  90823930.60308      -106.268 8        49.456
S44        42.000    40685366.422 6 213803143.11206      -531.933 6        37.066
C38        43.000                                                                                                                                    39257405.734 7 204423721.17307       550.151 7        42.626                                                                    39257405.982 7 166111070.81607       447.037 7        42.518
C05        44.000                                                                                                                                    39481932.051 6 205592696.90706      -565.415 6        39.477    39481933.327 7 158977309.22007      -437.312 7        42.527    39481933.264 6 167060986.65606      -459.438 6        40.045
C08        45.000                                                                                                                                    39173176.758 6 203985135.44606      1143.523 6        39.330    39173175.010 7 157734303.83007       884.341 7        42.472    39173173.756 6 165754668.84206       929.344 6        40.694
G32        46.000    25478658.689 6 133890966.36106     -3543.438 6        39.219                                    25478680.292 4 104330576.09704     -2761.114 4        28.730    25478680.576 5 104330578.09405     -2761.118 5        33.036
E36        47.000    27992123.595 6 147099825.66606     -3316.922 6        36.949                                                                    27992125.092 6 109847426.36406     -2476.945 6        41.569    27992124.812 6 112712989.91306     -2541.550 6        41.194
C43        48.000                                                                                                                                    23820688.029 7 124040755.38107      2221.427 7        46.086                                                                    23820694.036 7 100793370.58607      1805.096 7        45.834
C10        49.000                                                                                                                                    40608643.786 5 211459925.74705     -1288.400 5        35.324    40608646.035 6 163514257.20706      -996.296 6        39.817    40608643.223 6 171828524.89606     -1047.253 6        37.077
C44        50.000                                                                                                                                    23468597.412 7 122207228.07507     -3094.785 7        46.532                                                                    23468598.237 7  99303424.09007     -2514.667 7        45.588
S48        51.000    77207879.804 6 405730163.82506      -643.273 6        38.348
E02        53.000    28606486.823 4 150328140.62204     -3177.734 4        28.957                                                                    28606494.891 5 112258090.30405     -2373.057 5        32.713    28606493.398 5 115186545.29205     -2434.729 5        33.677
C60        54.000                                                                                                                                    40685370.932 6 211859496.63206      -527.099 6        39.309                                                                    40685360.327 6 172153141.84106      -428.324 6        39.910
C25        55.000                                                                                                                                    21498925.723 8 111950702.07108     -1026.529 8        51.495                                                                    21498926.663 8  90969185.52408      -834.066 8        49.701
C23        56.000                                                                                                                                    23980693.663 7 124874027.09807      1851.012 7        46.342                                                                    23980690.217 7 101470467.17607      1504.140 7        47.515
C02        57.000                                                                                                                                    40884583.318 5 212896688.42505      -522.462 5        33.934    40884583.803 6 164625189.31206      -404.112 6        39.348    40884584.942 5 172995978.57305      -424.650 5        35.148
I03        58.000   116298262.158 6 380593962.64806       972.924 6        38.510
C11        59.000                                                                                                                                    22356499.893 8 116416392.44808      1342.853 8        48.922    22356501.889 8  90020669.70008      1038.368 8        51.673    22356499.459 8  94597948.06308      1091.177 8        49.186
> 2025 01 01 15 30  5.0000000  0 57
G20         1.000    23878453.664 6 125482263.99106       568.127 6        41.862                                    23878452.959 4  97778446.05104       442.689 4        25.083
G25         2.000    20272945.374 8 106535210.57808     -2068.807 8        49.374                                    20272947.062 8  83014543.05808     -1612.060 8        50.032    20272948.070 7  83014553.05707     -1612.048 7        44.272
G05         3.000    24813820.842 6 130397532.60506      2312.527 6        39.577                                    24813823.354 5 101608496.33505      1801.964 5        31.502    24813823.529 6 101608495.35006      1802.022 6        36.359
G29         4.000    20454926.883 8 107491677.99308       -30.944 8        50.433                                    20454926.327 8  83759900.75408       -24.118 8        52.806    20454926.696 7  83759903.76307       -24.111 7        46.697
S21         5.000    38491432.062 7 202273463.42207      -612.386 7        43.043
E13         6.000    28363846.623 5 149053028.73205      2713.444 5        32.503                                                                    28363871.978 6 111305940.43906      2026.603 6        36.068    28363869.082 5 114209554.88105      2079.475 5        35.895
E19         7.000    26858805.885 5 141143943.31005     -1244.505 5        35.100                                                                    26858815.546 6 105399705.76406      -929.495 6        37.656    26858814.166 6 108149264.39006      -953.617 6        38.384
E15         8.000    24792239.009 7 130284333.76507      1702.017 7        46.995                                                                    24792245.595 8  97290395.94508      1271.001 8        49.327    24792244.502 8  99828385.14608      1304.134 8        49.235
G11         9.000    23408643.344 7 123013511.77107     -3065.423 7        43.782                                    23408642.021 4  95854808.26604     -2388.649 4        29.081    23408641.766 6  95854808.27606     -2388.618 6        41.433
E30        10.000    24632268.574 7 129443622.78507     -2121.948 7        47.645                                                                    24632272.416 8  96662564.51508     -1584.540 8        49.885    24632271.770 8  99184184.15508     -1625.895 8        50.515
G26        11.000    23860903.113 6 125390084.22306      2697.406 6        39.703                                    23860914.154 5  97706695.79505      2101.851 5        33.880    23860914.118 6  97706715.82706      2101.906 6        37.807
S27        12.000    39289507.648 6 206467597.63006      -609.624 6        36.911
R15        13.000    19566829.931 8 104559468.79108      1083.896 8        52.446                                                                    19566833.072 7  81324162.75907       843.035 7        47.551
S36        14.000    38263721.703 7 201077589.10307      -611.960 7        44.846
G12        15.000    23163546.737 7 121725404.22807     -3721.351 7        43.365                                    23163547.660 6  94851039.78006     -2899.758 6        39.853    23163548.505 6  94851039.80306     -2899.927 6        40.017
E29        16.000    27334311.938 6 143642618.67206     -2960.116 6        39.961                                                                    27334330.134 6 107265574.64806     -2210.356 6        41.030    27334328.304 7 110063808.09307     -2268.089 7        42.263
S45        17.000    63469309.515 6 333534344.36506      -674.880 6        36.284
G31        18.000    22287583.342 7 117122256.13907      1363.609 7        46.008                                    22287584.781 7  91264228.56907      1062.547 7        42.531    22287584.740 6  91264207.58506      1062.460 6        41.461
E21        20.000    27310116.895 6 143515805.18206      1882.350 6        40.501                                                                    27310131.789 7 107171050.54307      1405.562 7        42.286    27310129.756 7 109966798.76207      1442.205 7        42.700
R14        21.000    20049541.669 8 106875470.11008     -2842.489 8        51.906                                                                    20049545.946 7  83125451.34407     -2210.801 7        47.853
I06        22.000    38721810.592 6 151952768.29006      -515.052 6        41.793
S28        23.000    40969625.970 5 215296763.38205      -613.658 5        34.500
E34        24.000    24609589.955 7 129324533.63507     -1121.663 7        46.533                                                                    24609594.264 8  96573688.40008      -837.555 8        48.976    24609593.568 8  99092983.45008      -859.416 8        49.577
S23        25.000    38211246.121 7 200801316.83707      -616.573 7        45.204
C13        26.000                                                                                                                                    39402060.960 6 205176993.22906      1194.808 6        40.570    39402067.996 6 158655956.62606       923.859 6        41.769    39402065.158 6 166723184.27006       970.741 6        40.422
G18        27.000    24098415.639 7 126638180.97607      3111.300 7        42.991                                    24098423.172 4  98679225.40204      2424.381 4        27.497    24098423.719 6  98679216.42206      2424.377 6        41.342
R24        28.000    19813017.474 8 105949409.80608     -2439.099 8        51.276                                                                    19813019.856 7  82405267.51807     -1897.077 7        46.818
I02        29.000    37735658.404 7 148082855.86307      -848.250 7        42.408
G28        30.000    21362747.731 7 112262140.75207      -331.092 7        47.377                                    21362748.961 6  87477078.13406      -257.996 6        37.894    21362749.272 7  87477075.14507      -257.979 7        46.123
G04        31.000    25659452.035 6 134841324.21706      1074.653 6        36.514                                    25659451.370 2 105071161.58602       837.357 2        16.792    25659452.196 5 105071169.56505       837.442 5        35.386
C12        32.000                                                                                                                                    22268660.794 7 115958989.48607     -1891.020 7        47.739    22268660.530 8  89666962.30808     -1462.224 8        51.894    22268659.215 8  94226260.74508     -1536.669 8        49.815
R17        33.000    19963105.578 8 106826897.68608      1925.574 8        52.099                                                                    19963109.174 7  83087734.70807      1497.705 7        46.628
R23        34.000    24219231.349 6 129556764.66106     -4971.031 6        38.616
C24        35.000                                                                                                                                    24021302.606 7 125085252.84307     -3582.664 7        45.503                                                                    24021304.950 7 101642033.69107     -2911.408 7        46.489
R18        36.000    23616337.689 7 126065713.67907      3795.815 7        43.801                                                                    23616356.204 6  98051239.37006      2952.098 6        41.285
E27        37.000    23726703.024 8 124684848.99708       294.667 8        48.494                                                                    23726707.059 8  93108952.27008       220.065 8        51.160    23726706.220 8  95537863.43308       225.736 8        51.455
R16        38.000    23367456.189 7 124824781.88607      3377.548 7        44.799                                                                    23367461.805 7  97085973.22307      2626.989 7        42.034
R06        39.000    23963514.968 5 127873905.21905     -2519.901 5        32.754
R07        40.000    23920288.221 6 128047169.29906       401.217 6        41.990                                                                    23920289.596 6  99592247.66106       311.921 6        39.718
C34        41.000                                                                                                                                    21464686.406 8 111772534.60208      -133.245 8        50.970                                                                    21464688.776 8  90824467.26808      -108.416 8        49.623
S44        42.000    40685872.283 6 213805803.10006      -532.009 6        37.104
C38        43.000                                                                                                                                    39256878.241 7 204420973.31007       549.092 7        42.391                                                                    39256878.367 7 166108837.97707       446.053 7        42.667
C05        44.000                                                                                                                                    39482474.986 6 205595524.53506      -565.427 6        39.261    39482476.164 7 158979495.76107      -437.302 7        42.533    39482476.124 6 167063284.38006      -459.622 6        40.343
C08        45.000                                                                                                                                    39172079.646 6 203979419.80206      1142.622 6        38.862    39172077.559 7 157729884.15607       883.656 7        42.409    39172076.063 6 165750024.43306       928.450 6        40.777
G32        46.000    25482030.823 6 133908683.90806     -3543.584 6        39.634                                    25482051.793 4 104344381.95304     -2761.226 4        28.882    25482051.846 5 104344383.96405     -2761.418 5        32.671
E36        47.000    27995279.680 6 147116412.57206     -3317.711 6        36.488                                                                    27995281.569 6 109859812.63706     -2477.567 6        41.559    27995281.290 6 112725699.31106     -2542.192 6        41.030
C43        48.000                                                                                                                                    23818555.697 7 124029651.82907      2220.129 7        45.946                                                                    23818561.611 7 100784348.08207      1803.889 7        46.008
C10        49.000                                                                                                                                    40609881.280 5 211466368.56305     -1288.325 5        35.186    40609883.360 6 163519239.22506      -996.438 6        39.814    40609880.314 6 171833760.22606     -1046.981 6        37.444
C44        50.000                                                                                                                                    23471569.653 7 122222705.47207     -3096.098 7        46.337                                                                    23471570.477 7  99316000.77207     -2515.926 7        45.898
S48        51.000    77208470.773 6 405733380.93706      -643.310 6        38.414
E02        53.000    28609511.116 4 150344030.15804     -3178.265 4        28.853                                                                    28609518.268 5 112269955.86405     -2373.121 5        32.323    28609516.932 5 115198720.40105     -2434.896 5        33.425
C60        54.000                                                                                                                                    40685876.896 6 211862132.44706      -527.063 6        39.267                                                                    40685866.559 6 172155283.68806      -428.453 6        40.174
C25        55.000                                                                                                                                    21499912.796 8 111955841.38608     -1028.997 8        51.387                                                                    21499913.577 8  90973361.65308      -836.287 8        49.816
C23        56.000                                                                                                                                    23978916.874 7 124864775.74607      1849.576 7        46.141                                                                    23978913.596 7 101462949.72707      1502.869 7        47.572
C02        57.000                                                                                                                                    40885084.667 5 212899301.63305      -522.812 5        33.742    40885085.680 6 164627210.04206      -404.060 6        39.495    40885086.963 5 172998102.04905      -424.823 5        35.157
I03        58.000   116297021.584 6 380589098.48506       972.979 6        38.327
C11        59.000                                                                                                                                    22355211.981 8 116409683.78808      1340.709 8        48.757    22355213.429 8  90015482.17008      1036.714 8        51.368    22355211.042 8  94592496.76408      1089.307 8        49.352
> 2025 01 01 15 30 10.0000000  0 57
G20         1.000    23877914.117 6 125479429.73806       565.539 6        41.721                                    23877913.646 4  97776237.57404       440.672 4        25.353
G25         2.000    20274914.842 8 106545560.26108     -2070.999 8        49.361                                    20274916.539 8  83022607.75608     -1613.768 8        50.051    20274917.418 7  83022617.75707     -1613.784 7        44.226
G05         3.000    24811620.493 6 130385972.36906      2311.688 6        39.279                                    24811623.427 5 101599488.39805      1801.304 5        31.472    24811624.523 6 101599487.44106      1801.326 6        36.151
G29         4.000    20454957.695 8 107491838.71108       -33.250 8        50.695                                    20454956.895 8  83760026.01408       -25.916 8        52.839    20454957.356 7  83760029.02307       -25.933 7        46.701
S21         5.000    38492015.805 7 202276525.55407      -612.349 7        43.094
E13         6.000    28361263.820 5 149039458.99505      2714.002 5        32.545                                                                    28361289.583 6 111295807.45406      2026.672 6        36.155    28361286.535 6 114199157.50506      2079.829 6        36.091
E19         7.000    26859990.905 5 141150172.04505     -1246.817 5        35.462                                                                    26860000.786 6 105404357.08906      -931.092 6        37.626    26859999.351 6 108154037.05406      -955.250 6        38.240
E15         8.000    24790620.159 7 130275827.98507      1700.319 7        46.496                                                                    24790626.976 8  97284044.26708      1269.734 8        49.252    24790625.873 8  99821867.76408      1302.910 8        49.295
G11         9.000    23411560.761 7 123028844.81307     -3067.694 7        43.266                                    23411559.705 4  95866756.11504     -2390.416 4        29.194    23411559.445 6  95866756.13006     -2390.555 6        41.356
E30        10.000    24634288.087 7 129454234.81807     -2122.887 7        47.596                                                                    24634291.833 8  96670489.10108     -1585.295 8        49.831    24634291.134 8  99192315.46408     -1626.567 8        50.548
G26        11.000    23858336.367 6 125376598.66706      2696.935 6        40.198                                    23858347.796 5  97696187.69005      2101.480 5        34.029    23858347.085 6  97696207.73406      2101.528 6        37.660
S27        12.000    39290087.367 6 206470645.32706      -609.581 6        36.828
R15        13.000    19565817.461 8 104554056.43208      1081.104 8        52.354                                                                    19565820.470 7  81319953.15207       840.880 7        47.566
S36        14.000    38264304.821 7 201080648.83207      -612.120 7        44.695
G12        15.000    23167088.129 7 121744013.79307     -3722.374 7        43.191                                    23167088.940 6  94865540.74606     -2900.550 6        39.724    23167089.996 6  94865540.74306     -2900.426 6        40.479
E29        16.000    27337128.484 6 143657421.86906     -2961.029 6        39.435                                                                    27337147.146 6 107276628.95106     -2211.180 6        41.154    27337145.191 7 110075150.76407     -2268.824 7        42.313
S45        17.000    63469897.511 6 333537718.57806      -674.651 6        36.049
G31        18.000    22286287.850 7 117115445.33207      1360.833 7        46.042                                    22286288.708 7  91258921.46607      1060.385 7        42.607    22286288.925 6  91258900.47606      1060.458 6        41.409
E21        20.000    27308325.627 6 143506394.03106      1882.316 6        40.131                                                                    27308340.888 7 107164022.87007      1405.572 7        42.313    27308338.793 7 109959587.74707      1442.228 7        42.853
R14        21.000    20052209.221 8 106889689.81308     -2845.266 8        51.905                                                                    20052213.347 8  83136511.11708     -2212.988 8        48.164
I06        22.000    38722466.617 6 151955343.22406      -514.923 6        41.614
S28        23.000    40970209.888 5 215299832.30405      -613.723 5        34.576
E34        24.000    24610658.477 7 129330147.92307     -1124.000 7        46.267                                                                    24610662.643 8  96577880.91408      -839.368 8        48.872    24610662.005 8  99097285.33108      -861.253 8        49.641
S23        25.000    38211832.530 7 200804399.49407      -616.415 7        44.992
C13        26.000                                                                                                                                    39400914.231 6 205171020.86806      1194.237 6        40.572    39400920.991 6 158651338.44706       923.400 6        41.690    39400918.312 6 166718331.28906       970.124 6        40.436
G18        27.000    24095454.836 7 126622626.11107      3110.759 7        42.483                                    24095463.258 4  98667104.79504      2423.956 4        27.772    24095463.430 6  98667095.82306      2424.035 6        41.659
R24        28.000    19815299.877 8 105961614.22008     -2442.552 8        50.948                                                                    19815302.257 7  82414759.86307     -1899.733 7        47.346
I02        29.000    37736739.380 7 148087096.88107      -848.106 7        42.334
G28        30.000    21363064.371 7 112263804.61307      -334.393 7        47.600                                    21363065.557 6  87478374.66906      -260.571 6        37.883    21363065.944 7  87478371.67407      -260.578 7        46.354
G04        31.000    25658430.887 6 134835956.98706      1072.646 6        36.510                                    25658429.958 2 105066979.29902       835.807 2        16.302    25658430.228 5 105066987.26105       835.675 5        35.290
C12        32.000                                                                                                                                    22270477.907 7 115968449.83807     -1893.127 7        47.812    22270477.458 8  89674277.66908     -1463.827 8        51.965    22270475.975 8  94233948.08708     -1538.401 8        49.671
R17        33.000    19961308.024 8 106817278.37508      1922.291 8        52.056                                                                    19961311.400 7  83080253.06407      1495.089 7        46.848
R23        34.000    24223878.572 6 129581621.76106     -4971.609 6        38.592
C24        35.000                                                                                                                                    24024743.411 7 125103169.33307     -3583.778 7        45.469                                                                    24024745.445 7 101656592.32007     -2912.254 7        46.274
R18        36.000    23612782.377 7 126046736.57207      3795.200 7        43.896                                                                    23612800.632 6  98036479.58006      2951.840 6        41.261
E27        37.000    23726423.367 8 124683378.39608       293.579 8        48.400                                                                    23726427.150 8  93107854.11308       219.277 8        51.203    23726426.346 8  95536736.62708       225.000 8        51.470
R16        38.000    23364294.372 7 124807894.28007      3377.505 7        44.640                                                                    23364299.999 6  97072838.44906      2626.990 6        41.557
R06        39.000    23965880.460 5 127886512.17305     -2523.135 5        33.449
R07        40.000    23919914.995 6 128045171.28206       397.609 6        41.244                                                                    23919916.759 6  99590693.85806       309.106 6        39.550
C34        41.000                                                                                                                                    21464815.464 8 111773206.79408      -135.568 8        50.943                                                                    21464817.837 8  90825013.52108      -110.288 8        49.522
S44        42.000    40686381.525 6 213808462.76606      -531.713 6        37.115
C38        43.000                                                                                                                                    39256351.404 7 204418230.04107       548.347 7        42.290                                                                    39256351.520 7 166106608.88607       445.362 7        42.717
C05        44.000                                                                                                                                    39483018.382 6 205598351.78406      -565.383 6        39.111    39483019.328 7 158981681.98007      -437.159 7        42.717    39483019.189 6 167065581.78306      -459.408 6        40.150
C08        45.000                                                                                                                                    39170981.930 6 203973708.27306      1141.929 6        38.805    39170980.728 7 157725467.66207       883.006 7        42.830    39170979.054 6 165745383.37906       927.827 6        40.679
G32        46.000    25485402.981 6 133926401.86206     -3543.712 6        39.036                                    25485423.436 4 104358188.13404     -2761.333 4        28.720    25485425.523 5 104358190.11605     -2761.172 5        34.124
E36        47.000    27998437.241 6 147133004.58506     -3318.928 6        36.284                                                                    27998439.157 6 109872202.74306     -2478.387 6        41.621    27998438.797 6 112738412.63406     -2542.927 6        41.166
C43        48.000                                                                                                                                    23816425.045 7 124018554.54807      2218.920 7        46.214                                                                    23816430.482 7 100775330.69707      1802.878 7        45.819
C10        49.000                                                                                                                                    40611118.880 5 211472810.84505     -1288.176 5        35.324    40611120.187 6 163524220.81406      -996.150 6        39.967    40611117.580 6 171838995.14906     -1047.052 6        37.289
C44        50.000                                                                                                                                    23474542.966 7 122238189.03607     -3097.286 7        46.374                                                                    23474543.912 7  99328582.46807     -2516.907 7        45.705
S48        51.000    77209061.010 6 405736597.49306      -643.117 6        38.399
E02        53.000    28612534.832 4 150359920.56204     -3178.067 4        28.891                                                                    28612542.211 5 112281822.12005     -2373.347 5        32.329    28612540.616 5 115210896.22805     -2434.970 5        32.904
C60        54.000                                                                                                                                    40686383.142 6 211864767.93606      -526.996 6        39.261                                                                    40686372.505 6 172157425.30306      -428.415 6        40.036
C25        55.000                                                                                                                                    21500901.930 8 111960992.64208     -1031.393 8        51.346                                                                    21500902.836 8  90977547.50308      -838.183 8        49.654
C23        56.000                                                                                                                                    23977141.746 7 124855530.81807      1848.362 7        46.145                                                                    23977138.175 7 101455437.51207      1501.823 7        47.525
C02        57.000                                                                                                                                    40885586.195 5 212901914.39505      -522.270 5        33.629    40885587.682 6 164629230.46106      -404.112 6        39.483    40885588.553 5 173000225.20305      -424.676 5        35.067
I03        58.000   116295782.301 6 380584233.91106       973.087 6        38.213
C11        59.000                                                                                                                                    22353925.345 8 116402985.18208      1338.719 8        48.651    22353926.848 8  90010302.41608      1035.264 8        51.382    22353924.702 8  94587053.64408      1087.702 8        49.184
> 2025 01 01 15 30 15.0000000  0 57
G20         1.000    23877377.405 6 125476609.10906       562.996 6        41.421                                    23877376.966 4  97774039.70804       438.707 4        25.263
G25         2.000    20276886.592 8 106555921.65708     -2073.232 8        49.894                                    20276888.247 8  83030681.57808     -1615.507 8        50.044    20276889.115 7  83030691.58207     -1615.502 7        44.688
G05         3.000    24809421.121 6 130374417.50106      2310.613 6        39.060                                    24809424.605 5 101590484.65105      1800.473 5        31.389    24809425.454 6 101590483.68506      1800.378 6        36.348
G29         4.000    20454990.692 8 107492011.67508       -35.613 8        50.640                                    20454989.793 8  83760160.81608       -27.756 8        52.865    20454989.883 7  83760163.83407       -27.797 7        46.476
S21         5.000    38492599.647 7 202279588.09307      -612.347 7        42.916
E13         6.000    28358681.674 5 149025889.00805      2714.220 5        32.850                                                                    28358707.107 6 111285674.21306      2026.872 6        36.374    28358704.253 6 114188759.91506      2079.909 6        36.507
E19         7.000    26861177.884 5 141156412.64605     -1249.108 5        34.790                                                                    26861188.408 6 105409017.25906      -932.772 6        37.490    26861186.903 6 108158818.81706      -957.259 6        38.207
E15         8.000    24789003.080 7 130267331.28207      1698.652 7        46.434                                                                    24789010.029 8  97277699.36308      1268.419 8        49.284    24789008.989 8  99815357.33808      1301.532 8        49.430
G11         9.000    23414481.149 7 123044189.86807     -3069.886 7        43.403                                    23414479.778 4  95878713.32904     -2392.127 4        29.175    23414479.775 6  95878713.34106     -2392.178 6        41.466
E30        10.000    24636308.433 7 129464852.57307     -2123.880 7        47.405                                                                    24636312.328 8  96678417.96008     -1586.100 8        49.859    24636311.598 8  99200451.16708     -1627.485 8        50.736
G26        11.000    23855771.265 6 125363116.07706      2696.338 6        39.571                                    23855781.988 5  97685681.89705      2101.019 5        34.109    23855782.464 6  97685701.95906      2101.092 6        37.520
S27        12.000    39290666.773 6 206473693.09906      -609.195 6        37.040
R15        13.000    19564807.703 8 104548658.78108      1078.291 8        52.361                                                                    19564810.413 7  81315754.99407       838.637 7        47.166
S36        14.000    38264886.149 7 201083708.91807      -611.831 7        44.503
G12        15.000    23170630.641 7 121762628.89907     -3723.397 7        43.473                                    23170631.337 6  94880046.02306     -2901.345 6        39.697    23170632.301 6  94880046.01206     -2901.228 6        40.434
E29        16.000    27339946.541 6 143672230.83406     -2962.170 6        39.784                                                                    27339965.322 6 107287687.54006     -2211.940 6        41.304    27339963.356 7 110086497.86407     -2269.755 7        42.356
S45        17.000    63470482.784 6 333541093.09306      -674.876 6        36.219
G31        18.000    22284994.020 7 117108648.86007      1358.079 7        45.856                                    22284995.354 7  91253625.53207      1058.240 7        42.586    22284995.995 6  91253604.55606      1058.219 6        41.511
E21        20.000    27306534.657 6 143496983.69906      1882.178 6        39.483                                                                    27306550.057 7 107156995.81107      1405.456 7        42.233    27306547.974 7 109952377.36107      1442.131 7        42.861
R14        21.000    20054879.679 8 106903924.64008     -2848.274 8        52.357                                                                    20054883.774 8  83147582.66108     -2215.305 8        48.427
I06        22.000    38723122.667 6 151957918.12206      -514.874 6        41.545
S28        23.000    40970797.629 5 215302901.10705      -613.441 5        34.414
E34        24.000    24611729.078 7 129335774.76207     -1126.409 7        46.313                                                                    24611733.336 8  96582082.79208      -841.173 8        48.849    24611732.674 8  99101596.82508      -863.127 8        49.815
S23        25.000    38212419.095 7 200807482.30707      -616.311 7        44.953
C13        26.000                                                                                                                                    39399768.345 6 205165052.37506      1193.545 6        40.856    39399774.809 6 158646723.25406       922.934 6        41.509    39399772.120 6 166713481.38506       969.785 6        40.498
G18        27.000    24092494.991 6 126607074.74506      3110.193 6        41.831                                    24092504.045 4  98654986.92104      2423.522 4        27.760    24092504.386 6  98654977.94806      2423.410 6        41.569
R24        28.000    19817585.557 8 105973836.59808     -2446.125 8        51.114                                                                    19817587.908 7  82424266.17607     -1902.549 7        47.199
I02        29.000    37737820.286 7 148091338.56007      -848.296 7        42.343
G28        30.000    21363384.364 7 112265485.67607      -337.729 7        47.396                                    21363385.448 6  87479684.60106      -263.171 6        37.837    21363385.674 7  87479681.61607      -263.167 7        46.555
G04        31.000    25657411.469 6 134830602.95606      1069.452 6        36.314                                    25657411.165 2 105062807.27402       833.370 2        16.151    25657411.533 5 105062815.21905       833.442 5        35.105
C12        32.000                                                                                                                                    22272296.827 7 115977921.23707     -1895.135 7        47.472    22272296.120 8  89681601.56308     -1465.484 8        51.851    22272294.824 8  94241644.35308     -1540.025 8        49.801
R17        33.000    19959513.835 8 106807676.46208      1918.832 8        52.298                                                                    19959517.519 7  83072784.94907      1492.467 7        47.290
R23        34.000    24228524.541 6 129606480.28806     -4971.688 6        38.604
C24        35.000                                                                                                                                    24028185.063 7 125121091.74307     -3584.866 7        45.339                                                                    24028187.161 7 101671155.70607     -2912.996 7        46.137
R18        36.000    23609228.279 7 126027763.71907      3794.364 7        44.160                                                                    23609246.305 6  98021723.09706      2951.182 6        40.555
E27        37.000    23726144.460 8 124681913.62808       292.605 8        48.440                                                                    23726148.421 8  93106760.31608       218.454 8        51.169    23726147.607 8  95535614.29208       224.173 8        51.658
R16        38.000    23361133.120 7 124791007.73707      3377.438 7        44.927                                                                    23361138.207 7  97059704.52707      2626.948 7        42.318
R06        39.000    23968248.030 5 127899136.62105     -2526.639 5        34.310
R07        40.000    23919545.485 7 128043193.15707       393.760 7        42.461                                                                    23919546.656 6  99589155.43206       306.352 6        39.204
C34        41.000                                                                                                                                    21464946.865 8 111773891.29808      -137.843 8        50.957                                                                    21464949.279 8  90825569.72908      -111.973 8        49.585
S44        42.000    40686882.954 6 213811122.72306      -531.946 6        37.248
C38        43.000                                                                                                                                    39255825.690 7 204415491.95307       547.236 7        42.165                                                                    39255825.867 7 166104383.94007       444.750 7        42.935
C05        44.000                                                                                                                                    39483561.233 6 205601179.13606      -565.256 6        39.453    39483562.075 7 158983868.29507      -437.053 7        42.673    39483561.981 6 167067879.23206      -459.274 6        40.131
C08        45.000                                                                                                                                    39169885.700 6 203968001.37606      1141.102 6        38.706    39169884.564 7 157721054.74007       882.405 7        43.350    39169883.070 6 165740746.04806       927.262 6        40.653
G32        46.000    25488774.202 6 133944120.80906     -3543.629 6        38.922                                    25488795.326 4 104371995.08104     -2761.263 4        28.531    25488796.519 5 104371997.04705     -2761.214 5        34.219
E36        47.000    28001595.723 5 147149602.24705     -3319.765 5        35.857                                                                    28001597.454 6 109884597.07106     -2479.090 6        41.766    28001597.077 6 112751130.30606     -2543.891 6        41.468
C43        48.000                                                                                                                                    23814295.238 7 124007464.10607      2217.656 7        46.281                                                                    23814300.645 7 100766318.82107      1801.980 7        46.010
C10        49.000                                                                                                                                    40612356.006 5 211479253.19605     -1288.144 5        35.076    40612357.352 6 163529202.45306      -996.204 6        39.997    40612354.941 6 171844230.05506     -1046.888 6        37.267
C44        50.000                                                                                                                                    23477517.726 7 122253679.32007     -3098.460 7        46.581                                                                    23477518.605 7  99341169.58007     -2517.737 7        45.816
S48        51.000    77209648.478 6 405739814.32906      -643.135 6        38.366
E02        53.000    28615559.144 4 150375812.45404     -3178.410 4        28.076                                                                    28615566.438 5 112293689.45705     -2373.073 5        32.234    28615564.923 5 115223073.14405     -2434.991 5        32.671
C60        54.000                                                                                                                                    40686889.513 6 211867403.69406      -526.974 6        39.225                                                                    40686878.639 6 172159567.08006      -428.166 6        40.079
C25        55.000                                                                                                                                    21501893.541 8 111966156.41308     -1033.755 8        51.279                                                                    21501894.476 8  90981743.46808      -840.032 8        49.769
C23        56.000                                                                                                                                    23975367.640 7 124846292.85707      1847.070 7        46.073                                                                    23975364.120 7 101447930.90807      1500.940 7        47.604
C02        57.000                                                                                                                                    40886088.104 5 212904527.33405      -522.307 5        34.114    40886089.291 6 164631250.98406      -404.055 6        39.568    40886090.189 5 173002348.43105      -424.497 5        35.190
I03        58.000   116294542.821 6 380579369.35906       973.175 6        38.180
C11        59.000                                                                                                                                    22352640.744 8 116396297.20108      1336.788 8        48.685    22352642.613 8  90005130.89108      1033.623 8        51.555    22352640.291 8  94581619.11008      1086.279 8        49.277
> 2025 01 01 15 30 20.0000000  0 57
G20         1.000    23876843.367 6 125473801.42506       560.010 6        41.371                                    23876842.706 4  97771851.93004       436.367 4        25.158
G25         2.000    20278860.503 8 106566294.06208     -2075.791 8        49.628                                    20278862.039 8  83038763.97908     -1617.502 8        50.144    20278862.930 7  83038773.98307     -1617.481 7        45.032
G05         3.000    24807223.061 6 130362867.23506      2309.379 6        39.417                                    24807226.726 5 101581484.49205      1799.509 5        31.419    24807226.908 6 101581483.52406      1799.601 6        36.582
G29         4.000    20455025.646 8 107492196.18808       -38.204 8        50.553                                    20455024.877 8  83760304.61908       -29.771 8        52.964    20455025.031 7  83760307.63007       -29.837 7        46.752
S21         5.000    38493182.738 7 202282650.15907      -612.504 7        42.927
E13         6.000    28356099.162 5 149012318.04005      2713.956 5        33.473                                                                    28356124.278 6 111275540.25406      2026.638 6        36.552    28356121.519 6 114178361.55406      2079.827 6        36.688
E19         7.000    26862367.718 5 141162664.37405     -1251.389 5        35.324                                                                    26862378.145 6 105413685.75106      -934.550 6        37.728    26862376.632 6 108163609.07806      -959.001 6        38.330
E15         8.000    24787388.061 7 130258842.97007      1696.664 7        46.729                                                                    24787394.633 8  97271360.71708      1266.963 8        49.269    24787393.729 8  99808853.33608      1299.930 8        49.451
G11         9.000    23417403.037 7 123059546.21807     -3072.547 7        43.289                                    23417401.889 4  95890679.33604     -2394.207 4        29.185    23417402.188 6  95890679.35606     -2394.247 6        41.251
