     3.04           OBSERVATION DATA    M                   RINEX VERSION / TYPE
ssrcrin-15.6.1x                         20250101 173000 UTC PGM / RUN BY / DATE 
(00000000023479385599111004) Septentrio proprietary         COMMENT             
rref                                                        MARKER NAME         
01                                                          MARKER NUMBER       
geodetic                                                    MARKER TYPE         
NFB                 CLIMERS@TUW                             OBSERVER / AGENCY   
3297213             SEPT ASTERX SB3 PROB4.14.4              REC # / TYPE / VERS 
Unknown             Unknown                                 ANT # / TYPE        
  4127832.0607  1207193.4575  4695246.9837                  APPROX POSITION XYZ 
        0.0000        0.0000        0.0000                  ANTENNA: DELTA H/E/N
G   23 X1  C1C L1C D1C S1C C1W S1W C2W L2W D2W S2W C2L L2L  SYS / # / OBS TYPES 
       D2L S2L C5Q L5Q D5Q S5Q C1L L1L D1L S1L              SYS / # / OBS TYPES 
E   21 X1  C1C L1C D1C S1C C6C L6C D6C S6C C5Q L5Q D5Q S5Q  SYS / # / OBS TYPES 
       C7Q L7Q D7Q S7Q C8Q L8Q D8Q S8Q                      SYS / # / OBS TYPES 
S    9 X1  C1C L1C D1C S1C C5I L5I D5I S5I                  SYS / # / OBS TYPES 
R   17 X1  C1C L1C D1C S1C C2P L2P D2P S2P C2C L2C D2C S2C  SYS / # / OBS TYPES 
       C3Q L3Q D3Q S3Q                                      SYS / # / OBS TYPES 
C   25 X1  C1P L1P D1P S1P C5P L5P D5P S5P C2I L2I D2I S2I  SYS / # / OBS TYPES 
       C7I L7I D7I S7I C6I L6I D6I S6I C7D L7D D7D S7D      SYS / # / OBS TYPES 
J   17 X1  C1C L1C D1C S1C C2L L2L D2L S2L C5Q L5Q D5Q S5Q  SYS / # / OBS TYPES 
       C1L L1L D1L S1L                                      SYS / # / OBS TYPES 
I    5 X1  C5A L5A D5A S5A                                  SYS / # / OBS TYPES 
SEPTENTRIO RECEIVERS OUTPUT ALIGNED CARRIER PHASES.         COMMENT             
NO FURTHER PHASE SHIFT APPLIED IN THE RINEX ENCODER.        COMMENT             
G L1C                                                       SYS / PHASE SHIFT   
G L2W                                                       SYS / PHASE SHIFT   
G L2L  0.00000                                              SYS / PHASE SHIFT   
G L5Q  0.00000                                              SYS / PHASE SHIFT   
G L1L  0.00000                                              SYS / PHASE SHIFT   
E L1C  0.00000                                              SYS / PHASE SHIFT   
E L6C  0.00000                                              SYS / PHASE SHIFT   
E L5Q  0.00000                                              SYS / PHASE SHIFT   
E L7Q  0.00000                                              SYS / PHASE SHIFT   
E L8Q  0.00000                                              SYS / PHASE SHIFT   
S L1C                                                       SYS / PHASE SHIFT   
S L5I                                                       SYS / PHASE SHIFT   
R L1C                                                       SYS / PHASE SHIFT   
R L2P  0.00000                                              SYS / PHASE SHIFT   
R L2C                                                       SYS / PHASE SHIFT   
R L3Q  0.00000                                              SYS / PHASE SHIFT   
C L1P  0.00000                                              SYS / PHASE SHIFT   
C L5P  0.00000                                              SYS / PHASE SHIFT   
C L2I                                                       SYS / PHASE SHIFT   
C L7I                                                       SYS / PHASE SHIFT   
C L6I                                                       SYS / PHASE SHIFT   
C L7D                                                       SYS / PHASE SHIFT   
J L1C                                                       SYS / PHASE SHIFT   
J L2L  0.00000                                              SYS / PHASE SHIFT   
J L5Q  0.00000                                              SYS / PHASE SHIFT   
J L1L  0.00000                                              SYS / PHASE SHIFT   
I L5A                                                       SYS / PHASE SHIFT   
  2025     1     1    17    30    0.0000000     GPS         TIME OF FIRST OBS   
 C1C    0.000 C2C    0.000 C2P    0.000                     GLONASS COD/PHS/BIS 
DBHZ                                                        SIGNAL STRENGTH UNIT
    18                                                      LEAP SECONDS        
 24 R01  1 R02 -4 R03  5 R04  6 R05  1 R06 -4 R07  5 R08  6 GLONASS SLOT / FRQ #
    R09 -2 R10 -7 R11  0 R12 -1 R13 -2 R14 -7 R15  0 R16 -1 GLONASS SLOT / FRQ #
    R17  4 R18 -3 R19  3 R20  2 R21  4 R22 -3 R23  3 R24  2 GLONASS SLOT / FRQ #
                                                            END OF HEADER       
> 2025 01 01 17 30  0.0000000  0 57
G20         1.000    25036055.371 5 131565530.89505     -3349.255 5        34.681                                    25036052.918 2 102518661.32002     -2609.797 2        15.286
G25         2.000    24023472.619 6 126244377.44806     -4310.952 6        39.868                                    24023473.030 5  98372338.93305     -3359.184 5        34.076    24023474.029 6  98372348.91906     -3359.113 6        37.709
G05         3.000    22960106.134 7 120656311.33107     -1541.392 7        43.464                                    22960101.938 6  94017963.26006     -1201.085 6        39.165    22960101.955 6  94017962.26806     -1201.197 6        39.772
G29         4.000    21636337.027 7 113700087.09507     -2737.769 7        46.863                                    21636332.970 7  88597636.35407     -2133.327 7        45.523    21636333.572 7  88597639.35907     -2133.324 7        42.140
S21         5.000    38391030.398 7 201745952.50207      -561.062 7        42.375
E13         6.000    24282601.020 7 127606265.47907      1486.695 7        47.191                                                                    24282602.189 8  95290596.91608      1110.224 8        49.421    24282601.718 8  97776408.54108      1139.166 8        50.046
G23         7.000    24026129.931 6 126258241.03106      2973.528 6        40.367                                    24026129.203 4  98383069.91804      2317.036 4        25.594    24026129.734 6  98383068.93106      2317.077 6        40.327
E15         8.000    23634895.415 7 124202539.44807     -1378.757 7        47.307                                                                    23634895.749 8  92748821.71908     -1029.551 8        50.821    23634895.463 8  95168332.11508     -1056.453 8        51.694
E06         9.000    28770273.287 5 151188766.98205      -991.261 5        34.462                                                                    28770279.726 6 112900721.40006      -740.338 6        37.584    28770278.585 6 115845956.20306      -759.595 6        38.709
E30        10.000    27605600.155 6 145068605.39806     -3419.459 6        38.838                                                                    27605602.952 7 108330576.68807     -2553.510 7        42.997    27605602.281 7 111156578.61107     -2620.231 7        44.012
G26        11.000    20547378.271 8 107977584.05608       222.793 8        49.349                                    20547376.689 8  84138562.66508       173.605 8        50.656    20547376.928 7  84138582.66307       173.578 7        45.648
S27        12.000    39173227.838 6 205856706.15606      -541.195 6        36.314
R15        13.000    20622985.384 8 110203285.13208     -3986.089 8        50.645                                                                    20622986.035 7  85713808.04707     -3100.275 7        45.660
S36        14.000    38162561.321 7 200546107.21407      -559.830 7        43.991
G27        15.000    24408025.423 6 128265259.70606      2807.145 6        37.592                                    24408026.734 4  99947098.13804      2187.368 4        29.412    24408026.878 5  99947012.16305      2187.381 5        34.681
S45        17.000    63373514.284 6 333030719.82006      -617.177 6        36.684
G31        18.000    22653497.567 7 119045222.09207     -3055.802 7        45.630                                    22653494.279 6  92762662.52306     -2381.146 6        41.914    22653494.421 6  92762641.52406     -2381.094 6        41.542
G16        19.000    21948277.128 7 115339237.23007      2226.416 7        44.668                                    21948272.525 5  89874850.27805      1734.864 5        31.064
E21        20.000    24247738.736 7 127423107.37807       949.596 7        46.860                                                                    24247738.156 8  95153837.56808       709.125 8        49.835    24247737.822 8  97636086.13208       727.615 8        50.595
E26        21.000    28619356.190 5 150395787.80405      2534.253 5        35.233                                                                    28619375.679 6 112308653.63706      1892.556 6        37.554    28619373.320 6 115238430.19506      1941.975 6        38.742
I06        22.000    38675078.677 6 151769517.83406      -418.423 6        41.018
S28        23.000    40867534.816 5 214760332.71905      -557.145 5        34.224
E34        24.000    27103734.844 6 142431395.96706     -3356.429 6        40.334                                                                    27103735.740 6 106361293.14606     -2506.407 6        41.959    27103735.297 7 109135915.52407     -2571.755 7        43.153
S23        25.000    38115077.573 7 200296042.24207      -562.720 7        44.599
C13        26.000                                                                                                                                    37702016.538 7 196324491.92007      -113.499 7        44.468    37702018.206 7 151810661.08807       -87.728 7        45.296    37702016.353 7 159529817.91507       -92.281 7        43.475
G18        27.000    20546850.425 8 107974776.55408       187.011 8        49.260                                    20546846.498 7  84136361.85907       145.722 7        42.588    20546846.814 8  84136352.86408       145.732 8        48.844
R24        28.000    24197810.830 6 129396884.33006     -4455.629 6        41.242                                                                    24197813.358 5 100642195.34105     -3465.444 5        35.467
I02        29.000    38499962.763 6 151082225.63406      -970.506 6        40.348
G28        30.000    23820297.879 6 125176671.61506     -3923.413 6        41.130                                    23820297.492 4  97540353.99704     -3057.201 4        26.240    23820298.040 6  97540351.00006     -3057.225 6        41.046
R02        31.000    24308483.491 6 129714734.19306      2941.110 6        41.790                                                                    24308484.040 6 100889251.87306      2287.484 6        37.603
C12        32.000                                                                                                                                    25378297.944 6 132151725.18006     -3430.780 6        38.853    25378296.075 7 102188223.16407     -2652.810 7        45.198    25378294.200 7 107384193.30107     -2787.740 7        42.150
R17        33.000    19922943.033 8 106612058.59608     -2847.012 8        51.415                                                                    19922941.934 7  82920657.82707     -2214.292 7        47.662
R08        34.000    24145848.182 6 129299877.84706     -2501.262 6        36.839                                                                    24145851.437 6 100566559.75306     -1945.580 6        40.474
E09        35.000    29023758.623 5 152520897.54905       -51.011 5        32.683                                                                    29023763.580 5 113895496.34805       -37.975 5        35.624    29023762.489 6 116866701.52606       -39.212 6        36.612
R18        36.000    19401387.648 8 103566326.91808       545.617 8        51.750                                                                    19401387.120 7  80551792.86807       424.369 7        47.370
E27        37.000    23773313.481 8 124929843.92608     -1845.294 8        48.390                                                                    23773313.210 8  93291919.61308     -1378.014 8        50.690    23773312.575 8  95725601.89708     -1413.930 8        50.952
R16        38.000    19376725.933 8 103507113.75208       141.738 8        51.722                                                                    19376725.874 7  80505588.57407       110.235 7        47.872
C22        39.000                                                                                                                                    26140159.605 6 136118672.95906      -924.719 6        40.467                                                                    26140155.150 6 110607551.11306      -751.282 6        40.889
R09        40.000    22741171.782 7 121436649.78907      3418.355 7        43.338                                                                    22741171.598 7  94450749.02707      2658.741 7        43.003
C34        41.000                                                                                                                                    22758589.710 8 118510285.96008     -2688.107 8        48.363                                                                    22758589.479 7  96299453.89507     -2184.357 7        47.702
S44        42.000    40487013.772 6 212760852.18606      -500.975 6        37.656
C38        43.000                                                                                                                                    38591464.515 7 200956043.61807      -876.009 7        44.295                                                                    38591461.934 7 163293310.20607      -711.920 7        44.062
C05        44.000                                                                                                                                    39308144.045 6 204687838.34806      -493.016 6        37.342    39308140.559 7 158277639.00707      -381.217 7        42.265    39308141.788 6 166325734.11906      -400.616 6        39.063
C08        45.000                                                                                                                                    37685146.369 7 196236636.25907      -352.300 7        42.434    37685139.992 7 151742690.46907      -272.477 7        46.013    37685139.159 7 159458392.79907      -286.424 7        42.728
E04        46.000    28853800.905 5 151627710.15105     -1963.104 5        34.586                                                                    28853803.606 6 113228483.13106     -1466.105 6        36.095    28853803.273 6 116182268.41406     -1504.290 6        37.357
R19        47.000    22176301.661 6 118628587.54106      2849.071 6        36.575                                                                    22176303.075 6  92266836.03006      2216.124 6        39.432
C43        48.000                                                                                                                                    21469068.116 8 111795395.18708      -238.919 8        51.485                                                                    21469066.611 8  90843042.37908      -194.175 8        49.695
S48        51.000    77120262.728 6 405270420.64406      -599.714 6        38.075
R01        52.000    23115882.310 6 123567669.62106       658.470 6        40.651                                                                    23115883.759 5  96108178.10105       512.183 5        35.519
C37        53.000                                                                                                                                    24382268.278 7 126964891.93107      1529.067 7        45.010                                                                    24382271.425 7 103169397.79607      1242.435 7        46.111
C60        54.000                                                                                                                                    40487013.091 6 210826681.85106      -496.514 6        39.673                                                                    40486999.570 6 171313912.68906      -403.410 6        40.806
C25        55.000                                                                                                                                    24201333.636 7 126022876.44907     -3807.974 7        45.824                                                                    24201333.418 7 102403985.59107     -3094.382 7        45.326
C23        56.000                                                                                                                                    22537392.140 8 117358468.90808     -1428.966 8        50.492                                                                    22537384.075 8  95363479.82108     -1161.234 8        50.036
C02        57.000                                                                                                                                    40661996.365 5 211737708.88805      -467.085 5        33.868    40661992.647 6 163729013.92106      -361.170 6        39.300    40661995.298 5 172054229.77905      -379.598 5        35.214
I03        58.000   113546219.276 6 369794469.26506      1035.689 6        39.952
C11        59.000                                                                                                                                    21695601.679 8 112975008.46508     -1562.636 8        49.019    21695597.910 8  87359595.34808     -1208.385 8        52.022    21695597.142 8  91801559.39708     -1269.848 8        49.142
C28        60.000                                                                                                                                    25016173.832 7 130266041.16407      2257.677 7        43.048                                                                    25016174.930 6 105851953.61406      1834.535 6        41.793
> 2025 01 01 17 30  5.0000000  0 57
G20         1.000    25039243.618 5 131582281.56805     -3351.071 5        35.195                                    25039240.442 2 102531713.79202     -2611.209 2        14.381
G25         2.000    24027575.139 6 126265934.20906     -4311.468 6        39.814                                    24027575.301 5  98389136.41505     -3359.583 5        34.410    24027576.318 6  98389146.40906     -3359.559 6        38.216
G05         3.000    22961574.024 7 120664027.13107     -1544.644 7        43.862                                    22961570.048 6  94023975.58306     -1203.620 6        39.018    22961570.244 6  94023974.59306     -1203.594 6        38.853
G29         4.000    21638942.590 7 113713779.50907     -2738.856 7        46.497                                    21638938.535 7  88608305.77007     -2134.170 7        45.442    21638939.065 7  88608308.77007     -2134.133 7        42.773
S21         5.000    38391565.924 7 201748756.70907      -560.425 7        42.281
E13         6.000    24281187.288 7 127598836.40507      1485.213 7        47.005                                                                    24281188.570 8  95285049.24208      1109.141 8        49.441    24281187.975 8  97770716.14108      1138.001 8        49.840
G23         7.000    24023301.247 6 126243374.58606      2973.369 6        40.510                                    24023300.120 4  98371485.70104      2316.905 4        25.639    24023300.668 6  98371484.70706      2316.955 6        40.477
E15         8.000    23636208.344 7 124209438.27607     -1380.512 7        47.242                                                                    23636208.586 8  92753973.44708     -1030.899 8        50.849    23636208.268 8  95173618.23308     -1057.746 8        51.381
E06         9.000    28771217.064 5 151193728.38505      -993.531 5        34.329                                                                    28771223.525 6 112904425.93906      -741.427 6        37.497    28771222.744 6 115849757.40106      -760.742 6        38.156
E30        10.000    27608854.046 6 145085704.95106     -3419.991 6        38.417                                                                    27608856.662 7 108343345.84607     -2553.904 7        42.825    27608856.140 7 111169680.86007     -2620.568 7        43.714
G26        11.000    20547167.355 8 107976477.73708       220.052 8        49.650                                    20547166.156 8  84137700.60308       171.469 8        50.644    20547166.186 7  84137720.60607       171.474 7        45.743
S27        12.000    39173743.501 6 205859412.83306      -541.130 6        36.121
R15        13.000    20626717.101 8 110223222.87208     -3988.648 8        50.892                                                                    20626716.844 7  85729315.16707     -3102.249 7        45.422
S36        14.000    38163093.360 7 200548906.39407      -559.641 7        43.951
G27        15.000    24405355.414 6 128251225.14406      2807.081 6        38.691                                    24405356.039 4  99936162.20604      2187.322 4        29.611    24405355.617 5  99936076.24205      2187.109 5        33.892
S45        17.000    63374050.476 6 333033805.78906      -617.063 6        36.688
G31        18.000    22656406.149 7 119060506.71107     -3057.733 7        45.032                                    22656402.850 6  92774572.61206     -2382.650 6        41.855    22656403.212 6  92774551.61406     -2382.598 6        41.578
G16        19.000    21946159.674 7 115328109.49307      2224.926 7        44.477                                    21946154.948 5  89866179.31605      1733.707 5        31.155
E21        20.000    24246835.896 7 127418363.36207       948.343 7        46.790                                                                    24246835.381 8  95150294.96508       708.162 8        49.790    24246835.047 8  97632451.11408       726.637 8        50.434
E26        21.000    28616944.975 5 150383116.52805      2534.477 5        35.386                                                                    28616964.283 6 112299191.51006      1892.601 6        37.830    28616961.863 6 115228721.20606      1942.078 6        39.060
I06        22.000    38675611.835 6 151771609.95506      -418.227 6        41.094
S28        23.000    40868067.851 5 214763119.18705      -557.041 5        34.305
E34        24.000    27106928.787 6 142448179.53406     -3356.762 6        40.102                                                                    27106929.598 6 106373826.30806     -2506.553 6        41.840    27106929.101 7 109148775.64807     -2572.078 7        42.973
S23        25.000    38115612.410 7 200298856.95607      -562.871 7        44.546
C13        26.000                                                                                                                                    37702125.987 7 196325062.26007      -114.284 7        44.691    37702127.683 7 151811102.11707       -88.341 7        45.181    37702125.916 7 159530281.36807       -92.774 7        43.579
G18        27.000    20546674.159 8 107973848.95908       184.337 8        49.100                                    20546669.971 7  84135639.06507       143.639 7        42.595    20546670.360 8  84135630.06808       143.654 8        49.296
R24        28.000    24201976.823 6 129419161.68906     -4455.101 6        41.504                                                                    24201978.559 6 100659522.18906     -3465.207 6        36.616
I02        29.000    38501200.018 6 151087079.25706      -970.521 6        40.431
G28        30.000    23824031.582 6 125196291.08706     -3924.056 6        41.395                                    23824030.921 4  97555641.87504     -3057.704 4        26.108    23824030.917 6  97555638.86206     -3057.738 6        40.992
R02        31.000    24305726.815 6 129700031.79806      2940.136 6        41.008                                                                    24305729.780 6 100877816.69106      2286.805 6        38.147
C12        32.000                                                                                                                                    25381592.108 6 132168879.40506     -3430.818 6        38.613    25381590.320 7 102201487.85707     -2652.826 7        45.234    25381588.484 7 107398132.48707     -2787.561 7        42.044
R17        33.000    19925604.026 8 106626299.06608     -2848.922 8        51.711                                                                    19925602.852 7  82931733.75307     -2215.802 7        47.576
R08        34.000    24148186.509 6 129312393.53006     -2504.642 6        37.267                                                                    24148188.694 6 100576294.12106     -1948.147 6        39.568
E09        35.000    29023808.147 5 152521158.16605       -53.207 5        32.275                                                                    29023812.807 5 113895691.07805       -39.714 5        33.701    29023812.121 5 116866901.31305       -40.946 5        34.638
R18        36.000    19400877.863 8 103563606.69808       542.734 8        51.860                                                                    19400877.724 7  80549677.15707       422.132 7        47.577
E27        37.000    23775070.116 8 124939074.87308     -1846.809 8        48.364                                                                    23775069.769 8  93298812.85608     -1379.129 8        50.679    23775069.197 8  95732674.96508     -1415.081 8        50.668
R16        38.000    19376595.954 8 103506416.45908       137.506 8        52.092                                                                    19376594.997 7  80505046.23607       106.941 7        47.456
C22        39.000                                                                                                                                    26141049.055 6 136123302.95606      -927.209 6        40.374                                                                    26141044.298 6 110611313.37106      -753.299 6        40.877
R09        40.000    22737971.767 7 121419561.39607      3417.215 7        44.305                                                                    22737971.751 7  94437458.07307      2657.782 7        43.740
C34        41.000                                                                                                                                    22761171.455 8 118523729.08808     -2688.891 8        48.203                                                                    22761171.068 7  96310377.54907     -2184.874 7        47.849
S44        42.000    40487491.659 6 212763357.76906      -500.813 6        37.834
C38        43.000                                                                                                                                    38592306.219 7 200960426.64207      -876.868 7        44.486                                                                    38592303.692 7 163296871.78507      -712.484 7        44.161
C05        44.000                                                                                                                                    39308617.348 6 204690303.39406      -492.749 6        37.274    39308613.701 7 158279545.15307      -380.993 7        42.080    39308615.365 6 166327737.21206      -400.379 6        39.177
C08        45.000                                                                                                                                    37685485.298 7 196238400.91907      -353.181 7        42.531    37685478.877 7 151744055.01707      -273.120 7        45.922    37685477.956 7 159459826.74607      -286.951 7        42.980
E04        46.000    28855669.295 5 151637531.95305     -1965.008 5        33.593                                                                    28855672.712 5 113235817.56305     -1467.546 5        35.814    28855672.734 6 116189794.17206     -1505.534 6        36.904
R19        47.000    22173639.510 6 118614345.59606      2847.824 6        36.847                                                                    22173641.071 6  92255758.99606      2214.936 6        39.775
C43        48.000                                                                                                                                    21469298.366 8 111796594.68808      -240.569 8        51.406                                                                    21469296.981 8  90844017.08308      -195.362 8        49.835
S48        51.000    77120806.071 6 405273419.68606      -599.473 6        37.992
R01        52.000    23115269.213 6 123564387.43606       654.784 6        40.846                                                                    23115270.733 5  96105625.29505       508.954 5        35.662
C37        53.000                                                                                                                                    24380801.157 7 126957251.57607      1527.296 7        45.100                                                                    24380804.237 7 103163189.39407      1241.094 7        46.159
C60        54.000                                                                                                                                    40487489.783 6 210829164.65906      -496.261 6        39.595                                                                    40487476.437 6 171315930.18806      -403.270 6        40.863
C25        55.000                                                                                                                                    24204990.794 7 126041918.89407     -3808.694 7        45.926                                                                    24204990.196 7 102419459.14807     -3094.824 7        45.246
C23        56.000                                                                                                                                    22538765.590 8 117365620.94608     -1431.556 8        50.488                                                                    22538757.554 8  95369291.44208     -1163.151 8        50.179
C02        57.000                                                                                                                                    40662445.177 5 211740044.61405      -466.927 5        33.653    40662441.164 6 163730820.03906      -360.885 6        39.165    40662443.882 5 172056127.72705      -379.310 5        35.467
I03        58.000   113544900.049 6 369789291.04506      1035.890 6        40.153
C11        59.000                                                                                                                                    21697103.127 8 112982826.31108     -1564.146 8        49.103    21697099.195 8  87365640.60808     -1209.469 8        51.943    21697098.504 8  91807912.05908     -1270.904 8        49.174
C28        60.000                                                                                                                                    25014005.936 7 130254754.39207      2257.225 7        42.882                                                                    25014007.565 6 105842782.23106      1834.343 6        41.871
> 2025 01 01 17 30 10.0000000  0 57
G20         1.000    25042432.600 5 131599041.01105     -3352.916 5        35.029                                    25042429.541 2 102544773.08602     -2612.673 2        15.000
G25         2.000    24031677.184 6 126287493.72506     -4312.341 6        39.580                                    24031678.072 5  98405936.03805     -3360.267 5        34.467    24031679.162 6  98405946.02806     -3360.302 6        38.592
G05         3.000    22963045.346 7 120671759.74407     -1548.342 7        43.534                                    22963041.323 6  94030001.00706     -1206.501 6        38.964    22963041.529 6  94030000.02306     -1206.637 6        38.793
G29         4.000    21641549.579 7 113727478.24107     -2740.555 7        46.692                                    21641545.339 7  88618980.11007     -2135.497 7        45.384    21641546.047 7  88618983.10607     -2135.501 7        42.908
S21         5.000    38392097.962 7 201751560.88907      -560.927 7        42.523
E13         6.000    24279775.391 7 127591415.51007      1483.224 7        47.076                                                                    24279776.366 8  95279507.68708      1107.556 8        49.322    24279775.842 8  97765030.01908      1136.477 8        49.921
G23         7.000    24020472.726 6 126228509.99506      2972.539 6        40.701                                    24020471.465 4  98359902.93004      2316.262 4        26.072    24020471.946 6  98359901.93806      2316.188 6        40.498
E15         8.000    23637522.997 7 124216346.77307     -1382.878 7        47.429                                                                    23637523.256 8  92759132.38708     -1032.622 8        50.718    23637522.910 8  95178911.75908     -1059.596 8        51.427
E06         9.000    28772163.709 5 151198701.69605      -995.975 5        34.233                                                                    28772170.160 6 112908139.89806      -743.756 6        36.930    28772169.427 6 115853568.24906      -763.178 6        38.270
E30        10.000    27612108.721 6 145102807.20306     -3420.869 6        38.399                                                                    27612111.175 7 108356117.01307     -2554.546 7        42.641    27612110.624 7 111182785.18607     -2621.274 7        43.839
G26        11.000    20546959.672 8 107975385.82608       216.765 8        49.594                                    20546958.364 8  84136849.77008       168.904 8        50.597    20546958.609 7  84136869.78207       168.928 7        45.907
S27        12.000    39174258.775 6 205862119.43206      -541.676 6        36.367
R15        13.000    20630450.647 8 110243174.34008     -3991.856 8        51.064                                                                    20630451.211 7  85744832.97807     -3104.814 7        45.780
S36        14.000    38163626.699 7 200551706.09607      -560.084 7        44.077
G27        15.000    24402685.209 6 128237192.37006      2806.213 6        39.012                                    24402685.483 4  99925227.66804      2186.648 4        29.621    24402685.930 5  99925141.69105      2186.886 5        34.176
S45        17.000    63374583.480 6 333036891.43506      -617.230 6        36.843
G31        18.000    22659316.487 7 119075802.03507     -3060.329 7        45.067                                    22659313.443 6  92786491.04706     -2384.672 6        41.771    22659313.720 6  92786470.05106     -2384.650 6        41.216
G16        19.000    21944043.769 7 115316990.52407      2222.814 7        44.415                                    21944039.115 5  89857515.19005      1732.059 5        31.011
E21        20.000    24245934.425 7 127413626.29107       946.537 7        46.845                                                                    24245934.003 8  95146757.55008       706.816 8        49.745    24245933.629 8  97628821.42108       725.240 8        50.576
E26        21.000    28614533.526 5 150370446.11505      2533.805 5        35.481                                                                    28614553.132 6 112289730.01006      1892.193 6        37.868    28614550.292 6 115219012.87506      1941.434 6        38.913
I06        22.000    38676145.140 6 151773701.69506      -418.407 6        41.087
S28        23.000    40868594.479 5 214765905.52105      -557.548 5        33.982
E34        24.000    27110122.927 6 142464965.58206     -3357.523 6        40.007                                                                    27110123.875 6 106386361.34706     -2507.332 6        41.907    27110123.293 7 109161637.67007     -2572.643 7        42.808
S23        25.000    38116147.981 7 200301671.44007      -563.121 7        44.704
C13        26.000                                                                                                                                    37702236.704 7 196325637.47607      -115.696 7        44.620    37702238.248 7 151811546.91507       -89.454 7        45.082    37702236.334 7 159530748.79107       -94.169 7        43.651
G18        27.000    20546500.087 8 107972935.71408       181.027 8        49.200                                    20546496.186 7  84134927.45207       141.058 7        42.542    20546496.499 8  84134918.45508       141.031 8        49.434
R24        28.000    24206142.573 7 129441437.32307     -4455.068 7        42.106                                                                    24206144.073 6 100676847.69206     -3465.065 6        37.225
I02        29.000    38502437.109 6 151091933.50106      -971.033 6        40.574
G28        30.000    23827765.337 6 125215914.51706     -3925.228 6        41.328                                    23827765.075 4  97570932.84004     -3058.617 4        26.275    23827764.667 6  97570929.84606     -3058.594 6        40.417
R02        31.000    24302971.972 6 129685335.01106      2938.504 6        41.433                                                                    24302975.338 6 100866385.89806      2285.682 6        38.967
C12        32.000                                                                                                                                    25384886.864 6 132186034.46906     -3431.178 6        38.721    25384884.494 7 102214753.23907     -2653.208 7        44.966    25384882.809 6 107412072.38906     -2788.234 6        41.964
R17        33.000    19928266.821 8 106640549.90308     -2851.441 8        51.286                                                                    19928265.834 7  82942817.73407     -2217.741 7        47.120
R08        34.000    24150525.795 6 129324926.69306     -2508.756 6        36.219                                                                    24150528.618 6 100586042.17506     -1951.181 6        39.378
E09        35.000    29023859.592 5 152521430.00705       -55.679 5        32.060                                                                    29023864.898 5 113895894.15505       -41.731 5        35.333    29023863.788 6 116867109.67306       -42.956 6        36.181
R18        36.000    19400371.192 8 103560901.57908       539.342 8        51.934                                                                    19400371.053 7  80547573.18107       419.455 7        47.517
E27        37.000    23776828.365 8 124948314.33108     -1848.914 8        48.303                                                                    23776827.978 8  93305712.45408     -1380.723 8        50.514    23776827.370 8  95739754.55508     -1416.733 8        50.785
R16        38.000    19376469.413 8 103505740.48808       132.858 8        52.175                                                                    19376468.414 7  80504520.48607       103.322 7        47.512
C22        39.000                                                                                                                                    26141940.212 6 136127946.56806      -930.308 6        40.131                                                                    26141935.883 6 110615086.71606      -756.029 6        40.787
R09        40.000    22734773.771 7 121402480.07707      3415.414 7        44.215                                                                    22734773.004 7  94424172.62607      2656.351 7        43.281
C34        41.000                                                                                                                                    22763753.846 8 118537177.08608     -2690.281 8        48.183                                                                    22763753.637 7  96321305.15907     -2186.200 7        47.870
S44        42.000    40487967.560 6 212765863.25406      -501.345 6        37.796
C38        43.000                                                                                                                                    38593148.451 7 200964814.01707      -878.161 7        44.390                                                                    38593146.253 7 163300436.90607      -713.575 7        44.161
C05        44.000                                                                                                                                    39309090.732 6 204692768.20506      -493.121 6        37.229    39309087.000 7 158281451.10607      -381.322 7        42.212    39309088.757 6 166329740.07206      -400.814 6        39.381
C08        45.000                                                                                                                                    37685825.139 7 196240170.88707      -354.565 7        42.391    37685818.669 7 151745423.67807      -274.344 7        45.696    37685817.901 7 159461264.99407      -288.261 7        42.971
E04        46.000    28857540.144 5 151647363.06105     -1967.297 5        34.862                                                                    28857543.711 6 113243159.04106     -1468.983 6        37.735    28857543.252 6 116197327.18406     -1507.405 6        38.910
R19        47.000    22170978.396 6 118600111.86206      2845.499 6        37.297                                                                    22170979.981 6  92244688.34406      2213.367 6        39.655
C43        48.000                                                                                                                                    21469530.324 8 111797802.94808      -242.691 8        51.280                                                                    21469529.003 8  90844998.90208      -197.273 8        49.909
S48        51.000    77121349.382 6 405276418.31106      -599.881 6        38.069
R01        52.000    23114658.428 6 123561124.72006       650.311 6        40.491                                                                    23114658.850 5  96103087.59405       505.950 5        35.743
C37        53.000                                                                                                                                    24379336.232 7 126949621.32607      1524.878 7        45.275                                                                    24379338.829 7 103156989.19907      1238.988 7        46.195
C60        54.000                                                                                                                                    40487966.651 6 210831647.35406      -496.691 6        39.715                                                                    40487953.054 6 171317947.59806      -403.658 6        41.006
C25        55.000                                                                                                                                    24208648.878 7 126060965.81407     -3810.004 7        45.330                                                                    24208647.662 7 102434936.33507     -3096.009 7        44.900
C23        56.000                                                                                                                                    22540141.658 8 117372786.37908     -1434.600 8        50.471                                                                    22540133.588 8  95375113.95708     -1165.865 8        50.221
C02        57.000                                                                                                                                    40662894.124 5 211742380.13905      -467.235 5        33.713    40662889.842 6 163732626.05306      -361.333 6        39.195    40662892.471 5 172058025.57205      -379.801 5        35.919
I03        58.000   113543579.909 6 369784112.64106      1035.570 6        40.069
C11        59.000                                                                                                                                    21698605.885 8 112990651.91108     -1566.105 8        48.938    21698602.141 8  87371691.85808     -1210.962 8        51.960    21698601.307 8  91814271.01008     -1272.661 8        49.235
C28        60.000                                                                                                                                    25011839.486 7 130243471.02707      2256.191 7        43.615                                                                    25011840.660 6 105833613.62406      1833.240 6        41.943
> 2025 01 01 17 30 15.0000000  0 57
G20         1.000    25045624.256 5 131615809.53905     -3354.646 5        35.624                                    25045620.370 2 102557839.46202     -2613.991 2        15.000
G25         2.000    24035780.193 6 126309056.17706     -4312.892 6        39.240                                    24035781.412 5  98422737.94405     -3360.688 5        34.395    24035782.774 6  98422747.94806     -3360.661 6        38.775
G05         3.000    22964519.925 7 120679509.40007     -1551.944 7        43.659                                    22964515.886 6  94036039.70106     -1209.307 6        38.940    22964516.924 6  94036038.69006     -1209.148 6        38.874
G29         4.000    21644157.589 7 113741183.52107     -2741.863 7        47.142                                    21644153.395 7  88629659.54507     -2136.517 7        45.398    21644154.056 7  88629662.54307     -2136.447 7        43.082
S21         5.000    38392632.182 7 201754364.90207      -560.855 7        42.398
E13         6.000    24278364.490 7 127584003.01307      1481.498 7        47.345                                                                    24278365.748 8  95273972.39008      1106.272 8        49.372    24278365.278 8  97759350.32508      1135.176 8        49.956
G23         7.000    24017644.870 6 126213647.45606      2972.194 6        40.644                                    24017643.191 4  98348321.75604      2315.989 4        26.192    24017643.462 6  98348320.77606      2315.836 6        40.648
E15         8.000    23638839.397 7 124223265.10607     -1384.824 7        47.499                                                                    23638839.774 8  92764298.68608     -1034.141 8        50.629    23638839.406 8  95184212.82208     -1061.073 8        51.525
E06         9.000    28773112.026 5 151203686.29505      -998.125 5        34.233                                                                    28773118.341 6 112911862.27806      -745.165 6        37.183    28773117.406 6 115857387.74006      -764.802 6        38.186
E30        10.000    27615363.881 6 145119912.35106     -3421.583 6        38.465                                                                    27615366.131 7 108368890.32707     -2554.957 7        42.635    27615365.539 7 111195891.71307     -2621.581 7        43.757
G26        11.000    20546754.427 8 107974308.48308       213.901 8        49.350                                    20546753.345 8  84136010.28708       166.674 8        50.634    20546753.577 7  84136030.29107       166.634 7        45.898
S27        12.000    39174770.794 6 205864825.93906      -541.634 6        36.140
R15        13.000    20634186.934 8 110263139.61308     -3994.626 8        51.088                                                                    20634187.208 7  85760361.51707     -3106.947 7        45.615
S36        14.000    38164158.616 7 200554506.36807      -560.409 7        44.143
G27        15.000    24400014.888 6 128223161.50806      2805.827 6        38.306                                    24400015.357 4  99914294.60904      2186.341 4        29.536    24400016.627 5  99914208.63805      2186.241 5        33.401
S45        17.000    63375119.507 6 333039976.89006      -617.266 6        36.646
G31        18.000    22662229.764 7 119091108.25707     -3062.519 7        45.202                                    22662226.110 6  92798417.97106     -2386.378 6        41.774    22662226.105 6  92798396.97806     -2386.355 6        40.594
G16        19.000    21941929.574 7 115305880.60807      2220.950 7        44.545                                    21941924.976 5  89848858.11105      1730.611 5        31.072
E21        20.000    24245034.386 7 127408896.38507       945.115 7        47.151                                                                    24245033.839 8  95143225.49208       705.723 8        49.668    24245033.501 8  97625197.21408       724.131 8        50.535
E26        21.000    28612122.030 5 150357776.73205      2533.585 5        35.490                                                                    28612141.702 6 112280269.28906      1891.963 6        37.686    28612139.474 6 115209305.33506      1941.198 6        38.940
I06        22.000    38676677.684 6 151775793.19906      -418.397 6        41.237
S28        23.000    40869130.832 5 214768692.03805      -557.498 5        34.133
E34        24.000    27113317.653 6 142481754.32506     -3358.234 6        39.589                                                                    27113318.628 6 106398898.37206     -2507.763 6        41.747    27113318.019 7 109174501.75607     -2573.135 7        42.654
S23        25.000    38116683.847 7 200304485.72907      -563.073 7        44.653
C13        26.000                                                                                                                                    37702348.182 7 196326217.75807      -116.677 7        44.476    37702349.378 7 151811995.63407       -90.279 7        44.786    37702347.886 7 159531220.33207       -94.936 7        43.771
G18        27.000    20546329.174 8 107972037.00408       178.152 8        49.277                                    20546325.169 7  84134227.16107       138.819 7        42.569    20546325.517 8  84134218.16708       138.806 8        49.405
R24        28.000    24210308.161 7 129463711.27907     -4454.689 7        42.140                                                                    24210309.445 6 100694171.87606     -3465.015 6        37.278
I02        29.000    38503674.239 6 151096788.13606      -971.347 6        40.603
G28        30.000    23831500.385 6 125235542.11506     -3926.044 6        40.858                                    23831500.078 4  97586227.05204     -3059.251 4        26.204    23831500.034 6  97586224.05906     -3059.317 6        39.778
R02        31.000    24300220.102 6 129670644.06706      2937.551 6        41.759                                                                    24300221.603 6 100854959.64706      2284.641 6        39.441
C12        32.000                                                                                                                                    25388181.660 6 132203190.45606     -3431.382 6        39.126    25388178.697 7 102228019.32107     -2653.461 7        44.617    25388177.268 6 107426013.01806     -2788.209 6        41.840
R17        33.000    19930932.047 8 106654811.30608     -2853.485 8        51.502                                                                    19930930.870 7  82953909.94007     -2219.373 7        47.144
R08        34.000    24152868.121 6 129337477.38006     -2512.015 6        36.200                                                                    24152873.095 6 100595803.88906     -1953.725 6        40.105
E09        35.000    29023913.838 5 152521713.16805       -58.145 5        32.503                                                                    29023919.023 5 113896105.52105       -43.568 5        34.495    29023917.547 5 116867326.57605       -44.740 5        35.971
R18        36.000    19399867.443 8 103558211.75108       536.320 8        51.743                                                                    19399866.978 7  80545481.09407       417.102 7        47.644
E27        37.000    23778588.098 8 124957562.49808     -1850.670 8        48.349                                                                    23778587.861 8  93312618.55408     -1381.995 8        50.594    23778587.306 8  95746840.81508     -1418.060 8        50.817
R16        38.000    19376346.730 8 103505086.26308       128.540 8        52.392                                                                    19376346.231 7  80504011.64707       100.002 7        47.439
C22        39.000                                                                                                                                    26142834.872 6 136132603.93806      -932.928 6        39.646                                                                    26142830.292 6 110618871.17606      -757.987 6        40.777
R09        40.000    22731576.038 7 121385406.17707      3413.729 7        43.975                                                                    22731575.268 7  94410892.91407      2655.153 7        42.965
C34        41.000                                                                                                                                    22766337.416 8 118550630.11408     -2691.318 8        48.324                                                                    22766337.122 7  96332236.83807     -2186.871 7        47.902
S44        42.000    40488443.055 6 212768368.80806      -501.234 6        37.905
C38        43.000                                                                                                                                    38593991.589 7 200969205.95407      -878.942 7        44.358                                                                    38593989.596 7 163304005.71707      -714.240 7        44.236
C05        44.000                                                                                                                                    39309564.246 6 204695232.91906      -493.131 6        37.225    39309560.228 7 158283356.99907      -381.274 7        42.066    39309561.851 6 166331742.87006      -400.820 6        39.171
C08        45.000                                                                                                                                    37686165.696 7 196241946.31807      -355.785 7        42.353    37686159.472 7 151746796.56107      -275.193 7        45.625    37686158.901 7 159462707.68507      -289.122 7        42.931
E04        46.000    28859412.684 5 151657203.14005     -1969.060 5        34.076                                                                    28859416.222 6 113250507.04906     -1470.722 6        36.439    28859415.702 6 116204866.88206     -1508.781 6        37.735
R19        47.000    22168319.983 6 118585886.67006      2844.078 6        37.127                                                                    22168320.887 6  92233624.35406      2211.976 6        40.198
C43        48.000                                                                                                                                    21469764.247 8 111799020.16408      -244.491 8        51.277                                                                    21469762.703 8  90845987.99308      -198.628 8        49.902
S48        51.000    77121892.286 6 405279416.96306      -599.988 6        38.024
R01        52.000    23114050.794 6 123557881.68406       646.487 6        40.081                                                                    23114051.725 5  96100565.25905       502.987 5        35.267
C37        53.000                                                                                                                                    24377872.479 7 126942001.39907      1522.794 7        44.956                                                                    24377875.604 7 103150797.36607      1237.565 7        46.328
C60        54.000                                                                                                                                    40488443.487 6 210834130.14006      -496.767 6        39.462                                                                    40488430.051 6 171319965.06406      -403.637 6        40.965
C25        55.000                                                                                                                                    24212307.070 7 126080017.40507     -3810.969 7        44.488                                                                    24212306.233 7 102450417.29407     -3096.719 7        44.749
C23        56.000                                                                                                                                    22541520.246 8 117379965.39408     -1437.370 8        50.450                                                                    22541512.256 8  95380947.48508     -1167.915 8        50.255
C02        57.000                                                                                                                                    40663342.337 5 211744715.64305      -466.829 5        33.707    40663338.243 6 163734432.03506      -361.309 6        39.195    40663340.769 5 172059923.35605      -379.533 5        35.738
I03        58.000   113542260.668 6 369778934.20006      1035.510 6        40.021
C11        59.000                                                                                                                                    21700109.993 8 112998485.45908     -1567.679 8        48.885    21700106.742 8  87377749.26308     -1212.202 8        51.838    21700105.632 8  91820636.40608     -1273.815 8        49.243
C28        60.000                                                                                                                                    25009673.371 7 130232191.24407      2255.410 7        43.191                                                                    25009674.308 6 105824447.92906      1832.664 6        41.847
> 2025 01 01 17 30 20.0000000  0 57
G20         1.000    25048815.835 5 131632586.94905     -3356.352 5        35.457                                    25048813.001 2 102570912.79502     -2615.320 2        14.952
G25         2.000    24039884.007 6 126330621.49006     -4313.329 6        39.006                                    24039885.288 5  98439542.08005     -3361.033 5        34.314    24039885.937 6  98439552.07106     -3360.952 6        38.595
G05         3.000    22965997.662 7 120687275.91007     -1554.993 7        43.276                                    22965993.672 6  94042091.53106     -1211.686 6        38.904    22965995.282 6  94042090.52906     -1211.703 6        39.435
G29         4.000    21646767.019 7 113754895.24007     -2742.987 7        47.038                                    21646762.690 7  88640344.00207     -2137.395 7        45.445    21646762.972 7  88640347.01207     -2137.432 7        42.718
S21         5.000    38393163.697 7 201757168.77007      -560.868 7        42.047
E13         6.000    24276955.686 7 127576598.79407      1479.965 7        47.246                                                                    24276956.865 8  95268443.28008      1105.167 8        49.425    24276956.260 8  97753676.97208      1134.003 8        49.764
G23         7.000    24014816.619 6 126198786.87606      2971.863 6        40.186                                    24014815.350 4  98336742.11404      2315.738 4        25.985    24014815.564 6  98336741.12606      2315.661 6        40.911
