     3.04           OBSERVATION DATA    M                   RINEX VERSION / TYPE
ssrcrin-15.6.1x                         20250101 190000 UTC PGM / RUN BY / DATE 
(00000000023479385599111004) Septentrio proprietary         COMMENT             
rref                                                        MARKER NAME         
01                                                          MARKER NUMBER       
geodetic                                                    MARKER TYPE         
NFB                 CLIMERS@TUW                             OBSERVER / AGENCY   
3297213             SEPT ASTERX SB3 PROB4.14.4              REC # / TYPE / VERS 
Unknown             Unknown                                 ANT # / TYPE        
  4127831.4993  1207192.9913  4695247.7493                  APPROX POSITION XYZ 
        0.0000        0.0000        0.0000                  ANTENNA: DELTA H/E/N
G   23 X1  C1C L1C D1C S1C C1W S1W C2W L2W D2W S2W C2L L2L  SYS / # / OBS TYPES 
       D2L S2L C5Q L5Q D5Q S5Q C1L L1L D1L S1L              SYS / # / OBS TYPES 
E   21 X1  C1C L1C D1C S1C C6C L6C D6C S6C C5Q L5Q D5Q S5Q  SYS / # / OBS TYPES 
       C7Q L7Q D7Q S7Q C8Q L8Q D8Q S8Q                      SYS / # / OBS TYPES 
S    9 X1  C1C L1C D1C S1C C5I L5I D5I S5I                  SYS / # / OBS TYPES 
R   17 X1  C1C L1C D1C S1C C2P L2P D2P S2P C2C L2C D2C S2C  SYS / # / OBS TYPES 
       C3Q L3Q D3Q S3Q                                      SYS / # / OBS TYPES 
C   25 X1  C1P L1P D1P S1P C5P L5P D5P S5P C2I L2I D2I S2I  SYS / # / OBS TYPES 
       C7I L7I D7I S7I C6I L6I D6I S6I C7D L7D D7D S7D      SYS / # / OBS TYPES 
J   17 X1  C1C L1C D1C S1C C2L L2L D2L S2L C5Q L5Q D5Q S5Q  SYS / # / OBS TYPES 
       C1L L1L D1L S1L                                      SYS / # / OBS TYPES 
I    5 X1  C5A L5A D5A S5A                                  SYS / # / OBS TYPES 
SEPTENTRIO RECEIVERS OUTPUT ALIGNED CARRIER PHASES.         COMMENT             
NO FURTHER PHASE SHIFT APPLIED IN THE RINEX ENCODER.        COMMENT             
G L1C                                                       SYS / PHASE SHIFT   
G L2W                                                       SYS / PHASE SHIFT   
G L2L  0.00000                                              SYS / PHASE SHIFT   
G L5Q  0.00000                                              SYS / PHASE SHIFT   
G L1L  0.00000                                              SYS / PHASE SHIFT   
E L1C  0.00000                                              SYS / PHASE SHIFT   
E L6C  0.00000                                              SYS / PHASE SHIFT   
E L5Q  0.00000                                              SYS / PHASE SHIFT   
E L7Q  0.00000                                              SYS / PHASE SHIFT   
E L8Q  0.00000                                              SYS / PHASE SHIFT   
S L1C                                                       SYS / PHASE SHIFT   
S L5I                                                       SYS / PHASE SHIFT   
R L1C                                                       SYS / PHASE SHIFT   
R L2P  0.00000                                              SYS / PHASE SHIFT   
R L2C                                                       SYS / PHASE SHIFT   
R L3Q  0.00000                                              SYS / PHASE SHIFT   
C L1P  0.00000                                              SYS / PHASE SHIFT   
C L5P  0.00000                                              SYS / PHASE SHIFT   
C L2I                                                       SYS / PHASE SHIFT   
C L7I                                                       SYS / PHASE SHIFT   
C L6I                                                       SYS / PHASE SHIFT   
C L7D                                                       SYS / PHASE SHIFT   
J L1C                                                       SYS / PHASE SHIFT   
J L2L  0.00000                                              SYS / PHASE SHIFT   
J L5Q  0.00000                                              SYS / PHASE SHIFT   
J L1L  0.00000                                              SYS / PHASE SHIFT   
I L5A                                                       SYS / PHASE SHIFT   
  2025     1     1    19     0    0.0000000     GPS         TIME OF FIRST OBS   
 C1C    0.000 C2C    0.000 C2P    0.000                     GLONASS COD/PHS/BIS 
DBHZ                                                        SIGNAL STRENGTH UNIT
    18                                                      LEAP SECONDS        
 24 R01  1 R02 -4 R03  5 R04  6 R05  1 R06 -4 R07  5 R08  6 GLONASS SLOT / FRQ #
    R09 -2 R10 -7 R11  0 R12 -1 R13 -2 R14 -7 R15  0 R16 -1 GLONASS SLOT / FRQ #
    R17  4 R18 -3 R19  3 R20  2 R21  4 R22 -3 R23  3 R24  2 GLONASS SLOT / FRQ #
                                                            END OF HEADER       
> 2025 01 01 19 00  0.0000000  0 56
G10         1.000    23165072.062 7 121733358.64707      2841.377 7        44.581                                    23165071.310 6  94857220.38206      2214.060 6        41.664    23165070.585 6  94857197.37506      2214.085 6        40.906
G15         2.000    24014324.974 6 126196154.42706      1136.821 6        40.088                                    24014320.512 5  98334658.73205       885.833 5        31.275    24014320.290 5  98334661.72105       886.048 5        35.257
G05         3.000    25485598.244 5 133927833.26905     -4100.489 5        31.109                                    25485595.749 2 104359401.23602     -3195.188 2        15.000    25485598.288 4 104359400.21004     -3195.471 4        28.095
G29         4.000    24425383.270 6 128356607.30806     -3725.652 6        38.874                                    24425380.115 5 100018297.49405     -2903.109 5        32.359    24425380.847 6 100018300.49806     -2903.060 6        36.526
S21         5.000    38356571.363 7 201564897.67007      -538.359 7        42.220
E13         6.000    23138445.947 8 121593703.41108      -420.790 8        48.061                                                                    23138445.970 8  90800700.90208      -314.267 8        51.146    23138445.500 8  93169384.31508      -322.462 8        51.080
G23         7.000    21127639.646 7 111026617.09907      1014.500 7        47.217                                    21127635.932 6  86514283.75306       790.519 6        38.315    21127636.119 7  86514282.76907       790.442 7        46.104
E15         8.000    25302919.541 7 132968066.73907     -2795.221 7        43.640                                                                    25302920.186 7  99294507.58907     -2087.378 7        47.253    25302919.819 7 101884775.01807     -2141.930 7        47.829
E05         9.000    26923046.959 5 141481566.08705      -414.135 5        34.643                                                                    26923049.329 6 105651824.43706      -309.235 6        40.348    26923048.855 6 108407960.79706      -317.387 6        40.338
G07        10.000    25323002.463 6 133073303.62906       729.382 6        38.453                                    25322999.859 5 103693472.62605       568.355 5        30.860    25322999.178 6 103693476.63306       568.120 6        36.684
G26        11.000    21387120.946 7 112390456.68307     -2925.124 7        47.564                                    21387119.836 7  87577163.30307     -2279.317 7        47.670    21387119.838 7  87577183.30507     -2279.376 7        44.322
S27        12.000    39113930.510 5 205545081.50205      -510.366 5        35.519
R20        13.000    24216628.641 5 129497192.50905      2873.887 5        33.982                                                                    24216633.142 6 100720092.40506      2235.279 6        36.560
S36        14.000    38127112.399 7 200359851.99307      -537.470 7        43.862
G27        15.000    21312134.718 7 111996304.42207      1848.026 7        46.641                                    21312132.097 7  87270005.92507      1440.018 7        47.205    21312132.304 7  87269919.93507      1439.911 7        43.719
S45        17.000    63339331.949 6 332850420.87706      -589.691 6        37.183
G31        18.000    25843669.498 6 135809532.27006     -3785.063 6        37.883                                    25843675.738 4 105825722.11704     -2949.353 4        27.425    25843676.275 5 105825701.06105     -2949.283 5        34.105
G16        19.000    20440957.856 8 107418224.48608      -762.028 8        48.242                                    20440952.859 6  83702633.80306      -593.789 6        40.467
E21        20.000    23661037.215 8 124339970.90908     -1125.346 8        48.394                                                                    23661036.503 8  92851495.67008      -840.351 8        50.893    23661036.216 8  95273683.11508      -862.329 8        51.094
E26        21.000    25700902.341 7 135059488.76507      1832.291 7        42.991                                                                    25700901.028 7 100856305.03307      1368.294 7        46.029    25700900.548 7 103487315.06907      1403.984 7        46.531
I06        22.000    38609518.193 6 151512259.50706      -358.041 6        40.992
S28        23.000    40828038.959 5 214552762.65105      -532.427 5        33.904
G08        24.000    24094038.578 6 126615034.47806      2765.578 6        38.069                                    24094037.183 4  98661064.29304      2154.998 4        29.659    24094038.018 5  98661065.31605      2154.778 5        35.281
S23        25.000    38081858.229 7 200121483.80907      -538.801 7        44.585
C13        26.000                                                                                                                                    37736575.454 7 196504452.60407     -1049.421 7        44.375    37736576.643 7 151949819.31607      -811.422 7        44.808    37736574.629 7 159676051.67107      -852.639 7        42.709
G18        27.000    21240526.971 7 111620075.20907     -2489.886 7        47.255                                    21240523.014 6  86976855.26306     -1940.172 6        38.342    21240523.410 7  86976846.27507     -1940.232 7        46.805
I02        29.000    39295298.126 6 154203294.48306     -1047.193 6        39.889
C14        30.000                                                                                                                                    24854872.868 6 129425861.08106      2297.640 6        40.474    24854869.829 7 100080277.61907      1776.558 7        46.862    24854868.349 7 105169097.72307      1867.058 7        44.063
R02        31.000    22116773.101 7 118019380.98507      -404.988 7        46.785                                                                    22116772.993 7  91792873.68007      -315.068 7        42.923
E03        32.000    28328828.610 6 148869016.38506      1470.398 6        36.223                                                                    28328828.831 6 111168436.84606      1098.064 6        39.480    28328828.717 6 114068476.02806      1126.604 6        40.236
R17        33.000    22912234.978 7 122608360.19307     -3914.116 7        43.951                                                                    22912234.794 6  95362223.82506     -3044.387 6        41.874
R03        34.000    22438706.744 7 120116173.64707      2774.830 7        46.730                                                                    22438706.115 7  93423710.09107      2158.153 7        42.626
R10        35.000    22661487.931 6 120798525.56406      2854.769 6        40.353
R18        36.000    19744837.038 8 105399690.88308     -2169.428 8        49.897                                                                    19744837.421 7  81977743.80707     -1687.306 7        47.452
E27        37.000    25944203.824 7 136337940.01507     -3408.000 7        42.504                                                                    25944204.825 7 101810949.11307     -2544.910 7        46.947    25944204.210 7 104466867.33707     -2611.258 7        46.561
R16        38.000    20977258.134 8 112056854.72008     -4179.911 8        50.197                                                                    20977257.462 7  87155384.55107     -3251.095 7        45.091
G13        39.000    24919408.679 5 130952366.27505       546.172 5        33.659                                    24919405.213 1 102040792.57401       425.554 1         9.619
R09        40.000    20160179.452 8 107654305.64508       -93.047 8        50.479                                                                    20160178.118 8  83731151.68408       -72.373 8        48.356
C34        41.000                                                                                                                                    25325632.887 6 131877541.90806     -3279.859 6        41.056                                                                    25325633.279 7 107161441.95607     -2665.125 7        42.076
S44        42.000    40404344.391 6 212326439.26206      -505.499 6        37.554
C38        43.000                                                                                                                                    39321372.263 6 204756862.99706     -1599.480 6        41.564                                                                    39321370.425 6 166381786.31606     -1299.770 6        41.318
C05        44.000                                                                                                                                    39205605.183 6 204153904.69306      -466.683 6        37.686    39205601.178 7 157864770.44107      -361.004 7        42.265    39205603.789 6 165891871.53606      -379.262 6        40.601
C08        45.000                                                                                                                                    37995769.890 6 197854136.17306     -1325.618 6        41.187    37995763.599 7 152993444.57907     -1024.995 7        44.993    37995762.532 6 160772744.43706     -1077.000 6        41.943
C21        46.000                                                                                                                                    25330623.560 7 131903210.23007     -1426.150 7        42.311                                                                    25330618.525 7 107182138.12907     -1158.898 7        43.426
R19        47.000    19794565.274 7 105887939.43407       583.184 7        42.785                                                                    19794563.533 7  82357453.49207       453.606 7        45.168
C43        48.000                                                                                                                                    22017507.714 8 114651265.11808     -1874.535 8        50.319                                                                    22017506.021 8  93163670.98008     -1523.153 8        49.449
C42        50.000                                                                                                                                    24273383.866 7 126397912.65507      1194.123 7        44.444                                                                    24273391.163 7 102708704.35107       970.251 7        45.947
S48        51.000    77096028.032 6 405143241.17606      -577.090 6        37.853
R01        52.000    24081771.879 6 128730897.50606     -3545.708 6        37.388                                                                    24081772.101 5 100124021.17905     -2757.820 5        33.647
C37        53.000                                                                                                                                    23593612.965 7 122858160.80907     -1291.636 7        46.723                                                                    23593615.922 7  99832343.18207     -1049.576 7        47.939
C60        54.000                                                                                                                                    40404343.490 6 210396218.29106      -500.858 6        39.808                                                                    40404328.060 6 170964129.82606      -407.088 6        39.652
C23        56.000                                                                                                                                    24699545.017 7 128617352.89407     -3575.885 7        45.154                                                                    24699537.742 7 104512242.33007     -2905.611 7        45.171
C02        57.000                                                                                                                                    40541783.929 5 211111750.53105      -459.012 5        34.824    40541777.935 6 163244989.04106      -355.019 6        38.796    40541780.971 5 171545591.96705      -372.986 5        35.367
I03        58.000   111513245.837 6 361816674.78606      1044.255 6        40.717
C11        59.000                                                                                                                                    23410034.590 7 121902506.08407     -2737.950 7        45.193    23410031.657 8  94262902.47208     -2117.235 8        49.386    23410029.922 7  99055882.22007     -2224.860 7        46.097
C28        60.000                                                                                                                                    22558838.189 8 117470104.11908      1254.094 8        48.598                                                                    22558837.016 7  95454217.76507      1019.034 7        47.814
> 2025 01 01 19 00  5.0000000  0 56
G10         1.000    23162369.157 7 121719154.71407      2840.043 7        44.051                                    23162368.339 6  94846152.38506      2213.017 6        41.456    23162368.189 6  94846129.39006      2213.119 6        41.058
G15         2.000    24013244.872 6 126190477.79106      1133.738 6        40.086                                    24013240.096 5  98330235.37405       883.435 5        31.238    24013239.933 5  98330238.36405       883.627 5        35.138
G05         3.000    25489500.899 5 133948338.54505     -4102.456 5        31.562                                    25489498.017 2 104375379.38202     -3196.723 2        15.762    25489497.763 4 104375378.38204     -3196.420 4        28.569
G29         4.000    24428928.560 6 128375237.07906     -3726.531 6        38.679                                    24428925.230 5 100032814.18905     -2903.791 5        32.126    24428926.065 6 100032817.16706     -2903.647 6        36.624
S21         5.000    38357083.185 7 201567589.59807      -538.650 7        42.231
E13         6.000    23138847.142 8 121595812.07108      -422.769 8        48.186                                                                    23138847.226 8  90802275.55808      -315.756 8        51.187    23138846.723 8  93171000.04508      -323.976 8        51.056
G23         7.000    21126675.939 7 111021552.85607      1011.074 7        47.530                                    21126672.230 6  86510337.59306       787.849 6        38.312    21126672.519 7  86510336.59407       787.831 7        45.950
E15         8.000    25305579.897 7 132982045.29907     -2796.272 7        43.481                                                                    25305580.313 7  99304946.11907     -2088.210 7        47.304    25305579.843 7 101895485.84507     -2142.600 7        47.688
E05         9.000    26923442.449 5 141483642.79505      -416.701 5        34.695                                                                    26923444.455 6 105653375.22006      -311.158 6        40.720    26923443.979 6 108409552.04306      -319.342 6        40.613
G07        10.000    25322309.785 6 133069663.51006       726.540 6        38.297                                    25322307.191 5 103690636.15505       566.137 5        31.042    25322307.159 6 103690640.18106       566.023 6        36.609
G26        11.000    21389905.215 7 112405088.62407     -2927.793 7        47.507                                    21389904.208 7  87588564.81007     -2281.396 7        47.684    21389904.209 7  87588584.81407     -2281.405 7        44.265
S27        12.000    39114412.980 5 205547632.77705      -510.315 5        35.590
R20        13.000    24213942.415 5 129482823.74805      2873.374 5        33.431                                                                    24213945.824 6 100708916.72906      2234.768 6        36.106
S36        14.000    38127622.755 7 200362539.51007      -537.910 7        43.875
G27        15.000    21310376.932 7 111987068.50907      1846.232 7        46.745                                    21310374.552 7  87262809.10807      1438.621 7        47.180    21310375.158 7  87262723.10707      1438.587 7        43.875
S45        17.000    63339842.814 6 332853370.48606      -590.226 6        37.395
G31        18.000    25847270.372 6 135828456.77006     -3784.774 6        37.724                                    25847277.254 4 105840468.29104     -2949.132 4        27.353    25847276.836 5 105840447.24305     -2949.431 5        34.186
G16        19.000    20441684.493 8 107422043.38608      -765.695 8        48.098                                    20441679.587 6  83705609.56506      -596.646 6        40.420
E21        20.000    23662109.057 8 124345603.42708     -1127.796 8        48.358                                                                    23662108.327 8  92855701.77008      -842.214 8        50.907    23662108.059 8  95277998.93408      -864.179 8        51.070
E26        21.000    25699159.286 7 135050330.18207      1830.916 7        43.077                                                                    25699158.174 7 100849465.83707      1367.244 7        46.057    25699157.686 7 103480297.46307      1402.953 7        46.499
I06        22.000    38609974.734 6 151514049.79106      -358.171 6        41.240
S28        23.000    40828541.726 5 214555424.34305      -532.806 5        34.119
G08        24.000    24091406.645 6 126601208.46906      2764.835 6        37.486                                    24091405.973 4  98650290.77504      2154.415 4        29.583    24091406.026 5  98650291.78905      2154.470 5        34.929
S23        25.000    38082370.654 7 200124177.81407      -539.018 7        44.653
C13        26.000                                                                                                                                    37737583.474 7 196509701.67407     -1050.451 7        44.629    37737584.582 7 151953878.22207      -812.195 7        44.769    37737582.673 7 159680316.96007      -853.625 7        42.813
G18        27.000    21242896.924 7 111632529.71107     -2492.046 7        46.980                                    21242893.041 6  86986560.07106     -1941.853 6        38.300    21242893.195 7  86986551.07207     -1941.855 7        47.056
I02        29.000    39296632.588 6 154208531.03806     -1047.623 6        39.655
C14        30.000                                                                                                                                    24852667.289 6 129414376.76606      2296.114 6        40.594    24852664.489 7 100071397.22607      1775.398 7        47.025    24852662.891 7 105159765.77507      1865.656 7        43.985
R02        31.000    22117153.951 7 118021417.45507      -409.744 7        47.174                                                                    22117155.055 7  91794457.57107      -318.630 7        42.368
E03        32.000    28327430.627 6 148861668.31406      1468.740 6        36.204                                                                    28327430.587 6 111162949.66606      1096.731 6        39.517    28327430.480 6 114062845.69806      1125.392 6        40.286
R17        33.000    22915892.749 7 122627931.86707     -3914.582 7        43.979                                                                    22915892.412 6  95377446.23906     -3044.665 6        41.449
R03        34.000    22436116.481 8 120102305.43708      2772.259 8        48.020                                                                    22436114.818 7  93412923.69307      2156.171 7        42.825
R10        35.000    22658811.154 6 120784258.78706      2851.903 6        40.391
R18        36.000    19746869.946 8 105410542.56508     -2171.448 8        49.895                                                                    19746870.067 7  81986184.00807     -1688.976 7        47.567
E27        37.000    25947447.251 7 136354982.44407     -3409.239 7        43.086                                                                    25947447.696 7 101823675.60107     -2545.809 7        46.793    25947447.395 7 104479925.82307     -2612.249 7        46.559
R16        38.000    20981171.879 8 112077761.05008     -4182.837 8        50.386                                                                    20981171.822 7  87171645.02607     -3253.398 7        45.445
G13        39.000    24918890.892 5 130949642.20905       543.198 5        32.689                                    24918886.818 1 102038669.77701       423.335 1         8.095
R09        40.000    20160268.644 8 107654782.58408       -97.919 8        50.449                                                                    20160267.244 7  83731522.63707       -76.141 7        47.988
C34        41.000                                                                                                                                    25328782.806 6 131893942.31706     -3280.471 6        41.085                                                                    25328782.937 7 107174768.60607     -2665.712 7        42.009
S44        42.000    40404827.362 6 212328967.20006      -505.880 6        37.592
C38        43.000                                                                                                                                    39322908.243 6 204764861.91406     -1600.252 6        41.919                                                                    39322906.428 6 166388286.07006     -1300.342 6        41.395
C05        44.000                                                                                                                                    39206053.678 6 204156238.96006      -467.043 6        37.875    39206049.418 7 157866575.43907      -361.306 7        42.135    39206052.155 6 165893768.31006      -379.554 6        40.534
C08        45.000                                                                                                                                    37997042.950 6 197860766.02406     -1326.515 6        41.259    37997036.587 7 152998571.19707     -1025.712 7        44.853    37997035.649 6 160778131.74006     -1077.979 6        41.738
C21        46.000                                                                                                                                    25331994.601 7 131910348.27707     -1429.248 7        42.635                                                                    25331989.304 7 107187938.35407     -1161.383 7        43.471
R19        47.000    19794020.517 7 105885029.65207       580.717 7        43.033                                                                    19794019.318 7  82355190.33007       451.550 7        45.380
C43        48.000                                                                                                                                    22019308.229 8 114660641.35008     -1876.082 8        50.287                                                                    22019306.613 8  93171289.93008     -1524.483 8        49.408
C42        50.000                                                                                                                                    24272238.485 7 126391948.20007      1191.531 7        44.671                                                                    24272245.674 7 102703857.72907       968.101 7        45.916
S48        51.000    77096546.937 6 405146127.84806      -577.512 6        37.947
R01        52.000    24085090.291 6 128748633.72806     -3548.907 6        36.888                                                                    24085091.145 5 100137815.98305     -2760.316 5        34.124
C37        53.000                                                                                                                                    23594854.709 7 122864626.16107     -1294.679 7        46.942                                                                    23594857.458 7  99837596.79607     -1052.105 7        47.846
C60        54.000                                                                                                                                    40404824.824 6 210398723.23606      -501.240 6        39.649                                                                    40404809.059 6 170966165.29106      -407.372 6        39.426
C23        56.000                                                                                                                                    24702979.451 7 128635234.97907     -3577.081 7        45.750                                                                    24702971.978 7 104526772.98207     -2906.794 7        45.115
C02        57.000                                                                                                                                    40542225.466 5 211114046.12805      -459.395 5        34.743    40542218.837 6 163246764.15406      -355.464 6        38.811    40542221.962 5 171547457.31805      -373.016 5        35.371
I03        58.000   111511915.526 6 361811453.46006      1044.153 6        40.782
C11        59.000                                                                                                                                    23412663.692 7 121916198.02507     -2738.936 7        45.539    23412660.763 8  94273489.93508     -2117.892 8        49.291    23412659.360 7  99067008.02807     -2225.575 7        46.183
C28        60.000                                                                                                                                    22557634.712 8 117463837.01408      1252.605 8        48.789                                                                    22557633.487 7  95449125.21507      1017.794 7        47.834
> 2025 01 01 19 00 10.0000000  0 56
G10         1.000    23159667.045 7 121704956.62707      2838.988 7        43.932                                    23159666.478 6  94835088.94506      2212.196 6        41.406    23159666.283 6  94835065.94306      2212.250 6        40.832
G15         2.000    24012166.831 6 126184814.50506      1131.336 6        40.191                                    24012162.261 5  98325822.42305       881.557 5        31.404    24012163.055 6  98325825.43206       881.507 6        36.163
G05         3.000    25493403.939 5 133968849.05205     -4102.794 5        30.891                                    25493400.984 2 104391361.56602     -3196.986 2        14.619    25493400.158 4 104391360.52404     -3196.219 4        26.731
G29         4.000    24432474.345 6 128393869.73906     -3726.823 6        39.111                                    24432470.923 5 100047333.13505     -2904.020 5        32.180    24432471.809 6 100047336.13206     -2904.185 6        36.752
S21         5.000    38357594.878 7 201570281.66607      -538.274 7        42.144
E13         6.000    23139250.027 8 121597929.07208      -424.237 8        48.276                                                                    23139250.124 8  90803856.43308      -316.756 8        51.141    23139249.579 8  93172622.16308      -325.063 8        51.150
G23         7.000    21125715.322 7 111016503.81607      1008.339 7        47.594                                    21125711.422 6  86506403.28106       785.718 6        38.351    21125711.973 7  86506402.28507       785.642 7        46.140
E15         8.000    25308240.742 7 132996027.27907     -2796.699 7        43.877                                                                    25308241.047 7  99315387.19107     -2088.489 7        47.121    25308240.545 7 101906199.29507     -2142.942 7        47.769
E05         9.000    26923839.938 5 141485731.16705      -418.799 5        35.000                                                                    26923842.053 6 105654934.73406      -312.874 6        40.582    26923841.284 6 108411152.22806      -320.958 6        40.636
G07        10.000    25321619.901 6 133066036.07006       724.211 6        39.189                                    25321616.840 5 103687809.58505       564.321 5        31.215    25321616.463 6 103687813.59606       564.261 6        36.397
G26        11.000    21392691.794 8 112419732.51008     -2929.957 8        48.280                                    21392690.856 7  87599975.62807     -2283.085 7        47.738    21392690.525 7  87599995.63307     -2282.984 7        43.818
S27        12.000    39114901.465 5 205550184.36005      -510.078 5        35.757
R20        13.000    24211256.063 5 129468457.69705      2873.169 5        33.006                                                                    24211260.024 6 100697743.20606      2234.346 6        37.240
S36        14.000    38128133.892 7 200365226.44907      -537.207 7        43.718
G27        15.000    21308620.894 7 111977840.24707      1844.826 7        47.131                                    21308618.475 7  87255618.25307      1437.527 7        47.259    21308618.858 7  87255532.25607      1437.531 7        43.695
S45        17.000    63340354.310 6 332856319.98006      -589.859 6        37.263
G31        18.000    25850871.348 6 135847377.59306     -3783.768 6        38.252                                    25850878.064 4 105855211.59904     -2948.353 4        27.748    25850878.564 5 105855190.55605     -2948.620 5        34.005
G16        19.000    20442414.504 8 107425879.24208      -768.832 8        48.499                                    20442409.513 6  83708598.53906      -599.088 6        40.472
E21        20.000    23663182.812 8 124351247.16908     -1129.895 8        48.550                                                                    23663182.309 8  92859916.24308      -843.745 8        50.821    23663182.021 8  95282323.34808      -865.739 8        51.127
E26        21.000    25697417.789 7 135041176.70607      1830.132 7        43.278                                                                    25697416.309 7 100842630.45307      1366.750 7        46.067    25697415.855 7 103473283.75507      1402.374 7        46.681
I06        22.000    38610430.608 6 151515839.90006      -358.079 6        41.209
S28        23.000    40829045.664 5 214558086.25705      -532.320 5        33.731
G08        24.000    24088776.888 6 126587384.02906      2764.776 6        37.512                                    24088775.264 5  98639518.49205      2154.367 5        30.000    24088776.448 5  98639519.48405      2154.404 5        35.043
S23        25.000    38082884.453 7 200126871.99207      -538.897 7        44.628
C13        26.000                                                                                                                                    37738592.388 7 196514954.17007     -1050.851 7        44.564    37738593.178 7 151957939.79207      -812.609 7        44.697    37738591.396 7 159684585.06707      -853.972 7        42.662
G18        27.000    21245268.767 7 111644993.15207     -2493.581 7        47.121                                    21245264.776 6  86996271.84906     -1943.048 6        38.378    21245265.067 7  86996262.84607     -1943.017 7        47.231
I02        29.000    39297966.662 6 154213767.85706     -1047.365 6        39.664
C14        30.000                                                                                                                                    24850463.366 6 129402898.64506      2294.980 6        40.703    24850460.356 7 100062521.61407      1774.614 7        46.907    24850458.683 7 105150438.87407      1864.839 7        43.810
R02        31.000    22117540.017 7 118023475.91607      -413.953 7        46.542                                                                    22117539.484 7  91796058.59707      -321.974 7        42.370
E03        32.000    28326033.828 6 148854327.13406      1467.409 6        37.021                                                                    28326033.676 6 111157467.59006      1095.804 6        39.610    28326033.315 6 114057220.60506      1124.568 6        40.422
R17        33.000    22919549.571 7 122647504.53207     -3914.602 7        43.970                                                                    22919549.595 6  95392669.42306     -3044.682 6        41.178
R03        34.000    22433528.182 7 120088448.72007      2770.238 7        47.268                                                                    22433526.701 7  93402146.25407      2154.610 7        43.103
R10        35.000    22656136.541 6 120770005.35306      2849.311 6        40.236
R18        36.000    19748904.689 8 105421403.28108     -2173.019 8        50.426                                                                    19748904.879 8  81994631.22908     -1690.131 8        48.262
E27        37.000    25950691.275 7 136372029.82407     -3409.893 7        43.424                                                                    25950691.575 7 101836405.79307     -2546.394 7        46.550    25950691.278 7 104492988.09807     -2612.785 7        46.708
R16        38.000    20985087.346 8 112098680.95608     -4185.352 8        50.047                                                                    20985088.082 7  87187916.04307     -3255.199 7        45.646
G13        39.000    24918374.429 5 130946932.67505       540.624 5        32.497                                    24918371.226 1 102036558.52301       421.401 1         6.750
R09        40.000    20160362.558 8 107655282.48508      -102.262 8        50.359                                                                    20160361.078 8  83731911.44708       -79.522 8        48.233
C34        41.000                                                                                                                                    25331932.516 6 131910343.94606     -3280.425 6        41.151                                                                    25331932.708 6 107188096.25006     -2665.611 6        41.900
S44        42.000    40405306.143 6 212331495.26906      -505.656 6        37.633
C38        43.000                                                                                                                                    39324444.798 6 204772863.02706     -1600.371 6        41.769                                                                    39324442.945 6 166394787.64906     -1300.551 6        41.290
C05        44.000                                                                                                                                    39206501.591 6 204158573.23806      -466.930 6        37.811    39206497.730 7 157868380.44207      -360.963 7        42.305    39206500.462 6 165895665.11906      -379.494 6        40.274
C08        45.000                                                                                                                                    37998316.718 6 197867399.22006     -1326.942 6        41.168    37998310.179 7 153003700.38707     -1025.966 7        44.855    37998309.732 6 160783521.75006     -1078.172 6        41.859
C21        46.000                                                                                                                                    25333367.687 7 131917500.25307     -1431.724 7        42.588                                                                    25333362.975 7 107193749.92607     -1163.555 7        43.585
R19        47.000    19793479.078 7 105882131.15507       578.492 7        42.576                                                                    19793477.735 7  82352935.93207       450.042 7        45.436
C43        48.000                                                                                                                                    22021110.064 8 114670023.89708     -1877.135 8        50.114                                                                    22021108.407 8  93178914.02508     -1525.372 8        49.368
C42        50.000                                                                                                                                    24271095.232 7 126385995.37307      1189.355 7        45.162                                                                    24271102.458 7 102699020.58507       966.393 7        45.809
S48        51.000    77097067.286 6 405149014.60106      -577.466 6        37.819
R01        52.000    24088409.469 6 128766384.31806     -3551.406 6        36.866                                                                    24088411.236 5 100151622.03305     -2762.430 5        33.359
C37        53.000                                                                                                                                    23596098.993 7 122871105.20707     -1297.115 7        46.975                                                                    23596101.771 7  99842861.56607     -1054.090 7        47.811
C60        54.000                                                                                                                                    40405306.038 6 210401228.32606      -500.999 6        39.805                                                                    40405290.125 6 170968200.89906      -407.182 6        39.168
C23        56.000                                                                                                                                    24706415.093 7 128653122.03207     -3577.908 7        45.773                                                                    24706407.055 7 104541307.68607     -2907.372 7        45.064
C02        57.000                                                                                                                                    40542666.230 5 211116341.87605      -459.085 5        35.000    40542659.645 6 163248539.34806      -355.061 6        38.886    40542662.869 5 171549322.83305      -373.324 5        35.333
I03        58.000   111510584.958 6 361806232.25206      1044.201 6        40.679
C11        59.000                                                                                                                                    23415294.477 7 121929893.52707     -2739.461 7        45.634    23415290.501 8  94284080.16308     -2118.298 8        49.191    23415289.381 7  99078136.75707     -2226.090 7        46.038
C28        60.000                                                                                                                                    22556432.415 8 117457575.57408      1251.745 8        48.871                                                                    22556430.974 7  95444037.29707      1017.089 7        47.706
> 2025 01 01 19 00 15.0000000  0 56
G10         1.000    23156966.674 7 121690764.53107      2837.612 7        43.824                                    23156965.721 6  94824030.17806      2211.124 6        41.325    23156965.390 6  94824007.18506      2211.183 6        40.448
G15         2.000    24011091.606 6 126179164.70906      1128.409 6        40.136                                    24011087.095 5  98321419.97305       879.281 5        31.457    24011087.959 5  98321422.95905       879.475 5        35.843
G05         3.000    25497307.831 5 133989365.14405     -4103.929 5        30.860                                    25497305.041 2 104407348.14702     -3197.881 2        13.212    25497306.363 4 104407347.16804     -3197.974 4        26.898
G29         4.000    24436020.625 6 128412505.43006     -3727.443 6        39.634                                    24436017.175 5 100061854.43705     -2904.495 5        32.186    24436017.483 6 100061857.42006     -2904.487 6        36.692
S21         5.000    38358109.548 7 201572973.80007      -538.580 7        42.336
E13         6.000    23139654.482 8 121600054.58008      -426.063 8        48.438                                                                    23139654.605 8  90805443.66308      -318.132 8        51.035    23139654.037 8  93174250.79608      -326.429 8        51.192
G23         7.000    21124757.432 7 111011470.17907      1005.055 7        47.521                                    21124753.529 6  86502480.97206       783.159 6        38.231    21124753.964 7  86502479.97607       783.211 7        46.459
E15         8.000    25310901.945 7 133010012.84607     -2797.627 7        44.108                                                                    25310902.364 7  99325830.94607     -2089.084 7        47.075    25310902.032 7 101916915.50107     -2143.581 7        47.900
E05         9.000    26924239.539 5 141487831.41805      -421.319 5        34.705                                                                    26924241.767 6 105656503.06006      -314.544 6        40.534    26924241.009 6 108412761.47806      -322.904 6        40.620
G07        10.000    25320932.266 6 133062421.38806       721.684 6        38.832                                    25320928.894 5 103684992.96805       562.353 5        30.875    25320928.339 5 103684996.98305       562.251 5        35.929
G26        11.000    21395480.751 8 112434388.51008     -2932.554 8        48.200                                    21395479.785 7  87611395.88507     -2285.106 7        47.637    21395479.735 7  87611415.88307     -2285.062 7        43.630
S27        12.000    39115389.922 5 205552736.13605      -510.540 5        35.357
R20        13.000    24208569.359 5 129454094.62805      2872.197 5        33.305                                                                    24208573.715 6 100686571.94506      2233.987 6        36.820
S36        14.000    38128644.681 7 200367913.25207      -537.427 7        43.816
G27        15.000    21306866.275 7 111968619.82307      1843.263 7        47.365                                    21306863.886 7  87248433.51007      1436.308 7        47.174    21306864.075 7  87248347.50907      1436.298 7        43.522
S45        17.000    63340865.251 6 332859269.47806      -590.075 6        37.263
G31        18.000    25854471.535 6 135866294.97606     -3783.273 6        38.342                                    25854478.127 4 105869952.22404     -2947.968 4        27.497    25854477.984 5 105869931.18205     -2948.131 5        33.485
G16        19.000    20443147.952 8 107429732.25308      -772.406 8        49.052                                    20443142.693 6  83711600.88206      -601.874 6        40.389
E21        20.000    23664258.893 8 124356902.28408     -1132.288 8        48.567                                                                    23664258.465 8  92864139.21908      -845.547 8        50.713    23664258.112 8  95286656.49108      -867.569 8        51.220
E26        21.000    25695676.957 7 135032028.49207      1829.040 7        43.232                                                                    25695675.461 7 100835799.00807      1365.852 7        45.856    25695675.013 7 103466274.09607      1401.503 7        46.748
I06        22.000    38610887.090 6 151517629.94506      -358.074 6        41.206
S28        23.000    40829557.128 5 214560748.34305      -532.628 5        34.157
G08        24.000    24086146.796 6 126573561.37306      2764.220 6        37.958                                    24086145.069 4  98628747.59004      2153.937 4        29.991    24086146.516 5  98628748.59905      2153.939 5        35.681
S23        25.000    38083396.677 7 200129566.25207      -538.930 7        44.614
C13        26.000                                                                                                                                    37739601.611 7 196520210.33507     -1051.670 7        44.549    37739602.710 7 151962004.18107      -813.237 7        44.921    37739600.764 7 159688856.11407      -854.608 7        42.449
G18        27.000    21247642.232 7 111657465.66907     -2495.526 7        47.254                                    21247638.211 6  87005990.69406     -1944.564 6        38.273    21247638.364 7  87005981.69207     -1944.530 7        46.867
I02        29.000    39299301.284 6 154219005.05906     -1047.741 6        39.309
C14        30.000                                                                                                                                    24848260.900 6 129391426.91806      2293.644 6        40.303    24848257.062 7 100053650.94407      1773.552 7        46.771    24848255.557 7 105141117.15107      1863.690 7        43.609
R02        31.000    22117929.259 7 118025556.73007      -418.419 7        46.678                                                                    22117929.659 7  91797676.99807      -325.478 7        42.174
E03        32.000    28324638.343 6 148846992.95006      1466.005 6        37.361                                                                    28324638.141 6 111151990.76806      1094.744 6        39.577    28324637.680 6 114051600.90006      1123.349 6        40.465
R17        33.000    22923208.094 7 122667078.21707     -3914.927 7        44.087                                                                    22923207.803 6  95407893.36606     -3044.827 6        40.806
R03        34.000    22430941.387 7 120074603.80507      2767.694 7        47.358                                                                    22430940.397 7  93391378.00407      2152.692 7        43.418
R10        35.000    22653464.722 6 120755765.48006      2846.601 6        39.631
R18        36.000    19750941.193 8 105432273.16408     -2175.009 8        50.150                                                                    19750940.719 7  82003085.57307     -1691.642 7        47.879
E27        37.000    25953936.005 7 136389082.32007     -3410.985 7        43.026                                                                    25953936.557 7 101849139.79307     -2547.245 7        46.359    25953936.121 7 104506054.29507     -2613.736 7        46.663
R16        38.000    20989006.136 8 112119614.27408     -4188.114 8        49.598                                                                    20989006.517 7  87204197.51907     -3257.426 7        45.636
G13        39.000    24917860.827 5 130944237.69405       537.425 5        32.180                                    24917858.443 1 102034458.46901       418.787 1         9.048
R09        40.000    20160460.612 8 107655805.46508      -107.013 8        50.139                                                                    20160459.074 8  83732318.21108       -83.242 8        48.301
C34        41.000                                                                                                                                    25335082.235 6 131926746.94306     -3280.839 6        40.970                                                                    25335082.575 6 107201425.00206     -2666.009 6        41.499
S44        42.000    40405784.436 6 212334023.66706      -505.824 6        37.391
C38        43.000                                                                                                                                    39325981.839 6 204780866.48106     -1601.058 6        41.967                                                                    39325979.903 6 166401291.08706     -1301.014 6        41.051
C05        44.000                                                                                                                                    39206949.947 6 204160907.69406      -466.896 6        37.679    39206946.162 7 157870185.60207      -361.232 7        42.391    39206948.652 6 165897562.04606      -379.577 6        40.176
C08        45.000                                                                                                                                    37999590.824 6 197874036.01506     -1327.765 6        40.930    37999584.755 7 153008832.37007     -1026.682 7        44.826    37999584.152 6 160788914.68406     -1078.976 6        41.569
C21        46.000                                                                                                                                    25334743.645 7 131924666.34207     -1434.772 7        42.336                                                                    25334739.296 7 107199572.93607     -1165.904 7        43.551
R19        47.000    19792939.589 7 105879244.11407       576.205 7        42.324                                                                    19792938.182 7  82350690.46207       448.140 7        45.526
C43        48.000                                                                                                                                    22022913.026 8 114679412.88808     -1878.527 8        49.983                                                                    22022911.499 8  93186543.34008     -1526.491 8        49.152
C42        50.000                                                                                                                                    24269954.642 7 126380054.34407      1186.939 7        45.571                                                                    24269961.515 7 102694193.00507       964.445 7        45.603
S48        51.000    77097591.705 6 405151901.68806      -577.597 6        37.905
R01        52.000    24091733.001 6 128784149.15006     -3554.608 6        37.543                                                                    24091733.037 5 100165439.12705     -2764.520 5        34.176
C37        53.000                                                                                                                                    23597345.927 7 122877598.10307     -1300.021 7        46.837                                                                    23597348.637 7  99848137.56807     -1056.519 7        47.617
C60        54.000                                                                                                                                    40405787.109 6 210403733.73906      -501.152 6        39.862                                                                    40405771.415 6 170970236.73806      -407.322 6        39.276
C23        56.000                                                                                                                                    24709851.059 7 128671014.21307     -3579.016 7        45.339                                                                    24709842.893 7 104555846.52707     -2908.373 7        44.936
C02        57.000                                                                                                                                    40543106.532 5 211118637.86505      -459.254 5        34.838    40543100.717 6 163250314.74906      -355.058 6        38.712    40543103.860 5 171551188.50505      -373.281 5        35.486
I03        58.000   111509254.060 6 361801011.25206      1044.088 6        40.741
C11        59.000                                                                                                                                    23417925.793 7 121943592.75107     -2740.342 7        45.869    23417921.411 8  94294673.26308     -2118.994 8        49.497    23417920.142 7  99089268.48007     -2226.790 7        45.887
C28        60.000                                                                                                                                    22555231.149 8 117451319.99008      1250.422 8        48.987                                                                    22555229.772 7  95438954.11207      1015.990 7        47.597
> 2025 01 01 19 00 20.0000000  0 56
G10         1.000    23154267.322 7 121676577.89307      2836.529 7        44.441                                    23154265.983 6  94812975.66606      2210.281 6        41.454    23154266.126 6  94812952.66706      2210.322 6        40.675
G15         2.000    24010019.347 6 126173527.89406      1125.874 6        39.817                                    24010014.487 5  98317027.64805       877.294 5        31.404    24010015.238 5  98317030.64605       877.349 5        35.752
G05         3.000    25501212.833 5 134009886.17105     -4104.933 5        31.057                                    25501210.082 2 104423338.53302     -3198.672 2        14.333    25501211.531 4 104423337.55004     -3198.810 4        27.808
G29         4.000    24439566.831 6 128431143.66906     -3728.173 6        40.038                                    24439563.976 5 100076377.73405     -2905.071 5        32.551    24439564.622 6 100076380.73706     -2905.177 6        36.745
S21         5.000    38358620.927 7 201575665.61107      -538.506 7        42.138
E13         6.000    23140060.429 8 121602188.03808      -427.690 8        48.507                                                                    23140060.577 8  90807036.82708      -319.393 8        50.969    23140060.057 8  93175885.52108      -327.747 8        51.228
G23         7.000    21123802.439 7 111006451.40407      1002.028 7        47.528                                    21123798.520 6  86498570.24206       780.800 6        38.297    21123798.751 7  86498569.25307       780.778 7        46.546
E15         8.000    25313563.836 7 133024001.46307     -2798.221 7        44.439                                                                    25313564.293 7  99336276.99407     -2089.617 7        47.009    25313564.063 7 101927634.05607     -2144.146 7        47.968
E05         9.000    26924641.436 5 141489943.10705      -423.866 5        35.067                                                                    26924643.697 6 105658079.99406      -316.379 6        40.810    26924642.813 6 108414379.55506      -324.793 6        40.930
G07        10.000    25320246.883 6 133058818.98306       719.022 6        38.841                                    25320243.292 5 103682185.90005       560.282 5        30.664    25320243.206 5 103682189.92005       560.279 5        35.776
G26        11.000    21398271.682 7 112449056.06207     -2934.901 7        47.686                                    21398270.900 7  87622825.14207     -2286.938 7        47.653    21398271.202 7  87622845.14007     -2286.985 7        43.994
S27        12.000    39115872.030 5 205555287.78005      -510.252 5        35.495
R20        13.000    24205880.692 5 129439733.99605      2871.580 5        32.832                                                                    24205887.663 6 100675402.60306      2233.424 6        36.234
S36        14.000    38129157.049 7 200370599.53307      -537.392 7        43.788
G27        15.000    21305112.987 7 111959406.72307      1841.635 7        47.087                                    21305110.701 7  87241254.47507      1435.039 7        47.283    21305111.080 7  87241168.47807      1435.056 7        43.608
S45        17.000    63341376.558 6 332862218.76806      -590.025 6        37.312
