     3.04           OBSERVATION DATA    M                   RINEX VERSION / TYPE
ssrcrin-15.6.1x                         20250101 091500 UTC PGM / RUN BY / DATE 
(00000000023479385599111004) Septentrio proprietary         COMMENT             
rref                                                        MARKER NAME         
01                                                          MARKER NUMBER       
geodetic                                                    MARKER TYPE         
NFB                 CLIMERS@TUW                             OBSERVER / AGENCY   
3297213             SEPT ASTERX SB3 PROB4.14.4              REC # / TYPE / VERS 
Unknown             Unknown                                 ANT # / TYPE        
  4127832.7400  1207193.4491  4695247.7861                  APPROX POSITION XYZ 
        0.0000        0.0000        0.0000                  ANTENNA: DELTA H/E/N
G   23 X1  C1C L1C D1C S1C C1W S1W C2W L2W D2W S2W C2L L2L  SYS / # / OBS TYPES 
       D2L S2L C5Q L5Q D5Q S5Q C1L L1L D1L S1L              SYS / # / OBS TYPES 
E   21 X1  C1C L1C D1C S1C C6C L6C D6C S6C C5Q L5Q D5Q S5Q  SYS / # / OBS TYPES 
       C7Q L7Q D7Q S7Q C8Q L8Q D8Q S8Q                      SYS / # / OBS TYPES 
S    9 X1  C1C L1C D1C S1C C5I L5I D5I S5I                  SYS / # / OBS TYPES 
R   17 X1  C1C L1C D1C S1C C2P L2P D2P S2P C2C L2C D2C S2C  SYS / # / OBS TYPES 
       C3Q L3Q D3Q S3Q                                      SYS / # / OBS TYPES 
C   25 X1  C1P L1P D1P S1P C5P L5P D5P S5P C2I L2I D2I S2I  SYS / # / OBS TYPES 
       C7I L7I D7I S7I C6I L6I D6I S6I C7D L7D D7D S7D      SYS / # / OBS TYPES 
J   17 X1  C1C L1C D1C S1C C2L L2L D2L S2L C5Q L5Q D5Q S5Q  SYS / # / OBS TYPES 
       C1L L1L D1L S1L                                      SYS / # / OBS TYPES 
I    5 X1  C5A L5A D5A S5A                                  SYS / # / OBS TYPES 
SEPTENTRIO RECEIVERS OUTPUT ALIGNED CARRIER PHASES.         COMMENT             
NO FURTHER PHASE SHIFT APPLIED IN THE RINEX ENCODER.        COMMENT             
G L1C                                                       SYS / PHASE SHIFT   
G L2W                                                       SYS / PHASE SHIFT   
G L2L  0.00000                                              SYS / PHASE SHIFT   
G L5Q  0.00000                                              SYS / PHASE SHIFT   
G L1L  0.00000                                              SYS / PHASE SHIFT   
E L1C  0.00000                                              SYS / PHASE SHIFT   
E L6C  0.00000                                              SYS / PHASE SHIFT   
E L5Q  0.00000                                              SYS / PHASE SHIFT   
E L7Q  0.00000                                              SYS / PHASE SHIFT   
E L8Q  0.00000                                              SYS / PHASE SHIFT   
S L1C                                                       SYS / PHASE SHIFT   
S L5I                                                       SYS / PHASE SHIFT   
R L1C                                                       SYS / PHASE SHIFT   
R L2P  0.00000                                              SYS / PHASE SHIFT   
R L2C                                                       SYS / PHASE SHIFT   
R L3Q  0.00000                                              SYS / PHASE SHIFT   
C L1P  0.00000                                              SYS / PHASE SHIFT   
C L5P  0.00000                                              SYS / PHASE SHIFT   
C L2I                                                       SYS / PHASE SHIFT   
C L7I                                                       SYS / PHASE SHIFT   
C L6I                                                       SYS / PHASE SHIFT   
C L7D                                                       SYS / PHASE SHIFT   
J L1C                                                       SYS / PHASE SHIFT   
J L2L  0.00000                                              SYS / PHASE SHIFT   
J L5Q  0.00000                                              SYS / PHASE SHIFT   
J L1L  0.00000                                              SYS / PHASE SHIFT   
I L5A                                                       SYS / PHASE SHIFT   
  2025     1     1     9    15    0.0000000     GPS         TIME OF FIRST OBS   
 C1C    0.000 C2C    0.000 C2P    0.000                     GLONASS COD/PHS/BIS 
DBHZ                                                        SIGNAL STRENGTH UNIT
    18                                                      LEAP SECONDS        
 24 R01  1 R02 -4 R03  5 R04  6 R05  1 R06 -4 R07  5 R08  6 GLONASS SLOT / FRQ #
    R09 -2 R10 -7 R11  0 R12 -1 R13 -2 R14 -7 R15  0 R16 -1 GLONASS SLOT / FRQ #
    R17  4 R18 -3 R19  3 R20  2 R21  4 R22 -3 R23  3 R24  2 GLONASS SLOT / FRQ #
                                                            END OF HEADER       
> 2025 01 01 09 15  0.0000000  0 53
G19         1.000    24778231.410 6 130210499.30106      2955.260 6        37.399                                    24778241.304 3 101462778.68003      2302.792 3        19.343
R01         2.000    19776234.637 8 105715225.86108     -2866.976 8        49.661                                                                    19776239.499 7  82223003.49807     -2229.867 7        42.102
G24         3.000    23230176.227 6 122075388.72206      2793.681 6        41.592                                    23230181.672 6  95123705.22506      2176.891 6        36.646    23230182.288 6  95123702.23006      2176.943 6        38.550
R02         4.000    19823674.730 8 105782875.32408      1435.422 8        51.775                                                                    19823678.336 7  82275571.43707      1116.438 7        46.775
S21         5.000    38438813.391 7 201997084.78407      -445.586 7        42.121
E05         6.000    26000877.630 6 136635344.10806     -3268.542 6        39.297                                                                    26000894.636 7 102032847.64207     -2440.851 7        42.372    26000892.372 7 104694574.18907     -2504.500 7        42.739
G17         7.000    23088047.752 7 121328628.84307      1956.848 7        43.602                                    23088052.432 6  94541867.16506      1524.809 6        38.775    23088053.044 6  94541863.18706      1524.826 6        40.124
R10         8.000    24314405.641 6 129609245.78106     -4430.257 6        37.626
R19         9.000    24131334.135 5 129086298.57605     -2237.692 5        33.742                                                                    24131336.413 6 100400516.17506     -1740.420 6        38.598
E30        10.000    28819126.735 6 151445551.18806      2668.410 6        36.926                                                                    28819142.982 6 113092528.49106      1992.720 6        38.405    28819140.693 6 116042761.40506      2044.823 6        38.964
C26        11.000                                                                                                                                    22333796.353 8 116297959.15108      1116.373 8        49.658                                                                    22333798.639 8  94501636.85408       907.251 8        48.756
S27        12.000    39148642.929 6 205727322.31306      -478.686 6        36.299
G15        13.000    20435177.431 8 107387526.45008       905.464 8        48.739                                    20435177.746 8  83678561.42208       705.556 8        48.921    20435178.122 7  83678553.42907       705.532 7        45.151
S36        14.000    38208904.153 7 200789588.14607      -446.654 7        43.926
R11        16.000    20026884.840 8 107017567.19008     -2821.137 8        50.702                                                                    20026887.834 8  83235874.93908     -2194.178 8        48.170
S45        17.000    63391239.728 6 333124601.36406      -495.411 6        36.045
R03        18.000    23746400.302 7 127116304.72007      3816.613 7        43.968                                                                    23746405.152 6  98868241.94206      2968.501 6        41.492
E24        19.000    27573247.449 6 144898224.62706     -3208.289 6        38.934                                                                    27573258.372 6 108203184.55306     -2395.824 6        40.944    27573256.736 6 111025878.29906     -2458.264 6        41.971
E33        20.000    28691976.995 5 150777342.49105       257.000 5        34.757                                                                    28691982.329 6 112593486.14306       191.869 6        39.847    28691981.045 6 115530703.56506       196.890 6        39.544
G30        21.000    22821148.131 7 119925835.42107     -3089.514 7        43.716                                    22821155.308 6  93448677.31006     -2407.406 6        41.139    22821155.310 6  93448681.30106     -2407.395 6        41.051
I06        22.000    38111849.143 7 149559165.17207      -420.613 7        43.209
S28        23.000    40883371.397 5 214843354.51705      -455.477 5        35.176
G14        24.000    20777008.901 7 109183903.19107     -1717.186 7        47.146                                    20777009.761 6  85078363.92106     -1338.068 6        38.754    20777009.980 7  85078365.91707     -1338.116 7        47.543
S23        25.000    38141432.430 7 200434501.32107      -446.869 7        43.947
E08        26.000    24041081.189 7 126336676.64407       942.358 7        47.547                                                                    24041084.392 8  94342304.88308       703.745 8        50.320    24041083.456 8  96803408.10508       722.122 8        50.779
C07        27.000                                                                                                                                    38814753.818 6 202118577.24006      -300.494 6        40.760    38814755.882 7 156290909.33907      -232.342 7        44.212    38814752.649 6 164237892.66506      -244.108 6        41.123
G13        28.000    19900173.475 8 104576068.71508     -1081.231 8        48.555                                    19900172.335 6  81487812.63806      -842.517 6        40.663
I02        29.000    37291765.415 7 146340902.12807        60.194 7        42.990
C22        30.000                                                                                                                                    26352055.744 3                     -4019.367 3        20.500                                                                    26352062.578 4                     -3267.722 4        26.048
E07        31.000    28047589.191 6 147391023.37106      2360.083 6        37.206                                                                    28047596.782 6 110064727.83306      1762.277 6        39.784    28047595.991 6 112935979.02106      1808.347 6        41.049
E03        32.000    23740521.337 8 124757224.60708     -1753.292 8        48.401                                                                    23740526.478 8  93162859.94008     -1309.226 8        50.744    23740525.417 8  95593191.79908     -1343.410 8        50.917
G05        33.000    23397097.474 7 122952466.61007     -3843.958 7        43.323                                    23397102.001 6  95807081.05506     -2995.285 6        38.625    23397102.185 6  95807084.04106     -2995.323 6        39.772
E26        34.000    28541714.429 6 149987664.20206     -1774.187 6        36.915                                                                    28541717.476 6 112003761.80406     -1324.899 6        38.712    28541716.502 6 114925594.53406     -1359.467 6        39.508
C36        35.000                                                                                                                                    25843647.425 6 134574442.56606     -3423.757 6        39.084                                                                    25843663.686 7 109352734.13707     -2781.995 7        42.163
G23        36.000    23631582.389 6 124184728.63206      1488.344 6        40.949                                    23631585.088 4  96767286.42804      1159.745 4        27.102    23631584.908 6  96767287.43206      1159.813 6        41.025
I09        38.000    40374843.021 6 158439231.97506      -992.659 6        38.895
E25        40.000    23741166.897 7 124760666.97707     -1198.075 7        47.672                                                                    23741172.056 8  93165433.91908      -894.644 8        50.486    23741171.190 8  95595828.87008      -917.970 8        51.165
S44        42.000    40886778.877 6 214861460.89306      -435.886 6        36.083
C09        43.000                                                                                                                                    41191191.266 5 214493108.95405     -1058.485 5        35.119    41191204.995 6 165859602.26706      -818.504 6        40.255    41191199.017 6 174293148.36306      -860.025 6        36.367
C05        44.000                                                                                                                                    39381969.089 6 205072110.69006      -498.118 6        38.583    39381974.220 7 158574743.90507      -385.048 7        42.169    39381973.728 6 166637955.62706      -404.767 6        39.159
C40        45.000                                                                                                                                    38815207.392 7 202120949.02707      -345.694 7        43.498                                                                    38815212.382 7 164239837.88107      -280.763 7        43.325
C21        46.000                                                                                                                                    22990562.095 8 119717808.02708     -2750.378 8        50.259                                                                    22990560.771 8  97280480.69608     -2234.808 8        49.053
C10        49.000                                                                                                                                    38670543.937 6 201367675.02706        80.402 6        41.700    38670548.122 7 155710275.69407        62.228 7        44.596    38670544.435 6 163627734.03206        65.482 6        41.218
C42        50.000                                                                                                                                    22693014.925 8 118168422.63808       319.548 8        49.297                                                                    22693026.131 8  96021546.73308       259.782 8        49.648
S48        51.000    77152429.049 6 405437590.24906      -435.471 6        37.875
E02        53.000    24251193.605 7 127440964.26607      1620.989 7        47.566                                                                    24251198.694 8  95167030.06408      1210.500 8        49.518    24251197.480 8  97649629.84708      1242.071 8        49.615
C60        54.000                                                                                                                                    40886784.415 6 212908192.29506      -432.182 6        40.036                                                                    40886779.078 6 173005268.68606      -351.095 6        38.042
C45        55.000                                                                                                                                    22195856.248 8 115579599.05108     -1969.814 8        49.556                                                                    22195852.125 8  93917854.40308     -1600.546 8        50.029
R12        56.000    19842904.123 8 105997330.30208      1412.718 8        52.143                                                                    19842908.444 7  82442407.65307      1098.719 7        47.821
C02        57.000                                                                                                                                    40952918.094 5 213252379.69405      -481.590 5        31.826    40952927.532 6 164900194.46906      -372.105 6        36.779    40952926.691 5 173284976.40105      -390.747 5        30.845
I03        58.000   123915884.959 6 410486963.52106       911.359 6        38.859
C14        59.000                                                                                                                                    24157917.643 7 125796551.72307      1773.186 7        43.507    24157919.249 8  97273846.13008      1371.019 8        48.678    24157916.276 7 102219974.26507      1440.610 7        45.684
R13        60.000    23367946.288 6 124783537.70806      3328.364 6        38.856
> 2025 01 01 09 15  5.0000000  0 53
G19         1.000    24775420.059 6 130195721.59406      2955.556 6        37.138                                    24775428.809 3 101451263.69903      2302.996 3        19.463
R01         2.000    19778917.570 8 105729568.74308     -2870.346 8        49.687                                                                    19778921.959 6  82234159.05406     -2232.434 6        41.771
G24         3.000    23227518.233 6 122061420.95106      2793.148 6        41.175                                    23227523.713 6  95112821.26006      2176.478 6        36.813    23227524.175 6  95112818.26706      2176.571 6        38.556
R02         4.000    19822331.396 8 105775705.94108      1432.137 8        52.199                                                                    19822334.787 7  82269995.25407      1113.880 7        46.637
S21         5.000    38439236.371 7 201999311.44307      -445.430 7        42.271
E05         6.000    26003987.658 6 136651687.57206     -3268.790 6        39.138                                                                    26004004.702 7 102045052.14107     -2441.116 7        42.157    26004002.559 7 104707097.07507     -2504.794 7        42.718
G17         7.000    23086186.332 7 121318848.38207      1955.164 7        43.772                                    23086191.213 6  94534246.07006      1523.496 6        38.808    23086191.659 6  94534242.09606      1523.422 6        39.559
R10         8.000    24318559.692 6 129631395.36206     -4429.785 6        37.369
R19         9.000    24133422.759 5 129097495.26705     -2241.253 5        33.030                                                                    24133430.340 6 100409224.74606     -1743.055 6        38.964
E30        10.000    28816587.558 6 151432207.55806      2668.601 6        37.233                                                                    28816603.670 6 113082564.12806      1992.764 6        38.571    28816601.649 6 116032537.10906      2044.774 6        39.123
C26        11.000                                                                                                                                    22332725.050 8 116292380.22108      1115.005 8        49.715                                                                    22332727.252 8  94497103.51708       905.891 8        48.820
S27        12.000    39149098.632 6 205729714.83506      -478.381 6        36.605
G15        13.000    20434317.363 8 107383005.81208       902.568 8        48.564                                    20434317.486 8  83675038.84808       703.299 8        48.998    20434318.015 7  83675030.84007       703.441 7        45.100
S36        14.000    38209330.129 7 200791818.98807      -445.969 7        44.000
R11        16.000    20029525.390 8 107031677.33508     -2823.049 8        50.477                                                                    20029528.515 8  83246849.47808     -2195.690 8        48.142
S45        17.000    63391660.468 6 333125477.60916      -495.229 6        36.004
R03        18.000    23742835.611 7 127097221.71607      3816.323 7        43.953                                                                    23742839.407 6  98853399.55906      2968.308 6        41.066
E24        19.000    27576300.120 6 144914266.21206     -3208.597 6        39.084                                                                    27576311.198 6 108215163.61306     -2396.123 6        41.147    27576309.618 7 111038169.86407     -2458.647 7        42.049
E33        20.000    28691733.492 5 150776061.92805       255.052 5        35.414                                                                    28691738.501 6 112592529.87206       190.327 6        40.129    28691737.143 6 115529722.35706       195.332 6        39.904
G30        21.000    22824088.126 7 119941283.57607     -3089.938 7        43.598                                    22824095.109 6  93460714.79506     -2407.737 6        41.275    22824095.189 6  93460718.78406     -2407.840 6        41.321
I06        22.000    38112384.984 7 149561267.30407      -420.486 7        43.338
S28        23.000    40883807.479 5 214845631.09805      -455.260 5        34.976
G14        24.000    20778643.606 7 109192494.85607     -1719.597 7        46.862                                    20778644.698 6  85085058.72106     -1339.944 6        38.727    20778644.879 7  85085060.71607     -1339.985 7        47.710
S23        25.000    38141859.864 7 200436734.24107      -446.481 7        44.141
E08        26.000    24040184.919 7 126331967.06307       941.199 7        47.549                                                                    24040188.194 8  94338787.99108       702.841 8        50.299    24040187.218 8  96799799.46808       721.188 8        50.797
C07        27.000                                                                                                                                    38815042.250 6 202120080.42006      -301.093 6        40.906    38815044.590 7 156292071.68107      -232.764 7        44.360    38815041.501 6 164239114.11806      -244.777 6        41.180
G13        28.000    19901203.397 8 104581480.50908     -1083.794 8        48.521                                    19901202.181 6  81492029.61706      -844.516 6        40.717
I02        29.000    37291688.846 7 146340601.56307        59.993 7        43.130
C22        30.000                                                                                                                                    26355914.870 3                     -4017.878 3        21.119                                                                    26355924.665 4                     -3267.535 4        25.805
E07        31.000    28045343.905 6 147379222.81806      2360.075 6        37.546                                                                    28045351.241 6 110055915.68006      1762.537 6        39.643    28045350.246 6 112926936.98106      1808.363 6        40.977
E03        32.000    23742190.107 8 124765994.10208     -1754.718 8        48.412                                                                    23742195.269 8  93169408.58108     -1310.355 8        50.708    23742194.154 8  95599911.27108     -1344.519 8        50.971
G05        33.000    23400755.529 7 122971688.41407     -3844.937 7        43.490                                    23400759.784 6  95822059.05206     -2996.052 6        38.520    23400760.252 6  95822062.04606     -2996.072 6        39.778
E26        34.000    28543403.500 6 149996539.14306     -1776.191 6        36.499                                                                    28543406.212 6 112010389.20606     -1326.246 6        38.483    28543405.525 6 114932394.83106     -1360.968 6        39.814
C36        35.000                                                                                                                                    25846934.676 6 134591560.73406     -3423.559 6        39.751                                                                    25846951.078 6 109366644.01706     -2782.086 6        41.998
G23        36.000    23630167.381 6 124177293.08006      1485.651 6        41.390                                    23630169.980 4  96761492.48204      1157.659 4        27.042    23630170.407 6  96761493.47106      1157.740 6        41.454
I09        38.000    40376107.741 6 158444195.05506      -992.616 6        39.186
E25        40.000    23742307.537 7 124766661.36707     -1199.858 7        47.879                                                                    23742312.781 8  93169910.24608      -895.983 8        50.433    23742311.835 8  95600421.97408      -919.393 8        51.203
S44        42.000    40887192.551 6 214863640.21406      -435.849 6        36.284
C09        43.000                                                                                                                                    41192207.593 5 214498400.82905     -1058.446 5        35.229    41192220.714 6 165863694.30406      -818.357 6        40.153    41192214.937 6 174297448.45406      -860.088 6        36.363
C05        44.000                                                                                                                                    39382446.913 6 205074599.56506      -497.874 6        38.532    39382452.321 7 158576668.47207      -384.817 7        42.207    39382451.561 6 166639978.04606      -404.657 6        39.303
C40        45.000                                                                                                                                    38815539.280 7 202122678.63907      -346.306 7        43.530                                                                    38815544.491 7 164241243.33407      -281.540 7        43.344
C21        46.000                                                                                                                                    22993203.901 8 119731564.19908     -2752.287 8        50.282                                                                    22993202.539 8  97291658.70208     -2236.558 8        49.048
C10        49.000                                                                                                                                    38670466.498 6 201367273.52206        79.982 6        41.619    38670470.932 7 155709965.22507        61.873 7        44.612    38670467.275 6 163627407.77406        64.904 6        41.244
C42        50.000                                                                                                                                    22692709.193 8 118166830.42708       317.083 8        49.270                                                                    22692720.338 8  96020252.93208       257.543 8        49.696
S48        51.000    77152844.901 6 405439766.56406      -435.314 6        38.198
E02        53.000    24249651.704 7 127432862.23807      1619.621 7        47.554                                                                    24249656.868 8  95160979.86308      1209.420 8        49.427    24249655.649 8  97643421.81408      1240.965 8        49.677
C60        54.000                                                                                                                                    40887199.091 6 212910351.80106      -431.854 6        40.072                                                                    40887193.722 6 173007023.47006      -351.120 6        38.222
C45        55.000                                                                                                                                    22197748.292 8 115589450.58408     -1971.039 8        49.759                                                                    22197744.016 8  93925859.57608     -1601.728 8        50.108
R12        56.000    19841583.143 8 105990272.98508      1410.025 8        52.141                                                                    19841587.261 7  82436918.61707      1096.745 7        47.613
C02        57.000                                                                                                                                    40953379.718 5 213254785.11605      -480.765 5        32.030    40953389.338 6 164902054.60806      -372.190 6        37.108    40953388.806 5 173286931.09005      -390.759 5        31.441
I03        58.000   123914723.393 6 410482405.64906       911.484 6        38.949
C14        59.000                                                                                                                                    24156216.237 7 125787690.50707      1771.208 7        43.549    24156217.406 8  97266994.06708      1369.654 8        48.705    24156214.475 7 102212773.78107      1439.171 7        45.892
R13        60.000    23364829.890 6 124766898.07306      3327.362 6        39.069
> 2025 01 01 09 15 10.0000000  0 53
G19         1.000    24772607.031 6 130180943.66406      2955.893 6        37.584                                    24772616.365 3 101439748.55803      2303.281 3        19.791
R01         2.000    19781604.206 8 105743930.00208     -2873.782 8        49.282                                                                    19781608.576 6  82245328.92506     -2235.130 6        41.859
G24         3.000    23224860.988 6 122047457.46406      2792.618 6        41.547                                    23224866.554 6  95101940.63506      2176.064 6        36.900    23224866.994 6  95101937.65406      2175.960 6        38.249
R02         4.000    19820991.050 8 105768555.10108      1428.624 8        51.810                                                                    19820994.639 7  82264433.49807      1111.145 7        46.953
S21         5.000    38439659.342 7 202001538.34307      -445.086 7        42.277
E05         6.000    26007098.170 6 136668034.01506     -3269.274 6        38.907                                                                    26007115.378 7 102057258.83907     -2441.266 7        42.055    26007113.246 7 104719622.21407     -2504.914 7        42.681
G17         7.000    23084326.932 7 121309077.35507      1953.557 7        43.490                                    23084331.769 6  94526632.32206      1522.242 6        38.802    23084332.556 6  94526628.34806      1522.335 6        39.279
R10         8.000    24322714.795 6 129653543.58206     -4429.084 6        37.198
R19         9.000    24135519.873 5 129108710.65805     -2244.436 5        33.251                                                                    24135525.239 6 100417947.82906     -1745.854 6        38.102
E30        10.000    28814048.680 6 151418864.80006      2668.723 6        37.191                                                                    28814064.583 6 113072600.40206      1993.068 6        38.841    28814062.450 6 116022313.46306      2045.003 6        39.285
C26        11.000                                                                                                                                    22331655.281 8 116286809.78508      1113.561 8        49.608                                                                    22331657.539 8  94492577.06108       904.821 8        48.675
S27        12.000    39149555.855 6 205732107.02606      -478.003 6        36.881
G15        13.000    20433460.125 8 107378500.84908       899.789 8        48.806                                    20433460.227 8  83671528.48908       701.136 8        49.029    20433460.780 7  83671520.49307       701.093 7        45.193
S36        14.000    38209754.298 7 200794049.90107      -445.856 7        44.069
R11        16.000    20032168.195 8 107045798.59008     -2825.071 8        50.920                                                                    20032171.217 8  83257832.66108     -2197.294 8        48.307
S45        17.000    63392086.949 6 333127953.95606      -494.991 6        36.238
R03        18.000    23739270.665 7 127078141.72307      3816.158 7        44.754                                                                    23739275.943 6  98838559.50606      2968.086 6        40.498
E24        19.000    27579353.373 6 144930311.13006     -3208.961 6        38.934                                                                    27579364.592 6 108227145.14606     -2396.337 6        41.058    27579362.849 7 111050463.96707     -2458.763 7        42.080
E33        20.000    28691492.151 5 150774793.24205       252.999 5        34.200                                                                    28691497.035 6 112591582.46606       188.711 6        39.820    28691495.658 6 115528750.23906       193.757 6        39.709
G30        21.000    22827028.839 7 119956736.20307     -3090.721 7        43.860                                    22827035.746 6  93472755.76406     -2408.346 6        41.406    22827035.518 6  93472759.74006     -2408.200 6        41.235
I06        22.000    38112920.705 7 149563369.63207      -420.225 7        43.261
S28        23.000    40884239.237 5 214847907.95705      -455.465 5        34.829
G14        24.000    20780281.351 7 109201100.03207     -1722.057 7        47.241                                    20780282.197 6  85091764.05406     -1341.864 6        38.814    20780282.252 7  85091766.05507     -1341.896 7        47.897
S23        25.000    38142284.270 7 200438967.38107      -446.216 7        44.173
E08        26.000    24039290.068 7 126327264.66507       940.110 7        47.641                                                                    24039293.381 8  94335276.46508       701.994 8        50.270    24039292.396 8  96796196.33708       720.308 8        50.784
C07        27.000                                                                                                                                    38815331.830 6 202121587.57506      -301.479 6        40.918    38815334.249 7 156293237.10307      -233.225 7        44.358    38815330.882 6 164240338.77206      -244.991 6        41.251
G13        28.000    19902235.721 8 104586906.37708     -1086.238 8        48.527                                    19902234.701 6  81496257.56306      -846.420 6        40.608
I02        29.000    37291612.670 7 146340302.40507        59.930 7        43.179
C22        30.000                                                                                                                                    26359782.565 3                     -4028.773 3        19.343                                                                    26359786.081 4                     -3268.319 4        25.203
E07        31.000    28043098.429 6 147367422.65406      2360.303 6        37.584                                                                    28043105.956 6 110047103.83106      1762.530 6        39.823    28043104.786 6 112917895.26706      1808.630 6        40.880
E03        32.000    23743860.273 8 124774772.08108     -1756.122 8        48.301                                                                    23743865.698 8  93175963.55508     -1311.398 8        50.631    23743864.590 8  95606637.24608     -1345.595 8        50.952
G05        33.000    23404414.368 7 122990916.18307     -3845.832 7        43.050                                    23404418.698 6  95837041.69806     -2996.746 6        38.432    23404419.413 6  95837044.68706     -2996.685 6        40.067
E26        34.000    28545094.053 6 150005424.39306     -1777.862 6        36.726                                                                    28545097.096 6 112017024.28406     -1327.549 6        38.571    28545096.451 6 114939202.99706     -1362.201 6        39.715
C36        35.000                                                                                                                                    25850222.199 6 134608679.50006     -3423.442 6        39.883                                                                    25850238.532 6 109380554.34806     -2781.869 6        41.561
G23        36.000    23628755.092 6 124169871.91906      1483.203 6        40.813                                    23628757.703 4  96755709.74504      1155.741 4        26.910    23628757.765 6  96755710.74206      1155.724 6        40.846
I09        38.000    40377372.597 6 158449158.04206      -992.356 6        38.982
E25        40.000    23743450.149 7 124772666.00107     -1201.632 7        47.686                                                                    23743455.405 8  93174394.22508      -897.288 8        50.426    23743454.542 8  95605022.92708      -920.735 8        51.171
S44        42.000    40887609.342 6 214865819.49506      -435.306 6        36.575
C09        43.000                                                                                                                                    41193223.735 5 214503692.87105     -1058.096 5        35.510    41193236.846 6 165867786.44906      -817.983 6        40.069    41193231.054 5 174301748.67305      -859.949 5        35.919
C05        44.000                                                                                                                                    39382925.332 6 205077088.48306      -497.420 6        38.483    39382930.374 7 158578593.09207      -384.656 7        42.281    39382929.492 6 166642000.47606      -404.123 6        39.111
C40        45.000                                                                                                                                    38815872.665 7 202124413.22607      -347.101 7        43.278                                                                    38815877.631 7 164242652.81507      -282.122 7        43.261
C21        46.000                                                                                                                                    22995847.528 8 119745331.19008     -2754.116 8        50.238                                                                    22995846.318 8  97302845.47508     -2237.957 8        49.021
C10        49.000                                                                                                                                    38670390.375 6 201366875.80206        79.546 6        41.673    38670394.630 7 155709657.68807        61.514 7        44.536    38670390.853 6 163627084.58106        64.622 6        41.247
C42        50.000                                                                                                                                    22692406.245 8 118165252.00008       314.650 8        49.281                                                                    22692417.221 8  96018970.31408       255.575 8        49.587
S48        51.000    77153262.560 6 405441943.21506      -435.255 6        38.282
E02        53.000    24248111.719 7 127424768.68407      1618.209 7        47.609                                                                    24248116.778 8  95154935.98508      1208.408 8        49.460    24248115.466 8  97637220.26808      1239.949 8        49.683
C60        54.000                                                                                                                                    40887613.959 6 212912511.27806      -431.683 6        40.005                                                                    40887608.497 6 173008778.21606      -350.624 6        38.312
C45        55.000                                                                                                                                    22199641.935 8 115599309.71408     -1972.266 8        49.649                                                                    22199637.355 8  93933870.89708     -1602.637 8        49.981
R12        56.000    19840264.981 8 105983230.36308      1407.388 8        52.403                                                                    19840268.866 7  82431441.01907      1094.670 7        47.331
C02        57.000                                                                                                                                    40953841.288 5 213257190.64705      -481.055 5        31.894    40953851.199 6 164903914.72206      -371.851 6        37.021    40953850.353 5 173288885.77405      -390.711 5        31.645
I03        58.000   123913562.241 6 410477847.68706       911.937 6        38.967
C14        59.000                                                                                                                                    24154516.442 7 125778839.40607      1769.477 7        43.507    24154517.902 8  97260149.82208      1368.301 8        48.553    24154514.762 7 102205581.50707      1437.836 7        45.774
R13        60.000    23361714.269 6 124750263.63606      3326.620 6        37.728
> 2025 01 01 09 15 15.0000000  0 53
G19         1.000    24769795.089 6 130166165.38706      2955.882 6        37.932                                    24769803.839 3 101428233.12103      2303.257 3        19.493
R01         2.000    19784293.996 8 105758309.66508     -2877.745 8        49.384                                                                    19784298.104 6  82256513.08606     -2238.273 6        41.833
G24         3.000    23222205.096 6 122033498.16406      2791.498 6        41.354                                    23222210.168 6  95091063.26706      2175.191 6        36.711    23222210.880 6  95091060.28406      2175.135 6        38.510
R02         4.000    19819654.503 8 105761422.60608      1424.760 8        51.640                                                                    19819658.158 7  82258886.00507      1108.154 7        46.741
S21         5.000    38440083.797 7 202003765.11207      -445.281 7        42.296
E05         6.000    26010209.411 6 136684383.29106     -3270.163 6        38.931                                                                    26010226.528 7 102069467.66107     -2441.900 7        42.021    26010224.484 7 104732149.53207     -2505.725 7        42.705
G17         7.000    23082469.125 7 121299315.62307      1951.418 7        43.566                                    23082474.186 6  94519025.81906      1520.578 6        38.607    23082474.930 6  94519021.83206      1520.744 6        39.961
R10         8.000    24326869.465 6 129675690.14806     -4429.090 6        37.104
R19         9.000    24137619.892 5 129119944.68405     -2248.535 5        31.781                                                                    24137626.280 6 100426685.36306     -1748.835 6        38.589
E30        10.000    28811509.684 6 151405522.80006      2668.355 6        36.919                                                                    28811525.679 6 113062637.25406      1992.532 6        38.748    28811523.624 6 116012090.40806      2044.476 6        39.249
C26        11.000                                                                                                                                    22330587.207 8 116281247.75508      1111.637 8        49.669                                                                    22330589.395 8  94488057.46308       903.248 8        48.571
S27        12.000    39150010.749 6 205734499.31406      -478.375 6        36.616
G15        13.000    20432605.925 8 107374011.48608       896.337 8        48.687                                    20432605.941 8  83668030.28608       698.443 8        48.842    20432606.389 7  83668022.28407       698.484 7        45.183
S36        14.000    38210178.203 7 200796280.78607      -446.389 7        44.102
R11        16.000    20034812.602 8 107059930.80608     -2827.514 8        50.906                                                                    20034815.635 8  83268824.37808     -2199.164 8        48.180
S45        17.000    63392516.260 6 333130430.24306      -495.214 6        36.284
R03        18.000    23735707.942 7 127059064.75507      3815.118 7        43.837                                                                    23735711.779 6  98823721.82306      2967.458 6        40.076
E24        19.000    27582407.348 6 144946359.21806     -3209.821 6        39.021                                                                    27582418.517 6 108239129.06506     -2396.975 6        41.113    27582416.776 7 111062760.51107     -2459.455 7        42.129
E33        20.000    28691252.371 5 150773536.42905       250.183 5        34.538                                                                    28691257.861 6 112590643.89406       186.904 6        39.508    28691256.625 6 115527787.19606       191.633 6        39.913
G30        21.000    22829970.535 7 119972193.18607     -3091.756 7        43.735                                    22829977.188 6  93484800.12506     -2409.155 6        41.192    22829976.998 6  93484804.10806     -2409.161 6        40.892
I06        22.000    38113456.573 7 149565472.09807      -420.557 7        43.118
S28        23.000    40884675.425 5 214850184.40005      -455.189 5        35.162
G14        24.000    20781921.379 7 109209718.61107     -1725.014 7        46.907                                    20781922.263 6  85098479.82406     -1344.166 6        38.604    20781922.384 7  85098481.81807     -1344.085 7        47.999
S23        25.000    38142708.439 7 200441200.56607      -446.515 7        44.150
E08        26.000    24038396.501 7 126322569.35307       938.440 7        47.744                                                                    24038399.903 8  94331770.23108       700.755 8        50.251    24038398.871 8  96792598.63308       719.008 8        50.776
C07        27.000                                                                                                                                    38815622.363 6 202123098.58906      -302.572 6        41.032    38815624.323 7 156294405.50307      -233.919 7        44.217    38815621.096 6 164241566.59006      -245.878 6        41.082
G13        28.000    19903270.847 8 104592346.22108     -1089.310 8        48.370                                    19903269.882 6  81500496.39906      -848.813 6        40.522
I02        29.000    37291536.605 7 146340004.55407        59.639 7        43.033
C22        30.000                                                                                                                                    26363635.453 3                     -4029.105 3        20.310                                                                    26363647.103 4                     -3267.446 4        24.962
E07        31.000    28040853.067 6 147355622.80806      2360.064 6        37.546                                                                    28040860.812 6 110038292.20406      1762.358 6        39.859    28040859.561 6 112908853.78506      1808.157 6        40.903
E03        32.000    23745532.301 8 124783558.43108     -1758.016 8        48.343                                                                    23745537.673 8  93182524.77708     -1312.829 8        50.650    23745536.589 8  95613369.63308     -1347.036 8        50.989
G05        33.000    23408074.268 7 123010149.73007     -3847.217 7        42.307                                    23408078.788 6  95852028.84906     -2997.821 6        38.303    23408079.324 6  95852031.82906     -2997.859 6        40.172
E26        34.000    28546786.539 6 150014319.87906     -1780.191 6        36.873                                                                    28546789.830 6 112023667.00306     -1329.290 6        38.760    28546789.333 6 114946019.01206     -1364.040 6        39.865
C36        35.000                                                                                                                                    25853510.268 6 134625798.73406     -3423.835 6        40.184                                                                    25853526.226 6 109394465.10406     -2782.150 6        41.302
G23        36.000    23627345.683 6 124162465.12206      1480.038 6        41.924                                    23627348.198 4  96749938.20504      1153.282 4        26.982    23627348.251 6  96749939.20006      1153.089 6        40.210
I09        38.000    40378637.247 6 158454120.85806      -992.411 6        38.988
E25        40.000    23744594.657 7 124778680.78907     -1203.873 7        47.891                                                                    23744599.962 8  93178885.78908      -899.085 8        50.383    23744599.079 8  95609631.65908      -922.476 8        51.199
S44        42.000    40888024.756 6 214867998.64006      -435.765 6        36.348
C09        43.000                                                                                                                                    41194240.809 5 214508984.96105     -1058.461 5        35.619    41194253.113 6 165871878.66506      -818.107 6        39.697    41194247.483 5 174306048.97505      -860.126 5        35.910
C05        44.000                                                                                                                                    39383403.317 6 205079577.36606      -497.588 6        38.390    39383408.184 7 158580517.65707      -384.872 7        42.112    39383407.495 6 166644022.93406      -404.516 6        39.015
C40        45.000                                                                                                                                    38816206.627 7 202126152.67607      -348.309 7        43.217                                                                    38816211.698 7 164244066.26807      -283.067 7        42.948
C21        46.000                                                                                                                                    22998493.501 8 119759108.87708     -2756.541 8        50.404                                                                    22998492.127 8  97314040.98108     -2239.964 8        48.823
C10        49.000                                                                                                                                    38670314.483 6 201366481.74806        78.473 6        41.614    38670318.785 7 155709352.98707        60.676 7        44.298    38670315.080 6 163626764.39906        63.714 6        41.070
C42        50.000                                                                                                                                    22692105.667 8 118163687.23808       311.632 8        49.467                                                                    22692116.761 8  96017698.83008       253.207 8        49.456
S48        51.000    77153679.199 6 405444119.80006      -435.462 6        38.129
E02        53.000    24246573.464 7 127416683.47207      1616.325 7        47.799                                                                    24246578.189 8  95148898.33908      1206.978 8        49.539    24246576.917 8  97631025.12108      1238.442 8        49.722
C60        54.000                                                                                                                                    40888028.501 6 212914670.59406      -431.818 6        39.928                                                                    40888023.101 6 173010532.87906      -350.992 6        37.868
C45        55.000                                                                                                                                    22201536.515 8 115609176.33308     -1974.021 8        49.427                                                                    22201532.137 8  93941888.33408     -1604.073 8        49.770
R12        56.000    19838949.476 8 105976202.35408      1404.237 8        52.323                                                                    19838952.963 7  82425974.79207      1092.172 7        47.582
C02        57.000                                                                                                                                    40954303.112 5 213259596.00905      -480.883 5        32.090    40954313.261 6 164905774.75006      -371.990 6        37.040    40954312.674 5 173290840.37505      -390.928 5        31.238
I03        58.000   123912400.514 6 410473289.58606       911.749 6        39.018
C14        59.000                                                                                                                                    24152818.736 7 125769998.34607      1767.235 7        43.591    24152819.658 8  97253313.35108      1366.528 8        48.374    24152816.950 7 102198397.43007      1436.025 7        45.523
R13        60.000    23358600.029 6 124733634.66406      3325.201 6        38.799
> 2025 01 01 09 15 20.0000000  0 54
G19         1.000    24766982.621 6 130151387.08206      2955.661 6        38.348                                    24766991.622 3 101416717.67403      2303.078 3        20.000
R01         2.000    19786987.421 8 105772708.06008     -2881.643 8        49.240                                                                    19786992.210 7  82267711.83007     -2241.326 7        42.119
G24         3.000    23219549.658 6 122019543.37006      2790.366 6        41.116                                    23219554.660 6  95080189.41306      2174.305 6        36.578    23219555.228 6  95080186.41306      2174.421 6        38.688
R02         4.000    19818321.151 8 105754308.81808      1420.772 8        51.775                                                                    19818325.143 7  82253353.06407      1105.065 7        47.071
S21         5.000    38440508.950 7 202005991.98907      -445.544 7        42.430
E05         6.000    26013321.309 6 136700735.71506     -3270.886 6        39.057                                                                    26013338.490 6 102081678.85906     -2442.557 6        41.890    26013336.415 7 104744679.28207     -2506.371 7        42.787
G17         7.000    23080613.376 7 121289563.57707      1949.301 7        42.938                                    23080618.449 6  94511426.85806      1518.929 6        38.526    23080619.014 6  94511422.88406      1518.964 6        40.167
R10         8.000    24331025.404 6 129697835.62406     -4428.951 6        36.915
R19         9.000    24139724.895 5 129131197.63305     -2252.287 5        32.293                                                                    24139729.425 6 100435437.67806     -1752.059 6        38.559
E30        10.000    28808970.863 6 151392181.91906      2667.841 6        36.828                                                                    28808986.985 6 113052674.92806      1992.282 6        38.799    28808984.886 6 116001868.16906      2044.218 6        39.574
C26        11.000                                                                                                                                    22329520.796 8 116275694.43808      1109.639 8        49.556                                                                    22329522.925 8  94483544.93808       901.665 8        48.554
S27        12.000    39150465.911 6 205736891.99606      -478.763 6        36.681
G15        13.000    20431754.444 8 107369538.04108       892.940 8        48.468                                    20431754.683 8  83664544.48608       695.794 8        48.837    20431755.117 7  83664536.49307       695.758 7        45.312
S36        14.000    38210603.137 7 200798511.93707      -446.481 7        44.253
R11        16.000    20037459.281 8 107074074.34108     -2829.984 8        50.635                                                                    20037462.627 8  83279824.88608     -2201.097 8        48.719
S45        17.000    63392939.763 6 333132907.01106      -495.709 6        36.197
R03        18.000    23732144.334 7 127039991.09807      3814.203 7        44.214                                                                    23732148.463 6  98808886.69506      2966.633 6        39.517
E24        19.000    27585461.667 6 144962410.91406     -3210.874 6        38.790                                                                    27585473.183 6 108251115.65306     -2397.657 6        41.490    27585471.300 7 111075059.79707     -2460.183 7        42.074
E33        20.000    28691015.962 5 150772291.78005       247.361 5        33.898                                                                    28691021.065 6 112589714.44206       185.004 6        39.261    28691019.835 6 115526833.48306       189.765 6        39.820
G30        21.000    22832912.608 7 119987654.89107     -3092.965 7        43.323                                    22832919.494 6  93496848.16906     -2410.097 6        41.051    22832919.245 6  93496852.15506     -2410.096 6        40.565
I06        22.000    38113992.233 7 149567574.92907      -420.735 7        43.164
S28        23.000    40885104.683 5 214852461.14805      -455.208 5        35.157
G14        24.000    20783563.944 7 109218350.91807     -1727.987 7        46.777                                    20783564.936 6  85105206.29506     -1346.481 6        38.601    20783564.775 7  85105208.29407     -1346.470 7        47.759
S23        25.000    38143133.860 7 200443434.10607      -446.870 7        44.381
E08        26.000    24037504.359 7 126317881.47907       936.725 7        47.629                                                                    24037507.821 8  94328269.54508       699.488 8        50.309    24037506.810 8  96789006.62608       717.718 8        50.819
C07        27.000                                                                                                                                    38815913.472 6 202124613.80206      -303.616 6        40.870    38815915.432 7 156295577.14107      -234.732 7        44.244    38815912.143 6 164242797.80206      -246.683 6        40.944
G13        28.000    19904308.775 8 104597800.34408     -1092.398 8        48.280                                    19904307.772 6  81504746.36206      -851.219 6        40.515
I02        29.000    37291461.081 7 146339708.30407        59.022 7        43.071
C22        30.000                                                                                                                                                                                                                                                                    26367509.248 4                     -3268.072 4        25.278
E07        31.000    28038607.870 6 147343823.59906      2359.801 6        37.565                                                                    28038615.530 6 110029481.06506      1762.124 6        40.021    28038614.397 6 112899812.80206      1808.052 6        40.994
E03        32.000    23747205.884 8 124792353.48308     -1760.072 8        48.145                                                                    23747211.313 8  93189092.50408     -1314.336 8        50.627    23747210.241 8  95620108.69308     -1348.590 8        51.004
G05        33.000    23411735.808 7 123029389.33107     -3848.518 7        42.605                                    23411740.045 6  95867020.70706     -2998.840 6        38.333    23411740.125 6  95867023.70406     -2998.865 6        39.640
E26        34.000    28548481.368 6 150023225.91806     -1782.419 6        36.643                                                                    28548484.624 6 112030317.60906     -1330.919 6        38.634    28548484.077 6 114952843.10406     -1365.696 6        40.100
C36        35.000                                                                                                                                    25856797.985 6 134642918.77406     -3424.116 6        40.048                                                                    25856813.898 6 109408376.50306     -2782.465 6        41.108
