     3.04           OBSERVATION DATA    M                   RINEX VERSION / TYPE
ssrcrin-15.6.1x                         20250101 044500 UTC PGM / RUN BY / DATE 
(00000000023479385599111004) Septentrio proprietary         COMMENT             
rref                                                        MARKER NAME         
01                                                          MARKER NUMBER       
geodetic                                                    MARKER TYPE         
NFB                 CLIMERS@TUW                             OBSERVER / AGENCY   
3297213             SEPT ASTERX SB3 PROB4.14.4              REC # / TYPE / VERS 
Unknown             Unknown                                 ANT # / TYPE        
  4127831.4885  1207193.1595  4695247.3300                  APPROX POSITION XYZ 
        0.0000        0.0000        0.0000                  ANTENNA: DELTA H/E/N
G   23 X1  C1C L1C D1C S1C C1W S1W C2W L2W D2W S2W C2L L2L  SYS / # / OBS TYPES 
       D2L S2L C5Q L5Q D5Q S5Q C1L L1L D1L S1L              SYS / # / OBS TYPES 
E   21 X1  C1C L1C D1C S1C C6C L6C D6C S6C C5Q L5Q D5Q S5Q  SYS / # / OBS TYPES 
       C7Q L7Q D7Q S7Q C8Q L8Q D8Q S8Q                      SYS / # / OBS TYPES 
S    9 X1  C1C L1C D1C S1C C5I L5I D5I S5I                  SYS / # / OBS TYPES 
R   17 X1  C1C L1C D1C S1C C2P L2P D2P S2P C2C L2C D2C S2C  SYS / # / OBS TYPES 
       C3Q L3Q D3Q S3Q                                      SYS / # / OBS TYPES 
C   25 X1  C1P L1P D1P S1P C5P L5P D5P S5P C2I L2I D2I S2I  SYS / # / OBS TYPES 
       C7I L7I D7I S7I C6I L6I D6I S6I C7D L7D D7D S7D      SYS / # / OBS TYPES 
J   17 X1  C1C L1C D1C S1C C2L L2L D2L S2L C5Q L5Q D5Q S5Q  SYS / # / OBS TYPES 
       C1L L1L D1L S1L                                      SYS / # / OBS TYPES 
I    5 X1  C5A L5A D5A S5A                                  SYS / # / OBS TYPES 
SEPTENTRIO RECEIVERS OUTPUT ALIGNED CARRIER PHASES.         COMMENT             
NO FURTHER PHASE SHIFT APPLIED IN THE RINEX ENCODER.        COMMENT             
G L1C                                                       SYS / PHASE SHIFT   
G L2W                                                       SYS / PHASE SHIFT   
G L2L  0.00000                                              SYS / PHASE SHIFT   
G L5Q  0.00000                                              SYS / PHASE SHIFT   
G L1L  0.00000                                              SYS / PHASE SHIFT   
E L1C  0.00000                                              SYS / PHASE SHIFT   
E L6C  0.00000                                              SYS / PHASE SHIFT   
E L5Q  0.00000                                              SYS / PHASE SHIFT   
E L7Q  0.00000                                              SYS / PHASE SHIFT   
E L8Q  0.00000                                              SYS / PHASE SHIFT   
S L1C                                                       SYS / PHASE SHIFT   
S L5I                                                       SYS / PHASE SHIFT   
R L1C                                                       SYS / PHASE SHIFT   
R L2P  0.00000                                              SYS / PHASE SHIFT   
R L2C                                                       SYS / PHASE SHIFT   
R L3Q  0.00000                                              SYS / PHASE SHIFT   
C L1P  0.00000                                              SYS / PHASE SHIFT   
C L5P  0.00000                                              SYS / PHASE SHIFT   
C L2I                                                       SYS / PHASE SHIFT   
C L7I                                                       SYS / PHASE SHIFT   
C L6I                                                       SYS / PHASE SHIFT   
C L7D                                                       SYS / PHASE SHIFT   
J L1C                                                       SYS / PHASE SHIFT   
J L2L  0.00000                                              SYS / PHASE SHIFT   
J L5Q  0.00000                                              SYS / PHASE SHIFT   
J L1L  0.00000                                              SYS / PHASE SHIFT   
I L5A                                                       SYS / PHASE SHIFT   
  2025     1     1     4    45    0.0000000     GPS         TIME OF FIRST OBS   
 C1C    0.000 C2C    0.000 C2P    0.000                     GLONASS COD/PHS/BIS 
DBHZ                                                        SIGNAL STRENGTH UNIT
    18                                                      LEAP SECONDS        
 24 R01  1 R02 -4 R03  5 R04  6 R05  1 R06 -4 R07  5 R08  6 GLONASS SLOT / FRQ #
    R09 -2 R10 -7 R11  0 R12 -1 R13 -2 R14 -7 R15  0 R16 -1 GLONASS SLOT / FRQ #
    R17  4 R18 -3 R19  3 R20  2 R21  4 R22 -3 R23  3 R24  2 GLONASS SLOT / FRQ #
                                                            END OF HEADER       
> 2025 01 01 04 45  0.0000000  0 57
G16         1.000    23462399.526 6 123295762.52806      -223.739 6        40.098                                    23462394.826 3  96074605.00003      -174.350 3        22.838
G29         2.000    25668554.546 6 134889149.01806        47.533 6        37.172                                    25668551.887 4 105108411.43204        37.011 4        28.104    25668552.470 5 105108413.47305        36.967 5        34.548
G09         3.000    20229024.833 8 106304289.67508     -1523.649 8        49.921                                    20229022.181 8  82834523.02408     -1187.259 8        52.429    20229022.695 7  82834524.02607     -1187.224 7        46.184
E34         4.000    24385065.204 7 128144392.39007     -1750.970 7        47.608                                                                    24385064.995 8  95692249.24508     -1307.513 8        49.309    24385064.736 8  98188568.06908     -1341.608 8        50.689
S21         5.000    38392417.087 7 201753348.05707      -383.382 7        43.594
E05         6.000    21813416.082 8 114630322.20808       -26.575 8        48.872                                                                    21813415.424 8  85600595.98708       -19.879 8        50.614    21813415.391 8  87833646.95608       -20.411 8        52.149
E15         7.000    25789522.585 7 135524877.60307      1110.728 7        43.162                                                                    25789523.011 7 101203666.47107       829.484 7        45.971    25789522.675 7 103843759.82507       851.040 7        47.357
R10         8.000    22848270.952 6 121794144.61006      4067.222 6        38.246
E31         9.000    26518292.160 6 139354576.55106       848.560 6        41.959                                                                    26518292.747 7 104063506.97907       633.744 7        43.958    26518292.229 7 106778205.09407       650.272 7        45.068
G04        10.000    21846594.931 7 114804673.45607     -2872.930 7        45.436                                    21846591.726 5  89458195.70905     -2238.643 5        33.162    21846592.343 7  89458190.71007     -2238.674 7        44.277
E09        11.000    25099599.872 7 131899335.32107     -2293.050 7        46.024                                                                    25099599.432 7  98496273.47907     -1712.344 7        47.843    25099599.011 8 101065740.78608     -1757.018 8        49.123
S27        12.000    39025848.989 5 205082215.78005      -394.336 5        35.195
G06        13.000    21818788.309 7 114658532.69807     -2497.990 7        46.646                                    21818786.983 7  89344315.21907     -1946.485 7        46.742    21818787.737 7  89344326.21107     -1946.567 7        44.406
S36        14.000    38160234.704 7 200533889.22007      -383.917 7        45.077
G20        15.000    22644988.134 7 119000226.40707      2644.904 7        43.556                                    22644983.523 4  92727431.09204      2060.963 4        29.081
E36        16.000    26707405.537 6 140348377.37806     -3609.589 6        41.049                                                                    26707406.733 7 104805619.52807     -2695.476 7        44.011    26707406.718 7 107539674.38207     -2765.814 7        45.633
S45        17.000    63346795.927 6 332890563.17406      -423.500 6        37.248
G03        18.000    24472471.940 6 128603738.92706     -3980.342 6        39.739                                    24472471.386 5 100210718.65705     -3101.558 5        32.503    24472471.776 6 100210727.66206     -3101.571 6        36.801
E24        19.000    27724408.465 6 145692739.18606      2461.412 6        40.074                                                                    27724407.832 7 108796538.05307      1838.000 7        42.455    27724406.772 7 111634705.13007      1885.966 7        43.336
R23        20.000    21145549.651 7 113114433.88407     -1675.325 7        47.405
G30        21.000    23063082.128 7 121197335.06207      2916.307 7        44.462                                    23063080.883 6  94439488.55406      2272.446 6        40.839    23063081.758 6  94439492.54706      2272.577 6        39.934
I06        22.000    37920793.984 7 148809569.22007      -262.182 7        43.431
S28        23.000    40821188.620 5 214516791.53005      -382.508 5        34.938
S23        25.000    38099913.459 7 200216390.81507      -379.483 7        45.168
E06        26.000    26854178.125 6 141119708.47706     -2804.588 6        40.586                                                                    26854178.570 7 105381596.68507     -2094.364 7        42.724    26854178.212 7 108130680.70807     -2149.002 7        44.299
C34        27.000                                                                                                                                    25514432.528 6 132860342.41906       -20.326 6        40.675                                                                    25514432.330 6 107959915.56006       -16.572 6        41.745
G26        28.000    24791055.851 6 130277873.53206     -2459.834 6        36.491                                    24791055.678 4 101515225.63704     -1916.744 4        27.593    24791055.896 5 101515226.63105     -1916.690 5        35.400
R09        29.000    20481395.998 8 109369518.00608      1892.548 8        50.372                                                                    20481394.876 7  85065184.05807      1471.974 7        47.629
C22        30.000                                                                                                                                    22056156.146 8 114852222.33808      1061.625 8        51.597                                                                    22056149.339 8  93326826.26308       862.801 8        49.909
I01        31.000   339616464.601 7  29587137.52607     -2814.988 7        42.171
E03        32.000    26155097.144 7 137445976.09307      1841.476 7        42.808                                                                    26155096.999 7 102638246.79007      1375.213 7        44.355    26155096.767 7 105315760.26307      1411.034 7        45.953
R24        34.000    23200757.860 7 124064888.23807      2271.278 7        44.184                                                                    23200757.739 6  96494913.31006      1766.468 6        41.328
C36        35.000                                                                                                                                    23526445.463 7 122508384.45207      2388.673 7        47.529                                                                    23526450.221 7  99548120.13007      1941.112 7        47.341
G11        36.000    22089337.325 7 116080280.99307        61.878 7        46.317                                    22089332.857 5  90452167.63205        48.214 5        35.157    22089333.089 7  90452167.63007        48.258 7        44.873
C35        37.000                                                                                                                                    26402901.149 6 137486828.26306     -3411.507 6        40.827                                                                    26402900.289 6 111719304.86506     -2772.146 6        39.580
I09        38.000    37952150.477 7 148932378.66407      -699.927 7        43.314
R08        39.000    21090017.824 8 112936102.17308      2146.710 8        49.594                                                                    21090015.992 7  87839192.21807      1669.609 7        45.397
R22        40.000    22367037.972 7 119396790.84207     -4291.833 7        45.533                                                                    22367036.234 7  92864182.67807     -3338.194 7        42.590
S44        42.000    40736741.689 6 214073216.97406      -451.039 6        37.936
C09        43.000                                                                                                                                    38907318.700 7 202600640.45207     -1061.062 7        42.006    38907314.307 7 156663658.64007      -820.494 7        44.921    38907312.604 6 164629597.72406      -862.036 6        41.833
C05        44.000                                                                                                                                    39145986.148 6 203843454.79706      -431.096 6        38.504    39145981.987 7 157624713.08007      -333.407 7        43.882    39145983.427 6 165639607.21606      -350.183 6        40.257
R06        45.000    21679401.546 6 115685484.40306     -3157.848 6        38.916
C44        46.000                                                                                                                                    24931255.108 7 129823617.10507     -2445.239 7        43.845                                                                    24931253.753 7 105492326.04407     -1986.865 7        42.250
C39        47.000                                                                                                                                    40878675.893 6 212866000.65006     -1573.050 6        39.207                                                                    40878672.668 6 172971050.26106     -1278.136 6        38.039
C20        48.000                                                                                                                                    26052998.045 7 135664814.61707     -3156.588 7        42.555                                                                    26052993.923 6 110238760.32406     -2564.806 6        41.979
C06        49.000                                                                                                                                    39413081.221 6 205234281.25506     -1409.591 6        38.396    39413075.537 6 158700148.72806     -1090.112 6        41.690    39413075.206 6 166769644.51106     -1145.304 6        38.889
C16        50.000                                                                                                                                    39994552.967 6 208262150.56206     -1409.321 6        40.586    39994552.586 6 161041514.75906     -1089.788 6        40.603    39994550.574 6 169230055.58506     -1145.075 6        37.062
S48        51.000    77128776.880 6 405314224.16206      -369.805 6        38.330
C19        52.000                                                                                                                                    22456923.530 8 116939152.50808     -1720.474 8        51.054                                                                    22456918.669 8  95022643.42508     -1397.896 8        50.372
C12        53.000                                                                                                                                    24878084.521 6 129546716.91206     -1254.353 6        40.446    24878079.790 7 100173721.64007      -970.068 7        45.840    24878079.614 7 105267296.96207     -1019.209 7        43.600
C60        54.000                                                                                                                                    40736745.568 6 212127116.14606      -447.071 6        40.143                                                                    40736730.921 6 172370624.68806      -363.068 6        39.724
R16        55.000    21383785.227 8 114228363.36008     -2253.329 8        48.807                                                                    21383784.424 7  88844304.66707     -1752.603 7        46.141
C37        56.000                                                                                                                                    26169804.454 6 136273049.17506     -3002.686 6        40.253                                                                    26169807.031 6 110733033.15406     -2439.795 6        40.374
C02        57.000                                                                                                                                    40690072.279 5 211883914.57905      -462.962 5        35.238    40690066.115 6 163842072.68506      -357.957 6        38.480    40690069.236 5 172173036.44105      -375.794 5        35.590
I03        58.000   128880527.087 6 429969611.14406       920.393 6        41.650
R07        59.000    19450409.804 8 104119597.49208      -619.579 8        51.427                                                                    19450408.098 7  80981912.23907      -481.921 7        47.849
G07        60.000    21141169.953 8 111097626.99108      1108.559 8        49.574                                    21141165.251 8  86569574.13308       863.811 8        48.359    21141165.449 7  86569575.14207       863.864 7        44.260
> 2025 01 01 04 45  5.0000000  0 57
G16         1.000    23462614.161 6 123296890.00506      -227.365 6        39.757                                    23462609.621 3  96075483.55603      -177.162 3        23.029
G29         2.000    25668511.094 6 134888919.09006        44.372 6        37.047                                    25668508.253 4 105108232.35404        34.556 4        28.152    25668508.339 5 105108234.39205        34.454 5        34.219
G09         3.000    20230475.284 8 106311912.18408     -1525.536 8        50.091                                    20230472.699 8  82840462.64008     -1188.731 8        52.487    20230472.863 7  82840463.64207     -1188.738 7        46.399
E34         4.000    24386732.014 7 128153152.67207     -1753.319 7        47.457                                                                    24386731.985 8  95698791.00908     -1309.245 8        49.398    24386731.783 8  98195280.49108     -1343.405 8        50.755
S21         5.000    38392781.346 7 201755263.86407      -383.125 7        43.536
E05         6.000    21813442.038 8 114630458.01608       -27.781 8        48.781                                                                    21813441.296 8  85600697.40008       -20.753 8        50.634    21813441.223 8  87833751.01108       -21.260 8        52.289
E15         7.000    25788466.584 7 135519328.99107      1108.530 7        42.840                                                                    25788467.178 7 101199523.03207       827.795 7        46.012    25788466.825 7 103839508.28507       849.445 7        47.535
R10         8.000    22844456.784 6 121773810.43506      4066.413 6        38.835
E31         9.000    26517485.563 6 139350338.29606       846.578 6        41.499                                                                    26517486.211 7 104060342.04907       632.176 7        43.791    26517485.883 7 106774957.60207       648.645 7        45.141
G04        10.000    21849329.270 7 114819040.91607     -2874.036 7        44.989                                    21849325.855 5  89469391.12505     -2239.506 5        33.228    21849326.162 7  89469386.12907     -2239.593 7        44.376
E09        11.000    25101781.989 7 131910801.67607     -2293.744 7        45.874                                                                    25101781.410 7  98504836.01607     -1712.786 7        47.876    25101780.997 8 101074526.68908     -1757.438 8        49.191
S27        12.000    39026229.037 5 205084186.61405      -394.230 5        35.995
G06        13.000    21821166.168 7 114671029.11807     -2500.737 7        46.756                                    21821165.006 7  89354052.68407     -1948.626 7        46.782    21821165.297 7  89354063.68507     -1948.587 7        44.242
S36        14.000    38160599.691 7 200535808.01807      -383.981 7        45.144
G20        15.000    22642472.454 7 118987004.78307      2643.645 7        43.115                                    22642467.497 4  92717128.52204      2059.981 4        29.109
E36        16.000    26710840.194 6 140366426.45206     -3610.090 6        41.070                                                                    26710841.507 7 104819097.72907     -2695.862 7        44.063    26710841.179 7 107553504.20207     -2766.249 7        45.831
S45        17.000    63347158.938 6 332892680.15506      -423.415 6        37.573
G03        18.000    24476259.374 6 128623641.49306     -3980.849 6        39.925                                    24476258.796 5 100226227.14005     -3101.956 5        32.754    24476259.683 6 100226236.13506     -3102.140 6        37.104
E24        19.000    27722066.236 6 145680433.03806      2461.001 6        39.775                                                                    27722065.921 7 108787348.40107      1837.790 7        42.663    27722065.063 7 111625275.74207      1885.678 7        43.352
R23        20.000    21147117.399 7 113122821.49507     -1679.781 7        47.255
G30        21.000    23060308.518 7 121182756.07907      2915.154 7        44.465                                    23060306.541 6  94428128.31306      2271.552 6        40.899    23060307.009 6  94428132.30906      2271.560 6        40.102
I06        22.000    37921127.797 7 148810879.45207      -262.142 7        43.208
S28        23.000    40821550.974 5 214518703.10205      -382.560 5        34.552
S23        25.000    38100274.959 7 200218288.17807      -379.625 7        45.094
E06        26.000    26856846.765 6 141133731.96006     -2804.757 6        40.491                                                                    26856847.225 7 105392068.76007     -2094.557 7        42.684    26856846.885 7 108141425.95707     -2149.010 7        44.411
C34        27.000                                                                                                                                    25514453.784 6 132860450.92106       -23.131 6        41.437                                                                    25514453.199 6 107960003.72506       -18.743 6        41.728
G26        28.000    24793396.739 6 130290178.74806     -2462.530 6        36.250                                    24793397.297 4 101524814.09404     -1918.857 4        27.545    24793396.670 5 101524815.09905     -1918.973 5        35.095
R09        29.000    20479625.447 8 109360064.76008      1888.713 8        50.455                                                                    20479624.375 7  85057831.53907      1468.993 7        47.583
C22        30.000                                                                                                                                    22055137.173 8 114846917.23808      1060.306 8        51.694                                                                    22055130.574 8  93322515.43908       861.621 8        50.029
I01        31.000   339620051.321 7  29601212.38207     -2815.168 7        42.049
E03        32.000    26153345.578 7 137436769.90307      1840.855 7        42.912                                                                    26153345.053 7 102631372.05007      1374.704 7        44.242    26153344.885 7 105308706.17707      1410.630 7        46.017
R24        34.000    23198635.297 7 124053540.35607      2267.750 7        44.889                                                                    23198635.391 6  96486087.23106      1763.830 6        41.201
C36        35.000                                                                                                                                    23524152.353 7 122496444.68207      2387.108 7        47.613                                                                    23524157.452 7  99538418.09607      1939.708 7        47.482
G11        36.000    22089279.614 7 116079979.77607        58.544 7        45.970                                    22089275.495 5  90451932.91805        45.617 5        35.181    22089275.900 7  90451932.92207        45.565 7        44.808
C35        37.000                                                                                                                                    26406176.716 6 137503885.32606     -3411.409 6        40.903                                                                    26406175.821 6 111733165.10606     -2772.064 6        39.114
I09        38.000    37953042.314 7 148935878.08407      -699.874 7        43.257
R08        39.000    21088014.377 8 112925371.32708      2145.519 8        49.848                                                                    21088011.248 7  87830845.99707      1668.771 7        45.321
R22        40.000    22371058.161 7 119418253.93907     -4293.588 7        45.747                                                                    22371058.124 7  92880876.20007     -3339.465 7        42.430
S44        42.000    40737169.444 6 214075472.12206      -451.034 6        37.989
C09        43.000                                                                                                                                    38908337.475 7 202605946.02607     -1061.435 7        42.303    38908333.066 7 156667761.24307      -820.637 7        44.913    38908331.508 6 164633908.93606      -862.299 6        41.900
C05        44.000                                                                                                                                    39146399.992 6 203845610.42906      -431.224 6        38.658    39146396.010 7 157626379.95307      -333.488 7        43.989    39146397.226 6 165641358.84406      -350.367 6        40.255
R06        45.000    21682360.210 6 115701276.94606     -3159.135 6        38.628
C44        46.000                                                                                                                                    24933603.735 7 129835847.24707     -2446.912 7        44.101                                                                    24933602.425 7 105502264.02307     -1988.228 7        42.438
C39        47.000                                                                                                                                    40880186.501 6 212873866.02206     -1572.987 6        39.661                                                                    40880183.008 6 172977441.51806     -1278.260 6        38.081
C20        48.000                                                                                                                                    26056028.995 7 135680598.38407     -3157.155 7        42.686                                                                    26056025.109 7 110251585.91007     -2565.345 7        42.083
C06        49.000                                                                                                                                    39414435.144 6 205241329.55306     -1409.759 6        38.655    39414428.972 6 158705598.91306     -1090.118 6        41.845    39414428.927 6 166775371.83106     -1145.558 6        38.919
C16        50.000                                                                                                                                    39995905.899 6 208269197.04606     -1409.363 6        40.679    39995905.626 6 161046963.54806     -1089.793 6        40.830    39995903.713 6 169235781.41706     -1145.259 6        37.074
S48        51.000    77129135.383 6 405316073.50406      -370.134 6        38.312
C19        52.000                                                                                                                                    22458576.136 8 116947758.07808     -1721.913 8        51.406                                                                    22458571.246 8  95029636.15408     -1399.186 8        50.456
C12        53.000                                                                                                                                    24879289.483 6 129552995.50506     -1257.091 6        40.617    24879286.105 7 100178576.63807      -972.106 7        46.134    24879285.393 7 105272398.83107     -1021.560 7        43.695
C60        54.000                                                                                                                                    40737174.817 6 212129350.78006      -446.857 6        40.246                                                                    40737160.072 6 172372440.52406      -363.267 6        39.814
R16        55.000    21385895.266 8 114239639.93508     -2257.430 8        48.084                                                                    21385895.270 7  88853075.33207     -1755.818 7        45.752
C37        56.000                                                                                                                                    26172688.045 6 136288066.37106     -3004.218 6        40.482                                                                    26172690.730 6 110745235.85606     -2441.124 6        40.341
C02        57.000                                                                                                                                    40690517.353 5 211886228.44905      -462.660 5        35.590    40690510.683 6 163843861.90406      -357.825 6        38.520    40690513.831 5 172174916.66205      -376.170 5        35.900
I03        58.000   128879354.345 6 429965008.52406       920.448 6        41.554
R07        59.000    19450989.859 8 104122700.39608      -621.649 8        51.270                                                                    19450988.076 7  80984325.60007      -483.526 7        47.931
G07        60.000    21140116.249 8 111092089.88308      1106.130 8        49.503                                    21140111.607 8  86565259.50508       861.919 8        48.399    21140111.663 7  86565260.50807       861.906 7        44.524
> 2025 01 01 04 45 10.0000000  0 57
G16         1.000    23462832.522 6 123298034.83606      -231.000 6        39.985                                    23462827.782 3  96076375.63503      -180.001 3        22.476
G29         2.000    25668470.370 6 134888704.20606        41.293 6        36.219                                    25668467.392 4 105108065.01404        32.135 4        27.784    25668467.913 5 105108067.09405        32.276 5        34.157
G09         3.000    20231927.612 8 106319543.93008     -1527.453 8        49.905                                    20231924.966 8  82846409.45608     -1190.223 8        52.365    20231925.187 7  82846410.46107     -1190.216 7        46.322
E34         4.000    24388401.261 7 128161924.49407     -1755.664 7        47.659                                                                    24388401.226 8  95705341.40108     -1311.047 8        49.382    24388400.969 8  98202001.75708     -1345.253 8        50.650
S21         5.000    38393147.205 7 201757179.15607      -383.129 7        43.528
E05         6.000    21813469.013 8 114630599.70708       -29.075 8        48.708                                                                    21813468.264 8  85600803.21108       -21.764 8        50.678    21813468.194 8  87833859.58308       -22.319 8        52.120
E15         7.000    25787412.936 7 135513791.12707      1106.261 7        42.986                                                                    25787413.312 7 101195387.61307       826.224 7        46.017    25787412.984 7 103835264.98607       847.756 7        47.417
R10         8.000    22840642.740 6 121753480.48806      4065.351 6        39.883
E31         9.000    26516681.071 6 139346110.61306       844.320 6        41.611                                                                    26516681.697 7 104057185.01907       630.553 7        43.712    26516681.471 7 106771718.21107       647.028 7        44.950
G04        10.000    21852064.249 7 114833413.56007     -2875.159 7        44.772                                    21852060.950 5  89480590.58605     -2240.381 5        33.126    21852061.038 7  89480585.58007     -2240.425 7        44.101
E09        11.000    25103964.752 7 131922270.92407     -2294.304 7        45.798                                                                    25103963.929 7  98513400.71607     -1713.297 7        47.774    25103963.539 8 101083314.81608     -1757.956 8        49.046
S27        12.000    39026601.425 6 205086157.53506      -394.392 6        36.113
G06        13.000    21823547.039 7 114683539.00407     -2503.479 7        46.563                                    21823545.559 7  89363800.64207     -1950.762 7        46.661    21823546.235 7  89363811.64107     -1950.779 7        44.206
S36        14.000    38160965.707 7 200537726.58107      -383.747 7        45.028
G20        15.000    22639957.800 7 118973789.33007      2642.342 7        43.558                                    22639952.697 4  92706830.77104      2058.969 4        29.024
E36        16.000    26714275.369 6 140384478.22206     -3610.720 6        40.522                                                                    26714276.535 7 104832577.94407     -2696.304 7        43.960    26714276.184 7 107567336.07007     -2766.710 7        45.615
S45        17.000    63347516.918 6 332894796.87106      -423.434 6        37.285
G03        18.000    24480047.154 6 128643546.86406     -3981.483 6        39.447                                    24480046.775 5 100241737.80405     -3102.453 5        32.707    24480047.068 6 100241746.79106     -3102.502 6        37.021
E24        19.000    27719724.828 6 145668128.85806      2460.377 6        39.405                                                                    27719724.622 7 108778160.21607      1837.393 7        42.546    27719723.538 7 111615847.87007      1885.270 7        43.359
R23        20.000    21148689.917 7 113131231.07107     -1684.265 7        47.585
G30        21.000    23057535.130 7 121168182.98007      2913.839 7        43.458                                    23057533.290 6  94416772.65206      2270.525 6        40.708    23057533.820 6  94416776.66306      2270.404 6        39.538
I06        22.000    37921461.383 7 148812189.78807      -262.082 7        43.336
S28        23.000    40821914.387 5 214520614.90105      -382.484 5        34.738
S23        25.000    38100633.775 7 200220185.54807      -379.656 7        45.014
E06        26.000    26859515.581 6 141147756.21306     -2805.100 6        40.772                                                                    26859515.884 7 105402541.40807     -2094.632 7        42.665    26859515.626 7 108152171.81507     -2149.324 7        44.122
C34        27.000                                                                                                                                    25514477.335 7 132860572.89307       -25.906 7        42.044                                                                    25514476.635 6 107960102.84306       -20.913 6        41.812
G26        28.000    24795740.495 6 130302496.93306     -2465.168 6        36.193                                    24795741.473 4 101534412.65604     -1920.904 4        27.222    24795741.380 5 101534413.64305     -1920.772 5        35.138
R09        29.000    20477858.832 8 109350630.30208      1884.830 8        50.360                                                                    20477858.057 7  85050493.62607      1466.008 7        47.671
C22        30.000                                                                                                                                    22054119.469 8 114841618.31308      1059.016 8        51.520                                                                    22054112.944 8  93318209.61808       860.676 8        49.971
I01        31.000   339623638.071 7  29615287.82607     -2815.251 7        42.140
E03        32.000    26151593.966 7 137427566.72107      1840.132 7        42.785                                                                    26151593.772 7 102624499.54507      1374.170 7        44.298    26151593.597 7 105301654.39307      1410.090 7        45.883
R24        34.000    23196517.530 7 124042209.12407      2264.495 7        45.351                                                                    23196516.792 6  96477274.09906      1761.289 6        41.104
C36        35.000                                                                                                                                    23521861.124 7 122484512.59007      2385.446 7        47.458                                                                    23521865.996 7  99528722.27707      1938.582 7        47.531
G11        36.000    22089225.452 7 116079695.44507        55.054 7        46.317                                    22089221.424 5  90451711.36005        42.900 5        35.052    22089221.227 7  90451711.35407        42.881 7        44.453
C35        37.000                                                                                                                                    26409451.586 6 137520941.34006     -3411.234 6        41.266                                                                    26409451.030 6 111747024.51306     -2771.767 6        39.018
I09        38.000    37953934.064 7 148939378.02907      -700.227 7        43.338
R08        39.000    21086011.178 8 112914645.71708      2144.395 8        49.510                                                                    21086008.154 7  87822503.85707      1667.877 7        44.834
R22        40.000    22375080.803 7 119439725.24507     -4295.321 7        45.497                                                                    22375080.167 7  92897576.07507     -3340.755 7        42.918
S44        42.000    40737596.100 6 214077727.13106      -451.280 6        37.845
C09        43.000                                                                                                                                    38909356.681 7 202611252.92507     -1061.614 7        42.245    38909352.202 7 156671864.87807      -820.947 7        44.855    38909350.626 6 164638221.22106      -862.483 6        41.986
C05        44.000                                                                                                                                    39146814.042 6 203847766.02506      -431.273 6        38.736    39146809.854 7 157628046.78707      -333.468 7        43.987    39146811.267 6 165643110.42306      -350.171 6        40.167
R06        45.000    21685320.611 6 115717075.34206     -3160.545 6        38.177
C44        46.000                                                                                                                                    24935954.176 7 129848085.97807     -2448.591 7        43.907                                                                    24935952.836 7 105512208.99707     -1989.766 7        42.282
C39        47.000                                                                                                                                    40881696.426 6 212881731.11206     -1573.148 6        39.625                                                                    40881693.242 6 172983832.51706     -1278.190 6        37.792
C20        48.000                                                                                                                                    26059060.873 7 135696384.30107     -3157.573 7        42.883                                                                    26059056.545 7 110264413.25207     -2565.576 7        42.025
C06        49.000                                                                                                                                    39415789.156 6 205248378.46606     -1409.908 6        38.387    39415782.728 7 158711049.57007     -1090.250 7        42.047    39415782.475 6 166781099.63206     -1145.617 6        38.643
C16        50.000                                                                                                                                    39997259.718 6 208276243.90206     -1409.440 6        40.436    39997258.946 6 161052412.60406     -1090.016 6        40.853    39997256.879 6 169241507.52406     -1145.338 6        36.836
S48        51.000    77129491.651 6 405317922.84006      -370.013 6        38.162
C19        52.000                                                                                                                                    22460230.127 8 116956370.60908     -1723.360 8        51.642                                                                    22460225.219 8  95036634.53008     -1400.156 8        50.381
C12        53.000                                                                                                                                    24880497.684 6 129559287.24906     -1259.804 6        40.744    24880494.584 7 100183441.82907      -974.169 7        45.809    24880493.774 7 105277511.36307     -1023.601 7        43.645
C60        54.000                                                                                                                                    40737603.785 6 212131585.28706      -446.905 6        40.288                                                                    40737589.231 6 172374256.21406      -363.184 6        39.916
R16        55.000    21388010.100 8 114250937.10408     -2261.663 8        48.273                                                                    21388009.678 7  88861862.02407     -1759.076 7        44.704
C37        56.000                                                                                                                                    26175573.154 6 136303091.43706     -3005.990 6        40.431                                                                    26175576.228 6 110757444.93506     -2442.472 6        40.186
C02        57.000                                                                                                                                    40690961.542 5 211888542.25305      -463.001 5        35.710    40690955.207 6 163845651.06806      -357.938 6        38.577    40690958.060 5 172176796.77505      -375.874 5        35.390
I03        58.000   128878181.930 6 429960405.87906       920.462 6        41.652
R07        59.000    19451571.019 8 104125813.33408      -623.767 8        51.083                                                                    19451569.276 7  80986746.77507      -485.136 7        47.626
G07        60.000    21139064.781 8 111086564.80008      1103.651 8        49.556                                    21139060.252 8  86560954.24708       859.989 8        48.292    21139060.393 7  86560955.25307       860.014 7        44.581
> 2025 01 01 04 45 15.0000000  0 57
G16         1.000    23463053.598 6 123299197.89506      -234.703 6        40.112                                    23463049.266 3  96077281.92003      -182.895 3        23.048
G29         2.000    25668431.103 6 134888504.92506        38.172 6        36.541                                    25668429.436 4 105107909.87304        29.738 4        27.581    25668429.626 5 105107911.88405        29.466 5        34.319
G09         3.000    20233381.439 8 106327185.73308     -1529.720 8        49.719                                    20233379.156 8  82852364.10708     -1191.991 8        52.379    20233379.381 7  82852365.10607     -1191.922 7        46.439
E34         4.000    24390072.793 7 128170708.67707     -1758.461 7        47.397                                                                    24390072.813 8  95711901.01508     -1313.077 8        49.629    24390072.531 8  98208732.49608     -1347.352 8        50.702
S21         5.000    38393513.985 7 201759095.01007      -383.661 7        43.573
E05         6.000    21813497.074 8 114630748.09908       -30.630 8        48.749                                                                    21813496.467 8  85600914.02608       -22.890 8        50.882    21813496.478 8  87833973.28908       -23.514 8        52.156
E15         7.000    25786361.553 7 135508264.83907      1103.780 7        43.132                                                                    25786361.681 7 101191260.85507       824.296 7        46.237    25786361.317 7 103831030.57407       845.724 7        47.402
R10         8.000    22836830.159 6 121733155.61406      4064.185 6        40.122
E31         9.000    26515878.867 6 139341894.34806       841.815 6        41.251                                                                    26515879.465 7 104054036.50907       628.616 7        44.003    26515879.185 7 106768487.56507       645.025 7        45.162
G04        10.000    21854800.471 7 114847792.21007     -2876.633 7        45.058                                    21854797.221 5  89491794.72605     -2241.530 5        33.186    21854797.327 7  89491789.72007     -2241.494 7        44.557
E09        11.000    25106147.852 7 131933743.91207     -2295.267 7        45.819                                                                    25106147.170 8  98521968.19708     -1713.993 8        48.054    25106146.699 8 101092105.80408     -1758.763 8        49.056
S27        12.000    39026972.922 5 205088129.36705      -394.587 5        35.857
G06        13.000    21825930.262 7 114696063.18707     -2506.469 7        46.744                                    21825928.799 7  89373559.74407     -1953.092 7        46.653    21825929.472 7  89373570.74307     -1953.150 7        44.129
S36        14.000    38161328.593 7 200539645.59707      -384.142 7        45.150
G20        15.000    22637444.109 7 118960580.85507      2640.773 7        43.056                                    22637439.274 4  92696538.46104      2057.745 4        29.166
E36        16.000    26717710.813 6 140402533.50606     -3611.747 6        40.088                                                                    26717712.449 7 104846060.77207     -2697.046 7        44.060    26717711.837 7 107581170.62307     -2767.443 7        45.460
S45        17.000    63347878.780 6 332896914.42806      -423.963 6        37.388
G03        18.000    24483835.479 6 128663455.82506     -3982.531 6        39.042                                    24483835.491 5 100257251.27105     -3103.269 5        32.569    24483835.898 6 100257260.27406     -3103.124 6        37.327
E24        19.000    27717384.323 6 145655827.47406      2459.626 6        39.006                                                                    27717383.763 7 108768974.12507      1836.817 7        42.963    27717382.697 7 111606422.14007      1884.683 7        43.287
R23        20.000    21150266.124 7 113139663.50807     -1689.113 7        47.646
G30        21.000    23054763.142 7 121153616.62007      2912.311 7        43.266                                    23054761.363 6  94405422.24006      2269.329 6        40.660    23054762.350 6  94405426.24006      2269.304 6        39.820
I06        22.000    37921795.530 7 148813500.85507      -262.367 7        43.113
S28        23.000    40822277.523 5 214522527.48005      -383.002 5        34.724
S23        25.000    38100995.990 7 200222083.70607      -380.006 7        45.007
E06        26.000    26862184.604 6 141161782.07706     -2805.499 6        40.770                                                                    26862184.991 7 105413015.25507     -2095.196 7        42.885    26862184.719 7 108162918.89707     -2149.778 7        44.202
C34        27.000                                                                                                                                    25514503.341 7 132860709.17207       -28.994 7        42.360                                                                    25514502.926 7 107960213.59607       -23.361 7        42.136
G26        28.000    24798088.081 5 130314828.86305     -2467.835 5        35.629                                    24798088.087 4 101544021.94104     -1922.985 4        26.934    24798088.260 5 101544022.94005     -1923.062 5        34.657
R09        29.000    20476095.896 8 109341215.44008      1880.611 8        50.264                                                                    20476094.800 8  85043170.95908      1462.723 8        48.052
C22        30.000                                                                                                                                    22053103.292 8 114836326.36408      1057.407 8        51.276                                                                    22053096.683 8  93313909.47608       859.298 8        50.142
I01        31.000   339627225.045 7  29629364.53807     -2815.632 7        42.267
E03        32.000    26149843.333 7 137418367.34207      1839.197 7        42.815                                                                    26149843.136 7 102617629.89007      1373.407 7        44.438    26149843.103 7 105294605.53707      1409.245 7        45.834
R24        34.000    23194401.733 7 124030895.40107      2260.768 7        44.981                                                                    23194400.811 6  96468474.58506      1758.384 6        41.468
C36        35.000                                                                                                                                    23519571.572 7 122472589.01107      2383.607 7        47.744                                                                    23519576.197 7  99519033.40607      1936.881 7        47.745
G11        36.000    22089174.706 7 116079428.82207        51.257 7        46.191                                    22089170.711 5  90451503.60405        39.942 5        34.986    22089171.096 7  90451503.60407        39.930 7        44.944
C35        37.000                                                                                                                                    26412727.601 6 137537997.13406     -3411.454 6        40.868                                                                    26412726.603 6 111760883.75106     -2772.108 6        39.033
I09        38.000    37954826.182 7 148942879.08207      -700.631 7        43.304
R08        39.000    21084009.053 8 112903926.20508      2142.979 8        49.451                                                                    21084007.053 7  87814166.46707      1666.837 7        45.273
R22        40.000    22379106.105 7 119461205.54007     -4297.258 7        46.460                                                                    22379103.514 7  92914282.98507     -3342.300 7        42.910
S44        42.000    40738026.359 6 214079982.78206      -451.459 6        37.970
C09        43.000                                                                                                                                    38910376.251 7 202616561.98107     -1062.357 7        42.129    38910371.891 7 156675970.17807      -821.507 7        44.740    38910370.158 7 164642535.27207      -863.148 7        42.000
C05        44.000                                                                                                                                    39147228.088 6 203849922.42506      -431.639 6        38.420    39147223.962 7 157629714.25607      -333.713 7        43.930    39147225.339 6 165644862.69306      -350.742 6        40.517
R06        45.000    21688283.781 6 115732880.30706     -3161.895 6        38.934
C44        46.000                                                                                                                                    24938305.834 7 129860334.13807     -2450.880 7        44.134                                                                    24938304.996 7 105522161.62407     -1991.489 7        42.373
C39        47.000                                                                                                                                    40883207.032 6 212889596.70106     -1573.338 6        39.715                                                                    40883203.931 6 172990223.96206     -1278.493 6        38.132
C20        48.000                                                                                                                                    26062093.351 7 135712173.17407     -3158.292 7        42.825                                                                    26062088.613 7 110277242.99107     -2566.327 7        42.161
C06        49.000                                                                                                                                    39417142.652 6 205255428.82906     -1410.495 6        38.204    39417136.854 7 158716501.36107     -1090.740 7        42.133    39417136.405 6 166786828.62606     -1146.036 6        39.165
C16        50.000                                                                                                                                    39998613.193 6 208283291.89706     -1409.919 6        40.303    39998612.572 6 161057862.56706     -1090.300 6        40.796    39998610.437 6 169247234.62706     -1145.816 6        37.289
S48        51.000    77129847.221 6 405319772.89406      -370.470 6        38.369
C19        52.000                                                                                                                                    22461885.617 8 116964990.94108     -1725.160 8        51.343                                                                    22461880.728 8  95043639.26108     -1401.722 8        50.677
C12        53.000                                                                                                                                    24881708.394 6 129565592.99106     -1262.913 6        40.424    24881704.987 7 100188317.82507      -976.483 7        45.387    24881704.653 7 105282635.30407     -1026.081 7        43.731
C60        54.000                                                                                                                                    40738033.409 6 212133820.45306      -447.381 6        40.072                                                                    40738018.426 6 172376072.45306      -363.295 6        40.093
R16        55.000    21390129.435 8 114262255.59608     -2266.205 8        48.582                                                                    21390128.867 7  88870665.29507     -1762.623 7        45.192
C37        56.000                                                                                                                                    26178460.501 6 136318125.13006     -3007.917 6        40.257                                                                    26178463.316 6 110769661.05206     -2444.030 6        40.448
C02        57.000                                                                                                                                    40691405.422 5 211890856.72405      -463.244 5        35.324    40691399.432 6 163847440.77706      -358.246 6        38.766    40691402.450 5 172178677.48405      -376.190 5        35.852
I03        58.000   128877008.740 6 429955803.84006       920.022 6        41.392
R07        59.000    19452154.495 8 104128937.28708      -626.204 8        51.202                                                                    19452152.995 7  80989176.52207      -487.087 7        47.858
G07        60.000    21138015.791 8 111081052.56308      1100.807 8        49.467                                    21138011.339 8  86556659.00008       857.772 8        48.276    21138011.525 7  86556660.00807       857.853 7        44.671
> 2025 01 01 04 45 20.0000000  0 57
G16         1.000    23463278.319 6 123300379.05406      -238.228 6        40.338                                    23463274.082 3  96078202.31103      -185.630 3        23.581
G29         2.000    25668397.147 6 134888321.48706        35.066 6        37.992                                    25668394.451 4 105107767.05804        27.298 4        27.713    25668394.895 5 105107769.11505        27.322 5        34.267
G09         3.000    20234837.626 8 106334837.43808     -1531.503 8        49.871                                    20234835.223 8  82858326.47208     -1193.377 8        52.458    20234835.130 7  82858327.47807     -1193.409 7        45.952
E34         4.000    24391746.595 7 128179505.08107     -1760.617 7        47.521                                                                    24391746.726 8  95718469.75708     -1314.732 8        49.654    24391746.506 8  98215472.59708     -1349.001 8        50.544
S21         5.000    38393877.779 7 201761011.44407      -383.479 7        43.429
E05         6.000    21813526.470 8 114630903.06208       -31.768 8        48.775                                                                    21813525.964 8  85601029.74508       -23.709 8        50.844    21813525.936 8  87834092.02608       -24.363 8        52.055
E15         7.000    25785311.830 7 135502750.02407      1101.744 7        43.094                                                                    25785312.162 7 101187142.64907       822.744 7        46.299    25785311.925 7 103826804.94007       844.196 7        47.345
R10         8.000    22833018.732 6 121712835.58606      4063.459 6        39.772
E31         9.000    26515078.518 6 139337689.35606       839.662 6        41.421                                                                    26515079.419 7 104050896.42007       627.084 7        44.179    26515078.915 7 106765265.57007       643.445 7        45.186
G04        10.000    21857537.508 7 114862176.72107     -2877.617 7        45.791                                    21857534.552 5  89503003.43405     -2242.298 5        33.407    21857534.309 7  89502998.42507     -2242.233 7        44.564
E09        11.000    25108331.699 7 131945220.48607     -2295.843 7        45.810                                                                    25108331.084 8  98530538.35908     -1714.329 8        48.009    25108330.642 8 101100899.53808     -1759.088 8        48.925
S27        12.000    39027346.799 5 205090101.80105      -394.619 5        35.371
G06        13.000    21828316.220 7 114708601.53207     -2509.174 7        46.968                                    21828314.737 7  89383329.87607     -1955.196 7        46.727    21828315.545 7  89383340.88007     -1955.206 7        43.852
S36        14.000    38161696.697 7 200541564.49807      -384.079 7        44.953
G20        15.000    22634931.866 7 118947379.25407      2639.493 7        43.363                                    22634927.013 4  92686251.50104      2056.757 4        29.166
E36        16.000    26721147.381 6 140420592.13706     -3612.100 6        40.117                                                                    26721148.640 7 104859546.11307     -2697.449 7        43.854    26721148.235 7 107595007.75107     -2767.769 7        45.257
