     3.04           OBSERVATION DATA    M                   RINEX VERSION / TYPE
ssrcrin-15.6.1x                         20250101 060000 UTC PGM / RUN BY / DATE 
(00000000023479385599111004) Septentrio proprietary         COMMENT             
rref                                                        MARKER NAME         
01                                                          MARKER NUMBER       
geodetic                                                    MARKER TYPE         
NFB                 CLIMERS@TUW                             OBSERVER / AGENCY   
3297213             SEPT ASTERX SB3 PROB4.14.4              REC # / TYPE / VERS 
Unknown             Unknown                                 ANT # / TYPE        
  4127831.9491  1207192.9937  4695247.1957                  APPROX POSITION XYZ 
        0.0000        0.0000        0.0000                  ANTENNA: DELTA H/E/N
G   23 X1  C1C L1C D1C S1C C1W S1W C2W L2W D2W S2W C2L L2L  SYS / # / OBS TYPES 
       D2L S2L C5Q L5Q D5Q S5Q C1L L1L D1L S1L              SYS / # / OBS TYPES 
E   21 X1  C1C L1C D1C S1C C6C L6C D6C S6C C5Q L5Q D5Q S5Q  SYS / # / OBS TYPES 
       C7Q L7Q D7Q S7Q C8Q L8Q D8Q S8Q                      SYS / # / OBS TYPES 
S    9 X1  C1C L1C D1C S1C C5I L5I D5I S5I                  SYS / # / OBS TYPES 
R   17 X1  C1C L1C D1C S1C C2P L2P D2P S2P C2C L2C D2C S2C  SYS / # / OBS TYPES 
       C3Q L3Q D3Q S3Q                                      SYS / # / OBS TYPES 
C   25 X1  C1P L1P D1P S1P C5P L5P D5P S5P C2I L2I D2I S2I  SYS / # / OBS TYPES 
       C7I L7I D7I S7I C6I L6I D6I S6I C7D L7D D7D S7D      SYS / # / OBS TYPES 
J   17 X1  C1C L1C D1C S1C C2L L2L D2L S2L C5Q L5Q D5Q S5Q  SYS / # / OBS TYPES 
       C1L L1L D1L S1L                                      SYS / # / OBS TYPES 
I    5 X1  C5A L5A D5A S5A                                  SYS / # / OBS TYPES 
SEPTENTRIO RECEIVERS OUTPUT ALIGNED CARRIER PHASES.         COMMENT             
NO FURTHER PHASE SHIFT APPLIED IN THE RINEX ENCODER.        COMMENT             
G L1C                                                       SYS / PHASE SHIFT   
G L2W                                                       SYS / PHASE SHIFT   
G L2L  0.00000                                              SYS / PHASE SHIFT   
G L5Q  0.00000                                              SYS / PHASE SHIFT   
G L1L  0.00000                                              SYS / PHASE SHIFT   
E L1C  0.00000                                              SYS / PHASE SHIFT   
E L6C  0.00000                                              SYS / PHASE SHIFT   
E L5Q  0.00000                                              SYS / PHASE SHIFT   
E L7Q  0.00000                                              SYS / PHASE SHIFT   
E L8Q  0.00000                                              SYS / PHASE SHIFT   
S L1C                                                       SYS / PHASE SHIFT   
S L5I                                                       SYS / PHASE SHIFT   
R L1C                                                       SYS / PHASE SHIFT   
R L2P  0.00000                                              SYS / PHASE SHIFT   
R L2C                                                       SYS / PHASE SHIFT   
R L3Q  0.00000                                              SYS / PHASE SHIFT   
C L1P  0.00000                                              SYS / PHASE SHIFT   
C L5P  0.00000                                              SYS / PHASE SHIFT   
C L2I                                                       SYS / PHASE SHIFT   
C L7I                                                       SYS / PHASE SHIFT   
C L6I                                                       SYS / PHASE SHIFT   
C L7D                                                       SYS / PHASE SHIFT   
J L1C                                                       SYS / PHASE SHIFT   
J L2L  0.00000                                              SYS / PHASE SHIFT   
J L5Q  0.00000                                              SYS / PHASE SHIFT   
J L1L  0.00000                                              SYS / PHASE SHIFT   
I L5A                                                       SYS / PHASE SHIFT   
  2025     1     1     6     0    0.0000000     GPS         TIME OF FIRST OBS   
 C1C    0.000 C2C    0.000 C2P    0.000                     GLONASS COD/PHS/BIS 
DBHZ                                                        SIGNAL STRENGTH UNIT
    18                                                      LEAP SECONDS        
 24 R01  1 R02 -4 R03  5 R04  6 R05  1 R06 -4 R07  5 R08  6 GLONASS SLOT / FRQ #
    R09 -2 R10 -7 R11  0 R12 -1 R13 -2 R14 -7 R15  0 R16 -1 GLONASS SLOT / FRQ #
    R17  4 R18 -3 R19  3 R20  2 R21  4 R22 -3 R23  3 R24  2 GLONASS SLOT / FRQ #
                                                            END OF HEADER       
> 2025 01 01 06 00  0.0000000  0 54
G16         1.000    24676200.170 6 129674304.71006     -3139.564 6        36.941                                    24676196.475 2 101044891.74802     -2446.394 2        15.619
R01         2.000    22953289.470 7 122698477.97207      3137.153 7        42.309                                                                    22953288.628 5  95432218.00405      2439.786 5        35.848
G09         3.000    21881804.259 7 114989680.63007     -2934.357 7        45.440                                    21881803.358 7  89602354.03307     -2286.507 7        45.288    21881803.519 7  89602355.02207     -2286.481 7        43.409
E34         4.000    26350173.585 7 138471089.90107     -3323.187 7        42.722                                                                    26350174.727 7 103403738.99407     -2481.577 7        45.037    26350174.517 7 106101227.71107     -2546.298 7        45.774
S21         5.000    38435328.696 7 201978828.08007      -412.222 7        43.325
E05         6.000    21985705.140 8 115535701.35208     -1046.973 8        48.832                                                                    21985704.922 8  86276689.14708      -781.864 8        51.223    21985704.581 8  88527377.51208      -802.210 8        51.825
E15         7.000    25485327.918 7 133926322.11207     -1147.594 7        44.039                                                                    25485328.317 7 100009939.57607      -856.996 7        46.843    25485328.057 7 102618892.26407      -879.382 7        47.921
R10         8.000    19898968.714 8 106072707.62108      1718.655 8        48.283
E31         9.000    26409533.951 6 138783042.82906     -1322.467 6        41.504                                                                    26409535.249 7 103636710.39307      -987.644 7        44.072    26409534.680 7 106340274.89007     -1013.324 7        44.599
G04        10.000    24330707.355 6 127858685.44706     -3525.636 6        38.658                                    24330708.946 3  99630131.65303     -2747.240 3        21.952    24330708.924 6  99630126.62006     -2747.239 6        38.438
E09        11.000    26962207.458 6 141687353.31606     -2711.887 6        41.509                                                                    26962210.001 7 105805493.44407     -2025.155 7        43.344    26962209.693 7 108565637.70807     -2078.047 7        45.044
S27        12.000    39082151.940 6 205378054.00906      -432.134 6        36.764
G06        13.000    24427476.082 6 128367257.77906     -3919.712 6        39.048                                    24427476.359 5 100026433.05805     -3054.316 5        34.057    24427476.777 6 100026444.03906     -3054.360 6        38.117
S36        14.000    38203590.389 7 200761741.95307      -413.045 7        44.594
G20        15.000    20823027.818 8 109425760.25708       637.912 8        48.132                                    20823023.130 6  85266808.25906       497.079 6        39.102
R11        16.000    23134186.132 7 123622088.85207      4141.748 7        42.893                                                                    23134187.146 6  96150513.92506      3221.323 6        41.697
S45        17.000    63386997.379 6 333101324.79306      -454.387 6        36.726
E13        18.000    27590444.902 6 144988778.49606      1441.181 6        38.658                                                                    27590446.295 6 108270830.00206      1076.233 6        41.964    27590445.779 7 111095287.33307      1104.208 7        43.033
E24        19.000    25706372.620 7 135087887.31707      1316.079 7        45.129                                                                    25706372.767 7 100877329.09707       982.832 7        47.797    25706371.900 8 103508908.26708      1008.397 8        48.333
R23        20.000    23589687.528 7 126188898.38907     -4325.606 7        43.117
G30        21.000    20922029.052 8 109946028.10908      1214.832 8        50.158                                    20922027.140 8  85672237.67408       946.623 8        51.032    20922027.669 7  85672241.67507       946.644 7        44.635
I06        22.000    37955269.097 7 148944840.61707      -317.561 7        43.591
S28        23.000    40864843.149 5 214746079.26805      -414.910 5        35.181
G14        24.000    24785242.030 6 130247326.83906      3147.443 6        36.764                                    24785242.236 2 101491424.76802      2452.543 2        17.924    24785242.833 6 101491426.78606      2452.328 6        36.991
S23        25.000    38139965.836 7 200426844.36107      -409.478 7        44.706
C34        27.000                                                                                                                                    26242974.931 6 136654060.37006     -2211.775 6        40.126                                                                    26242975.037 6 111042622.78706     -1797.290 6        38.114
G13        28.000    23939200.364 6 125801356.13606      2836.975 6        40.212                                    23939196.139 3  98027011.15303      2210.627 3        20.048
R09        29.000    20225667.325 8 108003942.80308     -2034.194 8        49.240                                                                    20225666.688 8  84003070.03608     -1582.187 8        48.456
C22        30.000                                                                                                                                    21433066.172 8 111607625.73808      -416.367 8        52.183                                                                    21433059.724 8  90690324.77908      -338.375 8        49.938
I01        31.000   342630964.972 6  41416647.25106     -2962.186 6        41.402
E03        32.000    24545933.587 7 128989771.05407      1201.812 7        46.537                                                                    24545933.079 8  96323550.19308       897.477 8        49.213    24545932.844 8  98836332.22508       920.846 8        50.281
G05        33.000    22793574.649 7 119781072.17207      2653.173 7        44.724                                    22793570.313 6  93335899.97506      2067.409 6        40.841    22793570.915 6  93335902.97506      2067.374 6        40.672
R24        34.000    22517611.122 7 120411807.78907     -1476.099 7        46.204                                                                    22517610.665 7  93653631.85107     -1148.043 7        42.049
C36        35.000                                                                                                                                    21979960.936 8 114455432.03308       323.664 8        50.931                                                                    21979965.878 8  93004436.23508       262.969 8        50.450
G11        36.000    23006715.087 7 120901124.66007     -2727.191 7        45.413                                    23006711.929 5  94208666.37105     -2125.083 5        32.162    23006711.908 7  94208666.37107     -2125.183 7        42.451
I09        38.000    38529131.753 7 151196547.00507      -825.607 7        42.042
R08        39.000    19528700.903 8 104575321.63408       683.750 8        50.441                                                                    19528698.701 7  81336363.01707       531.818 7        47.256
E25        40.000    27311372.756 6 143522249.69406      2727.701 6        40.131                                                                    27311376.289 7 107175713.67707      2037.002 7        42.882    27311375.587 7 109971593.36807      2090.116 7        43.782
S44        42.000    40831584.285 6 214571525.66006      -464.747 6        37.112
C09        43.000                                                                                                                                    39608045.909 6 206249493.30006     -1207.877 6        39.267    39608042.931 7 159485178.07907      -933.995 7        43.695    39608041.076 6 167594585.48306      -981.525 6        39.976
C05        44.000                                                                                                                                    39237850.004 6 204321787.91706      -469.644 6        37.508    39237847.904 7 157994582.61607      -363.052 7        43.227    39237849.845 6 166028285.67006      -381.556 6        40.653
R17        47.000    23793373.363 7 127323147.72607      1874.452 7        42.241                                                                    23793373.847 6  99029118.41206      1457.836 6        40.114
C06        49.000                                                                                                                                    40364919.455 6 210190711.79406     -1445.486 6        36.242    40364915.836 6 162532764.51506     -1117.742 6        39.291    40364915.403 6 170797141.70406     -1174.506 6        36.208
C16        50.000                                                                                                                                    40926142.131 6 213113135.92806     -1401.275 6        37.951    40926145.478 6 164792592.52606     -1083.560 6        39.321    40926141.664 5 173171869.01505     -1138.860 5        34.014
S48        51.000    77164590.217 6 405502581.18006      -397.787 6        38.177
C19        52.000                                                                                                                                    24190016.048 7 125963792.37507     -2944.354 7        46.698                                                                    24190012.530 7 102355896.69507     -2392.624 7        46.753
C12        53.000                                                                                                                                    26521969.565 6 138106846.44906     -2972.554 6        36.677    26521967.240 6 106792952.89906     -2298.524 6        40.598    26521966.386 6 112223100.24206     -2415.143 6        38.685
C60        54.000                                                                                                                                    40831586.282 6 212620893.99106      -460.253 6        40.019                                                                    40831575.136 6 172771842.74306      -374.219 6        39.408
R16        55.000    24199424.955 6 129268970.41606     -4657.146 6        38.336                                                                    24199427.178 6 100542544.73706     -3622.277 6        38.622
C11        56.000                                                                                                                                    26038760.195 6 135590668.62806     -1076.146 6        38.589    26038758.403 7 104847286.76707      -832.244 7        43.820    26038756.737 6 110178502.35506      -874.468 6        40.946
C02        57.000                                                                                                                                    40804454.265 5 212479440.93405      -489.682 5        35.333    40804454.262 6 164302547.50106      -378.521 6        39.637    40804456.395 5 172656931.17305      -397.837 5        35.343
I03        58.000   127542814.685 6 424720031.08906       895.164 6        40.572
R07        59.000    20483054.733 8 109647408.67208     -2556.708 8        50.048                                                                    20483054.393 7  85281315.96907     -1988.516 7        46.165
G07        60.000    20862601.783 8 109633739.28408     -1116.721 8        49.204                                    20862597.110 8  85428881.91908      -870.171 8        49.918    20862597.455 7  85428882.92007      -870.149 7        46.219
> 2025 01 01 06 00  5.0000000  0 55
G16         1.000    24679188.987 6 129690009.65706     -3142.216 6        36.968                                    24679184.950 2 101057129.34402     -2448.484 2        16.528
R01         2.000    22950354.938 6 122682792.92806      3136.978 6        41.819                                                                    22950354.787 6  95420018.52306      2439.874 6        36.242
G09         3.000    21884596.717 7 115004355.73207     -2935.643 7        45.406                                    21884595.998 7  89613789.15507     -2287.509 7        45.445    21884595.791 7  89613790.14507     -2287.502 7        43.227
E34         4.000    26353335.922 7 138487708.61307     -3324.160 7        42.582                                                                    26353337.164 7 103416149.05207     -2482.361 7        44.844    26353336.985 7 106113961.52007     -2547.145 7        45.780
S21         5.000    38435723.276 7 201980889.89907      -412.427 7        43.536
E05         6.000    21986701.853 8 115540938.95808     -1048.060 8        48.955                                                                    21986701.579 8  86280600.33308      -782.675 8        51.005    21986701.261 8  88531390.73308      -803.086 8        51.898
E15         7.000    25486420.798 7 133932066.58707     -1150.170 7        44.239                                                                    25486421.431 7 100014229.27107      -858.836 7        46.577    25486421.239 7 102623293.85807      -881.279 7        47.961
R10         8.000    19897359.171 8 106064124.81208      1714.523 8        48.465
E31         9.000    26410793.565 6 138789661.10706     -1324.774 6        41.890                                                                    26410794.709 7 103641652.60207      -989.293 7        44.008    26410794.127 7 106345346.03207     -1015.085 7        44.536
G04        10.000    24334062.142 6 127876314.63606     -3526.065 6        39.006                                    24334063.683 3  99643868.62003     -2747.574 3        22.248    24334063.967 6  99643863.58506     -2747.520 6        38.670
E09        11.000    26964787.783 6 141700913.90806     -2712.305 6        41.726                                                                    26964790.468 7 105815619.81507     -2025.386 7        43.261    26964790.396 7 108576028.24607     -2078.259 7        45.010
S27        12.000    39082569.536 6 205380215.84606      -432.667 6        36.979
G06        13.000    24431205.697 6 128386856.92306     -3919.925 6        39.135                                    24431205.902 5 100041705.09705     -3054.485 5        34.052    24431206.676 6 100041716.07906     -3054.399 6        38.186
S36        14.000    38203984.004 7 200763807.25707      -413.222 7        44.649
G20        15.000    20822422.398 8 109422578.35808       634.861 8        48.081                                    20822417.641 6  85264328.85406       494.699 6        39.327
R11        16.000    23130311.079 7 123601382.41807      4140.932 7        42.811                                                                    23130311.999 7  96134408.92007      3220.817 7        42.080
S45        17.000    63387390.672 6 333103596.87106      -454.313 6        36.771
E13        18.000    27589074.354 6 144981577.96406      1439.067 6        38.670                                                                    27589076.057 6 108265452.97306      1074.651 6        41.876    27589075.530 7 111089770.03907      1102.657 7        42.997
E24        19.000    25705121.787 7 135081311.74707      1314.125 7        45.440                                                                    25705121.488 7 100872418.76207       981.329 7        47.473    25705120.598 8 103503869.83608      1006.920 8        48.304
R23        20.000    23593729.149 6 126210529.27406     -4326.774 6        41.945
G30        21.000    20920874.356 8 109939960.00008      1212.443 8        50.598                                    20920872.410 8  85667509.27408       944.761 8        51.222    20920872.823 7  85667513.27107       944.843 7        44.637
I06        22.000    37955673.693 7 148946428.51807      -317.652 7        43.405
S28        23.000    40865235.453 5 214748153.87005      -415.074 5        35.410
G14        24.000    24782247.152 6 130231589.51906      3147.493 6        36.854                                    24782247.577 3 101479161.93003      2452.599 3        18.627    24782248.256 6 101479163.91106      2452.581 6        37.550
S23        25.000    38140355.091 7 200428891.94807      -409.551 7        44.777
C34        27.000                                                                                                                                    26245100.180 6 136665123.99106     -2213.613 6        39.967                                                                    26245099.785 6 111051612.87206     -1798.577 6        38.369
G13        28.000    23936501.611 6 125787171.67606      2836.637 6        39.501                                    23936497.122 3  98015958.33603      2210.373 3        19.731
R09        29.000    20227573.642 8 108014124.26608     -2038.368 8        49.406                                                                    20227572.982 8  84010988.94608     -1585.345 8        48.239
C22        30.000                                                                                                                                    21433466.895 8 111609712.39808      -418.296 8        52.209                                                                    21433460.425 8  90692020.35708      -339.870 8        50.003
I01        31.000   342634739.202 6  41431458.52406     -2962.427 6        41.352
E03        32.000    24544790.309 7 128983764.12107      1200.973 7        46.506                                                                    24544789.942 8  96319064.49208       896.877 8        48.976    24544789.750 8  98831729.50608       920.244 8        50.274
G05        33.000    22791051.100 7 119767810.55507      2651.463 7        44.709                                    22791046.703 6  93325566.24506      2066.074 6        41.056    22791047.235 6  93325569.24206      2066.062 6        40.546
R24        34.000    22518993.527 7 120419198.75307     -1480.211 7        45.881                                                                    22518992.628 6  93659380.36306     -1151.383 6        41.733
C36        35.000                                                                                                                                    21979651.578 8 114453820.61908       320.927 8        51.082                                                                    21979656.491 8  93003126.82808       260.819 8        50.487
G11        36.000    23009311.490 7 120914766.38107     -2729.514 7        45.889                                    23009307.822 5  94219296.28105     -2126.896 5        32.467    23009308.231 7  94219296.27407     -2126.864 7        42.783
I09        38.000    38530183.787 7 151200675.31307      -825.794 7        42.040
R08        39.000    19528063.521 8 104571908.73908       681.507 8        50.846                                                                    19528061.099 7  81333708.53507       530.044 7        47.447
E25        40.000    27308777.603 6 143508611.29806      2727.492 6        40.458                                                                    27308780.824 7 107165529.14207      2036.927 7        42.586    27308780.310 7 109961143.16807      2090.003 7        43.820
S44        42.000    40832025.392 6 214573849.23706      -464.630 6        37.342
C09        43.000                                                                                                                                    39609205.866 6 206255532.60706     -1207.975 6        39.285    39609202.973 7 159489848.04507      -934.016 7        43.716    39609200.797 6 167599492.90906      -981.254 6        40.043
C05        44.000                                                                                                                                    39238300.873 6 204324135.95806      -469.577 6        37.626    39238298.935 7 157996398.25407      -363.130 7        43.367    39238300.777 6 166030193.64106      -381.585 6        40.839
R06        45.000    24440893.127 3                     -3999.396 3        20.357
R17        47.000    23791624.692 7 127313784.63007      1870.784 7        42.845                                                                    23791623.474 6  99021835.94506      1455.219 6        39.679
C06        49.000                                                                                                                                    40366307.626 6 210197938.21106     -1445.112 6        36.427    40366303.892 6 162538352.42206     -1117.654 6        39.156    40366303.045 6 170803013.76106     -1174.438 6        36.246
C16        50.000                                                                                                                                    40927487.894 6 213120142.51606     -1401.160 6        37.728    40927491.089 6 164798010.42106     -1083.611 6        39.532    40927487.450 5 173177562.41505     -1138.804 5        34.109
S48        51.000    77164975.483 6 405504570.18506      -397.726 6        38.159
C19        52.000                                                                                                                                    24192843.631 7 125978517.02907     -2945.448 7        46.563                                                                    24192840.349 7 102367861.66107     -2393.422 7        46.870
C12        53.000                                                                                                                                    26524824.998 6 138121710.97806     -2973.384 6        36.348    26524822.221 6 106804447.08006     -2299.191 6        41.478    26524820.614 6 112235178.88506     -2415.925 6        38.577
C60        54.000                                                                                                                                    40832028.431 6 212623196.45906      -460.365 6        40.246                                                                    40832017.419 6 172773713.66506      -374.096 6        39.667
R16        55.000    24203785.158 6 129292259.51106     -4658.208 6        39.069                                                                    24203786.204 6 100560658.48406     -3623.160 6        38.805
C11        56.000                                                                                                                                    26039795.291 6 135596056.13606     -1078.697 6        39.192    26039792.404 7 104851452.72207      -834.150 7        43.289    26039791.332 6 110182880.15706      -876.523 6        40.863
C02        57.000                                                                                                                                    40804924.979 5 212481889.01705      -489.538 5        35.462    40804924.673 6 164304440.48306      -378.575 6        39.550    40804926.447 5 172658920.42305      -397.853 5        35.652
I03        58.000   127541673.972 6 424715555.27006       895.067 6        40.474
R07        59.000    20485444.042 8 109660197.44008     -2558.798 8        50.103                                                                    20485443.270 7  85291262.76207     -1990.207 7        46.086
G07        60.000    20863665.224 8 109639328.51108     -1118.951 8        49.163                                    20863660.712 8  85433237.15408      -871.907 8        50.109    20863661.204 7  85433238.15207      -871.880 7        46.290
> 2025 01 01 06 00 10.0000000  0 55
G16         1.000    24682179.474 6 129705726.93006     -3144.403 6        36.790                                    24682175.956 2 101069376.56502     -2450.184 2        16.415
R01         2.000    22947420.820 7 122667108.95607      3136.929 7        42.406                                                                    22947421.672 5  95407819.91605      2439.648 5        34.924
G09         3.000    21887390.257 7 115019037.12607     -2936.788 7        45.226                                    21887389.729 7  89625229.18007     -2288.402 7        45.353    21887389.429 7  89625230.17207     -2288.385 7        42.521
E34         4.000    26356499.301 7 138504332.22607     -3325.004 7        43.185                                                                    26356500.538 7 103428562.78507     -2482.976 7        44.727    26356500.272 7 106126699.08607     -2547.725 7        45.840
S21         5.000    38436113.944 7 201982951.83707      -412.171 7        43.554
E05         6.000    21987699.512 8 115546181.93008     -1048.899 8        49.028                                                                    21987699.325 8  86284515.53308      -783.260 8        50.896    21987698.962 8  88535408.06908      -803.681 8        51.900
E15         7.000    25487516.503 7 133937823.73607     -1152.421 7        44.178                                                                    25487517.039 7 100018528.44207      -860.634 7        46.576    25487516.746 7 102627705.18407      -883.056 7        47.858
R10         8.000    19895753.220 8 106055562.64308      1710.596 8        48.401
E31         9.000    26412055.087 6 138796291.31806     -1326.977 6        41.728                                                                    26412056.409 7 103646603.71907      -990.952 7        44.030    26412055.914 7 106350426.31207     -1016.820 7        44.615
G04        10.000    24337417.557 6 127893946.00206     -3526.377 6        38.871                                    24337418.831 3  99657607.28103     -2747.808 3        22.705    24337419.564 6  99657602.25206     -2747.922 6        38.889
E09        11.000    26967368.726 6 141714476.28106     -2712.464 6        41.964                                                                    26967371.364 7 105825747.53507     -2025.546 7        43.310    26967371.277 7 108586420.17907     -2078.391 7        45.344
S27        12.000    39082977.992 6 205382378.19806      -432.368 6        36.991
G06        13.000    24434935.558 6 128406457.68506     -3920.134 6        39.111                                    24434935.678 5 100056978.40805     -3054.644 5        33.874    24434937.081 6 100056989.39806     -3054.553 6        38.003
S36        14.000    38204377.762 7 200765872.86707      -412.850 7        44.781
G20        15.000    20821819.827 7 109419411.91607       631.879 7        47.854                                    20821815.112 6  85261861.49206       492.373 6        39.360
R11        16.000    23126436.965 7 123580679.80607      4140.284 7        43.082                                                                    23126437.649 6  96118306.90006      3220.282 6        41.826
S45        17.000    63387778.326 6 333105869.11206      -454.134 6        36.858
E13        18.000    27587705.851 6 144974387.52106      1437.204 6        39.036                                                                    27587707.814 6 108260083.49306      1073.225 6        41.707    27587707.333 7 111084260.47807      1101.213 7        43.060
E24        19.000    25703872.271 7 135074746.35907      1312.233 7        45.395                                                                    25703872.071 7 100867516.04007       979.903 7        47.490    25703871.219 8 103498839.21308      1005.511 8        48.328
R23        20.000    23597773.368 7 126232165.74807     -4327.602 7        42.161
G30        21.000    20919721.765 8 109933903.77008      1210.242 8        50.177                                    20919719.952 8  85662790.13308       943.047 8        51.235    20919720.497 7  85662794.13307       943.019 7        44.694
I06        22.000    37956078.324 7 148948016.75407      -317.496 7        43.367
S28        23.000    40865627.359 5 214750228.82605      -414.761 5        35.300
G14        24.000    24779252.556 6 130215851.19506      3147.935 6        36.658                                    24779252.721 3 101466898.28303      2452.936 3        19.015    24779253.736 6 101466900.28606      2453.025 6        37.520
S23        25.000    38140745.043 7 200430939.68907      -409.394 7        44.916
C34        27.000                                                                                                                                    26247225.796 6 136676196.69406     -2215.338 6        39.919                                                                    26247226.230 6 111060610.36906     -1800.222 6        38.372
G13        28.000    23933802.858 6 125772989.75206      2836.226 6        40.474                                    23933798.520 3  98004907.49903      2210.056 3        19.940
R09        29.000    20229484.263 8 108024326.18508     -2042.208 8        49.308                                                                    20229483.655 7  84018923.76407     -1588.399 7        47.934
C22        30.000                                                                                                                                    21433869.433 8 111611809.01608      -420.145 8        52.294                                                                    21433863.055 8  90693724.04308      -341.470 8        49.820
I01        31.000   342638513.660 6  41446270.64206     -2962.308 6        41.442
E03        32.000    24543648.078 7 128977761.14907      1200.397 7        46.638                                                                    24543647.651 8  96314581.75408       896.396 8        48.934    24543647.436 8  98827129.82808       919.766 8        50.225
G05        33.000    22788528.995 7 119754557.56807      2649.844 7        44.924                                    22788524.713 6  93315239.24106      2064.812 6        40.992    22788525.638 6  93315242.23406      2064.873 6        40.493
R24        34.000    22520379.808 7 120426610.59807     -1484.251 7        46.553                                                                    22520378.278 6  93665145.12206     -1154.540 6        41.251
C36        35.000                                                                                                                                    21979345.112 8 114452222.96008       318.371 8        51.298                                                                    21979349.618 8  93001828.62208       258.585 8        50.371
G11        36.000    23011909.021 7 120928419.67007     -2731.700 7        45.482                                    23011905.915 5  94229935.19805     -2128.597 5        32.455    23011906.443 7  94229935.19407     -2128.493 7        42.633
I09        38.000    38531236.265 6 151204804.34106      -825.749 6        41.921
R08        39.000    19527428.406 8 104568507.17608       679.342 8        50.710                                                                    19527426.049 7  81331062.87407       528.352 7        46.936
E25        40.000    27306182.465 6 143494973.75606      2727.559 6        40.663                                                                    27306185.729 7 107155345.26307      2036.842 7        42.347    27306185.116 7 109950693.61107      2090.024 7        44.017
S44        42.000    40832470.864 6 214576172.92106      -464.506 6        37.353
C09        43.000                                                                                                                                    39610365.495 6 206261572.14206     -1207.650 6        39.610    39610362.846 7 159494518.19207      -933.900 7        43.613    39610360.572 6 167604400.54506      -981.506 6        39.991
C05        44.000                                                                                                                                    39238751.819 6 204326484.23406      -469.612 6        37.679    39238749.911 7 157998214.06907      -363.052 7        43.361    39238751.851 6 166032101.80106      -381.703 6        40.598
R06        45.000    24444634.140 3                     -4001.948 3        22.057
R17        47.000    23789877.257 7 127304439.40207      1867.473 7        43.183                                                                    23789876.798 6  99014567.52106      1452.432 6        38.246
C06        49.000                                                                                                                                    40367695.695 6 210205164.34606     -1445.060 6        36.715    40367691.697 6 162543940.06806     -1117.268 6        39.126    40367690.951 5 170808885.56005     -1174.429 5        35.819
C16        50.000                                                                                                                                    40928833.463 6 213127148.57506     -1401.125 6        37.758    40928836.165 6 164803427.90606     -1083.175 6        39.883    40928832.852 5 173183255.37605     -1138.502 5        34.019
S48        51.000    77165357.771 6 405506559.11506      -397.477 6        38.267
C19        52.000                                                                                                                                    24195672.625 7 125993247.72607     -2946.605 7        46.825                                                                    24195669.381 7 102379831.55507     -2394.410 7        46.820
C12        53.000                                                                                                                                    26527678.988 6 138136580.23406     -2974.245 6        36.926    26527678.031 6 106815944.92906     -2299.833 6        41.468    26527676.089 6 112247261.39206     -2416.854 6        38.565
C60        54.000                                                                                                                                    40832470.710 6 212625499.01306      -460.429 6        40.336                                                                    40832459.618 6 172775584.66906      -374.284 6        39.300
R16        55.000    24208145.773 6 129315553.67406     -4659.181 6        38.751                                                                    24208148.344 6 100578776.13506     -3623.814 6        38.982
C11        56.000                                                                                                                                    26040832.714 6 135601456.76206     -1081.400 6        39.513    26040829.881 7 104855628.83407      -836.071 7        43.458    26040828.525 6 110187268.61806      -878.697 6        40.875
C02        57.000                                                                                                                                    40805395.085 5 212484337.28505      -489.572 5        35.276    40805395.011 6 164306333.59506      -378.627 6        39.357    40805396.732 5 172660909.80805      -397.901 5        35.476
I03        58.000   127540533.871 6 424711079.58706       895.222 6        40.324
R07        59.000    20487834.650 8 109672996.97508     -2560.836 8        49.701                                                                    20487834.807 7  85301217.95007     -1991.726 7        46.024
G07        60.000    20864730.944 8 109644928.88908     -1121.054 8        48.965                                    20864726.434 8  85437601.08308      -873.549 8        50.093    20864726.712 7  85437602.08407      -873.597 7        46.073
> 2025 01 01 06 00 15.0000000  0 55
G16         1.000    24685173.196 6 129721456.17806     -3147.216 6        36.491                                    24685169.246 2 101081633.09802     -2452.392 2        16.981
R01         2.000    22944486.902 7 122651425.67907      3136.490 7        42.044                                                                    22944487.346 5  95395621.80505      2439.466 5        35.076
G09         3.000    21890185.376 7 115033724.44907     -2938.238 7        44.944                                    21890184.542 7  89636673.82907     -2289.534 7        45.416    21890184.852 7  89636674.81907     -2289.544 7        42.269
E34         4.000    26359663.572 7 138520960.42707     -3326.228 7        42.637                                                                    26359664.755 7 103440979.93207     -2483.876 7        44.486    26359664.588 7 106139440.16307     -2548.692 7        45.753
S21         5.000    38436503.060 7 201985013.68107      -412.403 7        43.517
E05         6.000    21988698.151 8 115551429.96508     -1050.359 8        48.834                                                                    21988697.946 8  86288434.51608      -784.331 8        50.812    21988697.622 8  88539429.28408      -804.787 8        51.811
E15         7.000    25488614.653 7 133943593.28207     -1155.302 7        44.191                                                                    25488614.925 7 100022836.86307      -862.724 7        46.459    25488614.694 7 102632126.00107      -885.202 7        47.818
R10         8.000    19894150.236 7 106047020.59607      1706.196 7        47.945
E31         9.000    26413319.116 6 138802933.11406     -1329.659 6        41.540                                                                    26413320.382 7 103651563.49607      -992.919 7        43.871    26413319.779 7 106355515.47407     -1018.812 7        44.528
G04        10.000    24340772.575 6 127911579.18806     -3527.127 6        38.456                                    24340774.685 3  99671347.35203     -2748.394 3        22.609    24340775.523 6  99671342.32206     -2748.332 6        39.342
E09        11.000    26969949.694 6 141728040.16606     -2713.125 6        41.681                                                                    26969952.647 7 105835876.37007     -2025.981 7        43.300    26969952.217 7 108596813.24607     -2078.950 7        45.133
S27        12.000    39083388.755 6 205384541.00706      -432.855 6        36.957
G06        13.000    24438665.888 6 128426059.75206     -3920.666 6        39.634                                    24438665.727 5 100072252.72805     -3055.060 5        34.086    24438666.908 6 100072263.72606     -3055.039 6        38.252
S36        14.000    38204771.425 7 200767937.41807      -413.070 7        44.805
G20        15.000    20821220.083 7 109416260.58707       628.566 7        47.724                                    20821215.445 6  85259405.91006       489.793 6        39.372
R11        16.000    23122564.049 7 123559980.66207      4139.282 7        43.291                                                                    23122564.180 6  96102207.57806      3219.432 6        41.819
S45        17.000    63388168.850 6 333108141.39406      -454.694 6        36.726
E13        18.000    27586339.882 6 144967206.81406      1435.000 6        39.042                                                                    27586341.313 7 108254721.28407      1071.606 7        42.036    27586340.934 7 111078758.38907      1099.523 7        43.185
E24        19.000    25702624.800 7 135068190.78807      1309.926 7        45.088                                                                    25702624.570 7 100862620.63707       978.207 7        47.308    25702623.720 8 103493816.10908      1003.734 8        48.103
R23        20.000    23601819.648 6 126253807.36106     -4329.012 6        41.487
G30        21.000    20918571.457 8 109927859.12208      1207.603 8        50.382                                    20918569.694 8  85658080.01708       940.989 8        51.344    20918570.123 7  85658084.01907       940.972 7        44.889
I06        22.000    37956483.087 7 148949605.08907      -317.774 7        43.352
S28        23.000    40866030.038 5 214752303.85605      -415.046 5        35.176
G14        24.000    24776257.872 6 130200111.60106      3147.811 6        36.896                                    24776257.682 3 101454633.67203      2452.838 3        19.731    24776258.128 6 101454635.68206      2452.886 6        37.977
S23        25.000    38141134.602 7 200432987.39107      -409.655 7        44.874
C34        27.000                                                                                                                                    26249354.754 6 136687278.11706     -2217.370 6        39.489                                                                    26249354.059 6 111069614.93306     -1801.908 6        38.748
G13        28.000    23931104.751 6 125758810.00706      2835.658 6        40.236                                    23931100.294 3  97993858.34903      2209.612 3        20.524
R09        29.000    20231398.123 8 108034548.19208     -2046.605 8        48.901                                                                    20231397.909 8  84026874.22008     -1591.789 8        48.000
C22        30.000                                                                                                                                    21434274.050 8 111613915.27008      -422.398 8        52.316                                                                    21434267.540 8  90695435.52908      -343.149 8        50.160
I01        31.000   342642288.436 6  41461083.37306     -2962.725 6        41.406
E03        32.000    24542506.367 7 128971761.82707      1199.389 7        46.455                                                                    24542506.007 8  96310101.74508       895.593 8        48.851    24542505.838 8  98822532.94408       918.995 8        50.155
G05        33.000    22786008.539 7 119741312.93407      2647.947 7        44.348                                    22786004.319 6  93304918.74806      2063.335 6        41.175    22786005.121 6  93304921.75606      2063.325 6        40.982
R24        34.000    22521769.028 7 120434042.84707     -1488.693 7        46.454                                                                    22521768.268 7  93670925.76007     -1157.852 7        42.425
C36        35.000                                                                                                                                    21979040.895 8 114450638.75108       315.314 8        51.365                                                                    21979045.420 8  93000541.30408       256.279 8        50.622
G11        36.000    23014508.730 7 120942084.18807     -2734.197 7        44.385                                    23014506.199 5  94240582.87005     -2130.541 5        32.605    23014506.363 7  94240582.86107     -2130.553 7        43.187
I09        38.000    38532288.589 6 151208933.85106      -826.045 6        41.781
R08        39.000    19526795.020 8 104565116.61908       676.877 8        50.582                                                                    19526792.595 7  81328425.77607       526.401 7        47.188
E25        40.000    27303587.169 6 143481336.76306      2727.129 6        40.610                                                                    27303590.719 7 107145161.79107      2036.540 7        42.324    27303590.136 7 109940244.48007      2089.682 7        44.041
S44        42.000    40832912.446 6 214578496.38006      -464.916 6        37.388
C09        43.000                                                                                                                                    39611525.236 6 206267611.54206     -1208.028 6        39.447    39611522.613 7 159499188.22007      -934.109 7        43.820    39611520.594 6 167609308.03206      -981.687 6        40.293
C05        44.000                                                                                                                                    39239202.884 6 204328832.42706      -469.954 6        37.803    39239200.919 7 158000029.80907      -363.280 7        43.479    39239202.806 6 166034009.86106      -381.706 6        40.887
R06        45.000    24448386.117 3                     -4002.319 3        20.500
R17        47.000    23788133.408 7 127295111.70307      1863.661 7        42.368                                                                    23788133.463 6  99007312.66806      1449.652 6        39.450
C06        49.000                                                                                                                                    40369083.034 6 210212389.81406     -1445.386 6        36.662    40369079.312 6 162549527.24406     -1117.594 6        38.985    40369078.547 6 170814756.81306     -1174.258 6        36.072
C16        50.000                                                                                                                                    40930178.117 6 213134153.78406     -1401.011 6        37.595    40930181.247 6 164808844.75906     -1083.399 6        39.862    40930178.421 5 173188947.65605     -1138.369 5        34.457
S48        51.000    77165744.401 6 405508548.11106      -397.915 6        38.291
C19        52.000                                                                                                                                    24198502.625 7 126007984.14607     -2948.052 7        46.795                                                                    24198499.389 7 102391806.07307     -2395.412 7        47.139
C12        53.000                                                                                                                                    26530536.859 6 138151453.88506     -2975.253 6        38.030    26530533.659 6 106827446.19506     -2300.705 6        41.218    26530532.251 6 112259347.46906     -2417.545 6        38.477
C60        54.000                                                                                                                                    40832912.645 6 212627801.34406      -460.610 6        40.396                                                                    40832901.732 6 172777455.47506      -374.180 6        39.820
R16        55.000    24212507.216 6 129338852.76106     -4660.435 6        38.267                                                                    24212509.380 6 100596897.66306     -3624.704 6        39.081
C11        56.000                                                                                                                                    26041872.465 6 135606870.15606     -1084.168 6        40.024    26041869.919 7 104859814.83607      -838.307 7        43.636    26041868.241 6 110191667.45006      -880.882 6        41.116
C02        57.000                                                                                                                                    40805864.945 5 212486785.40505      -489.991 5        35.295    40805865.122 6 164308226.59906      -378.817 6        39.589    40805866.906 5 172662899.07905      -397.849 5        35.676
I03        58.000   127539392.660 6 424706603.78606       894.894 6        40.355
R07        59.000    20490228.002 8 109685806.81808     -2563.205 8        49.952                                                                    20490227.697 7  85311181.14707     -1993.614 7        46.050
G07        60.000    20865798.654 8 109650540.10308     -1123.521 8        48.756                                    20865794.213 8  85441973.45308      -875.470 8        50.253    20865794.343 7  85441974.45407      -875.458 7        45.962
> 2025 01 01 06 00 20.0000000  0 55
G16         1.000    24688169.307 6 129737198.16906     -3149.588 6        36.839                                    24688164.952 2 101093899.55502     -2454.234 2        16.453
R01         2.000    22941552.838 6 122635743.77806      3136.122 6        41.046                                                                    22941553.084 5  95383424.75805      2439.208 5        35.000
G09         3.000    21892981.665 7 115048418.42907     -2939.525 7        45.333                                    21892980.634 7  89648123.66607     -2290.536 7        45.374    21892981.043 7  89648124.65807     -2290.597 7        42.281
E34         4.000    26362828.752 7 138537593.92807     -3327.304 7        42.480                                                                    26362830.006 7 103453401.04207     -2484.733 7        44.466    26362829.924 7 106152185.30107     -2549.489 7        45.872
S21         5.000    38436898.097 7 201987075.93307      -412.681 7        43.384
E05         6.000    21989697.796 8 115556683.75708     -1051.349 8        48.893                                                                    21989697.746 8  86292357.79808      -785.160 8        50.886    21989697.408 8  88543454.91308      -805.589 8        51.784
E15         7.000    25489714.885 7 133949375.91707     -1157.996 7        43.977                                                                    25489715.365 7 100027155.05207      -864.718 7        46.421    25489715.053 7 102636556.84707      -887.259 7        47.794
R10         8.000    19892551.339 7 106038499.41607      1702.100 7        47.996
E31         9.000    26414585.472 6 138809587.21806     -1332.091 6        41.712                                                                    26414586.651 7 103656532.46507      -994.818 7        43.820    26414586.038 7 106360614.07207     -1020.814 7        44.602
G04        10.000    24344128.465 6 127929214.91306     -3527.443 6        38.249                                    24344131.000 3  99685089.41803     -2748.633 3        22.324    24344130.719 6  99685084.39306     -2748.565 6        39.351
E09        11.000    26972531.132 6 141741606.25606     -2713.371 6        41.616                                                                    26972534.336 7 105846006.85307     -2026.295 7        43.649    26972533.623 7 108607208.01007     -2079.231 7        45.071
S27        12.000    39083798.740 6 205386704.12906      -432.828 6        36.741
G06        13.000    24442396.388 6 128445663.81206     -3921.007 6        40.188                                    24442396.254 5 100087528.61105     -3055.325 5        34.438    24442397.465 6 100087539.61306     -3055.362 6        38.111
S36        14.000    38205163.470 7 200770002.78407      -413.220 7        44.548
G20        15.000    20820623.593 8 109413125.11708       625.411 8        48.094                                    20820618.761 6  85256962.68006       487.335 6        39.360
R11        16.000    23118691.002 7 123539285.74907      4138.424 7        43.498                                                                    23118691.672 6  96086111.53606      3218.794 6        41.230
S45        17.000    63388555.744 6 333110414.02906      -454.463 6        36.820
E13        18.000    27584975.547 6 144960036.57106      1432.826 6        39.039                                                                    27584976.666 6 108249366.85806      1070.091 6        41.998    27584976.569 7 111073264.29107      1097.896 7        43.340
E24        19.000    25701379.163 7 135061645.77107      1307.811 7        45.207                                                                    25701379.137 7 100857733.11907       976.636 7        47.439    25701378.182 8 103488801.09508      1002.112 8        48.056
R23        20.000    23605866.728 6 126275454.95106     -4330.293 6        41.931
G30        21.000    20917423.640 8 109921826.76708      1205.151 8        50.156                                    20917421.780 8  85653379.48008       939.078 8        51.353    20917422.297 7  85653383.48307       939.111 7        44.632
I06        22.000    37956887.904 7 148951194.05007      -317.930 7        43.346
S28        23.000    40866417.737 5 214754379.42705      -415.349 5        35.076
G14        24.000    24773262.755 6 130184371.46406      3148.193 6        37.694                                    24773262.701 3 101442368.64403      2453.136 3        19.493    24773262.929 6 101442370.64006      2452.996 6        37.913
S23        25.000    38141523.700 7 200435035.65507      -409.693 7        44.739
C34        27.000                                                                                                                                    26251484.050 6 136698369.02106     -2219.191 6        39.216                                                                    26251484.120 6 111078627.17806     -1803.220 6        38.556
G13        28.000    23928406.546 6 125744633.16906      2835.066 6        40.672                                    23928402.608 3  97982811.46103      2209.150 3        20.524
R09        29.000    20233316.659 8 108044791.10008     -2050.701 8        49.424                                                                    20233316.144 8  84034840.91008     -1595.026 8        48.290
C22        30.000                                                                                                                                    21434680.460 8 111616031.89208      -424.442 8        52.362                                                                    21434674.034 8  90697155.45508      -344.776 8        50.047
I01        31.000   342646063.606 6  41475897.23706     -2962.878 6        41.535
E03        32.000    24541365.673 7 128965766.86907      1198.513 7        46.663                                                                    24541365.258 8  96305624.99008       895.001 8        48.802    24541365.004 8  98817939.40808       918.291 8        50.194
G05        33.000    22783489.977 7 119728077.42107      2646.093 7        44.459                                    22783485.704 6  93294605.36006      2061.890 6        41.142    22783486.280 6  93294608.36906      2061.816 6        40.810
R24        34.000    22523162.901 7 120441496.41007     -1492.868 7        45.791                                                                    22523162.694 7  93676722.98007     -1161.129 7        42.184
C36        35.000                                                                                                                                    21978739.431 8 114449068.70208       312.492 8        51.659                                                                    21978743.885 8  92999265.50608       253.988 8        50.567
G11        36.000    23017111.538 7 120955760.63607     -2736.574 7        44.667                                    23017108.755 5  94251239.83505     -2132.393 5        32.479    23017108.772 7  94251239.82707     -2132.387 7        43.079
I09        38.000    38533340.985 6 151213064.37606      -826.237 6        41.774
R08        39.000    19526163.892 8 104561737.84808       674.495 8        50.427                                                                    19526161.754 7  81325797.83707       524.621 7        47.094
