     3.04           OBSERVATION DATA    M                   RINEX VERSION / TYPE
ssrcrin-15.6.1x                         20250101 070000 UTC PGM / RUN BY / DATE 
(00000000023479385599111004) Septentrio proprietary         COMMENT             
rref                                                        MARKER NAME         
01                                                          MARKER NUMBER       
geodetic                                                    MARKER TYPE         
NFB                 CLIMERS@TUW                             OBSERVER / AGENCY   
3297213             SEPT ASTERX SB3 PROB4.14.4              REC # / TYPE / VERS 
Unknown             Unknown                                 ANT # / TYPE        
  4127831.7704  1207192.7731  4695247.6905                  APPROX POSITION XYZ 
        0.0000        0.0000        0.0000                  ANTENNA: DELTA H/E/N
G   23 X1  C1C L1C D1C S1C C1W S1W C2W L2W D2W S2W C2L L2L  SYS / # / OBS TYPES 
       D2L S2L C5Q L5Q D5Q S5Q C1L L1L D1L S1L              SYS / # / OBS TYPES 
E   21 X1  C1C L1C D1C S1C C6C L6C D6C S6C C5Q L5Q D5Q S5Q  SYS / # / OBS TYPES 
       C7Q L7Q D7Q S7Q C8Q L8Q D8Q S8Q                      SYS / # / OBS TYPES 
S    9 X1  C1C L1C D1C S1C C5I L5I D5I S5I                  SYS / # / OBS TYPES 
R   17 X1  C1C L1C D1C S1C C2P L2P D2P S2P C2C L2C D2C S2C  SYS / # / OBS TYPES 
       C3Q L3Q D3Q S3Q                                      SYS / # / OBS TYPES 
C   25 X1  C1P L1P D1P S1P C5P L5P D5P S5P C2I L2I D2I S2I  SYS / # / OBS TYPES 
       C7I L7I D7I S7I C6I L6I D6I S6I C7D L7D D7D S7D      SYS / # / OBS TYPES 
J   17 X1  C1C L1C D1C S1C C2L L2L D2L S2L C5Q L5Q D5Q S5Q  SYS / # / OBS TYPES 
       C1L L1L D1L S1L                                      SYS / # / OBS TYPES 
I    5 X1  C5A L5A D5A S5A                                  SYS / # / OBS TYPES 
SEPTENTRIO RECEIVERS OUTPUT ALIGNED CARRIER PHASES.         COMMENT             
NO FURTHER PHASE SHIFT APPLIED IN THE RINEX ENCODER.        COMMENT             
G L1C                                                       SYS / PHASE SHIFT   
G L2W                                                       SYS / PHASE SHIFT   
G L2L  0.00000                                              SYS / PHASE SHIFT   
G L5Q  0.00000                                              SYS / PHASE SHIFT   
G L1L  0.00000                                              SYS / PHASE SHIFT   
E L1C  0.00000                                              SYS / PHASE SHIFT   
E L6C  0.00000                                              SYS / PHASE SHIFT   
E L5Q  0.00000                                              SYS / PHASE SHIFT   
E L7Q  0.00000                                              SYS / PHASE SHIFT   
E L8Q  0.00000                                              SYS / PHASE SHIFT   
S L1C                                                       SYS / PHASE SHIFT   
S L5I                                                       SYS / PHASE SHIFT   
R L1C                                                       SYS / PHASE SHIFT   
R L2P  0.00000                                              SYS / PHASE SHIFT   
R L2C                                                       SYS / PHASE SHIFT   
R L3Q  0.00000                                              SYS / PHASE SHIFT   
C L1P  0.00000                                              SYS / PHASE SHIFT   
C L5P  0.00000                                              SYS / PHASE SHIFT   
C L2I                                                       SYS / PHASE SHIFT   
C L7I                                                       SYS / PHASE SHIFT   
C L6I                                                       SYS / PHASE SHIFT   
C L7D                                                       SYS / PHASE SHIFT   
J L1C                                                       SYS / PHASE SHIFT   
J L2L  0.00000                                              SYS / PHASE SHIFT   
J L5Q  0.00000                                              SYS / PHASE SHIFT   
J L1L  0.00000                                              SYS / PHASE SHIFT   
I L5A                                                       SYS / PHASE SHIFT   
  2025     1     1     7     0    0.0000000     GPS         TIME OF FIRST OBS   
 C1C    0.000 C2C    0.000 C2P    0.000                     GLONASS COD/PHS/BIS 
DBHZ                                                        SIGNAL STRENGTH UNIT
    18                                                      LEAP SECONDS        
 24 R01  1 R02 -4 R03  5 R04  6 R05  1 R06 -4 R07  5 R08  6 GLONASS SLOT / FRQ #
    R09 -2 R10 -7 R11  0 R12 -1 R13 -2 R14 -7 R15  0 R16 -1 GLONASS SLOT / FRQ #
    R17  4 R18 -3 R19  3 R20  2 R21  4 R22 -3 R23  3 R24  2 GLONASS SLOT / FRQ #
                                                            END OF HEADER       
> 2025 01 01 07 00  0.0000000  0 57
G08         1.000    24526363.470 6 128886933.28306      1113.689 6        38.081                                    24526371.855 4 100431423.93504       867.798 4        29.896    24526372.406 5 100431433.93905       868.009 5        35.590
R01         2.000    20670976.491 8 110498194.09008      2579.055 8        48.075                                                                    20670977.527 6  85943104.98006      2006.030 6        40.200
G09         3.000    23844697.927 6 125304624.14506     -3607.604 6        39.694                                    23844704.049 5  97639939.86905     -2811.108 5        34.781    23844704.051 6  97639940.85106     -2811.237 6        37.293
E34         4.000    28439487.825 6 149450428.76406     -3484.498 6        37.410                                                                    28439494.833 6 111602572.21206     -2601.886 6        39.378    28439493.736 6 114513946.32106     -2669.910 6        40.305
S21         5.000    38411527.872 7 201853723.41007      -390.802 7        43.151
E05         6.000    22649795.633 7 119025481.24607     -1763.133 7        46.643                                                                    22649798.368 8  88882681.93608     -1316.648 8        49.926    22649797.864 8  91201354.08208     -1350.982 8        50.862
E15         7.000    26523202.352 6 139380354.84806     -2640.772 6        40.560                                                                    26523205.642 7 104082745.71507     -1972.005 7        44.084    26523204.948 7 106797946.75307     -2023.588 7        44.629
R10         8.000    19496870.268 7 103929277.56007     -1426.684 7        45.982
E31         9.000    27528956.594 6 144665600.93806     -2711.634 6        38.204                                                                    27528960.930 6 108029516.42006     -2025.022 6        41.242    27528960.161 6 110847677.42706     -2077.819 6        41.683
G18        10.000    25340683.182 6 133166179.63406      1220.629 6        38.994                                    25340680.710 3 103765838.39103       951.149 3        22.438    25340681.218 6 103765846.38106       951.147 6        40.329
E09        11.000    28585639.334 5 150218377.29305     -2889.198 5        35.581                                                                    28585654.709 6 112176013.28706     -2157.443 6        41.318    28585652.791 6 115102350.84606     -2213.784 6        41.344
S27        12.000    39074269.802 6 205336565.62306      -416.675 6        36.503
G15        13.000    24987555.937 6 131310492.65306      3315.645 6        38.631                                    24987552.521 4 102319848.17104      2583.626 4        26.575    24987552.565 5 102319840.15005      2583.638 5        33.437
S36        14.000    38180263.486 7 200639100.56507      -391.188 7        44.212
G20        15.000    20878647.261 8 109718010.49808     -1688.466 8        48.082                                    20878644.465 6  85494527.82906     -1315.683 6        39.096
R11        16.000    20407387.644 8 109050894.05008      2785.328 8        51.168                                                                    20407388.691 7  84817360.00207      2166.351 7        47.389
S45        17.000    63362134.187 6 332971101.61806      -435.297 6        36.427
E13        18.000    26850524.140 6 141100469.12406      -223.233 6        39.595                                                                    26850525.038 7 105367222.94407      -166.648 7        43.424    26850524.662 7 108115933.93107      -171.001 7        44.206
E24        19.000    25050356.909 7 131640474.59907      -333.120 7        44.947                                                                    25050358.763 8  98302954.78708      -248.723 8        48.372    25050357.828 8 100867377.24908      -255.240 8        49.085
R18        20.000    24127394.428 6 128793668.37906      1743.218 6        39.273                                                                    24127397.668 6 100172845.51406      1355.882 6        38.847
G30        21.000    20374570.886 8 107069097.16308      -482.919 8        50.927                                    20374570.561 8  83430468.18308      -376.299 8        52.793    20374571.132 7  83430472.18207      -376.260 7        45.457
I06        22.000    37952762.561 7 148934941.85507      -328.325 7        43.685
S28        23.000    40843795.485 5 214635407.17205      -396.418 5        34.814
G14        24.000    22408281.167 7 117756304.81707      2704.620 7        45.544                                    22408281.925 5  91758159.24205      2107.498 5        33.305    22408281.385 7  91758161.22907      2107.533 7        43.410
S23        25.000    38114568.384 7 200293341.35007      -388.834 7        44.379
E08        26.000    27237494.815 6 143133994.87206      2046.705 6        38.877                                                                    27237493.283 6 106885772.60606      1528.457 6        41.530    27237493.173 7 109674094.87907      1568.323 7        42.790
C07        27.000                                                                                                                                    39994730.048 6 208263036.56606       981.739 6        37.648    39994730.793 7 161042199.27507       759.191 7        43.024    39994727.431 6 169230772.55606       797.823 6        38.784
G13        28.000    21850154.855 7 114823339.42707      2313.115 7        45.112                                    21850151.697 5  89472710.31005      1802.425 5        30.755
R09        29.000    22104802.050 7 118038374.56507     -4142.386 7        45.407                                                                    22104803.704 7  91807617.42007     -3221.851 7        43.435
C22        30.000                                                                                                                                    21926137.357 8 114175140.68008     -1892.984 8        51.578                                                                    21926132.745 8  92776633.47108     -1538.192 8        50.180
I01        31.000   345084662.356 6  51045378.28606     -3034.777 6        40.112
E03        32.000    23619672.619 7 124122218.56307       598.875 7        47.800                                                                    23619673.889 8  92688683.76908       447.169 8        50.735    23619673.460 8  95106643.87008       458.868 8        51.668
G05        33.000    21228551.760 7 111556801.71007       851.745 7        47.124                                    21228548.510 7  86927372.71307       663.700 7        47.070    21228548.944 7  86927375.71907       663.688 7        44.018
R24        34.000    24046214.692 7 128585921.17707     -3661.023 7        42.442                                                                    24046214.981 5 100011271.30805     -2847.367 5        35.757
C36        35.000                                                                                                                                    22116475.829 8 115166273.83108     -1534.576 8        49.610                                                                    22116481.845 8  93582047.99908     -1246.960 8        50.257
G11        36.000    24966139.453 6 131197910.71606     -3618.174 6        39.718                                    24966139.458 3 102232121.26003     -2819.358 3        22.438    24966140.124 6 102232121.22506     -2819.246 6        38.655
I09        38.000    39016407.523 7 153108630.81007      -886.041 7        42.066
R08        39.000    19384611.052 8 103803693.32508     -1247.934 8        50.747                                                                    19384610.462 7  80736199.46907      -970.573 7        46.936
E25        40.000    25272650.777 7 132808676.54507      2201.323 7        44.960                                                                    25272655.192 7  99175313.65907      1643.786 7        47.405    25272654.138 7 101762487.79907      1686.654 7        47.853
G27        41.000    24881684.387 6 130754145.60306      -298.939 6        36.246                                    24881686.303 4 101886360.89204      -232.939 4        28.882    24881686.406 5 101886364.89805      -233.274 5        34.843
S44        42.000    40838205.617 6 214606216.72006      -426.670 6        36.397
C09        43.000                                                                                                                                    40125669.023 6 208944819.37306     -1140.441 6        37.611    40125671.867 7 161569355.56407      -881.946 7        42.565    40125668.413 6 169784742.94506      -926.731 6        38.904
C05        44.000                                                                                                                                    39257661.416 6 204424873.95906      -451.596 6        38.763    39257661.977 7 158074277.40107      -349.121 7        43.065    39257662.562 6 166112037.15706      -366.912 6        39.949
C40        45.000                                                                                                                                    40173404.101 6 209193450.26306      1233.724 6        40.050                                                                    40173407.625 6 169986827.87606      1002.468 6        40.672
C21        46.000                                                                                                                                    22494452.011 8 117134500.55408      1208.912 8        50.776                                                                    22494447.321 8  95181345.93108       982.431 8        49.926
R17        47.000    23191205.040 7 124100841.98107     -1056.316 7        44.491                                                                    23191206.778 7  96522882.96607      -821.653 7        42.136
C06        49.000                                                                                                                                    41024487.315 5 213625127.87005     -1318.851 5        35.371    41024494.469 6 165188438.87006     -1020.052 6        39.159    41024490.875 6 173587858.74506     -1071.543 6        36.960
C16        50.000                                                                                                                                    41547007.797 4 216346009.62104     -1253.687 4        28.900    41547022.142 5 167292418.86405      -969.083 5        32.826    41547015.498 4 175798814.19004     -1017.952 4        27.234
S48        51.000    77135314.177 6 405347841.91606      -376.378 6        37.947
C19        52.000                                                                                                                                    26170989.445 6 136279105.18606     -3582.717 6        40.830                                                                    26170992.696 7 110737904.88007     -2911.223 7        42.918
C60        54.000                                                                                                                                    40838204.726 6 212655268.90606      -422.526 6        39.907                                                                    40838197.224 6 172799756.95606      -343.418 6        38.420
C45        55.000                                                                                                                                    22309744.997 8 116172684.51708      1531.158 8        50.444                                                                    22309738.714 8  94399792.90708      1244.208 8        50.029
C11        56.000                                                                                                                                    27040336.641 3                     -2543.091 3        20.881    27040339.156 3                     -1965.379 3        22.267    27040337.644 3                     -2067.901 3        20.357
C02        57.000                                                                                                                                    40834431.629 5 212635459.14905      -460.708 5        33.281    40834437.341 6 164423169.50906      -356.400 6        40.031    40834438.244 5 172783691.71605      -374.388 5        35.686
I03        58.000   126413603.531 7 420288642.15107       916.317 7        42.019
R07        59.000    22373158.587 7 119765180.28207     -3882.825 7        46.093                                                                    22373163.140 7  93150669.13307     -3019.947 7        42.184
G07        60.000    21792826.440 7 114522067.95007     -2363.497 7        46.828                                    21792824.031 7  89237960.53107     -1841.684 7        45.673    21792823.968 7  89237961.51507     -1841.696 7        43.234
> 2025 01 01 07 00  5.0000000  0 57
G08         1.000    24525304.156 6 128881369.78506      1111.563 6        38.012                                    24525313.047 4 100427088.78804       866.135 4        29.336    24525313.716 5 100427098.81405       866.217 5        35.481
R01         2.000    20668564.559 7 110485302.15607      2577.729 7        47.721                                                                    20668565.728 6  85933077.91406      2005.027 6        40.758
G09         3.000    23848130.485 6 125322663.45606     -3608.041 6        40.002                                    23848136.712 5  97653996.39905     -2811.445 5        34.948    23848137.534 6  97653997.38306     -2811.410 6        37.372
E34         4.000    28442802.750 6 149467849.73806     -3483.884 6        37.191                                                                    28442810.056 6 111615581.32206     -2601.596 6        39.357    28442808.891 6 114527294.79706     -2669.495 6        40.381
S21         5.000    38411901.883 7 201855676.69007      -390.477 7        43.344
E05         6.000    22651473.204 7 119034298.77007     -1763.832 7        46.831                                                                    22651476.318 8  88889266.42408     -1317.167 8        49.789    22651475.782 8  91208110.34408     -1351.470 8        50.868
E15         7.000    26525715.628 6 139393562.23006     -2642.135 6        40.884                                                                    26525718.978 7 104092608.33507     -1972.967 7        44.017    26525718.413 7 106808066.65607     -2024.440 7        44.450
R10         8.000    19498210.235 7 103936420.56807     -1430.542 7        46.169
E31         9.000    27531537.188 6 144679162.44706     -2712.782 6        38.456                                                                    27531541.380 6 108039643.51006     -2025.938 6        40.968    27531540.891 6 110858068.70006     -2078.751 6        41.528
G18        10.000    25339522.730 6 133160082.46706      1218.154 6        38.520                                    25339520.315 3 103761087.35503       949.207 3        22.038    25339519.762 6 103761095.34806       949.206 6        39.640
E09        11.000    28588388.133 5 150232822.58805     -2888.920 5        35.838                                                                    28588403.663 6 112186800.30006     -2157.422 6        41.259    28588401.646 6 115113419.25106     -2213.476 6        41.292
S27        12.000    39074665.617 6 205338649.52106      -416.705 6        36.310
G15        13.000    24984400.625 6 131293913.08906      3316.003 6        37.905                                    24984397.308 4 102306929.02804      2583.910 4        26.180    24984398.090 5 102306921.00905      2583.954 5        31.366
S36        14.000    38180631.447 7 200641055.97507      -390.937 7        44.200
G20        15.000    20880255.260 8 109726460.45408     -1691.464 8        48.295                                    20880252.434 6  85501112.19306     -1318.021 6        38.949
R11        16.000    20404783.184 8 109036974.45308      2782.520 8        50.858                                                                    20404783.936 7  84806533.64207      2164.203 7        47.274
S45        17.000    63362505.649 6 332973277.25706      -435.077 6        36.363
E13        18.000    26850737.113 6 141101590.69706      -225.524 6        39.408                                                                    26850738.519 7 105368060.47007      -168.404 7        43.372    26850738.063 7 108116793.30507      -172.754 7        44.232
E24        19.000    25050675.002 7 131642145.50507      -335.315 7        45.192                                                                    25050676.650 8  98304202.52808      -250.377 8        48.346    25050675.789 8 100868657.53708      -256.884 8        48.982
R18        20.000    24125763.640 6 128784960.70706      1739.924 6        38.718                                                                    24125766.534 6 100166072.88606      1353.248 6        39.492
G30        21.000    20375031.387 8 107071516.96208      -484.900 8        51.011                                    20375031.049 8  83432353.73008      -377.844 8        52.641    20375031.622 7  83432357.73107      -377.853 7        45.484
I06        22.000    37953180.462 7 148936583.15007      -328.156 7        43.772
S28        23.000    40844168.320 5 214637387.25405      -396.013 5        34.609
G14        24.000    22405708.281 7 117742785.08407      2703.324 7        45.394                                    22405709.154 5  91747624.38605      2106.488 5        33.216    22405709.161 7  91747626.38607      2106.437 7        43.771
S23        25.000    38114938.147 7 200295285.29907      -388.731 7        44.412
E08        26.000    27235547.067 6 143123760.78106      2046.927 6        38.898                                                                    27235545.839 6 106878130.25406      1528.542 6        41.456    27235545.665 7 109666253.16707      1568.384 7        42.682
C07        27.000                                                                                                                                    39993786.864 6 208258128.49006       981.501 6        38.003    39993788.330 7 161038404.06107       758.934 7        42.993    39993785.004 6 169226784.38206       797.386 6        38.805
G13        28.000    21847954.404 7 114811775.53107      2312.426 7        45.270                                    21847951.203 5  89463699.47105      1801.891 5        30.634
R09        29.000    22108681.677 7 118059090.05007     -4143.826 7        45.297                                                                    22108682.942 7  91823729.44007     -3222.862 7        42.957
C22        30.000                                                                                                                                    21927955.833 8 114184610.31608     -1894.849 8        51.822                                                                    21927951.300 8  92784328.33008     -1539.882 8        50.162
I01        31.000   345088529.029 6  51060550.91006     -3034.396 6        39.883
E03        32.000    23619103.300 7 124119226.05307       598.185 7        47.791                                                                    23619104.340 8  92686449.08408       446.713 8        50.663    23619104.010 8  95104350.88908       458.363 8        51.536
G05        33.000    21227742.947 7 111552550.51307       848.811 7        47.020                                    21227739.540 7  86924060.08107       661.411 7        47.008    21227740.209 7  86924063.07207       661.377 7        44.242
R24        34.000    24049638.606 7 128604230.88107     -3662.587 7        43.052                                                                    24049638.841 6 100025512.17706     -2848.695 6        36.200
C36        35.000                                                                                                                                    22117950.231 8 115173951.87708     -1536.681 8        49.890                                                                    22117956.408 8  93588287.04208     -1248.812 8        50.213
G11        36.000    24969581.939 6 131216001.03906     -3617.740 6        39.865                                    24969582.035 3 102246217.56103     -2819.011 3        22.667    24969582.742 6 102246217.56806     -2819.225 6        39.267
I09        38.000    39017536.528 7 153113060.81207      -886.029 7        42.425
R08        39.000    19385777.501 8 103809940.09208     -1250.729 8        50.371                                                                    19385777.001 7  80741058.04507      -972.715 7        47.320
E25        40.000    25270556.690 7 132797672.69107      2200.121 7        44.874                                                                    25270561.222 7  99167096.48407      1643.039 7        47.340    25270560.172 7 101754056.25407      1685.921 7        47.590
G27        41.000    24881970.092 6 130755648.86706      -302.039 6        36.730                                    24881972.495 4 101887532.25804      -235.354 4        28.521    24881972.823 5 101887536.24505      -235.325 5        35.090
S44        42.000    40838607.942 6 214608348.66506      -426.173 6        36.159
C09        43.000                                                                                                                                    40126764.346 6 208950521.43106     -1140.071 6        37.698    40126766.929 7 161573764.73607      -881.712 7        42.504    40126763.362 6 169789376.35106      -926.692 6        38.934
C05        44.000                                                                                                                                    39258094.667 6 204427131.25206      -451.211 6        38.874    39258095.434 7 158076022.87307      -348.973 7        42.927    39258096.184 6 166113871.40406      -366.871 6        39.787
C40        45.000                                                                                                                                    40172219.699 6 209187283.66606      1233.108 6        40.257                                                                    40172223.460 6 169981817.03406      1001.736 6        40.522
C21        46.000                                                                                                                                    22493291.939 8 117128459.78508      1207.404 8        50.791                                                                    22493287.263 8  95176437.31908       980.930 8        49.896
R17        47.000    23192194.723 7 124106133.88007     -1060.329 7        44.167                                                                    23192194.620 6  96526998.87706      -824.580 6        41.514
C06        49.000                                                                                                                                    41025754.624 5 213631721.98605     -1318.538 5        35.919    41025760.254 6 165193537.80306     -1019.643 6        39.204    41025757.299 6 173593217.00706     -1071.545 6        37.032
C16        50.000                                                                                                                                    41548211.986 4 216352274.43304     -1252.567 4        27.796    41548223.792 5 167297263.13805      -968.611 5        32.395    41548219.089 4 175803904.85104     -1018.341 4        27.880
S48        51.000    77135678.820 6 405349722.91406      -376.031 6        37.928
C19        52.000                                                                                                                                    26174429.614 6 136297019.91606     -3583.141 6        40.953                                                                    26174433.062 7 110752462.02807     -2911.770 7        42.679
C60        54.000                                                                                                                                    40838610.275 6 212657381.47906      -422.340 6        39.847                                                                    40838602.903 6 172801473.56806      -343.366 6        38.294
C45        55.000                                                                                                                                    22308275.599 8 116165033.62408      1529.254 8        50.533                                                                    22308269.469 8  94393575.94008      1242.472 8        50.011
C11        56.000                                                                                                                                                                                                    27042777.554 3                     -1964.559 3        21.619    27042777.155 3                     -2065.044 3        21.429
C02        57.000                                                                                                                                    40834874.172 5 212637762.47205      -460.459 5        33.389    40834879.737 6 164424950.52806      -356.167 6        39.976    40834880.514 5 172785563.35105      -374.638 5        35.443
I03        58.000   126412435.695 6 420284059.99206       916.501 6        41.857
R07        59.000    22376785.032 7 119784597.42707     -3884.066 7        45.580                                                                    22376790.831 7  93165771.29907     -3020.897 7        43.185
G07        60.000    21795075.521 7 114533888.23107     -2364.573 7        46.997                                    21795073.364 7  89247171.12307     -1842.524 7        45.601    21795072.808 7  89247172.11607     -1842.555 7        42.718
> 2025 01 01 07 00 10.0000000  0 57
G08         1.000    24524248.554 6 128875819.14106      1109.027 6        37.796                                    24524256.599 4 100422763.65804       864.163 4        28.768    24524257.706 5 100422773.68505       864.291 5        35.033
R01         2.000    20666154.524 8 110472418.57208      2576.053 8        48.044                                                                    20666154.507 6  85923057.34406      2003.528 6        40.131
G09         3.000    23851564.265 6 125340706.61206     -3608.924 6        39.471                                    23851570.234 5  97668055.93205     -2812.137 5        35.138    23851570.809 6  97668056.90706     -2812.022 6        37.713
E34         4.000    28446117.586 6 149485268.92906     -3483.376 6        37.161                                                                    28446124.756 6 111628589.09306     -2601.369 6        39.456    28446123.729 6 114540641.91706     -2669.156 6        40.305
S21         5.000    38412275.085 7 201857630.31207      -390.417 7        43.482
E05         6.000    22653152.514 7 119043121.74207     -1764.995 7        46.869                                                                    22653155.325 8  88895854.98708     -1318.006 8        50.005    22653154.775 8  91214870.79008     -1352.426 8        50.717
E15         7.000    26528230.358 6 139406777.72406     -2643.613 6        40.636                                                                    26528233.809 7 104102477.03007     -1974.241 7        44.116    26528233.223 7 106818192.79807     -2025.743 7        44.414
R10         8.000    19499555.116 7 103943584.78607     -1434.748 7        46.192
E31         9.000    27534119.137 6 144692731.62006     -2714.233 6        38.432                                                                    27534123.540 6 108049776.32306     -2026.976 6        41.023    27534122.972 6 110868465.85806     -2079.955 6        41.590
G18        10.000    25338364.779 6 133153999.49906      1215.379 6        37.588                                    25338362.737 3 103756347.38803       947.031 3        22.057    25338362.506 6 103756355.38306       947.008 6        39.207
E09        11.000    28591137.194 6 150247269.35206     -2889.316 6        36.140                                                                    28591152.865 6 112197588.39906     -2157.644 6        41.435    28591150.878 6 115124488.80006     -2213.830 6        41.397
S27        12.000    39075065.594 6 205340733.41506      -416.596 6        36.809
G15        13.000    24981245.717 6 131277333.87206      3315.759 6        38.051                                    24981242.185 4 102294010.16104      2583.702 4        26.287    24981242.855 5 102294002.11605      2583.925 5        32.545
S36        14.000    38181004.747 7 200643012.01807      -391.059 7        44.390
G20        15.000    20881866.294 8 109734926.45508     -1694.604 8        48.344                                    20881863.465 6  85507709.06506     -1320.468 6        38.964
R11        16.000    20402180.854 8 109023070.32208      2779.502 8        51.135                                                                    20402181.974 7  84795719.31307      2161.822 7        47.044
S45        17.000    63362875.479 6 332975453.18506      -435.097 6        36.370
E13        18.000    26850952.604 6 141102725.30106      -227.951 6        39.649                                                                    26850954.450 7 105368907.73807      -170.328 7        43.390    26850953.874 7 108117662.67807      -174.795 7        44.163
E24        19.000    25050995.648 7 131643829.12407      -337.835 7        45.344                                                                    25050997.063 8  98305459.77008      -252.209 8        48.334    25050996.210 8 100869947.58308      -258.863 8        49.009
R18        20.000    24124136.011 6 128776270.57706      1736.381 6        38.853                                                                    24124138.472 6 100159313.90506      1350.526 6        39.129
G30        21.000    20375494.220 8 107073948.54808      -487.377 8        51.104                                    20375493.777 8  83434248.46408      -379.772 8        52.651    20375494.361 7  83434252.45607      -379.720 7        45.457
I06        22.000    37953598.873 7 148938224.86007      -328.228 7        43.585
S28        23.000    40844541.508 5 214639367.35405      -395.787 5        34.752
G14        24.000    22403137.132 7 117729273.37607      2701.749 7        44.990                                    22403137.833 5  91737095.78105      2105.262 5        33.174    22403137.699 7  91737097.78107      2105.263 7        43.321
S23        25.000    38115308.509 7 200297229.60007      -388.642 7        44.504
E08        26.000    27233599.445 6 143113527.57106      2046.644 6        39.429                                                                    27233598.711 6 106870488.56906      1528.427 6        41.487    27233598.338 7 109658412.13007      1568.308 7        42.711
C07        27.000                                                                                                                                    39992844.843 6 208253223.78906       980.914 6        37.864    39992846.355 7 161034611.45207       758.431 7        42.904    39992843.182 6 169222798.90706       796.960 6        38.871
G13        28.000    21845754.816 7 114800217.47107      2311.247 7        44.671                                    21845751.768 5  89454693.17605      1800.975 5        30.672
R09        29.000    22112562.103 7 118079814.52507     -4145.621 7        44.315                                                                    22112564.110 7  91839848.45007     -3224.286 7        42.819
C22        30.000                                                                                                                                    21929776.624 8 114194090.74308     -1896.971 8        52.050                                                                    21929771.900 8  92792031.92908     -1541.446 8        50.286
I01        31.000   345092395.289 6  51075724.31706     -3034.821 6        39.595
E03        32.000    23618534.887 7 124116238.91807       597.034 7        47.689                                                                    23618535.996 8  92684218.42208       445.852 8        50.736    23618535.626 8  95102062.03908       457.494 8        51.464
G05        33.000    21226937.064 7 111548315.89307       845.445 7        46.907                                    21226933.727 7  86920760.36507       658.791 7        46.983    21226934.129 7  86920763.35607       658.814 7        44.188
R24        34.000    24053063.917 7 128622549.58407     -3664.458 7        42.246                                                                    24053064.709 6 100039760.06006     -2850.244 6        36.616
C36        35.000                                                                                                                                    22119427.096 8 115181641.81508     -1538.986 8        49.837                                                                    22119433.179 8  93594535.72508     -1250.501 8        50.301
G11        36.000    24973024.612 6 131234092.88106     -3618.290 6        40.236                                    24973025.180 3 102260315.06303     -2819.427 3        22.476    24973024.864 6 102260315.02406     -2819.344 6        39.222
I09        38.000    39018665.770 7 153117491.51607      -885.961 7        42.326
R08        39.000    19386946.572 8 103816202.59608     -1253.919 8        50.445                                                                    19386946.614 7  80745928.86707      -975.233 7        46.998
E25        40.000    25268463.742 7 132786676.02407      2198.740 7        44.340                                                                    25268468.744 7  99158884.69007      1641.917 7        47.504    25268467.563 7 101745630.24407      1684.822 7        47.553
G27        41.000    24882259.608 6 130757168.61806      -305.422 6        36.745                                    24882261.769 4 101888716.46504      -237.991 4        28.720    24882261.797 5 101888720.44405      -237.713 5        35.071
S44        42.000    40839015.665 6 214610480.82206      -426.382 6        36.522
C09        43.000                                                                                                                                    40127859.291 6 208956223.25906     -1140.147 6        37.705    40127861.966 7 161578173.69707      -881.585 7        42.381    40127858.679 6 169794009.49206      -926.565 6        39.108
C05        44.000                                                                                                                                    39258528.777 6 204429388.89506      -451.426 6        38.688    39258528.846 7 158077768.59607      -348.996 7        42.916    39258529.717 6 166115705.87306      -366.739 6        40.017
C40        45.000                                                                                                                                    40171036.614 6 209181121.06406      1232.340 6        40.334                                                                    40171040.059 6 169976809.40606      1001.381 6        40.646
C21        46.000                                                                                                                                    22492133.606 8 117122428.38208      1205.472 8        50.751                                                                    22492129.003 8  95171536.29208       979.575 8        49.953
R17        47.000    23193188.223 7 124111447.03007     -1064.558 7        45.607                                                                    23193187.308 6  96531131.31006      -827.938 6        41.466
C06        49.000                                                                                                                                    41027022.562 5 213638315.58305     -1318.448 5        35.781    41027026.487 6 165198636.33806     -1019.500 6        39.688    41027023.717 6 173598574.78406     -1071.378 6        37.089
C16        50.000                                                                                                                                    41549414.665 4 216358538.57504     -1252.856 4        28.512    41549426.404 5 167302106.97405      -968.752 5        31.600    41549422.054 4 175808994.89504     -1017.066 4        26.754
S48        51.000    77136042.265 6 405351604.15106      -376.033 6        37.909
C19        52.000                                                                                                                                    26177870.855 6 136314937.95506     -3583.703 6        40.894                                                                    26177874.192 7 110767021.82807     -2911.973 7        42.718
C60        54.000                                                                                                                                    40839016.070 6 212659494.24506      -422.371 6        39.700                                                                    40839008.559 6 172803190.31406      -343.210 6        38.348
C45        55.000                                                                                                                                    22306808.431 8 116157393.90008      1526.974 8        50.280                                                                    22306802.363 8  94387368.01808      1240.847 8        49.978
C11        56.000                                                                                                                                                                                                    27045219.672 3                     -1969.278 3        21.976    27045220.598 3                     -2065.126 3        20.500
C02        57.000                                                                                                                                    40835316.487 5 212640066.01405      -460.154 5        33.413    40835322.409 6 164426731.73106      -356.149 6        39.958    40835323.026 5 172787435.11905      -374.341 5        35.548
I03        58.000   126411268.417 6 420279478.03006       916.553 6        41.907
R07        59.000    22380413.080 7 119804022.57207     -3885.595 7        45.081                                                                    22380419.716 7  93180879.70507     -3022.244 7        43.086
G07        60.000    21797326.296 7 114545715.35207     -2365.991 7        47.327                                    21797323.999 7  89256387.04307     -1843.627 7        45.561    21797324.148 7  89256388.05207     -1843.605 7        42.591
> 2025 01 01 07 00 15.0000000  0 57
G08         1.000    24523194.162 6 128870281.11606      1106.439 6        37.459                                    24523202.445 4 100418448.36504       862.155 4        28.303    24523202.996 5 100418458.37205       862.373 5        34.733
R01         2.000    20663745.998 7 110459543.05307      2574.354 7        47.983                                                                    20663746.514 6  85913043.03006      2002.219 6        40.298
G09         3.000    23854998.413 6 125358753.31506     -3609.626 6        39.297                                    23855004.534 5  97682118.21705     -2812.677 5        35.195    23855005.370 6  97682119.17906     -2812.626 6        38.237
E34         4.000    28449432.025 6 149502686.06606     -3483.426 6        37.161                                                                    28449439.177 6 111641595.34706     -2601.210 6        39.261    28449438.263 6 114553987.45806     -2669.033 6        40.186
S21         5.000    38412648.604 7 201859584.08707      -390.720 7        43.422
E05         6.000    22654832.567 7 119051949.86407     -1765.969 7        47.317                                                                    22654835.269 8  88902447.39008     -1318.789 8        50.084    22654834.665 8  91221635.17208     -1353.172 8        50.709
E15         7.000    26530746.916 6 139420001.06006     -2645.373 6        40.684                                                                    26530750.046 7 104112351.56207     -1975.409 7        44.138    26530749.511 7 106828324.93907     -2027.055 7        44.465
R10         8.000    19500902.944 7 103950769.97407     -1439.027 7        46.091
E31         9.000    27536702.731 6 144706308.17706     -2716.051 6        38.372                                                                    27536707.056 6 108059914.65306     -2028.197 6        41.182    27536706.525 6 110878868.64906     -2081.027 6        41.268
G18        10.000    25337210.145 6 133147930.46606      1212.577 6        38.553                                    25337207.994 3 103751618.28203       944.867 3        21.810    25337208.087 6 103751626.28506       944.783 6        38.991
E09        11.000    28593886.668 6 150261717.27806     -2889.446 6        36.420                                                                    28593902.296 6 112208377.38706     -2157.766 6        41.518    28593900.327 6 115135559.25406     -2214.243 6        41.573
S27        12.000    39075460.305 6 205342817.47106      -416.681 6        36.624
G15        13.000    24978090.864 5 131260754.64605      3316.169 5        35.514                                    24978087.062 4 102281091.28204      2584.039 4        26.192    24978088.314 5 102281083.31905      2583.689 5        33.455
S36        14.000    38181375.449 7 200644967.55107      -391.082 7        44.295
G20        15.000    20883480.526 8 109743408.34208     -1697.906 8        48.343                                    20883477.538 6  85514318.31306     -1323.040 6        39.006
R11        16.000    20399581.972 8 109009181.43608      2776.306 8        51.170                                                                    20399582.859 7  84784916.84507      2159.425 7        47.411
S45        17.000    63363245.533 6 332977629.29206      -435.165 6        36.272
E13        18.000    26851171.096 6 141103872.67706      -230.703 6        39.826                                                                    26851172.902 7 105369764.53007      -172.316 7        43.583    26851172.313 7 108118541.82207      -176.768 7        44.132
E24        19.000    25051317.955 7 131645525.17907      -340.391 7        45.675                                                                    25051319.818 8  98306726.30208      -254.172 8        48.510    25051319.000 8 100871247.15708      -260.825 8        49.041
R18        20.000    24122510.214 6 128767597.70006      1733.029 6        38.907                                                                    24122513.402 6 100152568.36706      1347.841 6        39.523
G30        21.000    20375959.195 8 107076391.61708      -489.670 8        51.020                                    20375958.683 8  83436152.14508      -381.560 8        52.708    20375959.019 7  83436156.14507      -381.560 7        45.547
I06        22.000    37954017.402 7 148939866.78707      -328.371 7        43.611
S28        23.000    40844924.158 5 214641347.25805      -396.114 5        35.033
G14        24.000    22400567.537 7 117715769.45807      2700.105 7        44.900                                    22400567.973 5  91726573.24905      2103.974 5        33.168    22400568.207 7  91726575.24507      2103.971 7        43.835
S23        25.000    38115677.454 7 200299173.85207      -388.797 7        44.364
E08        26.000    27231651.843 6 143103294.97606      2046.560 6        39.504                                                                    27231651.615 6 106862847.34706      1528.148 6        41.640    27231651.165 7 109650571.55507      1568.148 7        42.766
C07        27.000                                                                                                                                    39991903.296 6 208248322.22806       980.037 6        37.788    39991904.965 7 161030821.27507       757.856 7        42.887    39991901.875 6 169218816.00906       796.418 6        38.976
G13        28.000    21843556.524 7 114788664.96407      2310.026 7        45.242                                    21843553.398 5  89445691.21805      1800.025 5        30.755
R09        29.000    22116444.612 7 118100547.55307     -4147.367 7        45.246                                                                    22116447.332 7  91855974.11907     -3225.661 7        43.268
C22        30.000                                                                                                                                    21931599.325 8 114203581.70508     -1899.191 8        52.201                                                                    21931594.567 8  92799744.10308     -1543.236 8        50.327
I01        31.000   345096262.756 6  51090898.22006     -3034.717 6        39.580
E03        32.000    23617967.361 8 124113256.87608       596.052 8        48.148                                                                    23617968.542 8  92681991.56508       445.035 8        50.872    23617968.200 8  95099777.09208       456.676 8        51.501
G05        33.000    21226134.445 7 111544097.60607       842.097 7        47.297                                    21226131.017 7  86917473.37607       656.184 7        46.999    21226131.462 7  86917476.37507       656.250 7        44.445
R24        34.000    24056492.041 7 128640876.92407     -3666.209 7        42.633                                                                    24056492.271 6 100054014.61706     -2851.504 6        36.915
C36        35.000                                                                                                                                    22120906.081 8 115189343.38208     -1541.346 8        49.936                                                                    22120912.176 8  93600793.87208     -1252.496 8        50.307
G11        36.000    24976467.923 6 131252185.86106     -3618.483 6        40.267                                    24976468.294 3 102274413.44403     -2819.581 3        22.190    24976467.406 6 102274413.41906     -2819.562 6        38.652
I09        38.000    39019795.189 7 153121922.74007      -886.185 7        42.444
R08        39.000    19388119.071 8 103822480.44208     -1257.041 8        50.290                                                                    19388118.597 7  80750811.62207      -977.721 7        47.334
E25        40.000    25266372.668 7 132775686.27307      2197.319 7        44.707                                                                    25266377.539 7  99150678.05607      1640.873 7        47.719    25266376.379 7 101737209.52807      1683.669 7        47.628
G27        41.000    24882551.549 6 130758704.57506      -308.722 6        36.302                                    24882554.075 4 101889913.29604      -240.561 4        28.559    24882554.627 5 101889917.29105      -240.770 5        34.681
S44        42.000    40839415.039 6 214612612.86806      -426.319 6        36.378
C09        43.000                                                                                                                                    40128953.899 6 208961924.54906     -1140.123 6        37.864    40128956.556 7 161582582.26807      -881.508 7        42.362    40128953.742 6 169798642.24006      -926.572 6        38.994
C05        44.000                                                                                                                                    39258961.844 6 204431646.56106      -451.500 6        38.766    39258962.495 7 158079514.34507      -349.105 7        42.880    39258963.277 6 166117540.40906      -366.945 6        39.997
C40        45.000                                                                                                                                    40169853.960 6 209174962.18806      1231.585 6        40.789                                                                    40169857.324 6 169971804.84306      1000.634 6        40.589
C21        46.000                                                                                                                                    22490976.932 8 117116406.08808      1203.629 8        50.922                                                                    22490972.507 8  95166642.68008       977.983 8        50.056
R17        47.000    23194184.806 7 124116781.21307     -1068.988 7        45.242                                                                    23194184.695 7  96535280.10507      -831.319 7        42.172
C06        49.000                                                                                                                                    41028287.673 5 213644908.33605     -1318.308 5        35.967    41028292.017 6 165203734.23406     -1019.497 6        39.571    41028289.553 6 173603931.89506     -1071.236 6        37.202
C16        50.000                                                                                                                                    41550617.384 4 216364801.79104     -1252.730 4        26.180    41550630.177 5 167306950.04205      -968.292 5        30.294    41550624.471 4 175814084.30904     -1017.428 4        26.431
S48        51.000    77136408.455 6 405353485.35006      -376.101 6        38.036
C19        52.000                                                                                                                                    26181312.540 6 136332859.08906     -3584.467 6        41.066                                                                    26181316.056 7 110781584.14607     -2912.595 7        42.988
C60        54.000                                                                                                                                    40839421.713 6 212661606.92106      -422.481 6        39.979                                                                    40839414.350 6 172804907.00306      -343.403 6        38.294
C45        55.000                                                                                                                                    22305343.265 8 116149765.05808      1524.763 8        50.396                                                                    22305337.343 8  94381168.96208      1238.947 8        50.063
C11        56.000                                                                                                                                                                                                    27047666.415 3                     -1972.147 3        20.167
C02        57.000                                                                                                                                    40835758.373 5 212642369.57205      -460.525 5        33.659    40835764.867 6 164428512.96106      -356.334 6        39.835    40835765.395 5 172789306.93505      -374.644 5        35.638
I03        58.000   126410100.639 6 420274896.02206       916.489 6        41.881
R07        59.000    22384044.132 7 119823455.29807     -3887.287 7        45.533                                                                    22384050.046 7  93195993.96807     -3023.443 7        43.304
G07        60.000    21799578.258 7 114557549.01707     -2367.307 7        46.934                                    21799575.881 7  89265608.06507     -1844.649 7        45.561    21799576.280 7  89265609.06407     -1844.670 7        43.357
> 2025 01 01 07 00 20.0000000  0 56
G08         1.000    24522142.875 6 128864755.45706      1103.591 6        37.342                                    24522150.604 4 100414142.71004       859.926 4        28.114    24522152.390 5 100414152.71505       860.032 5        35.114
R01         2.000    20661338.819 8 110446675.35108      2572.522 8        48.164                                                                    20661340.178 6  85903034.82006      2001.007 6        40.694
G09         3.000    23858433.054 6 125376803.33606     -3610.625 6        39.411                                    23858439.483 5  97696183.09105     -2813.460 5        35.276    23858439.826 6  97696184.06306     -2813.338 6        38.282
E34         4.000    28452745.973 6 149520100.88206     -3482.921 6        37.036                                                                    28452753.106 6 111654599.85106     -2600.873 6        39.288    28452752.306 6 114567331.22406     -2668.728 6        40.112
S21         5.000    38413019.064 7 201861537.59707      -390.928 7        43.494
E05         6.000    22656513.271 7 119060782.90607     -1767.317 7        47.025                                                                    22656516.105 8  88909043.46708     -1319.729 8        50.070    22656515.546 8  91228403.32008     -1354.165 8        50.730
E15         7.000    26533264.698 6 139433231.94906     -2647.094 6        40.756                                                                    26533267.886 7 104122231.76407     -1976.677 7        44.072    26533267.376 7 106838462.88407     -2028.337 7        44.379
R10         8.000    19502254.625 7 103957975.81007     -1443.467 7        46.066
E31         9.000    27539287.507 6 144719891.88206     -2717.671 6        38.252                                                                    27539292.025 6 108070058.28606     -2029.457 6        41.042    27539291.376 6 110889276.91006     -2082.274 6        41.199
G18        10.000    25336057.851 6 133141875.14006      1209.629 6        38.721                                    25336055.555 3 103746899.85003       942.544 3        21.952    25336055.478 6 103746907.85506       942.485 6        38.802
E09        11.000    28596636.670 6 150276166.18406     -2890.234 6        36.480                                                                    28596651.969 6 112219167.06806     -2158.124 6        41.275    28596649.997 6 115146630.41106     -2214.412 6        41.483
S27        12.000    39075852.689 6 205344900.54906      -416.938 6        36.624
G15        13.000    24974935.177 6 131244175.40306      3315.595 6        38.087                                    24974932.108 4 102268172.40804      2583.584 4        25.699    24974933.138 5 102268164.37305      2583.599 5        33.329
S36        14.000    38181745.078 7 200646923.24607      -391.442 7        44.340
