     3.04           OBSERVATION DATA    M                   RINEX VERSION / TYPE
ssrcrin-15.6.1x                         20250101 074500 UTC PGM / RUN BY / DATE 
(00000000023479385599111004) Septentrio proprietary         COMMENT             
rref                                                        MARKER NAME         
01                                                          MARKER NUMBER       
geodetic                                                    MARKER TYPE         
NFB                 CLIMERS@TUW                             OBSERVER / AGENCY   
3297213             SEPT ASTERX SB3 PROB4.14.4              REC # / TYPE / VERS 
Unknown             Unknown                                 ANT # / TYPE        
  4127831.3263  1207193.0146  4695247.4104                  APPROX POSITION XYZ 
        0.0000        0.0000        0.0000                  ANTENNA: DELTA H/E/N
G   23 X1  C1C L1C D1C S1C C1W S1W C2W L2W D2W S2W C2L L2L  SYS / # / OBS TYPES 
       D2L S2L C5Q L5Q D5Q S5Q C1L L1L D1L S1L              SYS / # / OBS TYPES 
E   21 X1  C1C L1C D1C S1C C6C L6C D6C S6C C5Q L5Q D5Q S5Q  SYS / # / OBS TYPES 
       C7Q L7Q D7Q S7Q C8Q L8Q D8Q S8Q                      SYS / # / OBS TYPES 
S    9 X1  C1C L1C D1C S1C C5I L5I D5I S5I                  SYS / # / OBS TYPES 
R   17 X1  C1C L1C D1C S1C C2P L2P D2P S2P C2C L2C D2C S2C  SYS / # / OBS TYPES 
       C3Q L3Q D3Q S3Q                                      SYS / # / OBS TYPES 
C   25 X1  C1P L1P D1P S1P C5P L5P D5P S5P C2I L2I D2I S2I  SYS / # / OBS TYPES 
       C7I L7I D7I S7I C6I L6I D6I S6I C7D L7D D7D S7D      SYS / # / OBS TYPES 
J   17 X1  C1C L1C D1C S1C C2L L2L D2L S2L C5Q L5Q D5Q S5Q  SYS / # / OBS TYPES 
       C1L L1L D1L S1L                                      SYS / # / OBS TYPES 
I    5 X1  C5A L5A D5A S5A                                  SYS / # / OBS TYPES 
SEPTENTRIO RECEIVERS OUTPUT ALIGNED CARRIER PHASES.         COMMENT             
NO FURTHER PHASE SHIFT APPLIED IN THE RINEX ENCODER.        COMMENT             
G L1C                                                       SYS / PHASE SHIFT   
G L2W                                                       SYS / PHASE SHIFT   
G L2L  0.00000                                              SYS / PHASE SHIFT   
G L5Q  0.00000                                              SYS / PHASE SHIFT   
G L1L  0.00000                                              SYS / PHASE SHIFT   
E L1C  0.00000                                              SYS / PHASE SHIFT   
E L6C  0.00000                                              SYS / PHASE SHIFT   
E L5Q  0.00000                                              SYS / PHASE SHIFT   
E L7Q  0.00000                                              SYS / PHASE SHIFT   
E L8Q  0.00000                                              SYS / PHASE SHIFT   
S L1C                                                       SYS / PHASE SHIFT   
S L5I                                                       SYS / PHASE SHIFT   
R L1C                                                       SYS / PHASE SHIFT   
R L2P  0.00000                                              SYS / PHASE SHIFT   
R L2C                                                       SYS / PHASE SHIFT   
R L3Q  0.00000                                              SYS / PHASE SHIFT   
C L1P  0.00000                                              SYS / PHASE SHIFT   
C L5P  0.00000                                              SYS / PHASE SHIFT   
C L2I                                                       SYS / PHASE SHIFT   
C L7I                                                       SYS / PHASE SHIFT   
C L6I                                                       SYS / PHASE SHIFT   
C L7D                                                       SYS / PHASE SHIFT   
J L1C                                                       SYS / PHASE SHIFT   
J L2L  0.00000                                              SYS / PHASE SHIFT   
J L5Q  0.00000                                              SYS / PHASE SHIFT   
J L1L  0.00000                                              SYS / PHASE SHIFT   
I L5A                                                       SYS / PHASE SHIFT   
  2025     1     1     7    45    0.0000000     GPS         TIME OF FIRST OBS   
 C1C    0.000 C2C    0.000 C2P    0.000                     GLONASS COD/PHS/BIS 
DBHZ                                                        SIGNAL STRENGTH UNIT
    18                                                      LEAP SECONDS        
 24 R01  1 R02 -4 R03  5 R04  6 R05  1 R06 -4 R07  5 R08  6 GLONASS SLOT / FRQ #
    R09 -2 R10 -7 R11  0 R12 -1 R13 -2 R14 -7 R15  0 R16 -1 GLONASS SLOT / FRQ #
    R17  4 R18 -3 R19  3 R20  2 R21  4 R22 -3 R23  3 R24  2 GLONASS SLOT / FRQ #
                                                            END OF HEADER       
> 2025 01 01 07 45  0.0000000  0 53
G08         1.000    24346052.831 6 127939423.80806      -474.607 6        39.108                                    24346059.622 5  99693112.14205      -369.815 5        32.072    24346060.078 6  99693122.11806      -369.696 6        36.522
R01         2.000    19654405.236 8 105064016.04708      1313.432 8        49.022                                                                    19654407.272 7  81716516.52207      1021.715 7        42.055
R02         4.000    23277038.106 7 124210721.89607      3575.122 7        44.033                                                                    23277040.286 6  96608349.50406      2780.622 6        41.943
S21         5.000    38612603.744 7 202910352.36707      -390.884 7        42.999
E05         6.000    23697551.473 7 124531429.97607     -2311.962 7        44.727                                                                    23697557.316 8  92994254.05508     -1726.484 8        48.333    23697556.159 8  95420186.12208     -1771.566 8        48.862
E15         7.000    28049506.292 6 147401069.84906     -3203.723 6        38.012                                                                    28049514.631 6 110072221.33806     -2392.294 6        40.546    28049513.133 6 112943671.81006     -2454.644 6        40.558
R10         8.000    20730828.794 7 110506944.02407     -3301.903 7        46.025
G18        10.000    25125483.741 6 132035298.13406      -411.530 6        38.598                                    25125481.039 3 102884631.43403      -320.673 3        22.286    25125481.807 6 102884639.42806      -320.602 6        39.036
C26        11.000                                                                                                                                    24975332.542 7 130053106.84207      2683.630 7        44.319                                                                    24975336.177 7 105678815.78407      2180.646 7        44.200
S27        12.000    39289715.452 5 206468711.86705      -420.384 5        35.676
G15        13.000    23317994.295 7 122536861.76907      3108.437 7        42.737                                    23317993.123 6  95483245.39706      2422.168 6        36.801    23317993.475 6  95483237.38506      2422.214 6        39.144
S36        14.000    38381741.643 7 201697878.44307      -391.667 7        43.975
G20        15.000    22147512.758 7 116385894.80507     -3155.962 7        45.321                                    22147512.439 5  90690270.16705     -2459.192 5        34.052
R11        16.000    19468089.081 8 104031563.11408       852.317 8        52.264                                                                    19468090.228 8  80913435.31308       662.907 8        48.999
S45        17.000    63563223.183 6 334027690.42306      -437.835 6        36.132
E13        18.000    27312240.491 6 143526779.83006     -1545.640 6        39.162                                                                    27312243.962 7 107179070.31507     -1154.263 7        42.102    27312243.308 7 109975047.82207     -1184.338 7        43.149
E24        19.000    25557367.957 7 134304814.39707     -1610.168 7        44.701                                                                    25557371.959 7 100292552.33707     -1202.333 7        47.735    25557370.784 8 102908878.14308     -1233.689 8        48.242
R18        20.000    23769734.138 7 126884449.57307      -399.407 7        42.593                                                                    23769736.470 6  98687896.77406      -310.589 6        40.307
G30        21.000    20922309.018 8 109947456.69508     -1606.234 8        48.936                                    20922309.926 8  85673339.94108     -1251.609 8        51.126    20922310.470 7  85673343.93907     -1251.585 7        45.177
I06        22.000    38185676.499 7 149848915.93607      -347.686 7        43.276
S28        23.000    41048135.369 5 215709177.57205      -397.787 5        34.824
G14        24.000    21290665.343 7 111883196.57307      1544.124 7        47.772                                    21290665.350 6  87181712.18206      1203.219 6        38.375    21290665.238 7  87181714.18907      1203.202 7        46.451
S23        25.000    38314972.323 7 201346452.10207      -390.131 7        44.227
E08        26.000    26212518.521 7 137747682.49207      1920.401 7        42.779                                                                    26212519.767 7 102863518.14707      1434.069 7        45.210    26212518.995 7 105546912.99107      1471.543 7        46.051
C07        27.000                                                                                                                                    39579505.233 6 206100855.44906       608.382 6        39.474    39579506.601 7 159370263.61507       470.347 7        43.704    39579503.473 6 167473823.22606       494.441 6        40.448
G13        28.000    20843375.839 8 109532655.80908      1547.327 8        48.432                                    20843373.273 6  85350094.57206      1205.712 6        37.573
R09        29.000    24355938.613 6 130059258.92906     -4613.177 6        39.009                                                                    24355945.005 6 101157178.14806     -3587.996 6        40.007
C22        30.000                                                                                                                                    23188919.670 8 120750737.01508     -2942.039 8        49.510                                                                    23188916.957 8  98119835.48708     -2390.660 8        48.735
I01        31.000   347189239.645 6  59304088.15606     -3077.688 6        40.448
E03        32.000    23465823.869 8 123313715.91808       -25.519 8        48.291                                                                    23465826.579 8  92084925.39308       -19.054 8        50.640    23465826.141 8  94487136.02208       -19.522 8        51.668
G05        33.000    21268610.034 7 111767280.63807     -1030.845 7        47.940                                    21268608.736 8  87091374.90708      -803.253 8        48.189    21268609.013 7  87091377.90507      -803.288 7        44.441
E26        34.000    28633700.536 5 150471100.60405       812.152 5        34.957                                                                    28633701.086 6 112364782.35506       606.743 6        40.369    28633700.114 6 115296031.52706       622.506 6        40.942
C36        35.000                                                                                                                                    23201815.096 7 120817888.82007     -2577.432 7        47.735                                                                    23201823.058 8  98174441.28608     -2094.428 8        48.710
I09        38.000    39642547.161 6 155565658.31706      -930.522 6        41.611
R08        39.000    20434179.674 8 109424048.26708     -2898.303 8        50.272                                                                    20434181.250 7  85107577.12707     -2254.272 7        46.587
E25        40.000    24368884.614 7 128059352.91907      1254.674 7        47.830                                                                    24368889.022 8  95628740.66508       936.956 8        49.363    24368888.286 8  98123395.52608       961.397 8        50.415
G27        41.000    25482352.698 5 133910684.87205     -2008.686 5        30.951                                    25482354.858 3 104346002.90403     -1565.227 3        18.507    25482354.868 5 104346006.93305     -1565.434 5        30.279
S44        42.000    41054106.317 6 215740761.72506      -412.538 6        37.138
C09        43.000                                                                                                                                    40700796.934 6 211939583.60306     -1075.660 6        37.183    40700804.678 6 163885077.10606      -831.822 6        40.834    40700800.252 6 172218218.00706      -874.073 6        38.015
C05        44.000                                                                                                                                    39492226.588 6 205646287.02506      -451.634 6        36.571    39492232.296 7 159018740.39407      -349.193 7        42.518    39492232.506 6 167104526.44806      -367.112 6        40.222
C40        45.000                                                                                                                                    39647488.808 6 206454875.43406       778.943 6        41.528                                                                    39647492.884 7 167761511.90807       632.848 7        42.396
C21        46.000                                                                                                                                    22155935.551 8 115371732.54908        37.328 8        51.575                                                                    22155931.767 8  93748947.64908        30.318 8        49.856
R17        47.000    24246894.821 7 129750040.92907     -2999.487 7        42.645                                                                    24246894.516 6 100916702.47506     -2332.843 6        38.189
C10        49.000                                                                                                                                    39788508.081 6 207189206.93906       889.334 6        38.991    39788512.859 7 160211852.59107       687.677 7        42.942    39788509.177 6 168358204.86506       722.602 6        39.853
C42        50.000                                                                                                                                    24905061.589 7 129687164.19707      2457.538 7        43.242                                                                    24905071.360 7 105381474.71607      1996.939 7        45.278
S48        51.000    77332600.980 6 406384742.86406      -377.475 6        37.875
E02        53.000    27267846.627 6 143293524.04306      2832.918 6        39.315                                                                    27267855.870 7 107004963.52007      2115.466 7        42.633    27267853.916 7 109796380.94807      2170.790 7        43.281
C60        54.000                                                                                                                                    41054114.369 6 213779499.27206      -408.894 6        40.594                                                                    41054109.904 6 173713272.48506      -332.126 6        38.598
C45        55.000                                                                                                                                    21836129.928 8 113706437.52608       277.961 8        51.180                                                                    21836124.374 8  92395763.08108       225.882 8        50.280
R12        56.000    23268913.888 7 124298403.88607      3834.188 7        45.326                                                                    23268920.553 6  96676562.28406      2982.152 6        40.994
C02        57.000                                                                                                                                    41071563.884 5 213870206.94105      -452.135 5        33.880    41071573.933 6 165377938.76406      -349.757 6        38.246    41071573.244 5 173787012.51505      -367.470 5        34.086
I03        58.000   125780880.099 6 417805616.14606       924.585 6        41.244
G07        60.000    23159359.766 7 121703195.04507     -2901.350 7        44.697                                    23159361.355 6  94833629.71706     -2260.784 6        40.594    23159361.066 6  94833630.70006     -2260.864 6        39.958
> 2025 01 01 07 45  5.0000000  0 53
G08         1.000    24346506.441 6 127941804.34206      -477.681 6        38.733                                    24346512.647 5  99694967.07905      -372.212 5        31.660    24346513.403 6  99694977.04706      -372.057 6        36.030
R01         2.000    19653177.952 8 105057456.87608      1310.324 8        48.858                                                                    19653180.187 7  81711414.93507      1019.166 7        42.066
R02         4.000    23273688.617 7 124192847.57007      3574.839 7        44.599                                                                    23273691.303 6  96594447.24106      2780.461 6        41.738
S21         5.000    38612976.476 7 202912307.31307      -390.853 7        43.081
E05         6.000    23699751.756 7 124542992.94307     -2312.932 7        45.050                                                                    23699757.656 8  93002888.71408     -1727.190 8        48.164    23699756.493 8  95429046.03208     -1772.263 8        48.799
E15         7.000    28052554.743 6 147417089.49606     -3204.110 6        38.279                                                                    28052563.155 6 110084184.02806     -2392.598 6        40.508    28052561.516 6 112955946.56906     -2455.045 6        40.603
R10         8.000    20733927.680 7 110523460.22607     -3304.471 7        45.818
G18        10.000    25125876.898 6 132037363.35806      -414.356 6        38.958                                    25125874.086 3 102886240.69103      -322.872 3        22.438    25125875.116 6 102886248.70706      -323.069 6        39.513
C26        11.000                                                                                                                                    24972756.264 7 130039691.50907      2682.691 7        44.131                                                                    24972759.972 7 105667914.72107      2179.857 7        44.098
S27        12.000    39290115.935 5 206470814.69605      -420.413 5        35.600
G15        13.000    23315037.676 7 122521321.94807      3107.752 7        42.645                                    23315036.025 6  95471136.42706      2421.629 6        36.741    23315036.250 6  95471128.42806      2421.260 6        38.796
S36        14.000    38382114.881 7 201699836.24207      -391.513 7        43.903
G20        15.000    22150516.318 7 116401680.36807     -3158.106 7        45.515                                    22150516.359 5  90702570.57605     -2460.856 5        33.880
R11        16.000    19467293.763 8 104027311.93308       848.377 8        52.313                                                                    19467294.465 8  80910128.83608       659.819 8        48.871
S45        17.000    63563591.806 6 334029880.06306      -437.762 6        36.015
E13        18.000    27313712.771 6 143534514.53506     -1547.903 6        39.577                                                                    27313715.741 7 107184846.20907     -1156.003 7        42.002    27313715.088 7 109980974.39507     -1186.072 7        43.175
E24        19.000    25558901.194 7 134312870.74307     -1612.347 7        44.749                                                                    25558904.984 7 100298568.42007     -1203.930 7        47.580    25558903.831 8 102915051.16708     -1235.402 8        48.228
R18        20.000    23770110.781 7 126886457.61407      -403.641 7        42.984                                                                    23770112.833 6  98689458.55506      -313.831 6        40.179
G30        21.000    20923838.396 8 109955492.77008     -1608.047 8        49.244                                    20923839.149 8  85679601.80208     -1253.020 8        51.040    20923839.633 7  85679605.79407     -1253.013 7        45.022
I06        22.000    38186119.396 7 149850654.20707      -347.579 7        43.257
S28        23.000    41048515.837 5 215711168.87005      -398.062 5        34.714
G14        24.000    21289197.521 7 111875483.24207      1541.400 7        47.870                                    21289197.575 6  87175701.79106      1201.091 6        38.378    21289197.746 7  87175703.79207      1201.089 7        46.292
S23        25.000    38315343.016 7 201348402.71107      -390.032 7        44.348
E08        26.000    26210691.399 7 137738081.65707      1919.990 7        42.544                                                                    26210692.788 7 102856348.67207      1433.804 7        45.165    26210692.086 7 105539556.49007      1471.191 7        46.086
C07        27.000                                                                                                                                    39578921.917 6 206097815.11906       607.771 6        39.943    39578922.682 7 159367912.61507       469.996 7        43.807    39578919.652 6 167471352.69206       493.960 6        40.343
G13        28.000    20841904.013 8 109524924.05708      1545.574 8        48.138                                    20841901.998 6  85344069.81606      1204.344 6        37.467
R09        29.000    24360258.827 6 130082324.99706     -4613.272 6        39.282                                                                    24360264.258 6 101175118.39506     -3588.099 6        39.859
C22        30.000                                                                                                                                    23191745.491 8 120765452.18308     -2943.774 8        49.529                                                                    23191742.869 8  98131792.74708     -2392.146 8        48.636
I01        31.000   347193161.026 6  59319476.58606     -3077.498 6        40.274
E03        32.000    23465848.920 8 123313847.12208       -26.818 8        48.229                                                                    23465851.609 8  92085023.35208       -19.968 8        50.490    23465851.119 8  94487236.54008       -20.510 8        51.657
G05        33.000    21269592.446 7 111772443.95107     -1034.336 7        47.527                                    21269591.294 8  87095398.25008      -805.972 8        48.134    21269591.685 7  87095401.25007      -805.985 7        44.345
E26        34.000    28632929.106 5 150467043.82305       810.257 5        35.524                                                                    28632929.100 6 112361752.95506       605.179 6        40.372    28632928.405 6 115292923.10406       620.977 6        40.703
C36        35.000                                                                                                                                    23204290.959 8 120830780.15808     -2578.923 8        48.022                                                                    23204298.723 8  98184916.53408     -2095.656 8        48.644
I09        38.000    39643732.569 6 155570311.05006      -930.566 6        41.583
R08        39.000    20436886.862 8 109438547.41508     -2901.179 8        50.035                                                                    20436888.980 7  85118854.20307     -2256.463 7        46.164
E25        40.000    24367691.783 7 128053084.99607      1252.640 7        47.702                                                                    24367696.257 8  95624060.06308       935.424 8        49.157    24367695.551 8  98118592.82108       959.825 8        50.379
G27        41.000    25484265.203 5 133920735.62805     -2011.376 5        32.150                                    25484267.411 2 104353834.67202     -1567.301 2        17.962    25484267.595 5 104353838.68105     -1567.491 5        30.279
S44        42.000    41054501.716 6 215742824.54306      -412.315 6        37.100
C09        43.000                                                                                                                                    40701829.925 6 211944962.52106     -1075.536 6        37.395    40701837.434 6 163889236.35806      -831.756 6        40.701    40701833.311 6 172222588.78106      -874.057 6        38.039
C05        44.000                                                                                                                                    39492660.470 6 205648545.45906      -451.528 6        36.730    39492665.900 7 159020486.72607      -349.332 7        42.563    39492666.240 6 167106361.57906      -367.083 6        40.088
C40        45.000                                                                                                                                    39646741.616 6 206450983.51306       778.035 6        41.540                                                                    39646745.440 7 167758349.38207       632.264 7        42.328
C21        46.000                                                                                                                                    22155900.779 8 115371552.38108        34.873 8        51.706                                                                    22155897.224 8  93748801.23708        28.285 8        49.788
R17        47.000    24249699.740 7 129765045.39807     -3002.123 7        45.108                                                                    24249699.701 6 100928372.60506     -2335.114 6        39.751
C10        49.000                                                                                                                                    39787653.914 6 207184761.81606       888.776 6        38.805    39787659.163 7 160208415.35907       687.197 7        42.876    39787655.469 6 168354592.84006       722.250 6        40.012
C42        50.000                                                                                                                                    24902702.693 7 129674879.33107      2456.603 7        44.086                                                                    24902712.231 7 105371492.24207      1996.172 7        45.183
S48        51.000    77332964.509 6 406386630.83806      -377.531 6        37.966
E02        53.000    27265150.988 6 143279360.00006      2832.670 6        39.198                                                                    27265160.805 7 106994386.47407      2115.341 7        42.730    27265158.577 7 109785527.97607      2170.536 7        43.412
C60        54.000                                                                                                                                    41054506.955 6 213781543.33506      -408.656 6        40.648                                                                    41054502.602 6 173714933.44206      -332.106 6        38.601
C45        55.000                                                                                                                                    21835864.292 8 113705054.05108       275.617 8        51.215                                                                    21835858.713 8  92394638.88608       223.897 8        50.160
R12        56.000    23265325.878 7 124279236.25007      3833.093 7        46.164                                                                    23265332.241 6  96661654.13306      2981.216 6        41.373
C02        57.000                                                                                                                                    41071997.855 5 213872468.37305      -452.185 5        33.958    41072008.284 6 165379687.43306      -349.701 6        38.321    41072007.654 5 173788850.12105      -367.671 5        33.659
I03        58.000   125779702.560 6 417800994.08406       924.594 6        41.282
G07        60.000    23162121.261 7 121717703.92907     -2902.057 7        44.023                                    23162122.242 6  94844935.30006     -2261.334 6        40.374    23162122.600 6  94844936.27206     -2261.250 6        39.504
> 2025 01 01 07 45 10.0000000  0 53
G08         1.000    24346962.093 6 127944200.60806      -481.025 6        38.634                                    24346968.547 5  99696834.27405      -374.816 5        31.057    24346969.438 6  99696844.25406      -374.791 6        36.140
R01         2.000    19651953.583 8 105050912.75408      1307.108 8        48.820                                                                    19651955.268 6  81706325.05806      1016.603 6        41.824
R02         4.000    23270339.338 7 124174974.47407      3574.250 7        43.416                                                                    23270341.371 6  96580545.92306      2779.995 6        40.958
S21         5.000    38613346.910 7 202914262.14707      -391.318 7        42.933
E05         6.000    23701952.783 7 124554560.57607     -2314.226 7        45.004                                                                    23701958.974 8  93011526.86008     -1728.176 8        48.298    23701957.704 8  95437909.51708     -1773.194 8        48.805
E15         7.000    28055603.590 6 147433111.33806     -3204.646 6        38.495                                                                    28055611.938 6 110096148.33506     -2393.108 6        40.374    28055610.450 6 112968223.00606     -2455.596 6        40.462
R10         8.000    20737028.435 7 110539989.32507     -3307.351 7        45.880
G18        10.000    25126272.636 6 132039443.80006      -417.830 6        37.698                                    25126270.334 3 102887861.79403      -325.585 3        22.324    25126270.712 6 102887869.78606      -325.533 6        39.492
C26        11.000                                                                                                                                    24970180.801 7 130026280.65207      2681.465 7        44.187                                                                    24970184.676 7 105657017.30707      2178.927 7        44.284
S27        12.000    39290515.560 5 206472917.19205      -420.412 5        35.824
G15        13.000    23312081.285 7 122505785.99407      3106.486 7        42.713                                    23312079.657 6  95459030.46706      2420.642 6        36.820    23312080.253 6  95459022.46506      2420.711 6        39.685
S36        14.000    38382489.097 7 201701794.12907      -391.603 7        44.084
G20        15.000    22153522.598 7 116417476.29607     -3160.431 7        45.460                                    22153522.210 5  90714879.06105     -2462.660 5        33.814
R11        16.000    19466501.765 8 104023080.05008       844.148 8        52.112                                                                    19466502.491 8  80906837.36408       656.625 8        48.920
S45        17.000    63563968.531 6 334032069.43206      -438.111 6        36.231
E13        18.000    27315186.277 6 143542260.15906     -1550.538 6        39.556                                                                    27315189.676 7 107190630.24607     -1157.814 7        42.061    27315188.979 7 109986909.33107     -1188.022 7        43.151
E24        19.000    25560436.621 7 134320937.54807     -1614.636 7        44.817                                                                    25560440.127 7 100304592.32907     -1205.755 7        47.705    25560438.827 8 102921232.22208     -1237.173 8        48.252
R18        20.000    23770491.497 7 126888486.49307      -408.048 7        42.413                                                                    23770493.540 6  98691036.55906      -317.616 6        41.144
G30        21.000    20925369.514 8 109963537.68508     -1610.108 8        49.783                                    20925370.054 8  85685870.55308     -1254.627 8        51.035    20925370.423 7  85685874.55607     -1254.635 7        44.835
I06        22.000    38186562.938 7 149852392.40807      -347.812 7        43.247
S28        23.000    41048893.582 5 215713159.27905      -398.132 5        34.819
G14        24.000    21287732.066 7 111867782.98007      1538.471 7        47.760                                    21287732.296 6  87169701.58506      1198.813 6        38.387    21287732.533 7  87169703.58407      1198.828 7        46.409
S23        25.000    38315714.764 7 201350352.94207      -390.229 7        44.305
E08        26.000    26208864.863 7 137728482.41507      1919.432 7        42.610                                                                    26208866.068 7 102849180.39707      1433.280 7        45.115    26208865.403 7 105532201.21607      1470.710 7        46.154
C07        27.000                                                                                                                                    39578339.788 6 206094778.24406       606.776 6        40.153    39578339.443 7 159365564.31707       469.285 7        43.666    39578336.631 6 167468884.99706       493.230 6        40.591
G13        28.000    20840434.177 8 109517200.80508      1543.564 8        48.107                                    20840432.305 6  85338051.68606      1202.780 6        37.641
R09        29.000    24364578.677 6 130105391.38906     -4613.563 6        39.468                                                                    24364584.149 6 101193058.88306     -3588.266 6        40.031
C22        30.000                                                                                                                                    23194573.069 8 120780175.59908     -2945.708 8        49.868                                                                    23194570.350 8  98143756.71208     -2393.552 8        48.760
I01        31.000   347197082.487 6  59334865.08006     -3077.670 6        40.536
E03        32.000    23465875.254 8 123313984.56308       -28.469 8        48.180                                                                    23465877.733 8  92085125.96908       -21.164 8        50.590    23465877.272 8  94487341.83608       -21.706 8        51.667
G05        33.000    21270578.366 7 111777624.54507     -1038.062 7        47.687                                    21270577.148 8  87099435.06308      -808.874 8        48.201    21270577.661 7  87099438.05807      -808.882 7        44.650
E26        34.000    28632158.866 5 150462997.95005       807.830 5        35.395                                                                    28632159.342 6 112358731.70806       603.288 6        40.398    28632158.263 6 115289823.02506       619.117 6        40.577
C36        35.000                                                                                                                                    23206767.958 7 120843678.73207     -2580.740 7        47.823                                                                    23206775.812 8  98195397.66908     -2097.004 8        48.806
I09        38.000    39644918.324 6 155574963.86506      -930.799 6        41.592
R08        39.000    20439597.833 8 109453060.68808     -2904.309 8        50.389                                                                    20439599.178 7  85130142.28507     -2258.872 7        46.094
E25        40.000    24366500.848 7 128046827.11207      1250.352 7        47.321                                                                    24366505.342 8  95619386.96508       933.736 8        49.337    24366504.723 8  98113797.81708       958.064 8        50.389
G27        41.000    25486181.586 5 133930800.64205     -2014.273 5        31.419                                    25486182.710 2 104361677.56602     -1569.560 2        17.358    25486183.076 4 104361681.57004     -1569.687 4        29.062
S44        42.000    41054890.600 6 215744886.92906      -412.581 6        37.028
C09        43.000                                                                                                                                    40702863.419 6 211950340.48606     -1075.708 6        37.531    40702870.009 6 163893394.91706      -831.836 6        40.346    40702866.139 6 172226958.80306      -874.203 6        38.198
C05        44.000                                                                                                                                    39493094.155 6 205650803.56006      -451.882 6        36.643    39493099.523 7 159022232.78807      -349.316 7        42.451    39493099.808 6 167108196.44406      -367.129 6        40.291
C40        45.000                                                                                                                                    39645995.386 6 206447095.92106       776.886 6        41.640                                                                    39645998.868 7 167755190.40207       631.276 7        42.417
C21        46.000                                                                                                                                    22155868.779 8 115371384.28608        32.156 8        51.883                                                                    22155864.944 8  93748664.63808        26.151 8        49.975
R17        47.000    24252507.604 7 129780063.50707     -3005.179 7        44.880                                                                    24252505.046 6 100940053.38806     -2337.362 6        37.418
C10        49.000                                                                                                                                    39786800.840 6 207180319.41806       887.995 6        38.814    39786806.044 7 160204980.24007       686.737 7        42.825    39786802.280 6 168350983.06206       721.604 6        39.997
C42        50.000                                                                                                                                    24900344.206 7 129662599.10407      2455.277 7        44.062                                                                    24900353.892 7 105361513.54107      1995.235 7        45.372
S48        51.000    77333329.470 6 406388518.66206      -377.784 6        38.039
E02        53.000    27262455.887 6 143265197.34706      2832.163 6        38.667                                                                    27262465.727 7 106983810.47707      2114.977 7        43.117    27262463.575 7 109774676.09007      2170.089 7        43.481
C60        54.000                                                                                                                                    41054899.523 6 213783586.96606      -408.973 6        40.911                                                                    41054894.870 6 173716594.05106      -332.412 6        38.517
C45        55.000                                                                                                                                    21835600.906 8 113703682.15408       272.987 8        51.290                                                                    21835595.278 8  92393524.10508       221.841 8        50.309
R12        56.000    23261739.246 7 124260073.67307      3831.721 7        45.771                                                                    23261745.526 6  96646749.91406      2980.267 6        41.714
C02        57.000                                                                                                                                    41072431.942 5 213874729.49105      -452.133 5        34.305    41072441.934 6 165381435.85006      -349.943 6        38.258    41072441.401 5 173790687.46705      -367.926 5        34.271
I03        58.000   125778524.349 6 417796371.67406       924.268 6        41.180
G07        60.000    23164882.586 7 121732216.08407     -2902.994 7        43.818                                    23164883.799 6  94856243.42906     -2262.062 6        40.422    23164884.227 6  94856244.40706     -2262.083 6        40.036
> 2025 01 01 07 45 15.0000000  0 53
G08         1.000    24347421.030 6 127946613.18306      -484.463 6        37.981                                    24347427.402 5  99698714.17705      -377.492 5        30.445    24347428.375 6  99698724.16406      -377.443 6        36.091
R01         2.000    19650732.384 8 105044384.36808      1304.066 8        48.655                                                                    19650734.766 7  81701247.40607      1014.226 7        42.157
R02         4.000    23266990.197 7 124157103.29407      3574.015 7        45.065                                                                    23266991.889 6  96566646.09006      2779.759 6        41.261
S21         5.000    38613720.259 7 202916217.24707      -391.261 7        42.954
E05         6.000    23704154.795 7 124566133.46307     -2315.054 7        44.429                                                                    23704161.249 8  93020168.91808     -1728.880 8        48.315    23704159.994 8  95446777.02608     -1773.974 8        48.711
E15         7.000    28058652.752 6 147449135.96306     -3205.241 6        38.159                                                                    28058661.277 6 110108114.72306     -2393.500 6        40.389    28058659.836 6 112980501.56506     -2455.946 6        40.515
R10         8.000    20740131.135 7 110556531.83807     -3309.907 7        45.162
G18        10.000    25126670.933 6 132041539.97106      -420.662 6        38.048                                    25126669.449 3 102889495.16803      -327.794 3        22.305    25126669.368 6 102889503.16106      -327.936 6        39.604
C26        11.000                                                                                                                                    24967606.756 7 130012874.84107      2680.635 7        44.656                                                                    24967610.059 7 105646124.00407      2178.205 7        44.220
S27        12.000    39290916.633 5 206475019.96505      -420.538 5        35.362
G15        13.000    23309125.560 7 122490254.52707      3105.810 7        43.067                                    23309124.196 6  95446928.00706      2420.115 6        36.779    23309125.229 6  95446919.98906      2420.033 6        39.844
S36        14.000    38382858.833 7 201703752.36007      -391.707 7        43.712
G20        15.000    22156530.479 7 116433283.15507     -3162.466 7        45.856                                    22156530.177 5  90727196.06805     -2464.252 5        33.874
R11        16.000    19465713.174 8 104018868.06508       840.398 8        52.123                                                                    19465714.207 8  80903561.38808       653.555 8        48.817
S45        17.000    63564342.399 5 334034259.04005      -437.910 5        35.738
E13        18.000    27316662.507 6 143550017.25006     -1552.660 6        39.306                                                                    27316665.812 6 107196422.84806     -1159.375 6        41.959    27316665.013 7 109992853.04307     -1189.631 7        43.170
E24        19.000    25561973.498 7 134329015.41307     -1616.734 7        44.825                                                                    25561977.333 7 100310624.47107     -1207.260 7        47.760    25561976.081 8 102927421.73608     -1238.834 8        48.184
R18        20.000    23770875.477 7 126890536.80307      -412.310 7        42.612                                                                    23770877.274 6  98692631.24006      -320.657 6        41.247
G30        21.000    20926901.989 8 109971592.02408     -1611.829 8        49.553                                    20926902.761 8  85692146.64608     -1255.969 8        51.013    20926903.265 7  85692150.63807     -1255.968 7        45.076
I06        22.000    38187005.703 7 149854130.99907      -347.882 7        43.276
S28        23.000    41049273.356 5 215715150.35305      -398.502 5        34.667
G14        24.000    21286269.254 7 111860096.38507      1535.943 7        47.633                                    21286269.602 6  87163712.02506      1196.841 6        38.357    21286269.815 7  87163714.02607      1196.809 7        46.875
S23        25.000    38316085.681 7 201352303.51907      -390.182 7        44.181
E08        26.000    26207038.576 7 137718885.34107      1919.178 7        42.148                                                                    26207039.891 7 102842013.73407      1433.090 7        45.210    26207039.122 7 105524847.59307      1470.568 7        46.092
C07        27.000                                                                                                                                    39577757.109 6 206091745.39206       606.074 6        40.315    39577757.297 7 159363219.12507       468.676 7        43.852    39577754.130 6 167466420.56006       492.704 6        40.625
G13        28.000    20838966.347 8 109509486.62208      1541.807 8        48.209                                    20838964.348 6  85332040.62206      1201.408 6        37.577
R09        29.000    24368898.405 6 130128458.36306     -4613.525 6        40.002                                                                    24368903.609 6 101210999.81406     -3588.163 6        40.303
C22        30.000                                                                                                                                    23197402.394 8 120794907.84208     -2947.317 8        50.026                                                                    23197399.517 8  98155727.85108     -2394.923 8        48.705
I01        31.000   347201003.916 6  59350253.97706     -3077.883 6        40.560
E03        32.000    23465902.570 8 123314128.79308       -29.578 8        48.208                                                                    23465905.207 8  92085233.66208       -22.040 8        50.642    23465904.762 8  94487452.34108       -22.683 8        51.627
G05        33.000    21271567.941 7 111782823.03307     -1041.535 7        47.460                                    21271566.388 8  87103485.82208      -811.581 8        48.093    21271566.809 7  87103488.82207      -811.599 7        44.649
E26        34.000    28631391.279 6 150458963.50006       805.758 6        36.242                                                                    28631391.384 6 112355718.93706       601.651 6        40.779    28631390.493 6 115286731.67906       617.374 6        40.751
C36        35.000                                                                                                                                    23209246.273 7 120856585.10307     -2582.058 7        47.927                                                                    23209254.372 8  98205885.14308     -2098.046 8        48.760
I09        38.000    39646104.220 6 155579617.21506      -930.783 6        41.654
R08        39.000    20442310.817 8 109467588.71108     -2907.122 8        50.123                                                                    20442312.680 7  85141441.83807     -2261.121 7        46.441
E25        40.000    24365311.939 7 128040579.86607      1248.308 7        47.157                                                                    24365316.599 8  95614721.80708       932.207 8        49.235    24365315.943 8  98109010.95308       956.553 8        50.380
G27        41.000    25488098.961 5 133940880.50405     -2017.438 5        30.528                                    25488100.652 2 104369532.02102     -1572.037 2        16.604    25488099.167 4 104369535.99204     -1571.629 4        27.928
S44        42.000    41055286.920 6 215746949.44006      -412.652 6        37.081
C09        43.000                                                                                                                                    40703896.024 6 211955718.13106     -1075.602 6        37.229    40703902.543 6 163897553.18506      -831.461 6        40.307    40703898.763 6 172231328.53706      -873.980 6        37.856
C05        44.000                                                                                                                                    39493527.303 6 205653061.90506      -451.708 6        36.972    39493533.261 7 159023979.06907      -349.298 7        42.616    39493533.601 6 167110031.52406      -367.024 6        40.367
C40        45.000                                                                                                                                    39645249.873 6 206443213.23206       776.162 6        41.957                                                                    39645253.275 7 167752035.38107       630.639 7        42.381
C21        46.000                                                                                                                                    22155839.062 8 115371228.83808        29.772 8        52.021                                                                    22155835.091 8  93748538.31608        24.292 8        49.933
R17        47.000    24255315.501 7 129795095.80807     -3007.828 7        43.554                                                                    24255314.551 5 100951745.14705     -2339.447 5        35.952
C10        49.000                                                                                                                                    39785948.522 6 207175880.41006       887.449 6        38.847    39785953.486 7 160201547.72807       686.234 7        43.245    39785949.831 6 168347375.99506       721.268 6        39.793
C42        50.000                                                                                                                                    24897986.559 7 129650324.10107      2454.381 7        43.994                                                                    24897996.598 7 105351539.07807      1994.522 7        45.308
S48        51.000    77333696.550 6 406390407.07506      -377.733 6        37.754
E02        53.000    27259761.511 6 143251036.70906      2831.775 6        38.538                                                                    27259771.095 7 106973235.98507      2114.646 7        43.403    27259769.049 7 109763825.73107      2169.889 7        43.888
C60        54.000                                                                                                                                    41055291.940 6 213785630.70706      -408.794 6        40.841                                                                    41055287.640 6 173718254.73906      -332.108 6        38.550
C45        55.000                                                                                                                                    21835339.985 8 113702322.41508       270.705 8        51.436                                                                    21835334.143 8  92392419.19608       220.056 8        50.309
R12        56.000    23258151.900 7 124240916.83007      3830.686 7        44.653                                                                    23258159.826 6  96631850.17306      2979.402 6        41.461
C02        57.000                                                                                                                                    41072866.758 5 213876990.75405      -452.396 5        34.348    41072876.888 6 165383184.37406      -349.825 6        38.141    41072876.128 5 173792524.88505      -367.420 5        34.143
I03        58.000   125777346.938 6 417791749.37006       924.357 6        41.282
G07        60.000    23167645.181 7 121746732.08607     -2903.567 7        44.062                                    23167646.153 6  94867554.55706     -2262.510 6        40.305    23167646.478 6  94867555.54406     -2262.536 6        40.081
> 2025 01 01 07 45 20.0000000  0 53
G08         1.000    24347883.173 6 127949041.96106      -487.313 6        38.000                                    24347889.419 5  99700606.71305      -379.721 5        30.257    24347890.128 6  99700616.70906      -379.759 6        36.416
R01         2.000    19649514.123 8 105037871.59808      1301.123 8        48.685                                                                    19649516.593 6  81696181.92906      1011.836 6        41.895
R02         4.000    23263642.552 7 124139234.12407      3573.831 7        45.880                                                                    23263643.866 6  96552747.83106      2779.571 6        41.852
S21         5.000    38614092.043 7 202918172.32507      -390.919 7        42.836
E05         6.000    23706358.174 7 124577711.53307     -2315.981 7        44.533                                                                    23706364.586 8  93028814.85008     -1729.514 8        48.122    23706363.293 8  95455648.50308     -1774.538 8        48.588
E15         7.000    28061702.454 6 147465163.26006     -3205.792 6        38.198                                                                    28061711.261 6 110120083.11806     -2393.850 6        40.355    28061709.706 6 112992782.18606     -2456.221 6        40.393
R10         8.000    20743237.669 7 110573087.61807     -3312.324 7        45.925
G18        10.000    25127073.078 6 132043651.82006      -423.724 6        38.354                                    25127071.532 3 102891140.76103      -330.177 3        22.495    25127071.418 6 102891148.77706      -330.365 6        39.568
C26        11.000                                                                                                                                    24965033.180 7 129999474.02307      2679.772 7        44.194                                                                    24965036.702 7 105635234.72407      2177.622 7        44.295
S27        12.000    39291315.596 5 206477123.33405      -420.385 5        35.157
G15        13.000    23306170.995 7 122474727.47207      3104.984 7        42.131                                    23306169.562 6  95434828.98206      2419.474 6        36.809    23306169.489 6  95434820.99206      2419.539 6        39.474
S36        14.000    38383234.177 7 201705711.09507      -391.807 7        43.856
G20        15.000    22159540.485 7 116449100.89007     -3164.475 7        46.016                                    22159540.223 5  90739521.55005     -2465.818 5        33.952
R11        16.000    19464928.872 8 104014675.98408       836.584 8        52.162                                                                    19464929.777 8  80900300.87008       650.652 8        48.838
S45        17.000    63564710.977 5 334036448.89805      -437.731 5        35.986
E13        18.000    27318140.734 6 143557785.74406     -1554.684 6        39.063                                                                    27318144.121 6 107202223.99206     -1160.972 6        41.950    27318143.430 7 109998805.51307     -1191.214 7        43.045
E24        19.000    25563512.656 7 134337104.24907     -1618.626 7        44.668                                                                    25563516.567 7 100316664.82607     -1208.831 7        47.614    25563515.351 8 102933619.66708     -1240.362 8        48.139
R18        20.000    23771262.453 7 126892608.42407      -416.381 7        42.057                                                                    23771266.453 6  98694242.50606      -323.810 6        41.433
G30        21.000    20928436.188 8 109979655.70008     -1613.479 8        49.499                                    20928437.234 8  85698430.01808     -1257.254 8        50.955    20928438.077 7  85698434.02307     -1257.363 7        45.362
I06        22.000    38187448.635 7 149855869.88707      -347.649 7        43.164
S28        23.000    41049651.996 5 215717141.76205      -398.370 5        34.524
G14        24.000    21284809.165 7 111852423.41107      1533.396 7        47.513                                    21284809.510 6  87157733.07706      1194.858 6        38.315    21284809.625 7  87157735.07807      1194.847 7        47.249
S23        25.000    38316458.212 7 201354254.42607      -390.035 7        44.117
E08        26.000    26205212.509 7 137709290.40607      1918.832 7        42.133                                                                    26205214.052 7 102834848.65407      1432.933 7        45.005    26205213.229 7 105517495.60307      1470.363 7        45.985
C07        27.000                                                                                                                                    39577175.381 6 206088716.54106       605.548 6        40.415    39577175.547 7 159360877.03407       468.183 7        43.826    39577172.506 6 167463959.36106       492.126 6        40.791
G13        28.000    20837500.275 8 109501781.45308      1540.297 8        48.151                                    20837498.085 6  85326036.58406      1200.235 6        37.569
R09        29.000    24373218.430 6 130151525.94106     -4613.411 6        39.976                                                                    24373223.368 6 101228941.24606     -3588.206 6        40.145
C22        30.000                                                                                                                                    23200233.128 8 120809648.86208     -2948.943 8        50.080                                                                    23200230.442 8  98167706.10008     -2396.270 8        48.784
I01        31.000   347204925.726 6  59365643.26606     -3077.863 6        40.567
E03        32.000    23465931.299 8 123314279.77208       -30.755 8        48.076                                                                    23465933.955 8  92085346.39608       -22.972 8        50.536    23465933.458 8  94487568.01508       -23.533 8        51.577
G05        33.000    21272560.433 7 111788039.36507     -1044.897 7        47.503                                    21272559.025 8  87107550.48308      -814.204 8        48.066    21272559.565 7  87107553.47507      -814.124 7        44.859
E26        34.000    28630625.636 6 150454940.41106       803.430 6        36.098                                                                    28630625.892 6 112352714.67106       600.046 6        40.222    28630625.027 6 115283649.03806       615.811 6        40.653
C36        35.000                                                                                                                                    23211726.420 8 120869499.21008     -2583.509 8        48.293                                                                    23211734.412 8  98216378.89108     -2099.254 8        48.745
I09        38.000    39647290.383 6 155584271.05506      -930.745 6        41.707
R08        39.000    20445026.299 8 109482131.34308     -2909.818 8        50.183                                                                    20445028.605 7  85152752.75407     -2263.209 7        47.046
