     3.04           OBSERVATION DATA    M                   RINEX VERSION / TYPE
ssrcrin-15.6.1x                         20250101 101500 UTC PGM / RUN BY / DATE 
(00000000023479385599111004) Septentrio proprietary         COMMENT             
rref                                                        MARKER NAME         
01                                                          MARKER NUMBER       
geodetic                                                    MARKER TYPE         
NFB                 CLIMERS@TUW                             OBSERVER / AGENCY   
3297213             SEPT ASTERX SB3 PROB4.14.4              REC # / TYPE / VERS 
Unknown             Unknown                                 ANT # / TYPE        
  4127832.3547  1207193.1095  4695247.6694                  APPROX POSITION XYZ 
        0.0000        0.0000        0.0000                  ANTENNA: DELTA H/E/N
G   23 X1  C1C L1C D1C S1C C1W S1W C2W L2W D2W S2W C2L L2L  SYS / # / OBS TYPES 
       D2L S2L C5Q L5Q D5Q S5Q C1L L1L D1L S1L              SYS / # / OBS TYPES 
E   21 X1  C1C L1C D1C S1C C6C L6C D6C S6C C5Q L5Q D5Q S5Q  SYS / # / OBS TYPES 
       C7Q L7Q D7Q S7Q C8Q L8Q D8Q S8Q                      SYS / # / OBS TYPES 
S    9 X1  C1C L1C D1C S1C C5I L5I D5I S5I                  SYS / # / OBS TYPES 
R   17 X1  C1C L1C D1C S1C C2P L2P D2P S2P C2C L2C D2C S2C  SYS / # / OBS TYPES 
       C3Q L3Q D3Q S3Q                                      SYS / # / OBS TYPES 
C   25 X1  C1P L1P D1P S1P C5P L5P D5P S5P C2I L2I D2I S2I  SYS / # / OBS TYPES 
       C7I L7I D7I S7I C6I L6I D6I S6I C7D L7D D7D S7D      SYS / # / OBS TYPES 
J   17 X1  C1C L1C D1C S1C C2L L2L D2L S2L C5Q L5Q D5Q S5Q  SYS / # / OBS TYPES 
       C1L L1L D1L S1L                                      SYS / # / OBS TYPES 
I    5 X1  C5A L5A D5A S5A                                  SYS / # / OBS TYPES 
SEPTENTRIO RECEIVERS OUTPUT ALIGNED CARRIER PHASES.         COMMENT             
NO FURTHER PHASE SHIFT APPLIED IN THE RINEX ENCODER.        COMMENT             
G L1C                                                       SYS / PHASE SHIFT   
G L2W                                                       SYS / PHASE SHIFT   
G L2L  0.00000                                              SYS / PHASE SHIFT   
G L5Q  0.00000                                              SYS / PHASE SHIFT   
G L1L  0.00000                                              SYS / PHASE SHIFT   
E L1C  0.00000                                              SYS / PHASE SHIFT   
E L6C  0.00000                                              SYS / PHASE SHIFT   
E L5Q  0.00000                                              SYS / PHASE SHIFT   
E L7Q  0.00000                                              SYS / PHASE SHIFT   
E L8Q  0.00000                                              SYS / PHASE SHIFT   
S L1C                                                       SYS / PHASE SHIFT   
S L5I                                                       SYS / PHASE SHIFT   
R L1C                                                       SYS / PHASE SHIFT   
R L2P  0.00000                                              SYS / PHASE SHIFT   
R L2C                                                       SYS / PHASE SHIFT   
R L3Q  0.00000                                              SYS / PHASE SHIFT   
C L1P  0.00000                                              SYS / PHASE SHIFT   
C L5P  0.00000                                              SYS / PHASE SHIFT   
C L2I                                                       SYS / PHASE SHIFT   
C L7I                                                       SYS / PHASE SHIFT   
C L6I                                                       SYS / PHASE SHIFT   
C L7D                                                       SYS / PHASE SHIFT   
J L1C                                                       SYS / PHASE SHIFT   
J L2L  0.00000                                              SYS / PHASE SHIFT   
J L5Q  0.00000                                              SYS / PHASE SHIFT   
J L1L  0.00000                                              SYS / PHASE SHIFT   
I L5A                                                       SYS / PHASE SHIFT   
  2025     1     1    10    15    0.0000000     GPS         TIME OF FIRST OBS   
 C1C    0.000 C2C    0.000 C2P    0.000                     GLONASS COD/PHS/BIS 
DBHZ                                                        SIGNAL STRENGTH UNIT
    18                                                      LEAP SECONDS        
 24 R01  1 R02 -4 R03  5 R04  6 R05  1 R06 -4 R07  5 R08  6 GLONASS SLOT / FRQ #
    R09 -2 R10 -7 R11  0 R12 -1 R13 -2 R14 -7 R15  0 R16 -1 GLONASS SLOT / FRQ #
    R17  4 R18 -3 R19  3 R20  2 R21  4 R22 -3 R23  3 R24  2 GLONASS SLOT / FRQ #
                                                            END OF HEADER       
> 2025 01 01 10 15  0.0000000  0 53
G19         1.000    22610321.655 7 118818187.01207      2256.074 7        45.142                                    22610324.054 5  92585685.10805      1757.982 5        33.707
R01         2.000    22162348.074 7 118470305.52707     -4847.673 7        43.435                                                                    22162358.017 6  92143604.27806     -3770.360 6        38.979
G24         3.000    21304324.388 7 111954995.72107      1847.736 7        46.470                                    21304328.360 7  87237691.40007      1439.792 7        46.378    21304329.010 7  87237688.41107      1439.822 7        43.365
R02         4.000    19586940.601 8 104519610.37208     -1726.134 8        52.545                                                                    19586944.303 7  81293030.69307     -1342.519 7        47.156
S21         5.000    38461728.105 7 202117466.95807      -501.189 7        42.445
G17         7.000    22055654.514 7 115903413.40707        20.966 7        45.959                                    22055656.625 7  90314438.59807        16.340 7        43.951    22055657.147 7  90314434.59107        16.438 7        42.694
R21         8.000    22827141.247 7 122152705.48007      1643.652 7        43.342                                                                    22827152.338 6  95007735.77706      1278.383 6        41.626
E12         9.000    29070734.690 5 152767738.16505       705.991 5        31.547                                                                    29070748.001 5 114079853.91905       527.703 5        34.757    29070746.014 5 117055838.90705       541.258 5        34.548
E30        10.000    26805777.151 6 140865405.34606      2247.812 6        41.552                                                                    26805787.337 7 105191793.54207      1678.600 7        44.447    26805785.679 7 107935917.62007      1722.421 7        44.570
C26        11.000                                                                                                                                    21700781.054 8 113001685.63708      -152.072 8        50.862                                                                    21700783.294 8  91823145.22208      -123.386 8        49.168
S27        12.000    39194249.423 6 205967012.31206      -533.871 6        36.665
G15        13.000    20363061.729 8 107008548.85708     -1613.711 8        49.386                                    20363061.921 8  83383252.92108     -1257.434 8        49.275    20363062.208 7  83383244.92007     -1257.505 7        45.168
S36        14.000    38232527.275 7 200913703.99907      -502.475 7        44.507
G12        15.000    24141996.246 7 126867113.43307      3201.187 7        42.684                                    24142001.740 5  98857547.15805      2494.427 5        34.890    24142002.155 6  98857547.18106      2494.397 6        37.074
R11        16.000    22037045.874 7 117759183.53607     -3848.358 7        46.643                                                                    22037053.663 7  91590446.30307     -2993.260 7        43.524
S45        17.000    63416518.075 6 333257333.97906      -555.281 6        36.261
R03        18.000    21237656.943 8 113686789.72008      2436.687 8        50.008                                                                    21237661.888 7  88423059.58207      1895.212 7        45.272
C35        19.000                                                                                                                                    25927961.810 6 135013737.18606      2516.350 6        41.635                                                                    25927971.169 6 109709776.29306      2044.806 6        41.702
E33        20.000    28829477.463 5 151499937.09405     -1523.775 5        34.905                                                                    28829480.735 6 113133093.43006     -1137.742 6        38.691    28829479.885 6 116084386.70406     -1167.490 6        39.114
G30        21.000    24832587.903 6 130495944.71006     -3610.255 6        37.040                                    24832599.897 4 101685106.19104     -2813.182 4        29.223    24832600.609 5 101685110.19205     -2813.286 5        35.109
I06        22.000    38222692.969 6 149994123.63606      -477.102 6        40.875
S28        23.000    40913450.634 5 215001414.18105      -511.854 5        34.881
G14        24.000    22232047.731 7 116830134.22707     -3251.650 7        45.135                                    22232051.692 5  91036453.53405     -2533.749 5        33.353    22232051.842 7  91036455.52307     -2533.734 7        44.433
S23        25.000    38165747.290 7 200562240.03107      -503.964 7        44.637
E08        26.000    23524056.036 8 123619691.77808      -393.492 8        48.851                                                                    23524059.404 8  92313387.60108      -293.841 8        50.997    23524058.398 8  94721562.54108      -301.458 8        50.862
C07        27.000                                                                                                                                    38920732.764 6 202670424.00706      -858.288 6        41.046    38920735.285 7 156717629.32507      -663.700 7        43.791    38920731.864 6 164686310.97906      -697.220 6        40.961
G13        28.000    21030414.632 8 110515505.28108     -3038.693 8        49.042                                    21030415.125 6  86115939.67106     -2367.813 6        37.796
I02        29.000    37039192.961 7 145349754.81007      -164.999 7        43.092
G10        30.000    24998043.608 6 131365530.62106      1460.162 6        40.918                                    24998049.709 5 102362737.45105      1137.793 5        33.725    24998050.211 6 102362729.45006      1137.807 6        36.646
E07        31.000    26225752.862 7 137817177.03307      1977.392 7        42.330                                                                    26225762.591 7 102915417.91107      1476.563 7        45.598    26225761.326 7 105600166.41707      1515.126 7        45.853
E03        32.000    25056038.564 7 131670286.47607     -2927.184 7        45.789                                                                    25056046.176 8  98325202.70208     -2185.831 8        48.493    25056044.967 8 100890205.37408     -2242.871 8        48.527
G05        33.000    25863608.056 3                     -4000.373 3        21.024
G02        34.000    25750678.755 6 135320747.89306       -10.554 6        37.127                                    25750686.879 3 105444777.00403        -8.221 3        18.298
C24        35.000                                                                                                                                    24028989.150 7 125125264.46907      2022.717 7        45.716                                                                    24028992.076 7 101674543.30607      1643.822 7        45.300
G23        36.000    23110887.386 7 121448431.04007      -901.948 7        43.270                                    23110891.514 4  94635099.43104      -702.818 4        29.422    23110892.280 6  94635100.42806      -702.843 6        41.395
C33        39.000                                                                                                                                    24625570.041 7 128231793.62607      1369.632 7        45.389                                                                    24625587.414 7 104198908.28407      1113.134 7        45.378
E25        40.000    24716958.102 7 129888456.64707     -2429.024 7        45.871                                                                    24716965.175 8  96994619.36908     -1813.911 8        48.343    24716964.118 8  99524907.05608     -1861.186 8        48.768
S44        42.000    40896111.864 6 214910476.17406      -471.191 6        37.883
C05        44.000                                                                                                                                    39440598.800 6 205377430.36906      -542.810 6        37.773    39440603.622 7 158810841.50807      -419.718 7        43.200    39440602.817 6 166886056.90706      -440.794 6        39.480
C40        45.000                                                                                                                                    38999897.548 7 203082663.89007     -1034.883 7        42.828                                                                    38999903.405 7 165021306.61907      -840.908 7        42.821
C21        46.000                                                                                                                                    25039890.258 7 130389130.44007     -3884.860 7        43.873                                                                    25039892.004 7 105951790.06907     -3156.616 7        44.337
R20        47.000    23340092.559 5 124809990.11905     -1578.534 5        32.299                                                                    23340106.606 6  97074495.15206     -1227.589 6        40.513
C10        49.000                                                                                                                                    38509966.456 7 200531508.20807      -476.399 7        42.320    38509970.790 7 155063698.63107      -368.328 7        44.587    38509967.164 6 162948280.11106      -386.983 6        41.578
C42        50.000                                                                                                                                    22897799.027 8 119234772.43008     -1781.112 8        48.824                                                                    22897810.897 8  96888040.26108     -1447.180 8        49.214
S48        51.000    77172276.387 6 405542978.36206      -494.903 6        38.276
E02        53.000    23301540.524 8 122450517.35208       245.933 8        49.276                                                                    23301544.670 8  91440401.69908       183.658 8        51.247    23301543.475 8  93825784.61708       188.450 8        51.028
C60        54.000                                                                                                                                    40896110.440 6 212956761.99606      -466.772 6        39.661                                                                    40896105.841 6 173044736.63006      -379.240 6        39.535
C45        55.000                                                                                                                                    23582846.394 7 122801970.54307     -2826.167 7        46.797                                                                    23582844.116 7  99786612.84907     -2296.381 7        47.224
R12        56.000    19315915.627 8 103182252.05508      -705.270 8        51.954                                                                    19315919.704 7  80252902.59107      -548.545 7        47.916
C02        57.000                                                                                                                                    40996268.168 5                      -515.122 5        30.747    40996276.930 6 165074770.74306      -398.457 6        36.030    40996275.610 5                      -418.560 5        30.687
I03        58.000   122786034.153 5 406053217.82605       895.742 5        35.319
C14        59.000                                                                                                                                    23244474.158 7 121040014.46507      -114.427 7        46.068    23244476.392 8  93595789.25908       -88.426 8        50.626    23244473.745 8  98354897.65908       -92.803 8        48.248
R13        60.000    21175152.230 7 113074201.50207      2187.661 7        43.797
> 2025 01 01 10 15  5.0000000  0 53
G19         1.000    22608175.760 7 118806911.20307      2253.985 7        44.770                                    22608178.355 5  92576898.77605      1756.350 5        33.605
R01         2.000    22166882.799 7 118494548.02707     -4849.467 7        43.037                                                                    22166892.421 6  92162459.50306     -3771.737 6        38.598
G24         3.000    21302567.156 7 111945761.08507      1845.956 7        46.087                                    21302571.057 7  87230495.58907      1438.403 7        46.469    21302571.318 7  87230492.60007      1438.347 7        43.464
R02         4.000    19588559.911 8 104528252.06308     -1730.774 8        52.462                                                                    19588563.842 7  81299752.00607     -1346.209 7        47.059
S21         5.000    38462205.353 7 202119972.70707      -501.581 7        42.489
G17         7.000    22055635.216 7 115903316.38107        17.683 7        45.795                                    22055638.220 7  90314362.97207        13.779 7        44.056    22055638.932 7  90314358.97507        13.775 7        43.039
R21         8.000    22825607.677 7 122144495.96007      1639.988 7        44.199                                                                    22825618.094 6  95001350.51306      1275.581 6        41.032
E12         9.000    29070063.757 5 152764211.79705       704.713 5        31.253                                                                    29070076.906 5 114077220.55205       525.890 5        34.567    29070075.256 5 117053136.85005       539.617 5        34.948
E30        10.000    26803638.477 6 140854168.08006      2246.762 6        41.342                                                                    26803648.979 7 105183402.09407      1677.855 7        44.473    26803647.355 7 107927307.27607      1721.597 7        44.688
C26        11.000                                                                                                                                    21700927.800 8 113002449.90708      -153.876 8        50.819                                                                    21700930.045 8  91823766.26308      -124.900 8        49.092
S27        12.000    39194757.588 6 205969681.25906      -534.069 6        36.764
G15        13.000    20364598.729 8 107016626.05808     -1617.343 8        49.580                                    20364598.965 8  83389546.83908     -1260.266 8        49.340    20364599.091 7  83389538.84307     -1260.286 7        44.880
S36        14.000    38233006.771 7 200916216.31507      -502.656 7        44.405
G12        15.000    24138950.560 7 126851109.42807      3200.261 7        42.554                                    24138956.154 5  98845076.56605      2493.698 5        34.952    24138957.072 6  98845076.59006      2493.636 6        37.146
R11        16.000    22040646.285 7 117778426.71607     -3849.148 7        45.958                                                                    22040654.775 7  91605413.18007     -2993.797 7        43.539
S45        17.000    63417000.626 6 333260109.10406      -555.284 6        36.480
R03        18.000    21235383.067 8 113674614.07708      2433.339 8        50.330                                                                    21235387.689 7  88413589.64007      1892.616 7        45.631
C35        19.000                                                                                                                                    25925546.018 6 135001155.89506      2515.922 6        41.747                                                                    25925555.055 6 109699553.03006      2044.489 6        41.466
E33        20.000    28830928.018 5 151507561.22005     -1525.936 5        35.257                                                                    28830931.212 6 113138786.77906     -1139.554 6        38.093    28830930.616 6 116090228.58906     -1169.499 6        39.045
G30        21.000    24836023.711 6 130513997.00106     -3610.892 6        36.749                                    24836035.221 4 101699172.89704     -2813.677 4        29.071    24836036.379 5 101699176.88305     -2813.456 5        35.829
I06        22.000    38223300.959 6 149996508.75806      -477.229 6        40.903
S28        23.000    40913937.567 5 215003973.92005      -512.194 5        34.852
G14        24.000    22235141.975 7 116846395.96207     -3253.217 7        44.694                                    22235146.279 5  91049124.99805     -2534.969 5        33.455    22235146.259 7  91049126.98807     -2535.075 7        44.327
S23        25.000    38166225.047 7 200564759.83907      -504.205 7        44.479
E08        26.000    23524431.376 8 123621664.14208      -395.790 8        48.925                                                                    23524434.727 8  92314860.45708      -295.488 8        50.871    23524433.748 8  94723073.82608      -303.228 8        50.965
C07        27.000                                                                                                                                    38921557.557 6 202674716.70706      -859.014 6        41.101    38921559.605 7 156720948.73207      -664.330 7        43.949    38921556.140 6 164689799.19106      -698.081 6        40.937
G13        28.000    21033306.547 8 110530704.20608     -3041.137 8        49.114                                    21033307.366 6  86127782.97906     -2369.716 6        37.713
I02        29.000    37039403.388 7 145350580.67007      -165.310 7        43.287
G10        30.000    24996655.294 6 131358236.25406      1457.444 6        40.782                                    24996661.561 5 102357053.50405      1135.672 5        33.970    24996661.511 6 102357045.49606      1135.527 6        37.282
E07        31.000    26223871.797 7 137807292.62807      1976.206 7        42.140                                                                    26223881.733 7 102908036.69707      1475.830 7        45.406    26223880.405 7 105592592.65207      1514.279 7        45.812
E03        32.000    25058824.472 7 131684925.68707     -2928.774 7        45.512                                                                    25058831.931 8  98336134.56208     -2186.961 8        48.392    25058830.480 8 100901422.42308     -2244.098 8        48.571
G05        33.000    25867413.090 3                     -4001.999 3        20.881
G02        34.000    25750690.982 6 135320807.97106       -13.354 6        37.592                                    25750698.384 3 105444823.78503       -10.422 3        18.388
C24        35.000                                                                                                                                    24027047.142 7 125115152.97107      2021.661 7        45.523                                                                    24027050.216 7 101666326.91307      1642.831 7        45.217
G23        36.000    23111747.311 7 121452948.76807      -905.410 7        42.842                                    23111751.223 4  94638619.73104      -705.518 4        29.536    23111751.794 6  94638620.72906      -705.540 6        41.802
C33        39.000                                                                                                                                    24624255.812 7 128224951.02207      1367.147 7        44.944                                                                    24624273.405 7 104193348.12307      1111.040 7        45.365
E25        40.000    24719269.469 7 129900604.79807     -2430.399 7        46.048                                                                    24719276.908 8  97003691.00408     -1814.874 8        48.240    24719275.890 8  99534215.35008     -1862.260 8        48.809
S44        42.000    40896560.077 6 214912831.64806      -471.353 6        37.992
C05        44.000                                                                                                                                    39441119.820 6 205380144.11406      -542.910 6        37.603    39441125.009 7 158812939.94807      -419.762 7        43.388    39441123.909 6 166888262.06506      -441.223 6        39.267
C40        45.000                                                                                                                                    39000891.588 7 203087840.42607     -1035.842 7        42.885                                                                    39000897.513 7 165025512.98607      -841.639 7        42.747
C21        46.000                                                                                                                                    25043620.729 7 130408556.25407     -3885.706 7        44.221                                                                    25043622.853 7 105967575.12407     -3157.348 7        44.379
R20        47.000    23341571.245 5 124817892.56505     -1583.134 5        31.494                                                                    23341584.092 6  97080641.55206     -1231.111 6        40.462
C10        49.000                                                                                                                                    38510424.521 7 200533891.52507      -477.061 7        42.256    38510428.277 7 155065541.59707      -369.010 7        44.904    38510424.814 6 162950216.78506      -387.626 6        41.359
C42        50.000                                                                                                                                    22899510.493 8 119243684.64608     -1783.971 8        48.985                                                                    22899522.379 8  96895282.17808     -1449.545 8        49.144
S48        51.000    77172748.210 6 405545453.22406      -495.322 6        38.312
E02        53.000    23301307.553 8 122449292.20308       243.916 8        49.323                                                                    23301311.573 8  91439486.81708       182.136 8        51.147    23301310.378 8  93824845.86808       186.891 8        51.007
C60        54.000                                                                                                                                    40896558.783 6 212959096.06006      -466.986 6        39.913                                                                    40896553.969 6 173046633.29006      -379.384 6        39.444
C45        55.000                                                                                                                                    23585560.320 7 122816103.19307     -2827.085 7        46.828                                                                    23585558.132 7  99798096.78607     -2297.149 7        47.094
R12        56.000    19316576.825 8 103185784.71008      -708.097 8        51.538                                                                    19316580.912 7  80255650.20607      -550.734 7        47.877
C02        57.000                                                                                                                                    40996762.680 5                      -515.662 5        30.068    40996771.514 6 165076763.53406      -398.653 6        36.083    40996770.655 5                      -418.971 5        30.453
I03        58.000   122784892.639 5 406048739.34705       895.687 5        35.248
C14        59.000                                                                                                                                    23244585.692 7 121040593.60907      -117.465 7        46.201    23244587.763 8  93596237.09508       -90.809 8        50.820    23244584.945 8  98355368.26808       -95.313 8        48.101
R13        60.000    21173105.151 7 113063267.36207      2185.790 7        43.653
> 2025 01 01 10 15 10.0000000  0 53
G19         1.000    22606032.207 7 118795645.67807      2252.031 7        44.661                                    22606034.579 5  92568120.46005      1754.829 5        33.533
R01         2.000    22171419.216 7 118518798.83107     -4851.082 7        42.936                                                                    22171428.978 6  92181321.20906     -3773.047 6        38.393
G24         3.000    21300811.633 7 111936535.69307      1844.142 7        46.149                                    21300815.515 7  87223306.97907      1436.995 7        46.472    21300816.301 7  87223303.97807      1436.979 7        44.004
R02         4.000    19590183.536 8 104536917.01508     -1735.296 8        52.087                                                                    19590187.571 7  81306491.39507     -1349.582 7        46.836
S21         5.000    38462683.324 7 202122479.53707      -501.576 7        42.476
G17         7.000    22055620.366 7 115903235.94407        14.478 7        46.151                                    22055622.989 7  90314300.28107        11.286 7        44.113    22055623.802 7  90314296.27107        11.252 7        43.156
R21         8.000    22824077.256 7 122136304.88807      1636.343 7        44.087                                                                    22824086.563 6  94994979.63006      1272.776 6        40.636
E12         9.000    29069394.217 5 152760697.02305       701.792 5        31.094                                                                    29069408.392 5 114074595.79105       524.198 5        34.905    29069406.647 5 117050443.62905       537.781 5        35.043
E30        10.000    26801501.235 6 140842935.84706      2245.876 6        41.633                                                                    26801511.441 7 105175014.41007      1677.184 7        44.433    26801509.770 7 107918700.77207      1720.872 7        44.578
C26        11.000                                                                                                                                    21701076.368 8 113003223.26608      -155.560 8        50.801                                                                    21701078.571 8  91824394.66108      -126.343 8        49.210
S27        12.000    39195267.666 6 205972351.39306      -534.162 6        36.578
G15        13.000    20366139.068 8 107024721.23508     -1620.844 8        49.593                                    20366139.426 8  83395854.76508     -1262.993 8        49.348    20366139.829 7  83395846.76007     -1262.988 7        44.939
S36        14.000    38233483.160 7 200918729.69107      -502.875 7        44.442
G12        15.000    24135905.846 6 126835110.34006      3199.343 6        41.943                                    24135911.507 5  98832609.79905      2492.984 5        34.976    24135912.390 6  98832609.82906      2492.860 6        37.433
R11        16.000    22044248.136 7 117797673.86307     -3849.781 7        46.094                                                                    22044256.754 7  91620383.13507     -2994.296 7        44.059
S45        17.000    63417481.830 6 333261185.22016      -555.334 6        36.219
R03        18.000    21233111.381 8 113662454.98608      2430.081 8        50.169                                                                    21233115.925 7  88404132.57807      1890.034 7        44.852
C35        19.000                                                                                                                                    25923130.086 6 134988576.75606      2515.560 6        41.738                                                                    25923139.246 6 109689331.48906      2044.317 6        41.526
E33        20.000    28832381.220 5 151515197.48505     -1528.630 5        35.314                                                                    28832384.318 6 113144489.18706     -1141.418 6        38.153    28832383.812 6 116096079.72406     -1171.092 6        39.024
G30        21.000    24839460.091 6 130532052.37806     -3611.372 6        36.499                                    24839471.063 4 101713242.00304     -2814.049 4        28.986    24839472.144 6 101713245.99906     -2814.047 6        36.200
I06        22.000    38223908.698 6 149998894.57306      -477.141 6        41.087
S28        23.000    40914425.046 5 215006534.77305      -512.393 5        35.176
G14        24.000    22238238.021 7 116862665.46307     -3254.661 7        45.225                                    22238242.314 5  91061802.50905     -2536.099 5        33.533    22238242.276 7  91061804.50307     -2536.175 7        44.409
S23        25.000    38166704.905 7 200567280.60807      -504.156 7        44.522
E08        26.000    23524808.783 8 123623647.76308      -397.836 8        48.864                                                                    23524812.193 8  92316341.73408      -297.095 8        50.818    23524811.224 8  94724593.74508      -304.876 8        50.768
C07        27.000                                                                                                                                    38922382.487 6 202679013.24906      -859.684 6        41.056    38922384.813 7 156724271.09507      -664.796 7        44.030    38922381.262 6 164693290.46006      -698.557 6        41.058
G13        28.000    21036201.420 8 110545915.49108     -3043.498 8        49.237                                    21036201.914 6  86139635.92106     -2371.555 6        37.716
I02        29.000    37039614.408 7 145351408.05107      -165.756 7        43.304
G10        30.000    24995269.534 6 131350955.71006      1454.758 6        40.243                                    24995276.024 5 102351380.34405      1133.584 5        34.057    24995276.333 6 102351372.34406      1133.680 6        37.350
E07        31.000    26221991.860 7 137797413.62407      1975.233 7        42.427                                                                    26222001.807 7 102900659.53307      1475.011 7        45.371    26222000.516 7 105585023.03307      1513.538 7        45.830
E03        32.000    25061611.786 7 131699572.46207     -2930.156 7        46.188                                                                    25061619.099 8  98347072.08508     -2188.072 8        48.384    25061617.798 8 100912645.26408     -2245.143 8        48.588
G05        33.000    25871214.175 3                     -4006.282 3        20.476
G02        34.000    25750704.751 6 135320881.92806       -16.253 6        36.892                                    25750712.331 3 105444881.42003       -12.656 3        18.328
C24        35.000                                                                                                                                    24025106.742 7 125105046.60307      2020.761 7        45.604                                                                    24025109.429 7 101658114.66907      1642.149 7        45.267
G23        36.000    23112610.588 7 121457483.86107      -908.906 7        42.489                                    23112614.238 4  94642153.56104      -708.233 4        29.488    23112614.760 6  94642154.54606      -708.134 6        41.936
C33        39.000                                                                                                                                    24622943.973 7 128218121.18907      1364.660 7        45.008                                                                    24622961.958 7 104187798.31107      1108.977 7        45.372
E25        40.000    24721582.482 7 129912759.78507     -2431.661 7        45.968                                                                    24721589.920 8  97012767.76408     -1815.825 8        48.230    24721588.926 8  99543528.89308     -1863.228 8        48.755
S44        42.000    40897008.102 6 214915187.87506      -471.441 6        37.985
C05        44.000                                                                                                                                    39441641.010 6 205382858.65106      -542.962 6        37.913    39441646.351 7 158815038.98507      -419.844 7        43.276    39441645.313 6 166890467.82506      -441.286 6        39.276
C40        45.000                                                                                                                                    39001886.845 7 203093021.64707     -1036.696 7        42.929                                                                    39001892.587 7 165029723.13607      -842.396 7        42.792
C21        46.000                                                                                                                                    25047352.486 7 130427986.84607     -3886.609 7        44.283                                                                    25047354.645 7 105983364.02307     -3158.114 7        44.593
R20        47.000    23343052.069 5 124825816.94305     -1587.167 5        31.540                                                                    23343066.027 6  97086804.98406     -1234.378 6        40.424
C10        49.000                                                                                                                                    38510882.676 7 200536278.93907      -477.915 7        42.100    38510886.674 7 155067387.68707      -369.553 7        44.777    38510883.196 6 162952156.73206      -388.277 6        41.492
C42        50.000                                                                                                                                    22901224.872 8 119252611.26908     -1786.793 8        49.119                                                                    22901236.683 8  96902535.77208     -1451.857 8        49.157
S48        51.000    77173222.363 6 405547929.30806      -495.221 6        38.255
E02        53.000    23301076.449 8 122448077.35208       241.960 8        49.314                                                                    23301080.363 8  91438579.62108       180.663 8        51.126    23301079.146 8  93823915.00508       185.391 8        50.892
C60        54.000                                                                                                                                    40897007.099 6 212961430.86406      -467.006 6        40.017                                                                    40897002.356 6 173048530.51106      -379.404 6        39.583
C45        55.000                                                                                                                                    23588275.294 7 122830240.55907     -2828.013 7        46.723                                                                    23588273.091 7  99809584.52007     -2297.853 7        47.093
R12        56.000    19317240.649 8 103189331.35208      -710.722 8        51.771                                                                    19317245.021 7  80258408.69607      -552.797 7        47.858
C02        57.000                                                                                                                                    40997258.753 5                      -515.893 5        30.626    40997266.697 5 165078756.91805      -398.788 5        35.990    40997266.115 5                      -418.768 5        30.392
I03        58.000   122783751.760 5 406044261.36405       895.544 5        35.490
C14        59.000                                                                                                                                    23244699.942 7 121041188.25207      -120.486 7        46.111    23244701.894 8  93596696.90108       -93.154 8        50.677    23244699.168 8  98355851.44708       -97.848 8        48.179
R13        60.000    21171059.449 7 113052343.27607      2183.679 7        43.534
> 2025 01 01 10 15 15.0000000  0 53
G19         1.000    22603890.601 7 118784390.09307      2250.176 7        45.047                                    22603892.627 5  92559349.87805      1753.384 5        33.341
R01         2.000    22175957.960 7 118543057.46307     -4852.427 7        43.223                                                                    22175966.264 6  92200188.98006     -3774.000 6        38.805
G24         3.000    21299057.696 7 111927319.14907      1842.460 7        45.851                                    21299061.669 7  87216125.26507      1435.683 7        46.513    21299061.947 7  87216122.27107      1435.701 7        43.778
R02         4.000    19591811.812 8 104545604.87808     -1739.765 8        52.004                                                                    19591815.831 7  81313248.62407     -1353.143 7        46.642
S21         5.000    38463158.600 7 202124987.25107      -501.529 7        42.260
G17         7.000    22055608.464 7 115903171.65907        11.294 7        46.522                                    22055610.804 7  90314250.16607         8.805 7        44.152    22055610.648 7  90314246.16507         8.849 7        42.595
R21         8.000    22822549.127 7 122128131.78107      1632.911 7        44.566                                                                    22822559.727 6  94988622.75306      1270.040 6        41.557
E12         9.000    29068728.455 5 152757193.45305       699.260 5        30.785                                                                    29068741.770 5 114071979.36205       522.434 5        35.043    29068740.034 5 117047758.97005       535.950 5        35.219
E30        10.000    26799365.110 7 140831708.21007      2245.195 7        42.023                                                                    26799374.746 7 105166630.15507      1676.622 7        44.363    26799373.187 7 107910097.80507      1720.289 7        44.662
C26        11.000                                                                                                                                    21701226.373 8 113004005.29008      -157.180 8        50.505                                                                    21701228.798 8  91825030.12708      -127.744 8        48.986
S27        12.000    39195774.426 6 205975022.10706      -534.590 6        36.665
G15        13.000    20367682.899 8 107032834.01708     -1624.224 8        49.436                                    20367683.231 8  83402176.40808     -1265.627 8        49.357    20367683.868 7  83402168.40907     -1265.709 7        45.234
S36        14.000    38233961.141 7 200921243.06307      -502.592 7        44.290
G12        15.000    24132862.267 6 126819115.79106      3198.577 6        41.600                                    24132867.700 5  98820146.56905      2492.388 5        34.995    24132868.097 6  98820146.61706      2492.043 6        37.361
R11        16.000    22047851.796 7 117816924.46607     -3850.337 7        46.699                                                                    22047859.466 7  91635355.79107     -2994.641 7        44.041
S45        17.000    63417964.604 6 333263961.78106      -555.299 6        36.329
R03        18.000    21230842.852 8 113650312.31908      2427.031 8        49.929                                                                    21230847.284 7  88394688.28707      1887.695 7        44.680
C35        19.000                                                                                                                                    25920714.109 6 134975999.38406      2515.296 6        41.316                                                                    25920723.803 6 109679111.43506      2043.766 6        41.027
E33        20.000    28833836.835 5 151522845.35405     -1530.771 5        35.576                                                                    28833839.740 6 113150200.20906     -1142.724 6        37.773    28833839.360 6 116101939.77606     -1172.888 6        38.811
G30        21.000    24842896.390 6 130550110.36306     -3611.653 6        36.877                                    24842907.420 4 101727313.13504     -2814.274 4        28.957    24842907.266 5 101727317.12905     -2814.382 5        35.457
I06        22.000    38224516.474 6 150001280.84606      -477.259 6        40.894
S28        23.000    40914911.768 5 215009096.00805      -512.218 5        35.200
G14        24.000    22241335.477 7 116878942.30607     -3256.088 7        45.127                                    22241339.838 5  91074485.74605     -2537.211 5        33.647    22241339.757 7  91074487.74307     -2537.142 7        44.662
S23        25.000    38167184.174 7 200569801.83807      -504.161 7        44.501
E08        26.000    23525188.217 8 123625642.25008      -399.897 8        48.661                                                                    23525191.727 8  92317831.12308      -298.655 8        50.834    23525190.720 8  94726121.98308      -306.433 8        50.906
C07        27.000                                                                                                                                    38923207.969 6 202683313.31906      -860.296 6        40.782    38923210.277 7 156727596.20207      -665.270 7        43.852    38923206.979 6 164696784.66306      -699.156 6        40.715
G13        28.000    21039098.233 8 110561138.73008     -3045.770 8        49.492                                    21039098.788 6  86151498.17906     -2373.326 6        37.728
I02        29.000    37039825.677 7 145352237.57707      -165.963 7        43.448
G10        30.000    24993886.770 6 131343688.63106      1452.079 6        39.922                                    24993893.027 5 102345717.66205      1131.492 5        33.665    24993892.958 6 102345709.65606      1131.540 6        37.198
E07        31.000    26220113.043 7 137787539.63507      1974.491 7        42.311                                                                    26220122.843 7 102893286.10607      1474.459 7        45.422    26220121.585 7 105577457.27107      1512.777 7        45.824
E03        32.000    25064400.235 7 131714226.40707     -2931.449 7        45.842                                                                    25064407.617 8  98358014.96108     -2189.055 8        48.287    25064406.527 8 100923873.61008     -2246.192 8        48.607
G05        33.000    25875021.077 3                     -3994.935 3        21.714
G02        34.000    25750721.151 6 135320969.29106       -18.636 6        37.399                                    25750728.903 3 105444949.48503       -14.495 3        18.925
C24        35.000                                                                                                                                    24023166.898 7 125094944.95607      2019.857 7        45.380                                                                    24023169.594 7 101649906.28007      1641.242 7        45.153
G23        36.000    23113476.842 7 121462035.90107      -912.049 7        43.130                                    23113480.449 4  94645700.59504      -710.688 4        29.422    23113480.841 7  94645701.59107      -710.645 7        42.290
C33        39.000                                                                                                                                    24621635.119 7 128211303.71507      1362.408 7        44.850                                                                    24621652.667 7 104182258.57407      1106.964 7        45.236
E25        40.000    24723896.814 7 129924921.21507     -2432.791 7        45.731                                                                    24723904.229 8  97021849.32808     -1816.749 8        48.194    24723903.184 8  99552847.37008     -1864.141 8        48.733
S44        42.000    40897456.351 6 214917544.43806      -471.215 6        37.788
C05        44.000                                                                                                                                    39442162.499 6 205385573.56606      -542.795 6        37.584    39442167.586 7 158817138.33807      -419.888 7        43.255    39442166.646 6 166892673.92306      -441.185 6        39.234
C40        45.000                                                                                                                                    39002882.328 7 203098207.14107     -1037.423 7        42.893                                                                    39002888.272 7 165033936.78607      -843.047 7        42.622
C21        46.000                                                                                                                                    25051084.683 7 130447421.79907     -3887.414 7        43.668                                                                    25051087.027 7 105999156.49307     -3158.950 7        44.436
R20        47.000    23344538.422 5 124833762.88105     -1591.165 5        31.562                                                                    23344552.508 6  97092985.16806     -1237.566 6        40.536
C10        49.000                                                                                                                                    38511342.033 6 200538669.91806      -478.495 6        41.933    38511346.108 7 155069236.56407      -370.038 7        44.713    38511342.338 6 162954099.63706      -388.931 6        41.344
C42        50.000                                                                                                                                    22902941.790 8 119261551.87708     -1789.407 8        48.923                                                                    22902953.609 8  96909800.76608     -1454.146 8        49.030
S48        51.000    77173695.295 6 405550405.86406      -495.269 6        38.240
E02        53.000    23300847.193 8 122446872.39008       240.098 8        49.200                                                                    23300851.010 8  91437679.81308       179.304 8        51.112    23300849.869 8  93822991.72408       184.039 8        51.057
C60        54.000                                                                                                                                    40897455.549 6 212963766.00506      -466.930 6        39.850                                                                    40897450.730 6 173050428.03906      -379.427 6        39.111
C45        55.000                                                                                                                                    23590991.365 7 122844382.21207     -2828.744 7        46.326                                                                    23590988.895 7  99821075.78307     -2298.707 7        46.924
R12        56.000    19317907.445 8 103192891.56708      -713.360 8        52.020                                                                    19317910.931 7  80261177.74007      -554.815 7        47.791
C02        57.000                                                                                                                                    40997753.265 5                      -515.558 5        30.226    40997761.670 5 165080750.50305      -398.617 5        35.910    40997761.173 5                      -418.937 5        30.000
I03        58.000   122782610.352 5 406039783.51205       895.601 5        35.343
C14        59.000                                                                                                                                    23244817.231 7 121041797.90707      -123.329 7        45.977    23244818.851 8  93597168.33408       -95.387 8        50.626    23244816.233 8  98356346.85908      -100.324 8        48.062
R13        60.000    21169015.784 7 113041429.02307      2182.034 7        43.039
> 2025 01 01 10 15 20.0000000  0 52
G19         1.000    22601750.486 7 118773144.78607      2247.835 7        44.883                                    22601752.530 5  92550587.30105      1751.560 5        33.473
R01         2.000    22180496.782 7 118567324.48007     -4854.484 7        42.540                                                                    22180505.871 6  92219063.27106     -3775.733 6        38.084
G24         3.000    21297305.479 7 111918111.78807      1840.445 7        45.860                                    21297309.544 7  87208950.70607      1434.108 7        46.626    21297309.884 7  87208947.71707      1433.926 7        44.135
R02         4.000    19593444.246 8 104554315.58808     -1744.681 8        52.668                                                                    19593448.463 7  81320023.60707     -1356.931 7        47.346
S21         5.000    38463636.554 7 202127495.73107      -501.851 7        42.279
G17         7.000    22055599.613 7 115903123.86607         7.737 7        46.830                                    22055601.731 7  90314212.90807         6.035 7        44.287    22055601.772 7  90314208.90007         6.021 7        42.823
R21         8.000    22821026.376 7 122119977.14407      1628.996 7        44.913                                                                    22821036.775 6  94982280.19206      1267.080 6        41.576
E12         9.000    29068064.163 5 152753701.24005       697.394 5        30.566                                                                    29068077.138 5 114069371.55205       520.562 5        35.105    29068075.603 5 117045083.12505       534.086 5        35.624
E30        10.000    26797229.222 6 140820485.50306      2243.972 6        41.845                                                                    26797239.057 7 105158249.59507      1675.598 7        44.269    26797237.623 7 107901498.60707      1719.345 7        44.637
C26        11.000                                                                                                                                    21701378.147 8 113004796.31008      -159.315 8        50.632                                                                    21701380.684 8  91825672.89008      -129.431 8        49.318
S27        12.000    39196281.923 6 205977693.74306      -534.611 6        36.423
G15        13.000    20369229.913 8 107040964.71508     -1628.069 8        49.397                                    20369230.457 8  83408512.01008     -1268.624 8        49.509    20369231.116 7  83408504.00607     -1268.675 7        45.529
S36        14.000    38234440.879 7 200923756.76907      -502.939 7        44.379
G12        15.000    24129819.562 6 126803126.09606      3197.196 6        41.895                                    24129824.783 5  98807687.12505      2491.310 5        35.090    24129825.251 6  98807687.15406      2491.421 6        36.760
R11        16.000    22051455.228 7 117836178.91707     -3851.457 7        46.923                                                                    22051462.102 7  91650331.44507     -2995.531 7        44.051
S45        17.000    63418443.175 6 333266739.16306      -555.742 6        36.117
R03        18.000    21228577.760 8 113638186.19608      2423.334 8        50.035                                                                    21228582.460 7  88385256.87007      1884.834 7        44.999
C35        19.000                                                                                                                                    25918299.118 6 134963424.10706      2514.695 6        41.297                                                                    25918308.590 6 109668893.04706      2043.483 6        41.247
E33        20.000    28835294.220 6 151530505.28906     -1533.311 6        36.064                                                                    28835297.803 6 113155920.33906     -1145.049 6        38.114    28835296.985 6 116107809.11706     -1174.957 6        39.189
G30        21.000    24846332.990 6 130568171.30806     -3612.545 6        37.312                                    24846344.363 4 101741386.57104     -2814.967 4        29.355    24846344.657 5 101741390.56905     -2815.234 5        35.252
I06        22.000    38225125.006 6 150003667.79406      -477.714 6        40.601
S28        23.000    40915402.256 5 215011657.82405      -512.610 5        34.829
G14        24.000    22244434.087 7 116895226.82907     -3257.792 7        44.600                                    22244438.807 5  91087174.96205     -2538.534 5        33.683    22244438.683 7  91087176.95507     -2538.606 7        44.862
S23        25.000    38167665.844 7 200572323.88407      -504.601 7        44.447
E08        26.000    23525569.834 8 123627647.92208      -402.379 8        48.657                                                                    23525573.433 8  92319328.86108      -300.550 8        50.831    23525572.421 8  94727658.79308      -308.329 8        50.807
C07        27.000                                                                                                                                    38924034.408 6 202687617.23606      -861.333 6        40.648    38924036.949 7 156730924.28807      -666.069 7        43.882    38924033.548 6 164700281.95806      -699.892 6        41.035
G13        28.000    21041997.618 8 110576374.24408     -3048.476 8        49.465                                    21041997.982 6  86163369.99906     -2375.434 6        37.913
I02        29.000    37040037.548 7 145353068.82707      -166.592 7        43.166
G10        30.000    24992506.821 6 131336435.31606      1449.109 6        40.033                                    24992512.615 5 102340065.71205      1129.181 5        33.778    24992512.766 6 102340057.71706      1129.108 6        37.214
E07        31.000    26218235.076 7 137777670.98607      1973.009 7        42.254                                                                    26218244.899 7 102885916.67107      1473.391 7        45.409    26218243.623 7 105569895.57907      1511.787 7        45.669
E03        32.000    25067189.889 7 131728887.85807     -2933.170 7        45.053                                                                    25067197.601 8  98368963.43108     -2190.372 8        48.254    25067196.631 8 100935107.69008     -2247.501 8        48.655
G02        34.000    25750740.724 6 135321070.45706       -21.808 6        38.042                                    25750748.319 3 105445028.31103       -16.985 3        18.866
C24        35.000                                                                                                                                    24021228.011 7 125084848.37307      2018.612 7        45.935                                                                    24021230.722 7 101641701.99307      1640.385 7        45.490
G23        36.000    23114345.828 7 121466605.23407      -915.790 7        42.823                                    23114350.081 4  94649261.10404      -713.603 4        29.763    23114350.396 7  94649262.09307      -713.624 7        42.210
