     3.04           OBSERVATION DATA    M                   RINEX VERSION / TYPE
ssrcrin-15.6.1x                         20250101 154500 UTC PGM / RUN BY / DATE 
(00000000023479385599111004) Septentrio proprietary         COMMENT             
rref                                                        MARKER NAME         
01                                                          MARKER NUMBER       
geodetic                                                    MARKER TYPE         
NFB                 CLIMERS@TUW                             OBSERVER / AGENCY   
3297213             SEPT ASTERX SB3 PROB4.14.4              REC # / TYPE / VERS 
Unknown             Unknown                                 ANT # / TYPE        
  4127831.2252  1207194.0838  4695247.8735                  APPROX POSITION XYZ 
        0.0000        0.0000        0.0000                  ANTENNA: DELTA H/E/N
G   23 X1  C1C L1C D1C S1C C1W S1W C2W L2W D2W S2W C2L L2L  SYS / # / OBS TYPES 
       D2L S2L C5Q L5Q D5Q S5Q C1L L1L D1L S1L              SYS / # / OBS TYPES 
E   21 X1  C1C L1C D1C S1C C6C L6C D6C S6C C5Q L5Q D5Q S5Q  SYS / # / OBS TYPES 
       C7Q L7Q D7Q S7Q C8Q L8Q D8Q S8Q                      SYS / # / OBS TYPES 
S    9 X1  C1C L1C D1C S1C C5I L5I D5I S5I                  SYS / # / OBS TYPES 
R   17 X1  C1C L1C D1C S1C C2P L2P D2P S2P C2C L2C D2C S2C  SYS / # / OBS TYPES 
       C3Q L3Q D3Q S3Q                                      SYS / # / OBS TYPES 
C   25 X1  C1P L1P D1P S1P C5P L5P D5P S5P C2I L2I D2I S2I  SYS / # / OBS TYPES 
       C7I L7I D7I S7I C6I L6I D6I S6I C7D L7D D7D S7D      SYS / # / OBS TYPES 
J   17 X1  C1C L1C D1C S1C C2L L2L D2L S2L C5Q L5Q D5Q S5Q  SYS / # / OBS TYPES 
       C1L L1L D1L S1L                                      SYS / # / OBS TYPES 
I    5 X1  C5A L5A D5A S5A                                  SYS / # / OBS TYPES 
SEPTENTRIO RECEIVERS OUTPUT ALIGNED CARRIER PHASES.         COMMENT             
NO FURTHER PHASE SHIFT APPLIED IN THE RINEX ENCODER.        COMMENT             
G L1C                                                       SYS / PHASE SHIFT   
G L2W                                                       SYS / PHASE SHIFT   
G L2L  0.00000                                              SYS / PHASE SHIFT   
G L5Q  0.00000                                              SYS / PHASE SHIFT   
G L1L  0.00000                                              SYS / PHASE SHIFT   
E L1C  0.00000                                              SYS / PHASE SHIFT   
E L6C  0.00000                                              SYS / PHASE SHIFT   
E L5Q  0.00000                                              SYS / PHASE SHIFT   
E L7Q  0.00000                                              SYS / PHASE SHIFT   
E L8Q  0.00000                                              SYS / PHASE SHIFT   
S L1C                                                       SYS / PHASE SHIFT   
S L5I                                                       SYS / PHASE SHIFT   
R L1C                                                       SYS / PHASE SHIFT   
R L2P  0.00000                                              SYS / PHASE SHIFT   
R L2C                                                       SYS / PHASE SHIFT   
R L3Q  0.00000                                              SYS / PHASE SHIFT   
C L1P  0.00000                                              SYS / PHASE SHIFT   
C L5P  0.00000                                              SYS / PHASE SHIFT   
C L2I                                                       SYS / PHASE SHIFT   
C L7I                                                       SYS / PHASE SHIFT   
C L6I                                                       SYS / PHASE SHIFT   
C L7D                                                       SYS / PHASE SHIFT   
J L1C                                                       SYS / PHASE SHIFT   
J L2L  0.00000                                              SYS / PHASE SHIFT   
J L5Q  0.00000                                              SYS / PHASE SHIFT   
J L1L  0.00000                                              SYS / PHASE SHIFT   
I L5A                                                       SYS / PHASE SHIFT   
  2025     1     1    15    45    0.0000000     GPS         TIME OF FIRST OBS   
 C1C    0.000 C2C    0.000 C2P    0.000                     GLONASS COD/PHS/BIS 
DBHZ                                                        SIGNAL STRENGTH UNIT
    18                                                      LEAP SECONDS        
 24 R01  1 R02 -4 R03  5 R04  6 R05  1 R06 -4 R07  5 R08  6 GLONASS SLOT / FRQ #
    R09 -2 R10 -7 R11  0 R12 -1 R13 -2 R14 -7 R15  0 R16 -1 GLONASS SLOT / FRQ #
    R17  4 R18 -3 R19  3 R20  2 R21  4 R22 -3 R23  3 R24  2 GLONASS SLOT / FRQ #
                                                            END OF HEADER       
> 2025 01 01 15 45  0.0000000  0 55
G20         1.000    23823128.011 6 125191537.93806        74.898 6        40.725                                    23823125.379 3  97551909.83903        58.357 3        23.657
G25         2.000    20659113.771 8 108564543.12608     -2461.940 8        49.183                                    20659115.315 8  84595842.00608     -1918.398 8        49.080    20659115.952 7  84595852.01807     -1918.471 7        44.536
G05         3.000    24437501.669 6 128419998.04006      2091.431 6        40.629                                    24437502.761 5 100067568.55005      1629.685 5        33.647    24437503.512 6 100067567.54306      1629.795 6        37.679
G29         4.000    20495756.274 8 107706246.60908      -445.495 8        51.412                                    20495754.913 8  83927099.60208      -347.139 8        53.361    20495755.055 7  83927102.60807      -347.115 7        46.944
S21         5.000    38594955.043 7 202817482.25907      -602.231 7        42.952
E13         6.000    27900582.863 6 146618636.72606      2719.085 6        37.501                                                                    27900603.078 6 109488072.24406      2030.555 6        41.316    27900600.729 7 112344261.48307      2083.554 7        42.301
E19         7.000    27104779.418 5 142436533.21705     -1638.384 5        33.509                                                                    27104789.761 6 106364948.58106     -1223.523 6        36.457    27104788.312 6 109139687.81306     -1255.384 6        37.913
E15         8.000    24529743.468 7 128904927.82507      1374.841 7        47.194                                                                    24529748.914 8  96260325.01008      1026.678 8        49.683    24529748.045 8  98771442.21808      1053.459 8        50.402
G11         9.000    23963866.064 6 125931246.22206     -3441.175 6        41.895                                    23963863.792 4  98128371.97504     -2681.435 4        26.299    23963864.103 6  98128371.98506     -2681.601 6        40.717
E30        10.000    25009626.653 7 131426654.98007     -2308.222 7        46.176                                                                    25009630.228 8  98143401.09008     -1723.674 8        49.373    25009629.528 8 100703651.15208     -1768.671 8        50.079
G26        11.000    23410324.686 6 123022343.10206      2586.881 6        41.118                                    23410331.693 6  95861718.97006      2015.739 6        36.960    23410332.294 6  95861739.00106      2015.748 6        38.847
S27        12.000    39392331.553 6 207007991.92406      -596.982 6        36.949
R15        13.000    19429859.428 8 103827547.21108       540.188 8        52.467                                                                    19429861.474 7  80754892.79907       420.121 7        46.852
S36        14.000    38367196.851 7 201621368.06207      -601.988 7        44.656
G12        15.000    23811918.476 7 125132616.37207     -3886.439 7        42.212                                    23811919.160 6  97506009.65806     -3028.392 6        37.217    23811919.898 6  97506009.66906     -3028.524 6        38.706
E29        16.000    27852918.277 6 146367882.61506     -3118.814 6        38.459                                                                    27852939.251 6 109300665.37506     -2328.978 6        41.230    27852936.799 6 112151989.19706     -2389.775 6        41.204
S45        17.000    63573669.485 6 334083025.84506      -663.954 6        36.473
G31        18.000    22099363.340 7 116133168.21507       838.489 7        46.673                                    22099363.789 7  90493514.65807       653.364 7        44.107    22099364.137 7  90493493.68107       653.258 7        42.351
E21        20.000    26990997.696 6 141838888.25006      1863.240 6        40.443                                                                    26991008.388 7 105918825.87507      1391.352 7        43.543    26991007.003 7 108681905.21807      1427.654 7        44.697
R14        21.000    20569624.334 8 109647803.22508     -3345.392 8        51.243                                                                    20569628.189 7  85281710.16407     -2602.036 7        47.188
I06        22.000    38837723.171 6 152407655.71206      -500.559 6        41.364
S28        23.000    41073316.937 5 215841670.35105      -602.803 5        34.448
E34        24.000    24836771.467 7 130518388.41107     -1540.961 7        45.890                                                                    24836774.522 8  97465206.38408     -1150.726 8        48.689    24836773.958 8 100007758.07208     -1180.706 8        49.631
S23        25.000    38315441.947 7 201348896.57007      -606.120 7        45.159
C13        26.000                                                                                                                                    39207515.198 6 204163951.90206      1067.504 6        41.828    39207519.652 6 157872612.83506       825.372 6        41.819    39207517.161 6 165900008.47506       867.550 6        41.108
G18        27.000    23579837.974 7 123913093.40507      2966.838 7        42.652                                    23579842.030 5  96555794.79005      2311.809 5        30.045    23579842.521 7  96555785.80907      2311.921 7        43.486
R24        28.000    20271431.434 8 108400764.61008     -3021.837 8        50.875                                                                    20271432.907 7  84311879.28507     -2350.372 7        46.362
I02        29.000    37930578.012 7 148847770.40807      -860.299 7        42.085
G28        30.000    21470364.120 7 112827676.46307      -932.221 7        47.976                                    21470365.166 6  87917757.00806      -726.407 6        37.826    21470365.320 7  87917754.01307      -726.366 7        46.709
G04        31.000    25516419.463 6 134089700.13906       598.739 6        36.972                                    25516419.026 3 104485483.83403       466.584 3        18.388    25516418.530 6 104485491.83106       466.494 6        36.718
C12        32.000                                                                                                                                    22624891.179 7 117813979.63507     -2245.361 7        46.686    22624889.923 8  91101360.48208     -1736.269 8        51.006    22624888.716 8  95733593.90408     -1824.464 8        49.571
R17        33.000    19693286.579 8 105383058.04408      1293.834 8        52.439                                                                    19693288.586 7  81964752.87807      1006.275 7        47.156
C24        35.000                                                                                                                                    24652780.266 7 128373517.08207     -3757.885 7        44.337                                                                    24652782.322 7 104314017.02007     -3053.321 7        45.275
R18        36.000    22993355.107 7 122740270.48207      3622.147 7        45.720                                                                    22993368.652 7  95464803.69507      2817.278 7        42.099
E27        37.000    23693394.022 8 124509818.35408        94.044 8        48.005                                                                    23693397.493 8  92978250.21808        70.259 8        51.462    23693396.706 8  95403751.45108        72.086 8        51.869
R16        38.000    22805576.961 7 121823347.99807      3317.657 7        47.164                                                                    22805580.600 7  94751530.95407      2580.450 7        43.458
R06        39.000    24434259.955 5 130385887.81005     -3075.767 5        31.117
R07        40.000    23913064.853 7 128008519.92407      -318.958 7        42.828                                                                    23913065.060 6  99562191.56006      -247.833 6        40.667
C34        41.000                                                                                                                                    21523709.884 8 112079896.07308      -550.380 8        50.960                                                                    21523711.872 8  91074225.76608      -447.170 8        49.654
S44        42.000    40775792.409 6 214278349.24506      -523.002 6        38.829
C38        43.000                                                                                                                                    39177120.770 7 204005673.25007       378.583 7        42.203                                                                    39177120.287 7 165771376.15507       307.859 7        42.819
C05        44.000                                                                                                                                    39578569.033 6 206095925.91106      -551.722 6        38.228    39578571.096 7 159366439.73007      -426.686 7        42.514    39578570.836 6 167469903.02906      -448.321 6        39.318
C08        45.000                                                                                                                                    38988865.114 6 203025390.52006       987.799 6        39.880    38988862.148 7 156992172.40807       763.904 7        44.062    38988860.793 6 164974800.89606       802.811 6        41.564
E04        46.000    29024257.265 5 152523493.17505       779.415 5        35.776                                                                    29024258.737 6 113897419.84906       582.153 6        39.036    29024258.031 6 116868654.76206       597.286 6        39.081
E36        47.000    28574624.593 5 150160878.77005     -3475.367 5        35.790                                                                    28574626.961 6 112133274.62406     -2595.437 6        40.246    28574626.475 6 115058469.32506     -2662.892 6        40.451
C43        48.000                                                                                                                                    23457473.104 7 122149431.08207      1977.068 7        47.115                                                                    23457477.345 7  99256521.34407      1606.608 7        46.763
C10        49.000                                                                                                                                    40830050.119 6 212612851.09406     -1273.085 6        36.181    40830050.248 6 164405774.90106      -984.376 6        38.901    40830047.857 6 172765373.32506     -1034.272 6        36.291
C44        50.000                                                                                                                                    24021439.650 7 125086034.25207     -3292.652 7        45.427                                                                    24021439.761 7 101642692.45107     -2675.533 7        44.918
S48        51.000    77313301.476 6 406284930.08806      -634.657 6        38.559
C60        54.000                                                                                                                                    40775797.948 6 212330382.81206      -518.401 6        40.746                                                                    40775786.614 6 172535778.04606      -421.220 6        40.682
C25        55.000                                                                                                                                    21713948.922 8 113070389.52908     -1460.850 8        51.389                                                                    21713949.531 8  91879024.46808     -1187.003 8        49.808
C23        56.000                                                                                                                                    23682522.966 7 123321393.48007      1591.260 7        47.429                                                                    23682518.256 8 100208829.64008      1293.083 8        48.713
C02        57.000                                                                                                                                    40973932.462 5 213361972.77805      -510.168 5        34.362    40973931.186 6 164984981.29306      -394.629 6        38.553    40973933.564 5 173374063.95605      -414.864 5        35.695
I03        58.000   116073760.343 6 379712992.45506       985.611 6        39.928
C11        59.000                                                                                                                                    22156538.299 8 115375156.41108       968.925 8        48.940    22156539.048 8  89215524.42208       749.198 8        51.819    22156536.821 8  93751862.10208       787.430 8        49.556
> 2025 01 01 15 45  5.0000000  0 55
G20         1.000    23823058.012 6 125191170.62406        71.800 6        40.482                                    23823055.693 3  97551623.64703        55.949 3        23.714
G25         2.000    20661457.421 8 108576858.64908     -2464.297 8        49.390                                    20661458.870 8  84605438.52408     -1920.235 8        49.244    20661459.505 7  84605448.53307     -1920.259 7        43.738
G05         3.000    24435512.765 6 128409544.91806      2089.774 6        40.365                                    24435513.564 5 100059423.28805      1628.390 5        33.623    24435513.729 6 100059422.32406      1628.153 6        37.410
G29         4.000    20496181.126 8 107708479.82108      -447.901 8        51.623                                    20496179.869 8  83928839.77808      -349.016 8        53.473    20496180.208 7  83928842.78007      -348.957 7        46.986
S21         5.000    38595527.433 7 202820493.95107      -602.468 7        43.156
E13         6.000    27897995.831 6 146605041.35106      2719.112 6        37.297                                                                    27898015.917 6 109477919.95106      2030.366 6        41.542    27898013.541 7 112333844.33407      2083.372 7        42.205
E19         7.000    27106338.746 5 142444729.92505     -1640.394 5        34.071                                                                    27106349.626 6 106371069.49506     -1224.999 6        36.507    27106347.916 6 109145968.38606     -1256.918 6        37.497
E15         8.000    24528436.352 7 128898058.58707      1372.763 7        47.156                                                                    24528441.785 8  96255195.40608      1025.127 8        49.816    24528440.839 8  98766178.79808      1051.832 8        50.240
G11         9.000    23967141.149 6 125948457.33706     -3443.211 6        41.666                                    23967138.965 4  98141783.26004     -2683.025 4        26.527    23967139.319 6  98141783.26006     -2683.003 6        40.846
E30        10.000    25011823.200 7 131438199.01907     -2309.406 7        46.072                                                                    25011826.991 8  98152021.63808     -1724.558 8        49.392    25011826.240 8 100712496.58108     -1769.484 8        49.943
G26        11.000    23407863.999 6 123009411.12006      2585.999 6        41.564                                    23407870.776 6  95851642.16506      2015.054 6        37.059    23407871.193 6  95851662.18306      2015.110 6        38.700
S27        12.000    39392892.805 6 207010976.85206      -596.987 6        36.643
R15        13.000    19429355.222 8 103824854.37108       536.844 8        52.222                                                                    19429357.968 7  80752798.37807       417.520 7        47.052
S36        14.000    38367770.963 7 201624378.06707      -602.116 7        44.808
G12        15.000    23815617.133 7 125152051.22807     -3887.497 7        42.165                                    23815617.442 6  97521153.69606     -3029.215 6        36.862    23815617.706 6  97521153.69206     -3029.344 6        38.036
E29        16.000    27855885.884 6 146383478.65606     -3119.651 6        38.889                                                                    27855907.107 6 109312311.73506     -2329.637 6        41.194    27855904.404 6 112163939.37006     -2390.345 6        41.101
S45        17.000    63574251.055 6 334086345.80206      -663.998 6        36.665
G31        18.000    22098567.051 7 116128983.77307       835.224 7        47.152                                    22098567.500 7  90490254.07807       650.820 7        44.220    22098568.093 7  90490233.08707       650.835 7        42.409
E21        20.000    26989225.118 6 141829572.94806      1862.749 6        40.238                                                                    26989235.703 7 105911869.71407      1391.051 7        43.496    26989234.346 7 108674767.57907      1427.387 7        44.537
R14        21.000    20572763.477 8 109664537.05008     -3348.165 8        51.186                                                                    20572767.488 7  85294725.35707     -2604.062 7        47.178
I06        22.000    38838361.158 6 152410159.06306      -500.728 6        41.411
S28        23.000    41073891.182 5 215844684.61805      -602.865 5        34.752
E34        24.000    24838238.626 7 130526099.05007     -1543.319 7        45.810                                                                    24838241.797 8  97470964.35408     -1152.516 8        48.726    24838241.283 8 100013666.24508     -1182.575 8        49.431
S23        25.000    38316020.419 7 201351926.96307      -606.115 7        45.225
C13        26.000                                                                                                                                    39206490.317 7 204158616.16107      1066.689 7        42.150    39206495.101 7 157868486.95007       824.733 7        42.036    39206492.558 6 165895672.77606       866.805 6        41.085
G18        27.000    23577015.674 7 123898261.70807      2965.754 7        42.502                                    23577019.793 5  96544237.69305      2310.963 5        30.121    23577019.913 7  96544228.72907      2310.990 7        43.132
R24        28.000    20274258.262 8 108415881.20708     -3024.903 8        50.969                                                                    20274259.832 7  84323636.64607     -2352.700 7        46.267
I02        29.000    37931674.481 7 148852072.84507      -860.620 7        42.093
G28        30.000    21471253.020 7 112832346.20107      -935.652 7        47.915                                    21471253.762 6  87921395.76806      -729.083 6        37.921    21471253.840 7  87921392.77807      -729.114 7        46.715
G04        31.000    25515851.919 6 134086713.68806       595.622 6        37.493                                    25515850.571 3 104483156.67103       464.130 3        18.269    25515850.683 6 104483164.67506       464.100 6        36.975
C12        32.000                                                                                                                                    22627047.475 7 117825211.19507     -2247.361 7        46.793    22627046.598 8  91110045.45508     -1737.775 8        51.115    22627045.569 8  95742720.48608     -1826.146 8        49.723
R17        33.000    19692079.327 8 105376598.51808      1289.997 8        52.712                                                                    19692081.804 7  81959728.81907      1003.330 7        47.528
C24        35.000                                                                                                                                    24656388.799 7 128392308.05207     -3758.661 7        44.223                                                                    24656390.896 7 104329286.21707     -3054.255 7        45.281
R18        36.000    22989962.470 7 122722162.51507      3620.971 7        45.863                                                                    22989976.035 7  95450719.88107      2816.203 7        42.271
E27        37.000    23693305.070 7 124509351.14607        92.782 7        47.996                                                                    23693308.558 8  92977901.34908        69.223 8        51.490    23693307.804 8  95403393.47608        71.097 8        51.676
R16        38.000    22802472.138 7 121806761.10807      3317.045 7        46.384                                                                    22802475.539 7  94738630.06407      2579.901 7        43.300
R06        39.000    24437144.046 5 130401273.71905     -3078.600 5        31.238
R07        40.000    23913364.469 6 128010124.87206      -323.116 6        41.316                                                                    23913365.382 6  99563439.87706      -251.434 6        41.218
C34        41.000                                                                                                                                    21524239.461 8 112082653.96808      -552.820 8        50.985                                                                    21524241.520 8  91076466.79308      -449.196 8        49.726
S44        42.000    40776294.309 6 214280964.65506      -522.978 6        38.850
C38        43.000                                                                                                                                    39176757.920 7 204003782.24407       377.597 7        42.248                                                                    39176757.039 7 165769839.56307       306.881 7        43.009
C05        44.000                                                                                                                                    39579099.318 6 206098684.79806      -551.900 6        38.327    39579100.939 7 159368573.09607      -426.806 7        42.502    39579100.554 6 167472144.85806      -448.461 6        39.444
C08        45.000                                                                                                                                    38987916.352 6 203020453.86306       986.856 6        40.079    38987914.310 7 156988355.11307       763.110 7        44.363    38987912.784 6 164970789.50606       801.799 6        41.514
E04        46.000    29023516.389 5 152519600.91505       777.332 5        35.505                                                                    29023518.004 6 113894513.21506       580.441 6        39.207    29023517.591 6 116865672.30606       595.539 6        38.979
E36        47.000    28577931.560 5 150178258.11305     -3476.310 5        35.700                                                                    28577934.206 6 112146252.68806     -2595.965 6        40.136    28577933.522 6 115071785.96306     -2663.486 6        40.100
C43        48.000                                                                                                                                    23455575.410 7 122139549.36807      1975.508 7        47.307                                                                    23455579.683 7  99248491.66107      1605.261 7        46.781
C10        49.000                                                                                                                                    40831272.131 5 212619215.47705     -1272.792 5        35.833    40831272.718 6 164410696.29406      -984.342 6        39.141    40831269.888 6 172770544.94606     -1034.197 6        36.461
C44        50.000                                                                                                                                    24024601.757 7 125102500.14707     -3293.766 7        45.255                                                                    24024601.818 7 101656072.35607     -2676.492 7        44.996
S48        51.000    77313881.817 6 406288103.39806      -634.794 6        38.601
C60        54.000                                                                                                                                    40776295.340 6 212332974.43906      -518.366 6        40.756                                                                    40776284.144 6 172537883.97306      -421.237 6        40.770
C25        55.000                                                                                                                                    21715352.902 8 113077700.11408     -1463.410 8        51.512                                                                    21715353.452 8  91884964.92708     -1189.163 8        49.926
C23        56.000                                                                                                                                    23680995.694 7 123313441.21507      1589.521 7        47.695                                                                    23680991.036 8 100202367.79208      1291.650 8        48.776
C02        57.000                                                                                                                                    40974422.110 5 213364524.70805      -510.763 5        34.295    40974421.857 6 164986954.60906      -394.671 6        38.456    40974423.739 5 173376137.60305      -414.860 5        35.743
I03        58.000   116072504.711 6 379708064.54906       985.596 6        39.892
C11        59.000                                                                                                                                    22155608.733 8 115370317.26008       966.704 8        48.884    22155609.689 8  89211782.50308       747.560 8        51.942    22155607.475 8  93747929.91808       785.512 8        49.679
> 2025 01 01 15 45 10.0000000  0 55
G20         1.000    23822990.816 6 125190817.57006        69.141 6        40.787                                    23822988.552 3  97551348.58003        53.866 3        23.943
G25         2.000    20663803.010 8 108589184.75408     -2466.168 8        49.419                                    20663804.437 8  84615043.28508     -1921.691 8        49.303    20663805.438 7  84615053.29207     -1921.643 7        43.826
G05         3.000    24433524.581 6 128399099.27606      2088.443 6        40.424                                    24433525.740 5 100051283.86305      1627.355 5        33.611    24433526.348 6 100051282.86806      1627.474 6        37.535
G29         4.000    20496608.162 8 107710724.29408      -449.922 8        51.558                                    20496606.967 8  83930588.72608      -350.593 8        53.579    20496607.606 7  83930591.73007      -350.577 7        46.937
S21         5.000    38596099.621 7 202823505.48207      -602.070 7        43.194
E13         6.000    27895408.698 6 146591446.41106      2718.894 6        37.595                                                                    27895428.778 6 109467767.95606      2030.426 6        41.685    27895426.289 7 112323427.49007      2083.551 7        42.150
E19         7.000    27107900.571 5 142452937.10705     -1642.435 5        34.443                                                                    27107911.181 6 106377198.22906     -1226.664 6        36.590    27107909.693 6 109152257.00106     -1258.688 6        37.762
E15         8.000    24527131.080 7 128891198.90207      1371.060 7        47.494                                                                    24527136.400 8  96250072.94208      1023.795 8        49.879    24527135.484 8  98760922.70008      1050.548 8        50.290
G11         9.000    23970418.297 6 125965677.77606     -3444.896 6        41.712                                    23970416.030 4  98155201.80604     -2684.337 4        26.910    23970416.704 6  98155201.80206     -2684.446 6        41.316
E30        10.000    25014021.013 7 131449748.12107     -2310.222 7        46.145                                                                    25014024.669 8  98160645.97308     -1725.173 8        49.571    25014023.904 8 100721345.90008     -1770.186 8        49.987
G26        11.000    23405404.095 6 122996482.76106      2585.377 6        41.182                                    23405410.569 6  95841568.17006      2014.565 6        37.236    23405410.590 6  95841588.20106      2014.574 6        38.754
S27        12.000    39393466.277 6 207013961.16806      -596.638 6        36.783
R15        13.000    19428854.424 8 103822177.64608       533.850 8        52.472                                                                    19428856.578 7  80750716.48307       415.239 7        46.699
S36        14.000    38368343.845 7 201627388.60307      -601.954 7        44.742
G12        15.000    23819315.846 7 125171490.10707     -3888.137 7        43.251                                    23819316.449 6  97536300.87006     -3029.717 6        36.798    23819316.655 6  97536300.87106     -3029.703 6        37.671
E29        16.000    27858854.627 6 146399078.14506     -3120.090 6        39.033                                                                    27858875.487 6 109323960.67406     -2330.033 6        41.285    27858873.001 6 112175892.19906     -2390.694 6        41.318
S45        17.000    63574827.765 6 334088065.33516      -663.674 6        36.393
G31        18.000    22097773.899 7 116124814.64207       832.351 7        47.026                                    22097774.109 7  90487005.42307       648.581 7        44.307    22097774.540 7  90486984.44307       648.595 7        42.629
E21        20.000    26987452.399 6 141820258.29106      1863.014 6        40.694                                                                    26987463.111 7 105904914.03607      1391.307 7        43.708    26987461.791 7 108667630.45007      1427.339 7        44.510
R14        21.000    20575905.580 8 109681284.24208     -3350.696 8        51.836                                                                    20575909.474 7  85307750.94007     -2606.079 7        47.501
I06        22.000    38838998.868 6 152412661.93706      -500.514 6        41.549
S28        23.000    41074463.385 5 215847698.79305      -602.841 5        34.576
E34        24.000    24839707.944 7 130533820.90807     -1545.430 7        46.132                                                                    24839711.203 8  97476730.69008     -1154.059 8        48.736    24839710.706 8 100019583.00908     -1184.172 8        49.422
S23        25.000    38316596.274 7 201354956.69707      -605.814 7        45.184
C13        26.000                                                                                                                                    39205466.365 7 204153284.00607      1066.177 7        42.246    39205471.134 7 157864363.81707       824.530 7        42.290    39205468.534 6 165891339.97606       866.377 6        41.068
G18        27.000    23574194.072 7 123883434.97807      2964.931 7        43.225                                    23574198.311 5  96532684.47405      2310.324 5        30.241    23574198.009 7  96532675.50107      2310.345 7        42.482
R24        28.000    20277088.032 8 108431012.65508     -3027.640 8        50.997                                                                    20277089.501 7  84335405.57107     -2354.888 7        46.175
I02        29.000    37932770.655 7 148856375.55807      -860.671 7        42.051
G28        30.000    21472144.626 7 112837032.59707      -938.836 7        47.653                                    21472145.556 6  87925047.51906      -731.561 6        37.992    21472145.521 7  87925044.51907      -731.564 7        46.483
G04        31.000    25515286.699 6 134083741.04406       593.184 6        37.350                                    25515284.656 3 104480840.29703       462.220 3        18.478    25515285.409 6 104480848.31606       462.089 6        37.233
C12        32.000                                                                                                                                    22629206.390 7 117836451.83707     -2248.927 7        46.839    22629205.587 8  91118737.45508     -1739.027 8        51.067    22629204.191 8  95751854.43208     -1827.494 8        49.595
R17        33.000    19690876.010 8 105370157.03508      1286.505 8        52.596                                                                    19690877.941 7  81954718.78407      1000.625 7        46.874
C24        35.000                                                                                                                                    24659998.471 7 128411103.21507     -3759.426 7        43.738                                                                    24660000.190 7 104344558.79007     -3054.740 7        45.117
R18        36.000    22986571.899 7 122704060.45307      3619.979 7        46.059                                                                    22986584.735 7  95436640.63007      2815.388 7        42.233
E27        37.000    23693217.260 8 124508889.70608        91.832 8        48.114                                                                    23693220.687 8  92977556.78808        68.547 8        51.621    23693219.944 8  95403039.92608        70.324 8        51.712
R16        38.000    22799366.302 7 121790176.97407      3316.547 7        46.086                                                                    22799370.461 7  94725731.30107      2579.578 7        43.915
R06        39.000    24440032.423 5 130416673.60405     -3081.301 5        31.079
R07        40.000    23913668.579 7 128011750.09107      -327.130 7        42.051                                                                    23913668.998 6  99564703.93606      -254.395 6        40.717
C34        41.000                                                                                                                                    21524771.197 8 112085423.18608      -554.893 8        50.861                                                                    21524773.296 8  91078717.00008      -450.944 8        49.701
S44        42.000    40776789.281 6 214283579.72606      -523.027 6        38.805
C38        43.000                                                                                                                                    39176395.589 7 204001895.97307       376.832 7        42.218                                                                    39176394.819 7 165768306.81307       306.183 7        42.864
C05        44.000                                                                                                                                    39579628.642 6 206101443.18506      -551.519 6        38.174    39579630.522 7 159370706.05707      -426.425 7        42.440    39579630.302 6 167474386.26906      -448.359 6        39.471
C08        45.000                                                                                                                                    38986969.803 6 203015521.57806       986.103 6        39.943    38986966.987 7 156984541.20207       762.545 7        44.495    38986965.569 6 164966781.62706       801.150 6        41.344
E04        46.000    29022777.542 6 152515718.32806       775.562 6        36.389                                                                    29022779.415 6 113891613.73306       579.167 6        39.300    29022778.734 6 116862697.19006       594.406 6        38.955
E36        47.000    28581239.415 5 150195640.98705     -3476.904 5        35.676                                                                    28581242.011 6 112159233.42906     -2596.320 6        40.141    28581241.357 6 115085105.32906     -2664.024 6        40.105
C43        48.000                                                                                                                                    23453679.299 7 122129674.75407      1974.320 7        47.169                                                                    23453683.274 7  99240467.74107      1604.214 7        46.779
C10        49.000                                                                                                                                    40832493.960 5 212625579.42705     -1272.758 5        35.443    40832495.059 6 164415617.30506      -984.164 6        39.141    40832492.074 6 172775716.15906     -1034.181 6        36.268
C44        50.000                                                                                                                                    24027764.629 7 125118970.67707     -3294.515 7        44.966                                                                    24027764.728 7 101669455.99607     -2677.083 7        44.871
S48        51.000    77314460.990 6 406291276.32706      -634.441 6        38.631
C60        54.000                                                                                                                                    40776793.022 6 212335565.71906      -518.133 6        40.813                                                                    40776781.791 6 172539989.59206      -421.052 6        40.667
C25        55.000                                                                                                                                    21716759.200 8 113085022.64508     -1465.634 8        51.225                                                                    21716759.650 8  91890915.05908     -1190.929 8        49.872
C23        56.000                                                                                                                                    23679470.377 7 123305496.79907      1588.163 7        47.583                                                                    23679465.413 8 100195912.31808      1290.492 8        48.692
C02        57.000                                                                                                                                    40974912.065 5 213367076.18205      -510.340 5        34.390    40974911.642 6 164988927.59306      -394.531 6        38.586    40974913.292 5 173378210.88605      -414.779 5        35.586
I03        58.000   116071248.227 6 379703136.21406       985.911 6        39.883
C11        59.000                                                                                                                                    22154681.003 8 115365488.62508       964.739 8        48.568    22154682.422 8  89208048.72008       746.048 8        51.958    22154680.156 8  93744006.24808       783.931 8        49.581
> 2025 01 01 15 45 15.0000000  0 55
G20         1.000    23822926.375 6 125190478.75006        66.368 6        41.159                                    23822924.259 4  97551084.60404        51.720 4        24.301
G25         2.000    20666150.428 8 108601521.41708     -2468.326 8        49.019                                    20666152.017 8  84624656.27508     -1923.373 8        49.352    20666153.016 7  84624666.28707     -1923.413 7        44.387
G05         3.000    24431538.523 6 128388660.97706      2086.992 6        40.541                                    24431539.410 5 100043150.15805      1626.218 5        33.629    24431540.603 6 100043149.17606      1626.241 6        37.267
G29         4.000    20497037.300 8 107712979.99708      -452.253 8        51.294                                    20497036.203 8  83932346.42708      -352.408 8        53.602    20497036.438 7  83932349.43207      -352.416 7        46.802
S21         5.000    38596672.986 7 202826516.39307      -602.021 7        43.064
E13         6.000    27892821.662 6 146577851.83706      2718.674 6        37.875                                                                    27892841.753 6 109457616.24306      2030.392 6        41.692    27892839.316 7 112313010.94807      2083.334 7        42.186
E19         7.000    27109464.584 5 142461154.74805     -1644.685 5        34.633                                                                    27109475.031 6 106383334.74906     -1228.074 6        36.631    27109473.557 6 109158553.59106     -1259.960 6        37.482
E15         8.000    24525827.325 7 128884348.74007      1369.097 7        47.467                                                                    24525832.738 8  96244957.58408      1022.332 8        49.742    24525831.910 8  98755673.89808      1048.986 8        50.330
G11         9.000    23973696.941 6 125982907.48106     -3446.901 6        41.280                                    23973694.771 4  98168627.55404     -2685.900 4        26.982    23973694.609 6  98168627.56406     -2685.904 6        41.425
E30        10.000    25016219.710 7 131461302.25607     -2311.305 7        46.476                                                                    25016223.320 8  98169274.06608     -1726.026 8        49.485    25016222.537 8 100730199.07208     -1771.051 8        49.986
G26        11.000    23402944.453 6 122983558.02406      2584.583 6        40.987                                    23402951.020 6  95831497.00006      2013.949 6        37.267    23402951.586 6  95831517.03406      2013.888 6        39.198
S27        12.000    39394030.636 6 207016945.54106      -596.957 6        36.408
R15        13.000    19428356.778 8 103819516.87208       530.537 8        52.527                                                                    19428358.563 7  80748647.02007       412.604 7        47.077
S36        14.000    38368916.606 7 201630398.62607      -602.062 7        44.658
G12        15.000    23823016.031 7 125190933.03107     -3888.956 7        43.579                                    23823016.220 6  97551451.20206     -3030.359 6        36.873    23823016.712 6  97551451.20106     -3030.241 6        37.682
E29        16.000    27861823.396 6 146414681.05006     -3120.867 6        39.087                                                                    27861844.785 6 109335612.16206     -2330.621 6        41.201    27861841.984 6 112187847.63506     -2391.330 6        41.204
S45        17.000    63575404.493 6 334091384.46006      -663.889 6        36.374
G31        18.000    22096983.251 7 116120660.78507       829.256 7        46.718                                    22096983.638 7  90483768.67107       646.169 7        44.328    22096984.023 7  90483747.67907       646.203 7        42.573
E21        20.000    26985680.310 6 141810944.30006      1862.804 6        40.987                                                                    26985690.654 7 105897958.85107      1390.979 7        43.615    26985689.335 7 108660493.80807      1427.282 7        44.525
R14        21.000    20579049.978 8 109698044.61408     -3353.371 8        51.715                                                                    20579053.352 7  85320786.79307     -2608.155 7        46.930
I06        22.000    38839636.648 6 152415164.27806      -500.399 6        41.333
S28        23.000    41075040.246 5 215850712.34905      -602.330 5        34.919
E34        24.000    24841179.424 7 130541553.92507     -1547.724 7        46.373                                                                    24841182.763 8  97482505.36908     -1155.731 8        48.644    24841182.218 8 100025508.33108     -1185.970 8        49.441
S23        25.000    38317171.674 7 201357986.10307      -605.794 7        45.062
C13        26.000                                                                                                                                    39204442.908 7 204147955.43907      1065.426 7        42.444    39204447.750 7 157860243.48507       823.799 7        42.864    39204445.167 6 165887010.13406       865.572 6        41.244
G18        27.000    23571373.376 7 123868613.17307      2963.901 7        42.853                                    23571377.616 5  96521135.08605      2309.521 5        30.174    23571377.848 7  96521126.11907      2309.480 7        42.138
R24        28.000    20279920.400 8 108446158.75808     -3030.671 8        51.003                                                                    20279922.002 7  84347185.89107     -2357.211 7        46.512
I02        29.000    37933867.211 6 148860678.43506      -860.723 6        41.981
G28        30.000    21473039.444 7 112841735.62807      -942.298 7        47.687                                    21473040.484 6  87928712.22706      -734.263 6        38.033    21473040.511 7  87928709.22207      -734.232 7        46.591
G04        31.000    25514722.804 6 134080782.11206       590.669 6        36.612                                    25514721.455 3 104478534.67303       460.268 3        18.896    25514722.086 6 104478542.66106       460.072 6        37.357
C12        32.000                                                                                                                                    22631367.031 7 117847701.58607     -2250.825 7        47.062    22631365.874 8  91127436.49908     -1740.537 8        51.095    22631364.628 8  95760995.79908     -1829.064 8        49.714
R17        33.000    19689675.278 8 105363733.72408      1282.793 8        52.584                                                                    19689677.202 7  81949722.90207       997.665 7        47.470
C24        35.000                                                                                                                                    24663608.579 7 128429902.54407     -3760.242 7        43.172                                                                    24663610.484 7 104359834.78207     -3055.556 7        44.932
R18        36.000    22983182.040 7 122685964.24907      3618.665 7        45.073                                                                    22983194.322 7  95422565.93207      2814.500 7        42.358
E27        37.000    23693130.451 8 124508434.01108        90.563 8        48.316                                                                    23693134.009 8  92977216.52408        67.596 8        51.513    23693133.257 8  95402690.78008        69.391 8        51.716
R16        38.000    22796262.230 7 121773595.45807      3316.002 7        46.491                                                                    22796266.687 7  94712834.56307      2579.090 7        43.765
R06        39.000    24442916.864 5 130432087.36405     -3084.009 5        34.133
R07        40.000    23913976.291 7 128013395.53807      -330.959 7        42.971                                                                    23913976.020 6  99565983.72406      -257.607 6        40.381
C34        41.000                                                                                                                                    21525305.161 8 112088203.69308      -557.245 8        50.937                                                                    21525307.245 8  91080976.40508      -452.813 8        49.721
S44        42.000    40777287.103 6 214286194.36806      -522.808 6        38.721
C38        43.000                                                                                                                                    39176034.112 7 204000014.40207       375.869 7        42.478                                                                    39176033.475 7 165766777.91207       305.396 7        42.955
C05        44.000                                                                                                                                    39580158.328 6 206104201.02506      -551.394 6        37.977    39580160.230 7 159372838.61607      -426.498 7        42.586    39580160.011 6 167476627.25706      -448.225 6        39.396
C08        45.000                                                                                                                                    38986023.854 6 203010593.68006       985.179 6        40.234    38986020.714 7 156980730.65307       761.795 7        44.614    38986018.985 6 164962777.31406       800.645 6        41.652
E04        46.000    29022040.914 6 152511845.33706       773.330 6        36.011                                                                    29022042.639 6 113888721.35506       577.654 6        38.691    29022041.745 6 116859729.38206       592.844 6        38.799
E36        47.000    28584548.060 5 150213027.38405     -3477.489 5        35.905                                                                    28584550.604 6 112172216.80506     -2597.015 6        40.181    28584549.712 6 115098427.39406     -2664.583 6        40.169
C43        48.000                                                                                                                                    23451784.227 7 122119807.22807      1972.821 7        47.197                                                                    23451788.289 7  99232449.59807      1603.062 7        46.904
C10        49.000                                                                                                                                    40833715.732 5 212631942.81105     -1272.690 5        35.338    40833717.049 6 164420537.89506      -984.078 6        39.318    40833713.973 6 172780886.95406     -1034.013 6        36.457
C44        50.000                                                                                                                                    24030928.482 7 125135445.81007     -3295.507 7        45.077                                                                    24030928.553 7 101682843.41207     -2677.870 7        44.948
S48        51.000    77315041.304 6 406294448.74706      -634.369 6        38.501
C60        54.000                                                                                                                                    40777290.473 6 212338156.61506      -518.165 6        40.651                                                                    40777279.358 6 172542094.92506      -421.143 6        40.791
C25        55.000                                                                                                                                    21718167.562 8 113092357.07108     -1468.062 8        51.180                                                                    21718168.158 8  91896874.89508     -1192.938 8        49.915
C23        56.000                                                                                                                                    23677946.050 7 123297560.20207      1586.479 7        47.494                                                                    23677941.213 8 100189463.20008      1289.199 8        48.916
C02        57.000                                                                                                                                    40975401.328 5 213369627.11805      -510.098 5        34.067    40975401.173 6 164990900.16506      -394.489 6        38.477    40975403.391 5 173380283.74205      -414.547 5        35.862
I03        58.000   116069992.322 6 379698207.44706       985.712 6        39.967
C11        59.000                                                                                                                                    22153755.912 8 115360670.43208       962.590 8        48.725    22153757.195 8  89204323.01108       744.299 8        52.023    22153754.864 8  93740091.09908       782.112 8        49.675
> 2025 01 01 15 45 20.0000000  0 55
G20         1.000    23822864.034 6 125190154.41306        63.222 6        41.066                                    23822862.689 4  97550831.91804        49.256 4        24.226
G25         2.000    20668500.050 8 108613868.90708     -2470.763 8        48.820                                    20668501.653 8  84634277.70108     -1925.271 8        49.310    20668502.430 7  84634287.70907     -1925.304 7        44.375
G05         3.000    24429553.721 6 128378230.35606      2085.192 6        40.272                                    24429554.573 5 100035022.43605      1624.820 5        33.808    24429555.089 6 100035021.45206      1624.923 6        37.550
G29         4.000    20497468.659 8 107715247.17908      -454.759 8        51.123                                    20497467.616 8  83934113.07608      -354.359 8        53.599    20497468.013 7  83934116.08607      -354.373 7        46.820
S21         5.000    38597247.067 7 202829526.80907      -602.250 7        43.244
E13         6.000    27890234.761 6 146564257.87706      2718.704 6        38.255                                                                    27890254.849 6 109447465.00906      2030.063 6        41.726    27890252.358 7 112302594.88907      2083.089 7        42.135
E19         7.000    27111030.312 5 142469383.06205     -1647.043 5        34.519                                                                    27111041.021 6 106389479.24206     -1229.871 6        36.571    27111039.379 6 109164858.39506     -1261.925 6        37.735
E15         8.000    24524525.411 7 128877508.37707      1366.908 7        47.469                                                                    24524530.962 8  96239849.53808      1020.740 8        49.726    24524530.225 8  98750432.59508      1047.386 8        50.296
G11         9.000    23976977.572 6 126000146.70606     -3449.153 6        41.650                                    23976975.354 4  98182060.74704     -2687.666 4        26.862    23976974.782 6  98182060.75606     -2687.527 6        41.237
E30        10.000    25018419.478 7 131472861.65407     -2312.549 7        46.800                                                                    25018423.017 8  98177906.08808     -1726.976 8        49.458    25018422.176 8 100739056.27308     -1771.946 8        49.975
G26        11.000    23400485.732 6 122970637.18106      2583.464 6        41.437                                    23400492.223 6  95821428.85706      2013.074 6        37.301    23400492.398 6  95821448.88806      2013.032 6        39.348
S27        12.000    39394598.358 6 207019929.87006      -596.867 6        36.499
R15        13.000    19427861.470 8 103816872.46608       527.091 8        52.410                                                                    19427863.860 7  80746590.28607       409.936 7        47.262
S36        14.000    38369486.550 7 201633409.07907      -602.196 7        44.805
G12        15.000    23826716.219 7 125210380.23107     -3890.147 7        42.859                                    23826716.801 6  97566604.87306     -3031.286 6        36.930    23826717.365 6  97566604.87506     -3031.214 6        37.951
E29        16.000    27864793.402 6 146430287.63306     -3121.987 6        39.174                                                                    27864814.663 6 109347266.36206     -2331.262 6        41.321    27864811.693 6 112199805.87906     -2392.022 6        41.087
