     3.04           OBSERVATION DATA    M                   RINEX VERSION / TYPE
ssrcrin-15.6.1x                         20250101 104500 UTC PGM / RUN BY / DATE 
(00000000023479385599111004) Septentrio proprietary         COMMENT             
rref                                                        MARKER NAME         
01                                                          MARKER NUMBER       
geodetic                                                    MARKER TYPE         
NFB                 CLIMERS@TUW                             OBSERVER / AGENCY   
3297213             SEPT ASTERX SB3 PROB4.14.4              REC # / TYPE / VERS 
Unknown             Unknown                                 ANT # / TYPE        
  4127831.9573  1207192.8725  4695247.2236                  APPROX POSITION XYZ 
        0.0000        0.0000        0.0000                  ANTENNA: DELTA H/E/N
G   23 X1  C1C L1C D1C S1C C1W S1W C2W L2W D2W S2W C2L L2L  SYS / # / OBS TYPES 
       D2L S2L C5Q L5Q D5Q S5Q C1L L1L D1L S1L              SYS / # / OBS TYPES 
E   21 X1  C1C L1C D1C S1C C6C L6C D6C S6C C5Q L5Q D5Q S5Q  SYS / # / OBS TYPES 
       C7Q L7Q D7Q S7Q C8Q L8Q D8Q S8Q                      SYS / # / OBS TYPES 
S    9 X1  C1C L1C D1C S1C C5I L5I D5I S5I                  SYS / # / OBS TYPES 
R   17 X1  C1C L1C D1C S1C C2P L2P D2P S2P C2C L2C D2C S2C  SYS / # / OBS TYPES 
       C3Q L3Q D3Q S3Q                                      SYS / # / OBS TYPES 
C   25 X1  C1P L1P D1P S1P C5P L5P D5P S5P C2I L2I D2I S2I  SYS / # / OBS TYPES 
       C7I L7I D7I S7I C6I L6I D6I S6I C7D L7D D7D S7D      SYS / # / OBS TYPES 
J   17 X1  C1C L1C D1C S1C C2L L2L D2L S2L C5Q L5Q D5Q S5Q  SYS / # / OBS TYPES 
       C1L L1L D1L S1L                                      SYS / # / OBS TYPES 
I    5 X1  C5A L5A D5A S5A                                  SYS / # / OBS TYPES 
SEPTENTRIO RECEIVERS OUTPUT ALIGNED CARRIER PHASES.         COMMENT             
NO FURTHER PHASE SHIFT APPLIED IN THE RINEX ENCODER.        COMMENT             
G L1C                                                       SYS / PHASE SHIFT   
G L2W                                                       SYS / PHASE SHIFT   
G L2L  0.00000                                              SYS / PHASE SHIFT   
G L5Q  0.00000                                              SYS / PHASE SHIFT   
G L1L  0.00000                                              SYS / PHASE SHIFT   
E L1C  0.00000                                              SYS / PHASE SHIFT   
E L6C  0.00000                                              SYS / PHASE SHIFT   
E L5Q  0.00000                                              SYS / PHASE SHIFT   
E L7Q  0.00000                                              SYS / PHASE SHIFT   
E L8Q  0.00000                                              SYS / PHASE SHIFT   
S L1C                                                       SYS / PHASE SHIFT   
S L5I                                                       SYS / PHASE SHIFT   
R L1C                                                       SYS / PHASE SHIFT   
R L2P  0.00000                                              SYS / PHASE SHIFT   
R L2C                                                       SYS / PHASE SHIFT   
R L3Q  0.00000                                              SYS / PHASE SHIFT   
C L1P  0.00000                                              SYS / PHASE SHIFT   
C L5P  0.00000                                              SYS / PHASE SHIFT   
C L2I                                                       SYS / PHASE SHIFT   
C L7I                                                       SYS / PHASE SHIFT   
C L6I                                                       SYS / PHASE SHIFT   
C L7D                                                       SYS / PHASE SHIFT   
J L1C                                                       SYS / PHASE SHIFT   
J L2L  0.00000                                              SYS / PHASE SHIFT   
J L5Q  0.00000                                              SYS / PHASE SHIFT   
J L1L  0.00000                                              SYS / PHASE SHIFT   
I L5A                                                       SYS / PHASE SHIFT   
  2025     1     1    10    45    0.0000000     GPS         TIME OF FIRST OBS   
 C1C    0.000 C2C    0.000 C2P    0.000                     GLONASS COD/PHS/BIS 
DBHZ                                                        SIGNAL STRENGTH UNIT
    18                                                      LEAP SECONDS        
 24 R01  1 R02 -4 R03  5 R04  6 R05  1 R06 -4 R07  5 R08  6 GLONASS SLOT / FRQ #
    R09 -2 R10 -7 R11  0 R12 -1 R13 -2 R14 -7 R15  0 R16 -1 GLONASS SLOT / FRQ #
    R17  4 R18 -3 R19  3 R20  2 R21  4 R22 -3 R23  3 R24  2 GLONASS SLOT / FRQ #
                                                            END OF HEADER       
> 2025 01 01 10 45  0.0000000  0 54
G19         1.000    21678347.510 7 113920646.83307      1386.897 7        46.447                                    21678348.355 6  88769424.24606      1080.700 6        36.669
R01         2.000    23565306.460 6 125969831.73106     -5186.605 6        38.471                                                                    23565320.728 5  97976546.11605     -4033.642 5        34.938
G24         3.000    20489950.208 8 107675433.29308      1132.738 8        48.561                                    20489953.757 8  83902968.53008       882.650 8        50.664    20489954.275 7  83902965.54507       882.576 7        45.544
R02         4.000    20134298.862 8 107440400.89508     -3247.006 8        51.719                                                                    20134304.505 7  83564751.24907     -2525.552 7        46.202
S21         5.000    38339279.961 7 201473988.85307      -530.581 7        42.389
G17         7.000    21950376.351 7 115350161.96307     -1153.634 7        46.543                                    21950379.244 7  89883330.61707      -898.931 7        44.122    21950379.691 7  89883326.60807      -899.031 7        42.470
R21         8.000    22213216.232 7 118867474.38607       175.589 7        46.532                                                                    22213224.576 7  92452559.54707       136.554 7        42.121
E12         9.000    28673197.668 5 150678683.48005      -149.865 5        31.449                                                                    28673209.683 6 112519850.63306      -111.708 6        36.091    28673207.965 6 115455139.30206      -114.308 6        36.166
E30        10.000    25797792.501 7 135568429.20307      1876.980 7        44.167                                                                    25797801.024 7 101236265.09807      1401.695 7        46.660    25797799.669 7 103877200.82607      1438.174 7        47.204
C26        11.000                                                                                                                                    21559436.584 8 112265660.16008      -755.305 8        50.905                                                                    21559439.453 8  91225062.40108      -613.925 8        49.228
S27        12.000    39082796.820 6 205381335.83606      -562.357 6        36.476
G15        13.000    20823610.325 8 109428732.27908     -2789.260 8        48.147                                    20823611.939 7  85269105.78607     -2173.446 7        47.934    20823611.996 7  85269097.78207     -2173.458 7        44.278
S36        14.000    38110427.917 7 200272043.56007      -531.671 7        44.477
G12        15.000    22812411.719 7 119880135.01507      2783.042 7        44.664                                    22812414.807 6  93413157.34006      2168.599 6        40.815    22812415.652 6  93413157.34106      2168.686 6        39.973
R11        16.000    23065298.441 7 123253791.31107     -4004.103 7        43.788                                                                    23065310.560 6  95864014.17606     -3114.248 6        41.373
S45        17.000    63295732.704 6 332622029.45406      -587.084 6        36.200
R03        18.000    20339200.782 8 108877293.62208      1061.184 8        51.240                                                                    20339205.595 7  84682342.83507       825.382 7        46.727
C35        19.000                                                                                                                                    24797153.932 7 129125370.05207      2244.670 7        43.120                                                                    24797160.684 7 104925005.61807      1823.890 7        43.708
E11        20.000    28538868.151 5 149972771.91805      1719.348 5        33.162                                                                    28538882.004 6 111992714.20106      1284.032 6        36.745    28538879.857 6 114914254.60506      1317.301 6        36.473
I06        22.000    38148548.218 7 149703162.02207      -503.942 7        42.256
S28        23.000    40794693.989 5 214377331.28505      -541.352 5        35.229
G14        24.000    23123302.368 6 121513658.79206     -3661.351 6        41.464                                    23123309.098 4  94685940.63204     -2852.988 4        27.377    23123309.520 6  94685942.62206     -2853.060 6        41.294
S23        25.000    38044344.052 7 199924249.74007      -534.050 7        44.658
E08        26.000    23496068.054 8 123472604.29208     -1196.858 8        49.065                                                                    23496072.176 8  92203546.59508      -893.742 8        50.879    23496071.220 8  94608856.46608      -917.080 8        51.239
C07        27.000                                                                                                                                    38958800.866 6 202868645.08106     -1086.309 6        40.272    38958804.583 7 156870903.38307      -839.877 7        42.957    38958800.840 6 164847379.38906      -882.737 6        40.391
G13        28.000    21907207.931 7 115123054.02207     -3790.970 7        46.974                                    21907210.218 5  89706229.40005     -2953.994 5        32.719
I02        29.000    36840752.247 7 144571022.06207      -273.216 7        42.590
G10        30.000    24375071.191 6 128091765.95206       402.290 6        41.232                                    24375079.715 5  99811745.45005       313.479 5        35.238    24375079.585 6  99811737.45206       313.401 6        38.387
E07        31.000    25320503.529 7 133060066.97407      1530.786 7        44.120                                                                    25320512.735 7  99363032.78607      1143.071 7        47.504    25320511.404 8 101955110.11008      1172.909 8        48.021
E03        32.000    25840514.971 7 135792710.40607     -3378.998 7        43.437                                                                    25840524.827 7 101403627.65607     -2523.204 7        46.532    25840523.440 7 104048938.05207     -2589.022 7        47.042
E10        33.000    28417741.646 6 149336221.79306       841.945 6        37.202                                                                    28417760.744 6 111517372.82606       628.656 6        39.766    28417758.518 6 114426510.91706       645.172 6        40.229
G02        34.000    25624719.170 6 134658842.97806     -1007.740 6        37.716                                    25624725.453 3 104929012.02603      -785.247 3        20.024
C24        35.000                                                                                                                                    23091517.622 7 120243616.69007      1662.079 7        47.613                                                                    23091519.949 7  97707807.37607      1350.367 7        47.510
G23        36.000    23320572.798 6 122550310.28906     -2037.462 6        41.650                                    23320579.061 4  95493699.70704     -1587.628 4        27.377    23320579.326 6  95493700.69806     -1587.799 6        40.670
R04        38.000    23737764.322 7 127114589.92107      3597.600 7        42.535                                                                    23737769.874 6  98866896.96306      2798.375 6        40.908
C33        39.000                                                                                                                                    24016696.300 7 125061229.58407       394.533 7        46.433                                                                    24016713.809 7 101622565.46207       320.455 7        46.136
E25        40.000    25319412.132 7 133054344.16007     -2809.561 7        44.075                                                                    25319422.337 7  99358746.48007     -2098.024 7        47.003    25319420.787 7 101950708.17507     -2152.778 7        47.677
S44        42.000    40761650.268 6 214203915.98606      -490.857 6        37.796
R22        43.000    23194396.087 6 123813327.92006      3084.193 6        41.299                                                                    23194408.106 6  96299325.43006      2398.904 6        41.323
C05        44.000                                                                                                                                    39332967.583 6 204816953.26706      -565.342 6        38.480    39332973.062 7 158377441.59007      -437.076 7        42.377    39332972.002 6 166430620.58006      -459.549 6        38.943
C40        45.000                                                                                                                                    39107925.120 7 203645170.23907     -1312.118 7        42.222                                                                    39107931.474 6 165478384.85306     -1066.345 6        41.676
C21        46.000                                                                                                                                    26121443.206 6 136020984.85106     -4058.492 6        41.487                                                                    26121449.600 7 110528116.92107     -3298.121 7        42.119
R20        47.000    23820605.314 5 127379527.89005     -3005.488 5        30.302                                                                    23820617.444 6  99073030.30106     -2337.911 6        38.919
C10        49.000                                                                                                                                    38418574.574 6 200055602.28006      -720.761 6        41.878    38418579.888 7 154695696.22707      -557.278 7        44.787    38418575.961 6 162561566.14306      -585.785 6        41.256
C42        50.000                                                                                                                                    23378345.138 7 121737079.32407     -2698.516 7        47.717                                                                    23378357.907 7  98921364.99507     -2192.969 7        47.824
S48        51.000    77048734.792 6 404892325.70706      -526.947 6        38.051
E02        53.000    23037259.427 8 121061704.36008      -441.924 8        48.986                                                                    23037263.899 8  90403299.31708      -329.975 8        51.498    23037262.756 8  92761627.59508      -338.576 8        51.328
C60        54.000                                                                                                                                    40761655.332 6 212256625.16306      -486.398 6        40.250                                                                    40761650.420 6 172475819.25306      -395.427 6        39.369
C45        55.000                                                                                                                                    24307645.776 7 126576158.48307     -3083.149 7        44.740                                                                    24307645.483 7 102853442.72607     -2505.414 7        45.130
R12        56.000    19409429.231 8 103681772.37008     -1598.398 8        51.607                                                                    19409434.038 8  80641415.17308     -1243.191 8        48.179
C02        57.000                                                                                                                                    40878355.881 5                      -533.220 5        30.709    40878366.007 5 164599997.54505      -412.331 5        35.529    40878365.108 5 172969513.60805      -433.808 5        30.234
I03        58.000   122077738.393 5 403273705.84005       888.282 5        33.467
C14        59.000                                                                                                                                    23172764.642 7 120666592.18607     -1199.771 7        46.372    23172767.327 8  93307032.74008      -927.808 8        50.707    23172764.329 7  98051459.28007      -975.179 7        47.784
R13        60.000    20260191.953 7 108188369.60107      1455.253 7        44.557
> 2025 01 01 10 45  5.0000000  0 54
G19         1.000    21677029.407 7 113913719.86207      1384.025 7        46.442                                    21677030.335 6  88764026.59006      1078.464 6        36.684
R01         2.000    23570157.706 6 125995765.90906     -5187.016 6        38.580                                                                    23570172.312 5  97996717.10105     -4034.118 5        35.005
G24         3.000    20488873.375 8 107669775.43908      1130.523 8        48.682                                    20488877.102 8  83898559.81508       880.928 8        50.695    20488877.610 7  83898556.82107       880.917 7        45.577
R02         4.000    20137343.297 8 107456645.89008     -3250.812 8        52.022                                                                    20137349.006 7  83577386.21807     -2528.397 7        47.198
S21         5.000    38339786.806 7 201476642.43807      -530.669 7        42.519
G17         7.000    21951475.842 7 115355938.52007     -1156.820 7        46.048                                    21951478.526 7  89887831.80207      -901.412 7        44.161    21951478.672 7  89887827.79407      -901.450 7        42.451
R21         8.000    22213054.613 7 118866608.03207       171.194 7        46.668                                                                    22213062.967 7  92451885.71607       133.102 7        42.459
E12         9.000    28673340.294 5 150679436.63705      -152.074 5        31.540                                                                    28673353.046 5 112520413.08205      -113.425 5        35.762    28673351.356 6 115455716.39606      -116.392 6        36.223
E30        10.000    25796007.258 7 135559047.53507      1875.898 7        44.211                                                                    25796015.673 7 101229259.32407      1400.698 7        46.568    25796014.416 7 103870012.28207      1437.345 7        47.221
C26        11.000                                                                                                                                    21560162.769 8 112269441.04208      -756.877 8        50.783                                                                    21560165.554 8  91228134.68008      -615.051 8        49.336
S27        12.000    39083334.752 6 205384147.37706      -562.270 6        36.733
G15        13.000    20826265.961 8 109442686.45808     -2792.270 8        48.144                                    20826267.340 7  85279979.15907     -2175.789 7        47.946    20826267.259 7  85279971.14007     -2175.708 7        44.193
S36        14.000    38110933.997 7 200274702.40207      -531.746 7        44.525
G12        15.000    22809764.474 7 119866223.52107      2781.766 7        44.396                                    22809767.562 6  93402317.23206      2167.609 6        40.868    22809768.597 6  93402317.24106      2167.567 6        40.317
R11        16.000    23069045.441 7 123273812.36307     -4004.238 7        44.578                                                                    23069057.571 7  95879586.05007     -3114.382 7        42.535
S45        17.000    63296243.976 5 332624965.50205      -587.234 5        35.929
R03        18.000    20338211.901 8 108871998.80108      1056.893 8        51.294                                                                    20338216.319 7  84678224.64307       822.111 7        47.175
C35        19.000                                                                                                                                    24794999.105 7 129114149.54907      2243.595 7        43.503                                                                    24795006.103 7 104915888.08707      1822.968 7        43.846
E11        20.000    28537232.642 5 149964178.31905      1718.266 5        32.904                                                                    28537246.332 6 111986296.97006      1282.881 6        36.197    28537244.354 6 114907669.93706      1316.613 6        36.042
I06        22.000    38149190.046 7 149705681.89707      -503.923 7        42.366
S28        23.000    40795207.814 5 214380038.92305      -541.308 5        35.076
G14        24.000    23126786.472 6 121531968.00306     -3662.137 6        41.671                                    23126793.181 4  94700207.50304     -2853.608 4        27.713    23126794.046 6  94700209.48406     -2853.659 6        41.609
S23        25.000    38044852.878 7 199926920.68207      -534.081 7        44.701
E08        26.000    23497208.065 8 123478594.50908     -1199.125 8        48.889                                                                    23497212.127 8  92208019.79608      -895.435 8        50.809    23497211.127 8  94613446.35908      -918.776 8        51.142
C07        27.000                                                                                                                                    38959844.567 6 202874078.12506     -1086.740 6        40.286    38959847.981 7 156875104.55007      -840.292 7        43.031    38959844.309 6 164851794.20306      -883.262 6        40.706
G13        28.000    21910815.772 7 115142013.40207     -3792.613 7        47.072                                    21910818.183 5  89721002.92105     -2955.285 5        32.748
I02        29.000    36841100.583 7 144572389.24707      -273.453 7        43.092
G10        30.000    24374689.594 6 128089763.02706       399.248 6        40.958                                    24374698.554 5  99810184.71005       311.104 5        35.176    24374698.059 6  99810176.71206       310.910 6        38.261
E07        31.000    25319047.846 7 133052417.24907      1529.165 7        44.023                                                                    25319057.002 7  99357320.33807      1141.943 7        47.418    25319055.763 7 101949248.64207      1171.797 7        47.904
E03        32.000    25843730.702 7 135809607.99307     -3379.986 7        43.422                                                                    25843740.356 7 101416245.93907     -2523.975 7        46.458    25843738.868 7 104061885.51007     -2589.841 7        46.712
E10        33.000    28416942.410 6 149332017.79706       839.977 6        37.361                                                                    28416960.634 6 111514233.52306       627.104 6        39.483    28416958.432 6 114423289.72106       643.504 6        40.100
G02        34.000    25625679.305 6 134663888.53106     -1010.436 6        38.147                                    25625685.618 3 104932943.65203      -787.381 3        20.333
C24        35.000                                                                                                                                    23089922.512 7 120235309.33807      1660.961 7        47.775                                                                    23089924.545 7  97701056.99007      1349.673 7        47.762
G23        36.000    23322512.671 7 122560504.90607     -2040.222 7        42.322                                    23322519.052 4  95501643.53304     -1589.770 4        27.461    23322519.278 6  95501644.52606     -1589.771 6        40.155
R04        38.000    23734405.526 7 127096605.19507      3596.391 7        42.133                                                                    23734411.940 6  98852908.80606      2797.318 6        41.573
C33        39.000                                                                                                                                    24016318.619 7 125059264.43007       391.713 7        46.314                                                                    24016336.411 7 101620968.62407       318.193 7        46.312
E25        40.000    25322085.837 7 133068394.26707     -2810.400 7        43.854                                                                    25322095.993 7  99369238.40607     -2098.630 7        46.942    25322094.473 7 101961473.81107     -2153.434 7        47.555
S44        42.000    40762119.672 6 214206370.48206      -490.758 6        38.012
R22        43.000    23191507.740 6 123797910.46306      3082.653 6        41.709                                                                    23191519.363 6  96287334.01706      2397.851 6        41.428
C05        44.000                                                                                                                                    39333510.321 6 204819780.59106      -565.378 6        38.429    39333516.078 7 158379627.87107      -437.281 7        42.445    39333514.893 6 166432918.02006      -459.390 6        39.051
C40        45.000                                                                                                                                    39109185.486 7 203651732.47307     -1312.689 7        42.167                                                                    39109191.768 6 165483717.19406     -1066.688 6        41.700
C21        46.000                                                                                                                                    26125340.769 6 136041278.21706     -4058.639 6        41.859                                                                    26125346.746 7 110544606.88307     -3298.057 7        42.161
R20        47.000    23823418.318 5 127394566.05405     -3009.440 5        30.491                                                                    23823429.411 6  99084726.70406     -2340.603 6        39.387
C10        49.000                                                                                                                                    38419267.043 7 200059207.59607      -721.304 7        42.019    38419272.137 7 154698484.06307      -557.765 7        44.837    38419268.322 6 162564495.74906      -586.078 6        41.271
C42        50.000                                                                                                                                    23380937.180 7 121750577.77607     -2700.784 7        47.490                                                                    23380950.206 7  98932333.57507     -2194.567 7        47.988
S48        51.000    77049235.788 6 404894962.65106      -527.310 6        38.159
E02        53.000    23037680.839 8 121063918.49608      -443.628 8        48.851                                                                    23037685.287 8  90404952.72508      -331.308 8        51.419    23037684.131 8  92763324.13908      -339.936 8        51.280
C60        54.000                                                                                                                                    40762122.621 6 212259057.34306      -486.329 6        40.012                                                                    40762117.583 6 172477795.60006      -395.346 6        39.477
C45        55.000                                                                                                                                    24310606.476 7 126591575.64607     -3083.664 7        44.456                                                                    24310606.181 7 102865970.42007     -2505.794 7        45.350
R12        56.000    19410926.420 8 103689770.27908     -1600.567 8        51.399                                                                    19410931.491 8  80647635.76008     -1244.890 8        48.167
C02        57.000                                                                                                                                    40878867.757 5                      -532.798 5        30.332    40878877.735 5 164602059.77405      -412.408 5        35.657    40878877.162 5 172971680.71805      -433.348 5        30.475
I03        58.000   122076606.611 5 403269264.37605       888.513 5        33.988
C14        59.000                                                                                                                                    23173919.012 7 120672598.98007     -1202.800 7        46.276    23173921.198 8  93311677.56008      -930.034 8        50.846    23173917.862 7  98056340.28807      -977.380 7        47.922
R13        60.000    20258830.247 7 108181099.10907      1453.167 7        45.166
> 2025 01 01 10 45 10.0000000  0 54
G19         1.000    21675714.330 7 113906806.62507      1381.076 7        46.402                                    21675714.900 6  88758639.62906      1076.169 6        36.616
R01         2.000    23575008.847 6 126021701.29406     -5187.495 6        38.420                                                                    23575024.793 5  98016888.97305     -4034.518 5        34.967
G24         3.000    20487798.567 8 107664128.26308      1128.124 8        48.666                                    20487802.477 8  83894159.41808       879.059 8        50.641    20487802.705 7  83894156.42107       879.015 7        45.631
R02         4.000    20140391.572 8 107472909.19408     -3254.697 8        52.176                                                                    20140396.969 7  83590035.43507     -2531.503 7        47.370
S21         5.000    38340291.411 7 201479296.16307      -530.875 7        42.491
G17         7.000    21952577.582 7 115361730.81407     -1160.185 7        46.520                                    21952580.821 7  89892345.24707      -904.034 7        44.093    21952580.645 7  89892341.23707      -904.042 7        42.559
R21         8.000    22212896.504 7 118865763.55807       166.557 7        45.985                                                                    22212905.245 7  92451228.89807       129.612 7        42.899
E12         9.000    28673486.957 5 150680202.03305      -154.985 5        31.947                                                                    28673498.941 6 112520984.68506      -115.449 6        36.295    28673496.878 6 115456302.90906      -118.269 6        36.352
E30        10.000    25794222.802 7 135549671.17307      1874.557 7        43.795                                                                    25794231.434 7 101222257.50607      1399.925 7        46.587    25794230.198 7 103862827.80907      1436.393 7        47.173
C26        11.000                                                                                                                                    21560890.411 8 112273229.66708      -758.661 8        50.975                                                                    21560893.165 8  91231213.22208      -616.368 8        49.500
S27        12.000    39083869.536 6 205386958.58006      -562.360 6        36.715
G15        13.000    20828924.327 8 109456655.02108     -2795.380 8        48.700                                    20828925.470 7  85290863.73907     -2178.214 7        47.861    20828925.852 7  85290855.73007     -2178.150 7        44.129
S36        14.000    38111439.416 7 200277361.12407      -531.900 7        44.533
G12        15.000    22807118.278 7 119852318.74207      2780.168 7        44.457                                    22807121.591 6  93391482.35306      2166.360 6        40.808    22807122.346 6  93391482.36006      2166.326 6        40.291
R11        16.000    23072792.793 7 123293834.02207     -4004.568 7        45.121                                                                    23072804.977 7  95895158.40807     -3114.681 7        42.675
S45        17.000    63296753.244 6 332627901.60206      -587.235 6        36.008
R03        18.000    20337226.840 8 108866725.34008      1052.382 8        50.831                                                                    20337231.414 7  84674123.07807       818.464 7        46.819
C35        19.000                                                                                                                                    24792845.506 7 129102934.56007      2242.201 7        43.892                                                                    24792852.365 7 104906774.99907      1822.181 7        44.063
E11        20.000    28535598.604 5 149955590.85005      1716.908 5        32.808                                                                    28535612.333 6 111979884.30306      1281.874 6        36.057    28535610.201 5 114901089.97505      1315.453 5        35.786
I06        22.000    38149832.179 7 149708201.85207      -504.110 7        42.298
S28        23.000    40795717.181 5 214382746.85705      -541.791 5        35.071
G14        24.000    23130271.222 6 121550280.97806     -3663.142 6        41.754                                    23130278.068 4  94714477.30204     -2854.392 4        27.617    23130278.867 6  94714479.28506     -2854.325 6        41.828
S23        25.000    38045360.349 7 199929591.52807      -534.357 7        44.615
E08        26.000    23498349.931 8 123484595.68508     -1201.523 8        48.960                                                                    23498354.132 8  92212501.19008      -897.232 8        50.790    23498353.138 8  94618044.65908      -920.648 8        51.111
C07        27.000                                                                                                                                    38960888.510 6 202879513.62906     -1087.528 6        40.653    38960891.964 7 156879307.62907      -841.017 7        42.897    38960887.959 6 164856210.96706      -883.616 6        40.753
G13        28.000    21914425.019 7 115160981.24007     -3794.508 7        46.433                                    21914427.802 5  89735783.02205     -2956.753 5        32.629
I02        29.000    36841449.455 7 144573757.73507      -274.149 7        43.073
G10        30.000    24374311.514 6 128087775.44506       395.824 6        41.066                                    24374320.263 5  99808635.92805       308.438 5        35.043    24374319.885 6  99808627.91506       308.516 6        38.438
E07        31.000    25317593.316 7 133044774.63707      1527.568 7        44.018                                                                    25317602.715 7  99351613.19907      1140.732 7        47.403    25317601.393 7 101943392.62307      1170.523 7        47.928
E03        32.000    25846947.322 7 135826510.53107     -3381.172 7        43.101                                                                    25846956.872 7 101428867.91907     -2524.953 7        46.447    25846955.220 7 104074836.76507     -2590.771 7        46.579
E10        33.000    28416144.295 6 149327824.13706       837.751 6        37.066                                                                    28416162.603 6 111511101.91706       625.369 6        39.742    28416160.604 6 114420076.41706       641.694 6        40.219
G02        34.000    25626642.424 6 134668947.69306     -1013.349 6        37.909                                    25626648.134 3 104936885.94803      -789.635 3        20.143
C24        35.000                                                                                                                                    23088327.737 7 120227006.95807      1659.826 7        47.812                                                                    23088330.230 7  97694310.62007      1348.805 7        47.950
G23        36.000    23324456.371 7 122570713.38107     -2043.214 7        42.607                                    23324461.717 4  95509598.16904     -1592.112 4        27.389    23324462.077 6  95509599.15206     -1591.985 6        40.684
R04        38.000    23731048.105 7 127078627.46207      3594.641 7        42.912                                                                    23731054.318 6  98838926.05906      2795.883 6        41.666
C33        39.000                                                                                                                                    24015944.433 7 125057313.48807       388.607 7        46.589                                                                    24015961.810 7 101619383.29807       315.869 7        46.521
E25        40.000    25324760.350 7 133082448.22207     -2811.330 7        43.456                                                                    25324770.469 7  99379733.20507     -2099.354 7        47.015    25324768.929 7 101972242.39107     -2154.155 7        47.480
S44        42.000    40762586.326 6 214208824.89106      -491.106 6        37.834
R22        43.000    23188622.350 7 123782500.49407      3081.131 7        42.356                                                                    23188633.004 6  96275348.45306      2396.328 6        40.977
C05        44.000                                                                                                                                    39334053.481 6 204822607.82406      -565.369 6        38.577    39334058.831 7 158381814.07307      -437.349 7        42.233    39334057.869 6 166435215.37706      -459.460 6        39.246
C40        45.000                                                                                                                                    39110446.076 7 203658297.78207     -1313.557 7        42.396                                                                    39110452.663 6 165489052.01206     -1067.249 6        41.895
C21        46.000                                                                                                                                    26129238.184 7 136061571.72607     -4058.863 7        42.070                                                                    26129244.060 7 110561096.93907     -3298.194 7        42.377
R20        47.000    23826234.441 5 127409621.25105     -3012.668 5        30.053                                                                    23826244.345 6  99096436.38106     -2343.370 6        38.916
C10        49.000                                                                                                                                    38419959.701 7 200062815.70707      -722.131 7        42.078    38419965.159 7 154701274.06707      -558.347 7        44.701    38419961.267 6 162567427.59806      -586.619 6        41.552
C42        50.000                                                                                                                                    23383531.577 7 121764087.13607     -2703.148 7        47.635                                                                    23383544.509 8  98943311.00508     -2196.413 8        48.098
S48        51.000    77049737.460 6 404897599.19606      -527.686 6        38.009
E02        53.000    23038104.052 8 121066141.41808      -445.652 8        48.877                                                                    23038108.286 8  90406612.69508      -332.777 8        51.312    23038107.119 8  92765027.41008      -341.450 8        51.190
C60        54.000                                                                                                                                    40762589.463 6 212261489.42806      -486.502 6        40.405                                                                    40762584.600 6 172479771.84306      -395.284 6        39.655
C45        55.000                                                                                                                                    24313567.544 7 126606995.40107     -3084.431 7        44.453                                                                    24313567.301 7 102878500.18007     -2506.247 7        45.570
R12        56.000    19412425.315 8 103697779.01308     -1602.997 8        51.429                                                                    19412430.491 7  80653864.76207     -1246.748 7        47.690
C02        57.000                                                                                                                                    40879380.567 5                      -533.593 5        30.385    40879389.512 5 164604121.88705      -412.465 5        35.490    40879389.364 5                      -433.902 5        30.838
I03        58.000   122075474.215 5 403264822.73105       888.107 5        33.575
C14        59.000                                                                                                                                    23175074.692 7 120678620.22107     -1205.853 7        46.355    23175077.495 8  93316333.55708      -932.442 8        50.788    23175074.188 8  98061233.01608      -979.739 8        48.060
R13        60.000    20257470.935 7 108173838.68707      1450.885 7        45.019
> 2025 01 01 10 45 15.0000000  0 54
G19         1.000    21674401.558 7 113899907.41607      1378.432 7        46.496                                    21674402.054 6  88753263.60806      1074.107 6        36.628
R01         2.000    23579861.880 6 126047638.01406     -5187.266 6        38.640                                                                    23579875.977 5  98037061.96005     -4034.559 5        34.690
G24         3.000    20486726.114 8 107658492.02708      1126.154 8        48.807                                    20486729.941 8  83889767.54808       877.525 8        50.682    20486730.333 7  83889764.55207       877.498 7        45.985
R02         4.000    20143442.904 8 107489191.47408     -3258.279 8        52.229                                                                    20143447.974 7  83602699.40607     -2534.253 7        46.659
S21         5.000    38340795.899 7 201481950.08907      -530.737 7        42.377
G17         7.000    21953682.942 7 115367539.18307     -1163.248 7        46.628                                    21953686.144 7  89896871.22107      -906.419 7        44.153    21953686.496 7  89896867.22207      -906.501 7        42.563
R21         8.000    22212741.201 7 118864941.16607       162.281 7        46.285                                                                    22212752.247 7  92450589.28907       126.218 7        42.952
E12         9.000    28673634.141 5 150680979.79105      -156.937 5        31.570                                                                    28673646.709 6 112521565.58106      -117.306 6        36.068    28673644.899 5 115456898.96305      -120.350 5        35.967
E30        10.000    25792439.593 7 135540300.35807      1873.596 7        44.053                                                                    25792448.268 7 101215259.83507      1399.120 7        46.660    25792446.895 7 103855647.58707      1435.641 7        47.021
C26        11.000                                                                                                                                    21561619.518 8 112277026.28108      -760.092 8        50.938                                                                    21561622.250 8  91234298.30608      -617.843 8        49.397
S27        12.000    39084403.184 6 205389770.37906      -562.467 6        36.412
G15        13.000    20831585.090 8 109470638.21008     -2798.085 8        49.021                                    20831586.385 7  85301759.71607     -2180.324 7        47.886    20831586.882 7  85301751.71707     -2180.318 7        44.241
S36        14.000    38111944.732 7 200280020.10407      -531.800 7        44.427
G12        15.000    22804473.774 7 119838420.90207      2778.970 7        44.716                                    22804476.939 6  93380652.87806      2165.426 6        40.930    22804477.870 6  93380652.89106      2165.409 6        40.906
R11        16.000    23076539.897 7 123313856.58707     -4004.610 7        44.999                                                                    23076550.805 7  95910731.48207     -3114.664 7        42.372
S45        17.000    63297265.254 6 332630838.05506      -587.300 6        36.023
R03        18.000    20336245.945 8 108861473.40308      1048.278 8        51.662                                                                    20336249.918 7  84670038.24207       815.347 7        46.799
C35        19.000                                                                                                                                    24790693.103 7 129091725.32007      2241.362 7        44.108                                                                    24790699.455 7 104897666.64107      1821.127 7        43.877
E11        20.000    28533965.327 5 149947009.72805      1715.586 5        32.245                                                                    28533979.194 6 111973476.38006      1280.860 6        36.113    28533977.388 5 114894514.90005      1314.431 5        35.633
I06        22.000    38150474.684 7 149710722.06807      -504.132 7        42.292
S28        23.000    40796238.689 5 214385455.29805      -541.706 5        34.633
G14        24.000    23133756.639 6 121568597.95406     -3663.838 6        41.511                                    23133763.801 4  94728750.21904     -2854.926 4        27.665    23133764.291 7  94728752.19907     -2854.875 7        42.284
S23        25.000    38045871.080 7 199932262.55607      -534.211 7        44.665
E08        26.000    23499494.041 8 123490608.08008     -1203.566 8        48.888                                                                    23499498.196 8  92216990.96108      -898.773 8        50.821    23499497.235 8  94622651.56008      -922.274 8        50.978
C07        27.000                                                                                                                                    38961932.727 6 202884951.89306     -1087.869 6        40.608    38961936.233 7 156883512.83507      -841.267 7        42.864    38961932.333 6 164860630.02906      -884.247 6        40.639
G13        28.000    21918035.747 7 115179957.76207     -3796.111 7        46.449                                    21918038.972 5  89750569.88805     -2957.996 5        32.503
I02        29.000    36841798.498 7 144575127.28907      -273.982 7        43.179
G10        30.000    24373936.492 6 128085803.40306       392.909 6        41.843                                    24373944.951 5  99807099.25205       306.167 5        35.129    24373944.683 6  99807091.23406       306.276 6        38.604
E07        31.000    25316140.397 7 133037139.37407      1526.410 7        43.867                                                                    25316149.723 7  99345911.55307      1139.828 7        47.447    25316148.483 7 101937542.24007      1169.544 7        47.724
E03        32.000    25850164.509 7 135843418.25407     -3382.102 7        42.681                                                                    25850174.394 7 101441493.78107     -2525.610 7        46.521    25850172.730 7 104087792.00307     -2591.485 7        46.355
E10        33.000    28415348.077 6 149323641.05206       835.558 6        36.919                                                                    28415366.565 6 111507978.19606       623.981 6        39.697    28415364.396 6 114416871.20506       640.208 6        40.019
G02        34.000    25627607.262 6 134674020.67506     -1016.016 6        38.270                                    25627613.437 3 104940839.01203      -791.717 3        20.095
C24        35.000                                                                                                                                    23086734.491 8 120218709.78608      1658.938 8        48.005                                                                    23086736.876 7  97687568.52407      1347.882 7        47.733
G23        36.000    23326400.966 7 122580935.95407     -2045.937 7        42.936                                    23326407.034 4  95517563.78404     -1594.232 4        27.353    23326407.631 6  95517564.77106     -1594.220 6        41.163
R04        38.000    23727693.040 7 127060656.89607      3593.429 7        43.191                                                                    23727698.952 6  98824948.87506      2794.922 6        41.397
C33        39.000                                                                                                                                    24015572.756 7 125055376.97007       385.893 7        46.619                                                                    24015589.833 7 101617809.75007       313.383 7        46.422
E25        40.000    25327435.411 7 133096506.26307     -2812.050 7        43.336                                                                    25327445.618 7  99390231.04707     -2099.844 7        46.930    25327444.142 7 101983014.08707     -2154.579 7        47.265
S44        42.000    40763053.065 6 214211279.42306      -490.987 6        37.875
R22        43.000    23185736.553 7 123767098.32207      3079.549 7        42.085                                                                    23185747.014 6  96263368.93206      2395.351 6        40.949
C05        44.000                                                                                                                                    39334596.166 6 204825435.24006      -565.522 6        38.580    39334601.775 7 158384000.40807      -437.235 7        42.245    39334600.795 6 166437512.90906      -459.736 6        39.207
C40        45.000                                                                                                                                    39111707.632 7 203664866.42007     -1314.046 7        42.472                                                                    39111714.216 6 165494389.57406     -1067.958 6        41.609
C21        46.000                                                                                                                                    26133135.581 7 136081865.62407     -4058.782 7        42.061                                                                    26133141.216 7 110577587.35507     -3298.251 7        42.144
R20        47.000    23829053.154 5 127424694.06405     -3016.244 5        30.113                                                                    23829063.253 6  99108159.72306     -2345.923 6        39.144
C10        49.000                                                                                                                                    38420653.285 7 200066426.82307      -722.516 7        42.053    38420658.773 7 154704066.40507      -558.739 7        44.600    38420654.848 6 162570361.94506      -587.274 6        41.497
C42        50.000                                                                                                                                    23386127.965 7 121777607.63407     -2705.173 7        47.574                                                                    23386140.976 7  98954297.53107     -2198.353 7        47.958
S48        51.000    77050241.139 6 404900236.14506      -527.387 6        37.905
E02        53.000    23038528.617 8 121068373.35808      -447.199 8        48.926                                                                    23038532.999 8  90408279.40608      -333.983 8        51.424    23038531.896 8  92766737.60708      -342.704 8        51.024
C60        54.000                                                                                                                                    40763056.591 6 212263921.65906      -486.429 6        40.324                                                                    40763051.665 6 172481748.24406      -395.507 6        39.420
C45        55.000                                                                                                                                    24316529.603 7 126622417.95007     -3084.745 7        44.438                                                                    24316529.033 7 102891032.26407     -2506.766 7        45.461
R12        56.000    19413926.638 8 103705798.93108     -1605.031 8        51.398                                                                    19413931.568 7  80660102.47707     -1248.383 7        47.523
C02        57.000                                                                                                                                    40879893.288 5                      -533.168 5        30.430    40879902.166 5 164606184.11705      -412.383 5        35.400    40879901.365 5                      -433.639 5        30.657
I03        58.000   122074342.275 5 403260381.03805       888.392 5        33.593
C14        59.000                                                                                                                                    23176233.376 7 120684656.15307     -1208.718 7        46.268    23176236.569 8  93321000.91808      -934.672 8        50.602    23176233.410 7  98066137.72207      -982.282 7        47.935
R13        60.000    20256112.830 7 108166588.81007      1448.878 7        44.701
> 2025 01 01 10 45 20.0000000  0 54
G19         1.000    21673091.280 7 113893022.91007      1375.317 7        46.745                                    21673091.989 6  88747899.03506      1071.679 6        36.620
R01         2.000    23584715.088 6 126073576.85706     -5188.175 6        38.676                                                                    23584728.192 5  98057236.54605     -4035.225 5        34.857
G24         3.000    20485656.030 8 107652867.38108      1123.586 8        48.797                                    20485659.609 8  83885384.70808       875.521 8        50.648    20485659.885 7  83885381.71707       875.529 7        46.065
R02         4.000    20146497.889 8 107505493.01508     -3262.414 8        52.179                                                                    20146502.543 7  83615378.36707     -2537.471 7        46.532
S21         5.000    38341301.407 7 201484605.02907      -531.214 7        42.250
G17         7.000    21954791.388 7 115373364.23707     -1166.788 7        46.447                                    21954794.650 7  89901410.19407      -909.181 7        44.098    21954794.723 7  89901406.19507      -909.142 7        42.593
R21         8.000    22212592.906 7 118864141.54807       157.556 7        47.154                                                                    22212602.035 7  92449967.34507       122.436 7        42.209
E12         9.000    28673784.753 5 150681770.54005      -159.491 5        31.351                                                                    28673796.952 5 112522156.15005      -119.197 5        35.762    28673795.319 5 115457504.92505      -122.262 5        35.752
E30        10.000    25790657.417 7 135530935.75907      1872.179 7        43.941                                                                    25790666.164 7 101208266.79807      1398.001 7        46.601    25790664.889 7 103848472.12207      1434.520 7        47.145
C26        11.000                                                                                                                                    21562350.272 8 112280831.50308      -762.034 8        50.818                                                                    21562352.994 8  91237390.32508      -619.130 8        49.343
S27        12.000    39084939.300 6 205392583.02206      -562.618 6        36.408
G15        13.000    20834248.623 8 109484636.69208     -2801.329 8        48.732                                    20834250.215 7  85312667.60507     -2182.849 7        47.843    20834250.590 7  85312659.59907     -2182.914 7        44.248
S36        14.000    38112451.447 7 200282679.92107      -531.900 7        44.292
G12        15.000    22801830.792 7 119824530.71407      2777.097 7        45.657                                    22801833.781 6  93369829.37006      2163.972 6        40.889    22801834.416 6  93369829.36806      2164.061 6        40.958
R11        16.000    23080286.758 7 123333880.63807     -4005.075 7        44.670                                                                    23080297.536 6  95926305.70706     -3115.049 6        41.545
S45        17.000    63297774.277 6 332632175.45816      -587.570 6        36.034
R03        18.000    20335269.459 8 108856243.60608      1043.627 8        51.362                                                                    20335272.713 7  84665970.63007       811.704 7        46.246
C35        19.000                                                                                                                                    24788541.655 7 129080522.49407      2239.786 7        44.099                                                                    24788547.926 7 104888563.44307      1820.036 7        43.735
E11        20.000    28532334.032 5 149938435.58105      1714.036 5        32.389                                                                    28532347.556 6 111967073.68306      1279.915 6        36.110    28532345.640 5 114887945.17205      1313.288 5        35.562
I06        22.000    38151116.888 7 149713243.01707      -504.389 7        42.438
S28        23.000    40796753.355 5 214388164.15005      -542.183 5        34.757
G14        24.000    23137243.489 6 121586919.55906     -3664.940 6        41.802                                    23137250.598 4  94743026.74104     -2855.786 4        27.617    23137250.711 7  94743028.71607     -2855.712 7        42.237
S23        25.000    38046378.090 7 199934934.41507      -534.559 7        44.450
E08        26.000    23500640.511 8 123496632.33308     -1206.161 8        48.965                                                                    23500644.566 8  92221489.58608      -900.711 8        50.800    23500643.625 8  94627267.53308      -924.174 8        51.003
C07        27.000                                                                                                                                    38962977.764 6 202890393.53406     -1088.825 6        40.572    38962981.375 7 156887720.64607      -841.981 7        42.990    38962977.498 6 164865051.77706      -884.719 6        40.574
G13        28.000    21921649.223 7 115198943.60607     -3798.207 7        46.883                                    21921651.873 5  89765364.02205     -2959.639 5        32.527
I02        29.000    36842147.998 7 144576498.91207      -274.631 7        43.181
G10        30.000    24373565.206 7 128083847.59907       389.380 7        42.197                                    24373572.751 5  99805575.23305       303.414 5        35.071    24373572.498 6  99805567.22106       303.419 6        38.820
