     3.04           OBSERVATION DATA    M                   RINEX VERSION / TYPE
ssrcrin-15.6.1x                         20250101 073000 UTC PGM / RUN BY / DATE 
(00000000023479385599111004) Septentrio proprietary         COMMENT             
rref                                                        MARKER NAME         
01                                                          MARKER NUMBER       
geodetic                                                    MARKER TYPE         
NFB                 CLIMERS@TUW                             OBSERVER / AGENCY   
3297213             SEPT ASTERX SB3 PROB4.14.4              REC # / TYPE / VERS 
Unknown             Unknown                                 ANT # / TYPE        
  4127831.3241  1207192.8277  4695247.1869                  APPROX POSITION XYZ 
        0.0000        0.0000        0.0000                  ANTENNA: DELTA H/E/N
G   23 X1  C1C L1C D1C S1C C1W S1W C2W L2W D2W S2W C2L L2L  SYS / # / OBS TYPES 
       D2L S2L C5Q L5Q D5Q S5Q C1L L1L D1L S1L              SYS / # / OBS TYPES 
E   21 X1  C1C L1C D1C S1C C6C L6C D6C S6C C5Q L5Q D5Q S5Q  SYS / # / OBS TYPES 
       C7Q L7Q D7Q S7Q C8Q L8Q D8Q S8Q                      SYS / # / OBS TYPES 
S    9 X1  C1C L1C D1C S1C C5I L5I D5I S5I                  SYS / # / OBS TYPES 
R   17 X1  C1C L1C D1C S1C C2P L2P D2P S2P C2C L2C D2C S2C  SYS / # / OBS TYPES 
       C3Q L3Q D3Q S3Q                                      SYS / # / OBS TYPES 
C   25 X1  C1P L1P D1P S1P C5P L5P D5P S5P C2I L2I D2I S2I  SYS / # / OBS TYPES 
       C7I L7I D7I S7I C6I L6I D6I S6I C7D L7D D7D S7D      SYS / # / OBS TYPES 
J   17 X1  C1C L1C D1C S1C C2L L2L D2L S2L C5Q L5Q D5Q S5Q  SYS / # / OBS TYPES 
       C1L L1L D1L S1L                                      SYS / # / OBS TYPES 
I    5 X1  C5A L5A D5A S5A                                  SYS / # / OBS TYPES 
SEPTENTRIO RECEIVERS OUTPUT ALIGNED CARRIER PHASES.         COMMENT             
NO FURTHER PHASE SHIFT APPLIED IN THE RINEX ENCODER.        COMMENT             
G L1C                                                       SYS / PHASE SHIFT   
G L2W                                                       SYS / PHASE SHIFT   
G L2L  0.00000                                              SYS / PHASE SHIFT   
G L5Q  0.00000                                              SYS / PHASE SHIFT   
G L1L  0.00000                                              SYS / PHASE SHIFT   
E L1C  0.00000                                              SYS / PHASE SHIFT   
E L6C  0.00000                                              SYS / PHASE SHIFT   
E L5Q  0.00000                                              SYS / PHASE SHIFT   
E L7Q  0.00000                                              SYS / PHASE SHIFT   
E L8Q  0.00000                                              SYS / PHASE SHIFT   
S L1C                                                       SYS / PHASE SHIFT   
S L5I                                                       SYS / PHASE SHIFT   
R L1C                                                       SYS / PHASE SHIFT   
R L2P  0.00000                                              SYS / PHASE SHIFT   
R L2C                                                       SYS / PHASE SHIFT   
R L3Q  0.00000                                              SYS / PHASE SHIFT   
C L1P  0.00000                                              SYS / PHASE SHIFT   
C L5P  0.00000                                              SYS / PHASE SHIFT   
C L2I                                                       SYS / PHASE SHIFT   
C L7I                                                       SYS / PHASE SHIFT   
C L6I                                                       SYS / PHASE SHIFT   
C L7D                                                       SYS / PHASE SHIFT   
J L1C                                                       SYS / PHASE SHIFT   
J L2L  0.00000                                              SYS / PHASE SHIFT   
J L5Q  0.00000                                              SYS / PHASE SHIFT   
J L1L  0.00000                                              SYS / PHASE SHIFT   
I L5A                                                       SYS / PHASE SHIFT   
  2025     1     1     7    30    0.0000000     GPS         TIME OF FIRST OBS   
 C1C    0.000 C2C    0.000 C2P    0.000                     GLONASS COD/PHS/BIS 
DBHZ                                                        SIGNAL STRENGTH UNIT
    18                                                      LEAP SECONDS        
 24 R01  1 R02 -4 R03  5 R04  6 R05  1 R06 -4 R07  5 R08  6 GLONASS SLOT / FRQ #
    R09 -2 R10 -7 R11  0 R12 -1 R13 -2 R14 -7 R15  0 R16 -1 GLONASS SLOT / FRQ #
    R17  4 R18 -3 R19  3 R20  2 R21  4 R22 -3 R23  3 R24  2 GLONASS SLOT / FRQ #
                                                            END OF HEADER       
> 2025 01 01 07 30  0.0000000  0 56
G08         1.000    24313696.571 6 127769392.31406        94.700 6        37.641                                    24313703.276 5  99560620.00905        73.790 5        30.408    24313704.314 6  99560629.99406        73.956 6        36.439
R01         2.000    19919721.628 8 106482292.58808      1825.367 8        49.196                                                                    19919722.692 6  82819622.65006      1419.727 6        41.661
G09         3.000    25118242.958 5 131997051.96505     -3808.830 5        34.462                                    25118256.095 4 102854793.40404     -2967.902 4        25.925    25118256.019 5 102854794.37205     -2967.859 5        33.814
R02         4.000    23882688.817 7 127442596.55107      3596.885 7        43.081                                                                    23882690.283 6  99122032.56506      2797.646 6        39.904
S21         5.000    38545571.797 7 202558113.51007      -390.070 7        43.164
E05         6.000    23316967.776 7 122531470.84907     -2130.153 7        45.690                                                                    23316972.555 8  91500783.78808     -1590.667 8        48.876    23316971.671 8  93887755.09308     -1632.172 8        49.620
E15         7.000    27510383.003 6 144567985.86506     -3079.460 6        38.916                                                                    27510388.712 6 107956614.97106     -2299.719 6        41.375    27510388.294 7 110772874.74907     -2359.682 7        42.216
R10         8.000    20216253.670 7 107763977.73507     -2773.919 7        45.664
E31         9.000    28536998.013 5 149962875.12205     -3137.716 5        34.595                                                                    28537004.013 6 111985267.15906     -2343.329 6        39.129    28537003.078 6 114906622.35506     -2404.239 6        39.757
G18        10.000    25102892.161 6 131916585.38106       149.542 6        39.348                                    25102890.193 3 102792129.21103       116.526 3        23.238    25102889.922 6 102792137.19906       116.587 6        39.039
C26        11.000                                                                                                                                    25452888.248 7 132539866.87807      2837.989 7        42.243                                                                    25452892.483 7 107699512.11607      2306.295 7        42.997
S27        12.000    39217699.045 5 206090264.16005      -418.654 5        35.605
G15        13.000    23861455.528 6 125392782.13806      3229.934 6        40.203                                    23861453.147 5  97708641.39505      2516.836 5        33.713    23861453.305 6  97708633.38106      2517.039 6        37.505
S36        14.000    38314570.445 7 201344892.81707      -391.070 7        44.179
G20        15.000    21642152.558 7 113730229.05407     -2731.081 7        46.587                                    21642150.958 5  88620925.09005     -2128.111 5        35.957
R11        16.000    19670450.078 8 105112920.33608      1547.674 8        51.537                                                                    19670450.840 8  81754491.37608      1203.738 8        48.299
S45        17.000    63496101.142 6 333675730.43006      -436.165 6        36.321
E13        18.000    27082987.321 6 142322058.88206     -1124.547 6        39.258                                                                    27082989.937 7 106279444.50207      -839.752 7        42.870    27082989.281 7 109051953.11307      -861.776 7        43.621
E24        19.000    25315715.535 7 133034933.03607     -1205.195 7        44.798                                                                    25315718.326 8  99344267.84108      -899.936 8        48.366    25315717.279 8 101935855.37908      -923.435 8        48.654
R18        20.000    23766290.736 7 126866066.21007       357.932 7        42.191                                                                    23766292.403 6  98673599.67206       278.319 6        41.116
G30        21.000    20676294.993 8 108654653.91708     -1259.703 8        49.822                                    20676295.283 8  84665963.59308      -981.584 8        51.633    20676296.101 7  84665967.59207      -981.674 7        45.789
I06        22.000    38106576.677 7 149538519.43907      -340.842 7        43.367
S28        23.000    40979905.331 5 215350658.80105      -396.899 5        34.910
G14        24.000    21594725.417 7 113481045.15007      1998.670 7        46.854                                    21594725.410 6  88426789.33506      1557.403 6        36.733    21594725.577 7  88426791.32507      1557.421 7        45.502
S23        25.000    38248108.124 7 200995090.40507      -389.068 7        44.417
E08        26.000    26546619.698 6 139503407.00106      1979.572 6        41.132                                                                    26546620.451 7 104174613.92507      1478.265 7        44.396    26546619.863 7 106892210.94007      1516.859 7        45.452
C07        27.000                                                                                                                                    39696128.129 6 206708139.93406       741.612 6        39.171    39696128.964 7 159839854.80707       573.442 7        42.868    39696125.923 6 167967291.84706       602.750 6        40.415
G13        28.000    21134186.607 7 111060885.05007      1843.473 7        47.101                                    21134183.881 5  86540924.11305      1436.479 5        35.014
R09        29.000    23582186.126 7 125927484.89807     -4552.277 7        42.588                                                                    23582190.195 6  97943582.14506     -3540.789 6        40.858
C22        30.000                                                                                                                                    22707973.609 8 118246341.20208     -2616.246 8        50.481                                                                    22707970.010 8  96084812.18108     -2125.822 8        49.507
I01        31.000   346484531.332 6  56538691.21006     -3065.888 6        40.238
E03        32.000    23480982.222 8 123393382.09908       201.220 8        48.147                                                                    23480984.475 8  92144418.77308       150.285 8        51.218    23480984.015 8  94548181.12608       154.198 8        51.965
G05        33.000    21146662.113 7 111126450.18907      -390.222 7        47.528                                    21146659.840 7  86592029.27707      -304.068 7        47.827    21146660.332 7  86592032.27807      -304.202 7        44.787
E26        34.000    28806237.202 5 151377792.41305      1198.319 5        34.614                                                                    28806237.374 6 113041859.07006       894.744 6        39.111    28806236.404 6 115990770.90506       918.129 6        39.973
C36        35.000                                                                                                                                    22781264.783 8 118627987.71208     -2278.647 8        49.163                                                                    22781271.775 8  96394970.49408     -1851.506 8        49.405
I09        38.000    39430499.312 6 154733563.84006      -916.927 6        40.715
R08        39.000    19991662.617 8 107054406.93808     -2361.023 8        50.543                                                                    19991664.532 8  83264526.33808     -1836.341 8        48.002
E25        40.000    24614689.897 7 129351070.32407      1611.763 7        46.503                                                                    24614694.273 8  96593335.27008      1203.649 8        49.155    24614693.313 8  99113153.41508      1235.023 8        49.745
G27        41.000    25184471.703 6 132345309.11006     -1461.189 6        36.110                                    25184473.631 5 103126229.79005     -1138.599 5        30.038    25184473.706 6 103126233.82306     -1138.721 6        36.654
S44        42.000    40982956.972 6 215366837.95706      -416.588 6        37.353
C09        43.000                                                                                                                                    40512879.057 6 210961071.56706     -1097.060 6        37.996    40512884.564 6 163128436.71706      -848.406 6        41.490    40512880.330 6 171423102.59806      -891.189 6        38.066
C05        44.000                                                                                                                                    39414050.888 6 205239203.18506      -451.279 6        39.225    39414051.883 6 158703960.77606      -348.959 6        41.783    39414052.893 6 166773740.22106      -366.499 6        40.274
C40        45.000                                                                                                                                    39796218.317 6 207229350.08606       942.258 6        41.349                                                                    39796221.688 6 168390836.60706       765.722 6        41.554
C21        46.000                                                                                                                                    22199929.034 8 115600828.18108       467.942 8        51.424                                                                    22199925.082 8  93935108.42608       380.322 8        49.847
R17        47.000    23787749.174 7 127293058.50507     -2440.632 7        44.379                                                                    23787749.714 6  99005716.78606     -1898.244 6        40.412
C10        49.000                                                                                                                                    39951371.933 6 208037277.06606       995.386 6        39.195    39951376.233 7 160867633.83407       769.646 7        42.700    39951372.837 6 169047330.99506       808.909 6        39.913
C42        50.000                                                                                                                                    25343476.294 7 131970114.60307      2608.401 7        42.906                                                                    25343485.256 7 107236561.34807      2119.559 7        44.176
S48        51.000    77266790.818 6 406038259.06306      -376.381 6        38.009
E02        53.000    27756879.841 6 145863398.14406      2871.544 6        38.180                                                                    27756890.160 6 108924021.40006      2144.345 6        41.700    27756888.432 6 111765501.67306      2200.272 6        41.976
C60        54.000                                                                                                                                    40982954.846 6 213408974.98606      -412.814 6        40.765                                                                    40982949.195 6 173412195.77306      -335.457 6        38.535
C45        55.000                                                                                                                                    21921124.219 8 114149028.74908       707.076 8        51.250                                                                    21921118.313 8  92755405.57308       574.659 8        50.313
R12        56.000    23929075.632 7 127824858.24507      3990.449 7        43.259                                                                    23929082.392 6  99419357.41706      3103.740 6        39.501
C02        57.000                                                                                                                                    40993027.583 5 213461261.75305      -454.561 5        34.114    40993036.582 6 165061720.09506      -351.610 6        38.529    40993036.563 5 173454713.99805      -369.391 5        35.281
I03        58.000   125992432.090 6 418635816.00206       921.882 6        40.574
R07        59.000    23760588.868 6 127192099.44906     -4334.333 6        41.619                                                                    23760599.582 6  98927135.64806     -3371.127 6        39.853
G07        60.000    22674270.687 7 119154060.17507     -2756.405 7        45.860                                    22674270.598 7  92847297.21807     -2147.842 7        42.463    22674270.372 6  92847298.20706     -2147.941 6        41.704
> 2025 01 01 07 30  5.0000000  0 56
G08         1.000    24313608.389 6 127768926.98106        91.464 6        37.304                                    24313614.805 5  99560257.42205        71.267 5        30.415    24313615.353 6  99560267.42706        71.264 6        36.333
R01         2.000    19918015.625 8 106473172.57608      1822.503 8        49.119                                                                    19918016.920 6  82812529.30006      1417.410 6        40.982
G09         3.000    25121866.827 5 132016098.07405     -3809.732 5        34.738                                    25121880.559 4 102869634.45204     -2968.611 4        25.489    25121881.850 5 102869635.42405     -2968.553 5        33.485
R02         4.000    23879317.997 7 127424612.53907      3596.590 7        43.746                                                                    23879319.791 6  99108045.00306      2797.283 6        39.348
S21         5.000    38545942.087 7 202560064.51207      -390.333 7        43.147
E05         6.000    23318995.240 7 122542124.48507     -2131.380 7        45.315                                                                    23318999.829 8  91508739.39908     -1591.561 8        48.981    23318998.992 8  93895918.24608     -1633.150 8        49.540
E15         7.000    27513313.687 6 144583386.33006     -3080.660 6        39.090                                                                    27513319.411 6 107968115.28906     -2300.632 6        41.642    27513319.009 7 110784675.06707     -2360.516 7        42.209
R10         8.000    20218857.006 7 107777856.07207     -2777.475 7        45.529
E31         9.000    28539983.874 5 149978567.31205     -3139.168 5        34.690                                                                    28539990.108 6 111996985.34006     -2344.168 6        39.327    28539989.355 6 114918646.23806     -2405.341 6        39.901
G18        10.000    25102751.405 6 131915845.91106       146.195 6        39.132                                    25102749.341 3 102791553.01303       113.918 3        23.048    25102749.326 6 102791561.00606       113.936 6        39.465
C26        11.000                                                                                                                                    25450164.979 7 132525679.46507      2836.946 7        42.607                                                                    25450167.701 7 107687983.69107      2305.226 7        42.616
S27        12.000    39218097.740 5 206092358.69605      -418.833 5        35.429
G15        13.000    23858382.757 6 125376633.68006      3229.217 6        40.353                                    23858380.185 5  97696058.16205      2516.274 5        33.701    23858380.649 6  97696050.16306      2516.088 6        36.722
S36        14.000    38314944.586 7 201346848.83307      -391.392 7        44.298
G20        15.000    21644752.278 7 113743891.59107     -2734.023 7        47.054                                    21644750.849 5  88631571.19905     -2130.403 5        35.943
R11        16.000    19669003.720 8 105105191.95608      1543.584 8        51.583                                                                    19669004.531 8  81748480.40808      1200.569 8        48.310
S45        17.000    63496473.731 6 333676212.19916      -436.447 6        36.295
E13        18.000    27084058.722 6 142327688.31706     -1127.271 6        38.495                                                                    27084061.263 7 106283648.26507      -841.917 7        42.954    27084060.528 7 109056266.53607      -863.724 7        43.556
E24        19.000    25316863.426 7 133040965.12407     -1207.867 7        44.692                                                                    25316866.209 8  99348772.30908      -901.909 8        48.447    25316865.146 8 101940477.34908      -925.411 8        48.575
R18        20.000    23765956.718 7 126864287.49707       353.467 7        42.861                                                                    23765958.769 6  98672216.22906       274.900 6        40.868
G30        21.000    20677494.522 8 108660958.18708     -1262.113 8        49.956                                    20677494.957 8  84670876.00008      -983.465 8        51.609    20677495.663 7  84670879.99707      -983.442 7        45.437
I06        22.000    38107010.812 7 149540224.28707      -341.145 7        43.325
S28        23.000    40980285.007 5 215352644.06905      -397.236 5        34.990
G14        24.000    21592824.635 7 113471058.13807      1996.022 7        46.991                                    21592824.935 6  88419007.24706      1555.344 6        36.639    21592825.156 7  88419009.24007      1555.313 7        45.398
S23        25.000    38248478.875 7 200997036.26507      -389.373 7        44.459
E08        26.000    26544736.577 6 139493510.02906      1978.956 6        40.725                                                                    26544737.139 7 104167223.31407      1477.863 7        44.385    26544736.559 7 106884627.53607      1516.484 7        45.348
C07        27.000                                                                                                                                    39695416.298 6 206704434.25606       740.368 6        39.396    39695417.105 7 159836989.32507       572.571 7        42.963    39695414.300 6 167964280.67606       601.708 6        40.508
G13        28.000    21132433.247 7 111051672.01807      1841.601 7        46.936                                    21132430.759 5  86533745.11305      1435.013 5        34.957
R09        29.000    23586448.951 7 125950248.66007     -4553.326 7        42.652                                                                    23586452.652 6  97961287.24806     -3541.383 6        40.391
C22        30.000                                                                                                                                    22710486.399 8 118259427.84608     -2618.497 8        50.496                                                                    22710483.237 8  96095446.13508     -2127.688 8        49.449
I01        31.000   346488437.945 6  56554021.30306     -3066.195 6        39.904
E03        32.000    23480791.496 7 123392379.69707       199.708 7        47.819                                                                    23480793.713 8  92143670.21108       149.175 8        51.255    23480793.238 8  94547413.03808       152.981 8        51.891
G05        33.000    21147035.280 7 111128411.04107      -394.170 7        47.518                                    21147032.993 7  86593557.19807      -307.147 7        47.819    21147033.172 7  86593560.19507      -307.129 7        44.391
E26        34.000    28805097.928 5 151371807.26705      1195.670 5        34.695                                                                    28805098.324 6 113037389.62206       892.881 6        39.234    28805097.674 6 115986184.87806       916.195 6        40.048
C36        35.000                                                                                                                                    22783453.821 8 118639386.18208     -2280.792 8        49.006                                                                    22783460.804 8  96404232.66508     -1853.295 8        49.398
I09        38.000    39431667.685 6 154738149.50506      -917.375 6        40.687
R08        39.000    19993869.211 8 107066220.42808     -2364.488 8        50.650                                                                    19993870.491 7  83273714.57907     -1839.017 7        47.397
E25        40.000    24613157.331 7 129343016.65707      1609.615 7        46.556                                                                    24613161.702 8  96587321.16508      1201.986 8        49.249    24613160.774 8  99106982.42408      1233.303 8        49.678
G27        41.000    25185863.853 6 132352624.71506     -1464.976 6        36.658                                    25185865.670 5 103131930.29805     -1141.545 5        30.053    25185865.994 6 103131934.32006     -1141.660 6        36.624
S44        42.000    40983351.968 6 215368921.89506      -416.903 6        37.388
C09        43.000                                                                                                                                    40513932.225 6 210966557.34806     -1097.255 6        37.766    40513938.047 6 163132678.61706      -848.435 6        41.373    40513933.897 6 171427560.23006      -891.591 6        38.018
C05        44.000                                                                                                                                    39414484.202 6 205241460.05806      -451.528 6        38.940    39414485.398 6 158705705.90406      -349.225 6        41.852    39414486.345 6 166775574.10206      -366.835 6        40.105
C40        45.000                                                                                                                                    39795313.899 6 207224641.52206       941.110 6        41.137                                                                    39795317.556 6 168387010.48906       764.765 6        41.507
C21        46.000                                                                                                                                    22199481.265 8 115598494.91308       465.341 8        51.593                                                                    22199477.056 8  93933212.44508       378.142 8        49.769
R17        47.000    23790031.374 7 127305270.73307     -2444.328 7        43.445                                                                    23790031.436 6  99015215.17406     -1901.074 6        40.043
C10        49.000                                                                                                                                    39950417.138 6 208032302.09806       994.492 6        39.294    39950421.023 7 160863786.88407       768.992 7        42.669    39950417.346 6 169043288.43106       808.070 6        39.904
C42        50.000                                                                                                                                    25340972.167 7 131957075.30407      2607.420 7        43.145                                                                    25340981.210 7 107225965.83407      2118.675 7        44.158
S48        51.000    77267157.862 6 406040141.83706      -376.736 6        37.989
E02        53.000    27754147.922 6 145849041.57106      2871.048 6        38.183                                                                    27754158.277 7 108913300.59607      2143.970 7        42.030    27754156.401 6 111754501.18506      2200.005 6        41.714
C60        54.000                                                                                                                                    40983351.586 6 213411039.99606      -413.165 6        40.770                                                                    40983345.636 6 173413873.72606      -335.781 6        38.495
C45        55.000                                                                                                                                    21920446.815 8 114145500.00508       704.380 8        51.310                                                                    21920440.667 8  92752538.17408       572.360 8        50.305
R12        56.000    23925341.216 7 127804907.95807      3989.524 7        43.120                                                                    23925348.164 6  99403840.54106      3102.936 6        39.189
C02        57.000                                                                                                                                    40993463.883 5 213463536.14705      -455.160 5        33.766    40993473.155 6 165063478.77006      -352.066 6        38.535    40993473.544 5 173456562.11105      -370.040 5        35.205
I03        58.000   125991257.766 6 418631207.45806       921.543 6        40.548
R07        59.000    23764637.910 6 127213774.58706     -4335.818 6        41.604                                                                    23764649.071 6  98943994.00306     -3372.320 6        40.186
G07        60.000    22676893.728 7 119167844.91607     -2757.616 7        45.923                                    22676893.751 7  92858038.54207     -2148.788 7        42.455    22676893.525 6  92858039.52606     -2148.751 6        40.930
> 2025 01 01 07 30 10.0000000  0 56
G08         1.000    24313522.726 6 127768477.36406        88.301 6        37.868                                    24313529.334 5  99559907.08305        68.798 5        30.604    24313530.354 6  99559917.08506        68.810 6        36.692
R01         2.000    19916311.966 8 106464065.94508      1819.917 8        49.137                                                                    19916313.370 6  82805446.35706      1415.471 6        41.414
G09         3.000    25125491.907 5 132035146.45805     -3809.822 5        34.838                                    25125505.400 4 102884477.26304     -2968.677 4        25.669    25125505.633 5 102884478.23405     -2968.788 5        33.485
R02         4.000    23875948.716 7 127406628.43207      3596.829 7        43.983                                                                    23875948.680 6  99094057.33906      2797.568 6        39.228
S21         5.000    38546316.519 7 202562015.87307      -390.383 7        43.462
E05         6.000    23321023.610 7 122552783.45207     -2132.369 7        45.318                                                                    23321028.214 8  91516698.98908     -1592.382 8        49.085    23321027.437 8  93904085.48408     -1634.000 8        49.541
E15         7.000    27516245.133 6 144598791.35506     -3081.459 6        38.697                                                                    27516251.047 6 107979619.00706     -2301.197 6        41.800    27516250.243 7 110796478.88607     -2361.059 7        42.250
R10         8.000    20221463.196 7 107791750.84507     -2780.688 7        45.165
E31         9.000    28542970.608 5 149994264.17605     -3139.771 5        34.767                                                                    28542977.034 6 112008707.02906     -2344.817 6        39.628    28542976.300 6 114930673.71506     -2405.903 6        40.360
G18        10.000    25102614.169 6 131915122.21306       143.131 6        38.784                                    25102611.580 3 102790989.08903       111.523 3        22.895    25102612.220 6 102790997.09306       111.575 6        38.970
C26        11.000                                                                                                                                    25447441.418 7 132511496.04907      2836.189 7        43.299                                                                    25447443.608 7 107676458.49907      2304.753 7        42.525
S27        12.000    39218497.288 5 206094452.86905      -419.098 5        35.500
G15        13.000    23855310.596 6 125360488.03406      3228.885 6        40.706                                    23855307.765 5  97683477.12405      2516.017 5        33.844    23855308.371 6  97683469.10706      2516.026 6        37.180
S36        14.000    38315314.899 7 201348805.03407      -391.192 7        44.325
G20        15.000    21647354.680 7 113757567.17507     -2736.507 7        47.111                                    21647353.221 5  88642227.47805     -2132.336 5        35.919
R11        16.000    19667561.040 8 105097482.63108      1539.915 8        52.254                                                                    19667561.525 8  81742484.26508      1197.668 8        48.110
S45        17.000    63496841.558 6 333678394.30006      -436.410 6        36.393
E13        18.000    27085132.454 6 142333330.04806     -1129.690 6        39.186                                                                    27085134.905 7 106287861.22907      -843.531 7        42.908    27085134.207 7 109060589.41107      -865.579 7        43.600
E24        19.000    25318013.471 7 133047009.05707     -1210.172 7        44.990                                                                    25318016.332 8  99353285.62008      -903.636 8        48.356    25318015.343 8 101945108.40908      -927.201 8        48.562
R18        20.000    23765627.030 7 126862529.82507       349.477 7        42.032                                                                    23765629.722 6  98670849.16006       271.683 6        41.333
G30        21.000    20678696.201 8 108667272.73008     -1264.036 8        49.840                                    20678696.584 8  84675796.41508      -984.959 8        51.734    20678697.017 7  84675800.41307      -985.050 7        45.332
I06        22.000    38107445.755 7 149541929.49807      -341.091 7        43.446
S28        23.000    40980663.360 5 215354629.27305      -396.844 5        35.114
G14        24.000    21590926.735 7 113461083.15307      1993.759 7        46.604                                    21590926.776 6  88411234.53006      1553.578 6        36.798    21590926.945 7  88411236.52607      1553.573 7        45.655
S23        25.000    38248848.240 7 200998982.29007      -389.375 7        44.578
E08        26.000    26542853.580 6 139483614.66206      1978.876 6        41.459                                                                    26542854.064 7 104159833.90907      1477.646 7        44.445    26542853.548 7 106877045.36107      1516.259 7        45.439
C07        27.000                                                                                                                                    39694705.438 6 206700732.40706       739.897 6        39.471    39694706.134 7 159834126.81907       572.144 7        42.834    39694703.380 6 167961272.61906       601.401 6        40.415
G13        28.000    21130681.385 7 111042466.86507      1840.205 7        46.628                                    21130679.095 5  86526572.25505      1433.928 5        35.090
R09        29.000    23590712.710 7 125973015.44307     -4553.829 7        42.584                                                                    23590716.099 6  97978994.72406     -3541.892 6        40.017
C22        30.000                                                                                                                                    22713001.650 8 118272524.18008     -2620.296 8        50.682                                                                    22712998.289 8  96106087.95608     -2129.042 8        49.493
I01        31.000   346492344.412 6  56569351.90506     -3066.325 6        40.200
E03        32.000    23480602.100 8 123391383.57308       198.545 8        48.083                                                                    23480604.209 8  92142926.34208       148.203 8        51.283    23480603.745 8  94546649.75808       152.113 8        51.973
G05        33.000    21147411.456 7 111130389.90607      -397.640 7        47.858                                    21147409.579 7  86595099.15807      -309.847 7        47.915    21147409.911 7  86595102.15007      -309.821 7        44.330
E26        34.000    28803961.364 5 151365832.58205      1193.986 5        35.257                                                                    28803961.304 6 113032927.99406       891.452 6        39.429    28803960.744 6 115981606.85606       914.714 6        40.298
C36        35.000                                                                                                                                    22785644.483 8 118650793.88008     -2282.554 8        49.141                                                                    22785651.497 8  96413502.33108     -1854.638 8        49.352
I09        38.000    39432836.569 6 154742735.70806      -917.267 6        40.715
R08        39.000    19996078.534 8 107078049.42308     -2367.419 8        50.863                                                                    19996078.849 7  83282914.88407     -1841.343 7        47.204
E25        40.000    24611626.603 7 129334972.65507      1607.717 7        46.726                                                                    24611631.015 8  96581314.27608      1200.615 8        49.311    24611630.015 8  99100818.82508      1231.933 8        49.706
G27        41.000    25187259.000 6 132359956.22906     -1468.123 6        36.208                                    25187260.807 5 103137643.19905     -1144.004 5        30.083    25187260.494 6 103137647.21506     -1143.897 6        36.083
S44        42.000    40983749.200 6 215371005.98206      -416.810 6        37.093
C09        43.000                                                                                                                                    40514985.590 6 210972042.75506     -1097.070 6        37.380    40514991.250 6 163136920.25006      -848.298 6        41.044    40514987.291 6 171432017.52706      -891.309 6        37.762
C05        44.000                                                                                                                                    39414917.743 6 205243717.13006      -451.489 6        39.138    39414918.805 6 158707451.21506      -349.211 6        41.759    39414919.909 6 166777408.15506      -366.778 6        40.160
C40        45.000                                                                                                                                    39794410.705 6 207219937.58006       940.290 6        41.163                                                                    39794414.142 6 168383188.14706       764.225 6        41.511
C21        46.000                                                                                                                                    22199035.551 8 115596173.35408       463.049 8        51.847                                                                    22199031.215 8  93931325.97208       376.462 8        49.832
R17        47.000    23792315.569 7 127317500.25007     -2447.695 7        42.444                                                                    23792316.175 6  99024727.02806     -1903.813 6        38.994
C10        49.000                                                                                                                                    39949462.058 6 208027330.20606       993.857 6        39.318    39949465.849 7 160859942.29507       768.682 7        42.637    39949462.419 6 169039248.35306       807.846 6        39.763
C42        50.000                                                                                                                                    25338469.112 7 131944039.68707      2606.674 7        43.228                                                                    25338477.875 7 107215373.31507      2118.255 7        44.209
S48        51.000    77267523.994 6 406042025.48506      -376.590 6        37.905
E02        53.000    27751416.249 6 145834685.61906      2870.991 6        38.541                                                                    27751426.367 7 108902580.26207      2143.973 7        42.009    27751424.419 6 111743501.18906      2199.990 6        41.714
C60        54.000                                                                                                                                    40983748.062 6 213413105.13606      -413.138 6        40.937                                                                    40983742.394 6 173415551.77406      -335.486 6        38.532
C45        55.000                                                                                                                                    21919771.486 8 114141983.35708       702.028 8        51.507                                                                    21919765.339 8  92749680.59708       570.604 8        50.316
R12        56.000    23921607.370 7 127784961.10707      3988.860 7        42.813                                                                    23921613.710 6  99388326.36306      3102.679 6        39.520
C02        57.000                                                                                                                                    40993901.105 5 213465810.70505      -455.052 5        33.910    40993910.176 6 165065237.57106      -351.845 6        38.480    40993910.269 5 173458410.35005      -369.564 5        35.314
I03        58.000   125990083.649 6 418626599.02206       921.538 6        40.677
R07        59.000    23768687.610 6 127235454.79206     -4336.500 6        41.430                                                                    23768699.711 6  98960856.32206     -3373.038 6        40.048
G07        60.000    22679518.084 7 119181634.35407     -2758.428 7        45.550                                    22679517.815 7  92868783.52607     -2149.417 7        42.502    22679517.957 6  92868784.51706     -2149.450 6        40.827
> 2025 01 01 07 30 15.0000000  0 56
G08         1.000    24313440.797 6 127768043.80306        85.052 6        38.559                                    24313446.904 5  99559569.25505        66.273 5        30.966    24313447.496 6  99559579.25206        66.625 6        36.306
R01         2.000    19914610.847 8 106454972.85108      1817.239 8        48.977                                                                    19914611.837 6  82798373.93606      1413.453 6        41.540
G09         3.000    25129117.624 5 132054197.52905     -3810.481 5        34.757                                    25129130.870 4 102899322.17804     -2969.189 4        25.609    25129130.505 5 102899323.17405     -2969.319 5        33.012
R02         4.000    23872577.872 7 127388644.63007      3596.705 7        43.088                                                                    23872579.373 6  99080069.93206      2797.457 6        39.568
S21         5.000    38546687.583 7 202563967.93507      -390.363 7        43.132
E05         6.000    23323053.013 7 122563448.10507     -2133.506 7        45.123                                                                    23323057.678 8  91524662.82908     -1593.198 8        49.075    23323056.881 8  93912257.07208     -1634.765 8        49.551
E15         7.000    27519177.556 6 144614201.33906     -3082.505 6        38.553                                                                    27519183.476 6 107991126.41106     -2301.920 6        41.828    27519182.515 7 110808286.50407     -2362.037 7        42.053
R10         8.000    20224073.545 7 107805662.14507     -2783.984 7        46.024
E31         9.000    28545958.817 5 150009966.18605     -3140.875 5        35.133                                                                    28545965.017 6 112020432.53706     -2345.488 6        39.703    28545964.299 6 114942705.10506     -2406.593 6        40.317
G18        10.000    25102479.275 6 131914414.69106       139.845 6        39.174                                    25102476.877 3 102790437.77203       108.967 3        22.857    25102477.089 6 102790445.77006       109.177 6        39.024
C26        11.000                                                                                                                                    25444717.616 7 132497316.98407      2835.392 7        43.342                                                                    25444720.688 7 107664936.87307      2303.987 7        42.457
S27        12.000    39218895.656 5 206096548.04705      -419.170 5        35.581
G15        13.000    23852238.857 6 125344345.57706      3228.051 6        40.179                                    23852236.002 5  97670898.57105      2515.368 5        34.010    23852236.232 6  97670890.55506      2515.522 6        37.599
S36        14.000    38315686.589 7 201350762.05207      -391.542 7        44.316
G20        15.000    21649959.595 7 113771256.16907     -2739.133 7        46.995                                    21649958.147 5  88652894.20805     -2134.385 5        35.986
R11        16.000    19666122.142 8 105089792.77508      1536.016 8        52.011                                                                    19666122.761 8  81736503.26508      1194.690 8        48.187
S45        17.000    63497216.856 6 333680577.09906      -436.601 6        36.495
E13        18.000    27086208.347 6 142338984.49106     -1132.233 6        38.994                                                                    27086210.861 7 106292083.68707      -845.399 7        42.918    27086210.228 7 109064922.01107      -867.413 7        43.464
E24        19.000    25319166.320 7 133053065.26207     -1212.406 7        44.924                                                                    25319168.843 8  99357808.10508      -905.432 8        48.432    25319167.814 8 101949748.87208      -929.047 8        48.614
R18        20.000    23765301.922 7 126860793.53607       345.105 7        42.961                                                                    23765304.657 6  98669498.68106       268.462 6        41.359
G30        21.000    20679900.017 8 108673597.92708     -1266.147 8        49.914                                    20679900.242 8  84680725.13208      -986.607 8        51.841    20679900.687 7  84680729.12707      -986.556 7        45.499
I06        22.000    38107880.256 7 149543635.34907      -341.345 7        43.604
S28        23.000    40981039.432 5 215356614.71305      -397.095 5        34.881
G14        24.000    21589030.857 7 113451120.57807      1991.247 7        46.341                                    21589031.031 6  88403471.48806      1551.621 6        36.847    21589031.197 7  88403473.49007      1551.674 7        45.947
S23        25.000    38249220.552 7 201000928.77807      -389.319 7        44.602
E08        26.000    26540971.074 6 139473721.29906      1978.510 6        41.406                                                                    26540971.528 7 104152445.97807      1477.519 7        44.360    26540970.847 7 106869464.71507      1515.922 7        45.430
C07        27.000                                                                                                                                    39693995.204 6 206697034.74606       739.183 6        39.381    39693996.332 7 159831267.55507       571.484 7        42.724    39693993.282 6 167958267.98406       600.620 6        40.315
G13        28.000    21128931.530 7 111033270.00307      1838.545 7        46.556                                    21128929.000 5  86519405.85605      1432.634 5        35.286
R09        29.000    23594976.596 7 125995785.77107     -4554.497 7        42.349                                                                    23594980.330 6  97996704.96106     -3542.368 6        39.823
C22        30.000                                                                                                                                    22715518.510 8 118285630.57108     -2622.291 8        50.548                                                                    22715515.290 8  96116737.98108     -2130.827 8        49.399
I01        31.000   346496251.043 6  56584683.32006     -3066.385 6        40.248
E03        32.000    23480413.818 8 123390394.10208       197.197 8        48.067                                                                    23480415.901 8  92142187.43608       147.272 8        51.326    23480415.435 8  94545891.58108       151.117 8        51.962
G05        33.000    21147791.919 7 111132387.21707      -401.338 7        47.757                                    21147789.681 8  86596655.48908      -312.730 8        48.079    21147790.454 7  86596658.47807      -312.769 7        44.706
E26        34.000    28802826.743 5 151359868.76805      1191.587 5        34.819                                                                    28802826.509 6 113028474.47206       890.069 6        38.667    28802825.786 6 115977037.17006       913.024 6        39.865
C36        35.000                                                                                                                                    22787837.106 8 118662211.17508     -2284.433 8        48.860                                                                    22787844.116 8  96422779.82208     -1856.279 8        49.294
I09        38.000    39434005.469 6 154747322.77906      -917.487 6        40.908
R08        39.000    19998290.329 8 107089894.43608     -2370.492 8        50.673                                                                    19998291.269 7  83292127.66507     -1843.764 7        47.785
E25        40.000    24610097.575 7 129326938.67807      1605.833 7        46.280                                                                    24610102.189 8  96575314.87708      1199.135 8        49.337    24610101.234 8  99094662.92508      1230.409 8        49.641
G27        41.000    25188657.650 6 132367304.04806     -1471.257 6        36.045                                    25188658.990 4 103143368.81504     -1146.441 4        29.991    25188658.603 5 103143372.80405     -1146.255 5        35.710
S44        42.000    40984142.618 6 215373090.54606      -417.053 6        37.403
C09        43.000                                                                                                                                    40516039.325 6 210977528.19706     -1097.231 6        37.236    40516044.656 6 163141161.88506      -848.382 6        41.011    40516040.980 6 171436474.87706      -891.462 6        37.815
C05        44.000                                                                                                                                    39415351.026 6 205245974.85806      -451.550 6        38.952    39415352.392 6 158709197.01306      -349.254 6        41.590    39415353.433 6 166779242.74006      -366.979 6        40.179
C40        45.000                                                                                                                                    39793508.177 6 207215238.64606       939.320 6        41.201                                                                    39793511.803 6 168379369.89306       763.232 6        41.325
C21        46.000                                                                                                                                    22198591.894 8 115593863.88208       460.628 8        51.702                                                                    22198587.706 8  93929449.34608       374.411 8        49.621
R17        47.000    23794604.789 7 127329747.30707     -2451.258 7        43.065                                                                    23794604.327 6  99034252.50506     -1906.389 6        39.159
C10        49.000                                                                                                                                    39948507.537 6 208022361.72606       993.286 6        39.072    39948511.648 7 160856100.35007       768.148 7        42.500    39948508.320 6 169035211.07206       807.140 6        39.694
C42        50.000                                                                                                                                    25335966.262 7 131931008.12107      2605.887 7        43.100                                                                    25335975.291 7 107204784.09507      2117.541 7        44.274
S48        51.000    77267886.290 6 406043909.63506      -377.095 6        38.048
E02        53.000    27748684.606 6 145820330.69506      2870.881 6        38.342                                                                    27748694.741 7 108891860.69307      2143.903 7        42.190    27748692.749 6 111732501.97906      2199.805 6        41.702
C60        54.000                                                                                                                                    40984145.058 6 213415170.74306      -413.210 6        40.706                                                                    40984139.099 6 173417230.24906      -335.775 6        38.471
C45        55.000                                                                                                                                    21919098.444 8 114138479.17908       699.582 8        51.371                                                                    21919092.414 8  92746833.18208       568.516 8        50.149
R12        56.000    23917873.235 7 127765018.09507      3988.024 7        42.696                                                                    23917881.205 6  99372815.16206      3102.046 6        39.342
C02        57.000                                                                                                                                    40994338.135 5 213468085.77105      -454.963 5        33.994    40994347.004 6 165066996.80206      -351.881 6        38.414    40994347.084 5 173460259.04405      -369.718 5        35.229
I03        58.000   125988909.153 6 418621990.96206       921.457 6        40.744
R07        59.000    23772738.578 6 127257140.51506     -4337.680 6        41.116                                                                    23772750.520 6  98977722.89106     -3373.776 6        40.343
G07        60.000    22682143.257 7 119195428.87007     -2759.407 7        45.440                                    22682142.872 7  92879532.46607     -2150.179 7        42.578    22682143.462 6  92879533.46006     -2150.205 6        40.667
> 2025 01 01 07 30 20.0000000  0 56
G08         1.000    24313361.460 6 127767625.88906        82.036 6        38.742                                    24313367.435 5  99559243.62105        63.920 5        31.147    24313368.085 6  99559253.62306        64.096 6        36.552
R01         2.000    19912911.733 8 106445892.91708      1814.766 8        49.236                                                                    19912913.906 6  82791311.75006      1411.663 6        41.173
G09         3.000    25132742.792 5 132073250.81305     -3810.826 5        34.295                                    25132756.788 4 102914168.81004     -2969.465 4        25.248    25132757.454 5 102914169.79705     -2969.810 5        32.880
R02         4.000    23869206.988 7 127370660.78307      3596.943 7        43.090                                                                    23869209.369 6  99066082.50506      2797.437 6        39.210
S21         5.000    38547058.728 7 202565920.44707      -390.394 7        43.101
E05         6.000    23325083.686 7 122574118.00607     -2134.462 7        45.476                                                                    23325088.149 8  91532630.58708     -1593.839 8        49.073    23325087.369 8  93920432.68808     -1635.434 8        49.668
E15         7.000    27522110.782 6 144629615.79306     -3083.208 6        38.318                                                                    27522116.889 6 108002637.14706     -2302.315 6        41.771    27522115.840 7 110820097.53007     -2362.504 7        42.271
R10         8.000    20226686.362 7 107819589.86407     -2787.083 7        46.056
E31         9.000    28548947.529 5 150025672.81405     -3141.562 5        35.210                                                                    28548953.839 6 112032161.50506     -2346.054 6        39.471    28548953.190 6 114954740.03206     -2407.193 6        40.129
G18        10.000    25102347.460 6 131913722.89706       136.789 6        39.270                                    25102345.084 3 102789898.72703       106.604 3        22.686    25102345.756 6 102789906.72506       106.664 6        38.928
C26        11.000                                                                                                                                    25441994.902 7 132483141.88507      2834.688 7        43.289                                                                    25441998.705 7 107653418.42507      2303.410 7        42.620
S27        12.000    39219294.122 5 206098643.74405      -418.964 5        35.510
G15        13.000    23849167.345 6 125328205.77506      3227.751 6        40.174                                    23849164.779 5  97658322.08305      2515.132 5        33.976    23849165.407 6  97658314.06606      2515.228 6        37.353
S36        14.000    38316058.954 7 201352719.13807      -391.059 7        44.144
G20        15.000    21652566.976 7 113784958.14407     -2741.634 7        46.685                                    21652565.532 5  88663571.04705     -2136.332 5        35.971
R11        16.000    19664686.595 8 105082122.00608      1532.378 8        52.150                                                                    19664687.291 8  81730537.11608      1191.805 8        48.218
S45        17.000    63497586.391 6 333682760.07206      -436.465 6        36.359
E13        18.000    27087286.942 6 142344651.17206     -1134.598 6        39.249                                                                    27087289.233 7 106296315.29407      -847.286 7        42.974    27087288.544 7 109069263.99707      -869.147 7        43.492
E24        19.000    25320320.877 7 133059133.24907     -1214.613 7        45.096                                                                    25320323.525 8  99362339.38108      -907.097 8        48.418    25320322.545 8 101954398.35308      -930.714 8        48.594
R18        20.000    23764981.172 7 126859078.13507       341.096 7        42.773                                                                    23764982.587 6  98668164.48106       265.214 6        40.653
G30        21.000    20681105.455 8 108679933.31608     -1267.980 8        49.877                                    20681105.837 8  84685661.78908      -988.035 8        51.774    20681106.328 7  84685665.77807      -987.961 7        45.487
I06        22.000    38108314.945 7 149545341.50607      -341.237 7        43.526
