     3.04           OBSERVATION DATA    M                   RINEX VERSION / TYPE
ssrcrin-15.6.1x                         20250101 094500 UTC PGM / RUN BY / DATE 
(00000000023479385599111004) Septentrio proprietary         COMMENT             
rref                                                        MARKER NAME         
01                                                          MARKER NUMBER       
geodetic                                                    MARKER TYPE         
NFB                 CLIMERS@TUW                             OBSERVER / AGENCY   
3297213             SEPT ASTERX SB3 PROB4.14.4              REC # / TYPE / VERS 
Unknown             Unknown                                 ANT # / TYPE        
  4127832.6583  1207193.2197  4695247.7459                  APPROX POSITION XYZ 
        0.0000        0.0000        0.0000                  ANTENNA: DELTA H/E/N
G   23 X1  C1C L1C D1C S1C C1W S1W C2W L2W D2W S2W C2L L2L  SYS / # / OBS TYPES 
       D2L S2L C5Q L5Q D5Q S5Q C1L L1L D1L S1L              SYS / # / OBS TYPES 
E   21 X1  C1C L1C D1C S1C C6C L6C D6C S6C C5Q L5Q D5Q S5Q  SYS / # / OBS TYPES 
       C7Q L7Q D7Q S7Q C8Q L8Q D8Q S8Q                      SYS / # / OBS TYPES 
S    9 X1  C1C L1C D1C S1C C5I L5I D5I S5I                  SYS / # / OBS TYPES 
R   17 X1  C1C L1C D1C S1C C2P L2P D2P S2P C2C L2C D2C S2C  SYS / # / OBS TYPES 
       C3Q L3Q D3Q S3Q                                      SYS / # / OBS TYPES 
C   25 X1  C1P L1P D1P S1P C5P L5P D5P S5P C2I L2I D2I S2I  SYS / # / OBS TYPES 
       C7I L7I D7I S7I C6I L6I D6I S6I C7D L7D D7D S7D      SYS / # / OBS TYPES 
J   17 X1  C1C L1C D1C S1C C2L L2L D2L S2L C5Q L5Q D5Q S5Q  SYS / # / OBS TYPES 
       C1L L1L D1L S1L                                      SYS / # / OBS TYPES 
I    5 X1  C5A L5A D5A S5A                                  SYS / # / OBS TYPES 
SEPTENTRIO RECEIVERS OUTPUT ALIGNED CARRIER PHASES.         COMMENT             
NO FURTHER PHASE SHIFT APPLIED IN THE RINEX ENCODER.        COMMENT             
G L1C                                                       SYS / PHASE SHIFT   
G L2W                                                       SYS / PHASE SHIFT   
G L2L  0.00000                                              SYS / PHASE SHIFT   
G L5Q  0.00000                                              SYS / PHASE SHIFT   
G L1L  0.00000                                              SYS / PHASE SHIFT   
E L1C  0.00000                                              SYS / PHASE SHIFT   
E L6C  0.00000                                              SYS / PHASE SHIFT   
E L5Q  0.00000                                              SYS / PHASE SHIFT   
E L7Q  0.00000                                              SYS / PHASE SHIFT   
E L8Q  0.00000                                              SYS / PHASE SHIFT   
S L1C                                                       SYS / PHASE SHIFT   
S L5I                                                       SYS / PHASE SHIFT   
R L1C                                                       SYS / PHASE SHIFT   
R L2P  0.00000                                              SYS / PHASE SHIFT   
R L2C                                                       SYS / PHASE SHIFT   
R L3Q  0.00000                                              SYS / PHASE SHIFT   
C L1P  0.00000                                              SYS / PHASE SHIFT   
C L5P  0.00000                                              SYS / PHASE SHIFT   
C L2I                                                       SYS / PHASE SHIFT   
C L7I                                                       SYS / PHASE SHIFT   
C L6I                                                       SYS / PHASE SHIFT   
C L7D                                                       SYS / PHASE SHIFT   
J L1C                                                       SYS / PHASE SHIFT   
J L2L  0.00000                                              SYS / PHASE SHIFT   
J L5Q  0.00000                                              SYS / PHASE SHIFT   
J L1L  0.00000                                              SYS / PHASE SHIFT   
I L5A                                                       SYS / PHASE SHIFT   
  2025     1     1     9    45    0.0000000     GPS         TIME OF FIRST OBS   
 C1C    0.000 C2C    0.000 C2P    0.000                     GLONASS COD/PHS/BIS 
DBHZ                                                        SIGNAL STRENGTH UNIT
    18                                                      LEAP SECONDS        
 24 R01  1 R02 -4 R03  5 R04  6 R05  1 R06 -4 R07  5 R08  6 GLONASS SLOT / FRQ #
    R09 -2 R10 -7 R11  0 R12 -1 R13 -2 R14 -7 R15  0 R16 -1 GLONASS SLOT / FRQ #
    R17  4 R18 -3 R19  3 R20  2 R21  4 R22 -3 R23  3 R24  2 GLONASS SLOT / FRQ #
                                                            END OF HEADER       
> 2025 01 01 09 45  0.0000000  0 53
G19         1.000    23784016.957 7 124985950.52007      2788.793 7        42.144                                    23784020.507 4  97391723.40004      2173.066 4        28.351
R01         2.000    20950684.836 7 111993309.59107     -4053.542 7        47.170                                                                    20950690.770 6  87105950.77406     -3152.668 6        41.943
G24         3.000    22336002.297 7 117376487.13907      2400.996 7        43.012                                    22336006.626 6  91462227.36506      1870.902 6        41.802    22336006.925 6  91462224.36906      1870.880 6        41.390
R02         4.000    19584415.720 8 104506144.35608       -65.878 8        52.472                                                                    19584419.664 7  81282558.59907       -51.210 7        46.981
S21         5.000    38595004.596 7 202817851.29807      -468.977 7        42.074
G17         7.000    22553790.199 7 118521118.59207      1111.091 7        45.454                                    22553793.369 7  92354204.73507       865.778 7        42.582    22553793.370 6  92354200.76806       865.631 6        41.716
R21         8.000    23871294.320 6 127740123.79706      2702.076 6        41.111                                                                    23871308.387 6  99353492.04106      2101.661 6        40.384
E30        10.000    27925632.441 6 146750245.21606      2523.949 6        38.910                                                                    27925645.569 6 109586305.03606      1884.617 6        41.700    27925643.690 6 112445069.92406      1933.877 6        41.766
C26        11.000                                                                                                                                    22056775.036 8 114855438.53508       482.703 8        50.528                                                                    22056777.124 8  93329471.26208       392.280 8        49.387
S27        12.000    39316223.325 6 206607973.48906      -502.273 6        36.106
G15        13.000    20330465.320 8 106837260.12008      -320.276 8        49.451                                    20330465.418 8  83249782.56608      -249.565 8        49.783    20330465.885 7  83249774.57007      -249.631 7        45.401
S36        14.000    38365440.558 7 201612174.19507      -469.754 7        43.710
G12        15.000    25581392.670 6 134431142.26606      3420.078 6        38.820                                    25581400.796 4 104751583.02304      2664.984 4        28.190    25581401.688 5 104751583.06005      2664.844 5        34.600
R11        16.000    21095881.064 8 112729929.81208     -3475.178 8        49.585                                                                    21095886.029 7  87678815.83307     -2702.868 7        46.173
S45        17.000    63548456.004 5 333950884.07105      -520.288 5        35.705
R03        18.000    22526043.021 7 120583598.66307      3365.276 7        46.845                                                                    22526047.841 6  93787239.81206      2617.394 6        41.366
E24        19.000    28705553.405 6 150848465.01906     -3378.092 6        36.095                                                                    28705570.105 6 112646525.32306     -2522.578 6        38.787    28705567.994 6 115585134.68806     -2588.267 6        40.439
E33        20.000    28756294.279 5 151115331.39705      -640.029 5        34.324                                                                    28756299.830 6 112845880.06506      -477.756 6        39.601    28756298.373 6 115789681.75306      -490.307 6        40.355
G30        21.000    23931879.307 6 125762713.58006     -3384.793 6        40.958                                    23931889.182 6  97996881.63306     -2637.498 6        36.526    23931889.709 6  97996885.63206     -2637.486 6        38.958
I06        22.000    38310299.418 7 150337926.07707      -446.366 7        42.760
S28        23.000    41043083.017 5 215682602.93405      -479.496 5        34.510
G14        24.000    21522278.563 7 113100304.76107     -2599.648 7        46.307                                    21522280.949 5  88130100.41505     -2025.694 5        35.838    21522281.572 7  88130102.40507     -2025.648 7        45.607
S23        25.000    38298199.567 7 201258306.74207      -471.059 7        43.871
E08        26.000    23817186.934 8 125160105.19708       339.572 8        48.277                                                                    23817190.290 8  93463696.34008       253.644 8        50.726    23817189.335 8  95901879.33708       260.218 8        51.295
C07        27.000                                                                                                                                    38968906.176 6 202921284.19606      -589.893 6        41.421    38968907.902 7 156911612.68607      -456.069 7        44.406    38968904.810 6 164890157.32406      -479.189 6        41.719
G13        28.000    20445685.836 8 107442748.85608     -2100.402 8        49.716                                    20445685.846 6  83721587.03006     -1636.678 6        40.048
I02        29.000    37289109.629 7 146330478.09807       -50.236 7        43.427
G10        30.000    25948310.271 6 136359269.44806      2294.198 6        38.817                                    25948312.847 4 106253975.58404      1787.702 4        28.957    25948313.703 5 106253967.56205      1787.588 5        34.876
E07        31.000    27253859.908 6 143219909.55406      2249.251 6        39.258                                                                    27253869.964 7 106949924.28007      1679.712 7        42.785    27253868.499 7 109739920.97507      1723.431 7        43.503
E03        32.000    24446549.000 7 128467412.33107     -2365.838 7        46.935                                                                    24446555.111 8  95933450.73208     -1766.674 8        49.362    24446554.283 8  98436059.33108     -1812.802 8        50.281
G05        33.000    24767082.032 6 130151724.69606     -4095.345 6        40.801                                    24767089.014 5 101416878.37405     -3191.169 5        32.677    24767089.988 6 101416881.38206     -3191.254 6        37.062
C36        35.000                                                                                                                                    27030824.774 6 140756340.28906     -3432.019 6        36.987                                                                    27030843.065 6 114376023.06606     -2788.712 6        37.951
G23        36.000    23313537.471 7 122513372.39107       338.294 7        42.565                                    23313540.943 4  95464926.23904       263.607 4        28.863    23313541.181 7  95464927.23107       263.547 7        42.354
I09        38.000    40829829.484 5 160224670.25405      -990.160 5        33.174
C33        39.000                                                                                                                                    25538711.592 7 132986758.60707      2141.007 7        42.976                                                                    25538730.189 7 108062705.39307      1739.816 7        43.653
E25        40.000    24272842.339 7 127554629.66407     -1885.594 7        46.422                                                                    24272848.253 8  95251831.47008     -1408.065 8        49.494    24272847.252 8  97736654.54808     -1444.789 8        50.466
S44        42.000    41037956.968 6 215655861.71406      -449.090 6        37.002
C09        43.000                                                                                                                                    41562993.833 5 216429204.83805     -1099.067 5        31.343    41563005.701 6 167356720.82406      -849.926 6        37.361    41562999.460 5 175866389.95905      -892.963 5        32.467
C05        44.000                                                                                                                                    39556919.520 6 205983124.68406      -516.511 6        37.629    39556926.386 7 159279196.84707      -399.351 7        42.533    39556925.974 6 167378228.37806      -419.619 6        39.997
C40        45.000                                                                                                                                    38997289.898 7 203069098.03807      -705.099 7        42.827                                                                    38997294.302 7 165010286.58907      -572.921 7        42.940
C21        46.000                                                                                                                                    24066114.842 7 125318463.52207     -3437.451 7        47.764                                                                    24066114.717 7 101831466.00907     -2793.194 7        47.253
R20        47.000    23375386.956 5 124998708.67705        12.010 5        32.048                                                                    23375399.142 6  97221273.50506         9.550 6        39.757
C10        49.000                                                                                                                                    38691478.513 6 201476699.07506      -202.306 6        41.604    38691483.634 7 155794581.64707      -156.272 7        44.777    38691479.648 6 163716326.30606      -164.177 6        41.454
C42        50.000                                                                                                                                    22761468.677 8 118524874.29508      -728.388 8        49.738                                                                    22761479.807 8  96311192.08408      -591.852 8        49.543
S48        51.000    77306942.479 6 406249931.54306      -460.660 6        37.629
E02        53.000    23807243.631 8 125107999.02608       957.098 8        48.640                                                                    23807247.977 8  93424883.18008       714.716 8        50.579    23807246.887 8  95862035.36308       733.379 8        51.105
C60        54.000                                                                                                                                    41037955.669 6 213695371.15706      -444.927 6        39.601                                                                    41037951.611 6 173644913.50406      -361.429 6        38.520
C45        55.000                                                                                                                                    22965162.265 8 119585556.52208     -2459.986 8        48.292                                                                    22965158.841 8  97173018.90608     -1998.925 8        49.091
R12        56.000    19549023.542 8 104427475.80308       329.433 8        52.337                                                                    19549027.784 7  81221410.49707       256.242 7        47.347
C02        57.000                                                                                                                                    41121145.991 5                      -494.602 5        31.313    41121152.776 6 165577621.18206      -382.342 6        36.446    41121152.136 5 173996845.86305      -401.603 5        30.853
I03        58.000   123498654.234 6 408849713.68506       905.988 6        37.134
C14        59.000                                                                                                                                    23686270.013 7 123340556.08307       918.108 7        45.391    23686271.399 8  95374713.86108       709.949 8        50.121    23686268.669 7 100224276.07507       746.046 7        47.467
R13        60.000    22324194.436 6 119209988.92306      2833.840 6        40.927
> 2025 01 01 09 45  5.0000000  0 53
G19         1.000    23781363.890 7 124972009.03007      2787.690 7        42.483                                    23781367.494 4  97380860.00404      2172.213 4        28.588
R01         2.000    20954477.326 7 112013584.55707     -4056.602 7        47.479                                                                    20954484.024 6  87121720.15106     -3155.122 6        40.656
G24         3.000    22333718.059 7 117364485.52307      2399.640 7        43.285                                    22333722.812 6  91452875.46206      1869.847 6        41.776    22333723.498 6  91452872.48506      1869.651 6        41.118
R02         4.000    19584479.570 8 104506485.34808       -70.681 8        52.674                                                                    19584483.458 7  81282823.81707       -55.034 7        47.047
S21         5.000    38595449.241 7 202820196.79107      -469.354 7        42.119
G17         7.000    22552734.381 7 118515570.23007      1108.126 7        46.002                                    22552737.507 7  92349881.37107       863.469 7        42.612    22552737.611 6  92349877.38006       863.419 6        41.156
R21         8.000    23868770.139 6 127726619.33906      2699.491 6        41.652                                                                    23868784.514 6  99342988.58206      2099.543 6        40.355
E30        10.000    27923231.713 6 146737627.39606      2523.067 6        39.195                                                                    27923244.467 6 109576882.62106      1884.150 6        41.538    27923242.483 6 112435401.71806      1933.282 6        41.507
C26        11.000                                                                                                                                    22056312.348 8 114853029.53308       480.703 8        50.610                                                                    22056314.483 8  93327513.75008       390.590 8        49.321
S27        12.000    39316699.794 6 206610484.74006      -502.441 6        36.087
G15        13.000    20330771.752 8 106838870.42208      -324.023 8        49.483                                    20330771.849 8  83251037.34608      -252.486 8        49.797    20330772.035 7  83251029.35107      -252.580 7        45.222
S36        14.000    38365889.393 7 201614524.12007      -470.267 7        43.920
G12        15.000    25578138.790 6 134414043.18906      3419.570 6        38.802                                    25578147.011 4 104738259.15704      2664.582 4        28.275    25578147.778 5 104738259.20105      2664.545 5        34.743
R11        16.000    21099133.518 8 112747309.11208     -3476.729 8        50.051                                                                    21099138.694 7  87692333.03607     -2704.131 7        46.201
S45        17.000    63548911.049 5 333951886.33915      -520.683 5        35.829
R03        18.000    22522900.111 7 120566777.14807      3363.154 7        46.296                                                                    22522905.349 6  93774156.43206      2615.818 6        41.330
E24        19.000    28708767.720 5 150865355.96105     -3378.544 5        35.967                                                                    28708784.518 6 112659138.60906     -2522.821 6        38.934    28708782.060 6 115598077.04806     -2588.756 6        40.033
E33        20.000    28756904.140 5 151118537.60105      -642.725 5        34.152                                                                    28756909.863 6 112848274.29606      -479.954 6        39.625    28756908.795 6 115792138.42706      -492.406 6        40.403
G30        21.000    23935100.051 6 125779639.06806     -3385.614 6        41.392                                    23935110.056 6  98010070.30206     -2638.139 6        36.439    23935110.274 6  98010074.30806     -2638.213 6        38.934
I06        22.000    38310868.136 7 150340158.02307      -446.641 7        42.747
S28        23.000    41043537.830 5 215685000.87405      -479.838 5        34.805
G14        24.000    21524753.168 7 113113308.63907     -2602.144 7        46.312                                    21524755.550 5  88140233.28905     -2027.643 5        35.824    21524755.505 7  88140235.27907     -2027.600 7        45.276
S23        25.000    38298649.126 7 201260662.50807      -471.402 7        44.021
E08        26.000    23816864.850 8 125158412.09008       337.518 8        48.062                                                                    23816868.090 8  93462432.00508       252.080 8        50.729    23816867.148 8  95900582.02008       258.614 8        51.189
C07        27.000                                                                                                                                    38969473.207 6 202924235.37006      -590.917 6        41.728    38969474.931 7 156913894.70207      -456.893 7        44.333    38969471.529 6 164892555.38406      -480.180 6        41.452
G13        28.000    20447685.973 8 107453257.95108     -2103.426 8        49.563                                    20447685.668 6  83729775.92906     -1639.031 6        40.072
I02        29.000    37289174.209 7 146330730.30407       -50.716 7        43.401
G10        30.000    25946128.209 6 136347803.34606      2292.187 6        38.832                                    25946130.878 4 106245040.88604      1786.127 4        29.175    25946131.507 5 106245032.88105      1786.116 5        34.743
E07        31.000    27251719.600 6 143208664.09806      2248.812 6        38.715                                                                    27251729.931 7 106941526.68607      1679.226 7        42.825    27251728.634 7 109731304.32507      1722.827 7        43.371
E03        32.000    24448800.675 7 128479245.82907     -2367.709 7        46.808                                                                    24448807.018 8  95942287.42108     -1768.062 8        49.434    24448806.070 8  98445126.53808     -1814.241 8        50.211
G05        33.000    24770978.668 6 130172201.83806     -4095.633 6        40.389                                    24770985.698 5 101432834.55505     -3191.399 5        32.683    24770987.010 6 101432837.54606     -3191.457 6        36.870
C36        35.000                                                                                                                                    27034120.144 6 140773500.64706     -3432.063 6        36.938                                                                    27034138.542 6 114389967.27006     -2789.144 6        37.618
G23        36.000    23313217.006 7 122511689.40907       334.733 7        43.240                                    23313220.686 4  95463614.81404       260.829 4        28.938    23313221.153 7  95463615.81707       260.731 7        42.368
I09        38.000    40831091.740 5 160229622.02005      -990.530 5        33.030
C33        39.000                                                                                                                                    25536656.682 7 132976057.84507      2139.104 7        43.043                                                                    25536675.149 7 108054010.15007      1738.116 7        43.560
E25        40.000    24274637.119 7 127564061.84407     -1887.495 7        46.350                                                                    24274643.157 8  95258874.96108     -1409.500 8        49.537    24274642.194 8  97743881.78908     -1446.262 8        50.413
S44        42.000    41038384.321 6 215658107.52306      -449.267 6        36.847
C09        43.000                                                                                                                                    41564048.440 5 216434701.58405     -1099.611 5        31.411    41564061.401 6 167360971.27206      -850.214 6        37.569    41564054.759 5 175870856.54605      -893.697 5        32.102
C05        44.000                                                                                                                                    39557415.740 6 205985707.76506      -516.732 6        37.792    39557422.392 7 159281194.24707      -399.590 7        42.641    39557422.065 6 167380327.34406      -419.968 6        39.877
C40        45.000                                                                                                                                    38997967.610 7 203072626.27807      -706.342 7        42.823                                                                    38997971.826 7 165013153.57107      -573.993 7        42.772
C21        46.000                                                                                                                                    24069416.206 7 125335654.85907     -3439.229 7        47.931                                                                    24069416.196 7 101845435.35007     -2794.742 7        47.033
R20        47.000    23375377.571 5 124998658.50905         7.648 5        32.365                                                                    23375390.418 6  97221234.53006         5.897 6        40.150
C10        49.000                                                                                                                                    38691673.328 6 201477712.01906      -203.167 6        41.664    38691678.042 7 155795364.90907      -157.189 7        44.835    38691674.073 6 163717149.39706      -165.072 6        41.387
C42        50.000                                                                                                                                    22762169.630 8 118528523.93408      -731.608 8        49.779                                                                    22762180.747 8  96314157.70308      -594.534 8        49.465
S48        51.000    77307381.521 6 406252235.36906      -461.059 6        37.690
E02        53.000    23806334.008 8 125103218.44608       954.938 8        48.561                                                                    23806338.274 8  93421313.26708       713.112 8        50.632    23806337.148 8  95858372.32508       731.710 8        51.000
C60        54.000                                                                                                                                    41038383.331 6 213697596.55906      -445.156 6        39.784                                                                    41038378.856 6 173646721.82206      -361.913 6        38.294
C45        55.000                                                                                                                                    22967524.725 8 119597859.53408     -2461.423 8        48.311                                                                    22967521.486 8  97183016.10308     -2000.106 8        48.900
R12        56.000    19548716.748 8 104425836.23708       326.238 8        52.319                                                                    19548720.400 7  81220135.28307       253.750 7        47.362
C02        57.000                                                                                                                                    41121620.117 5                      -494.670 5        31.479    41121627.287 6 165579532.90906      -382.679 6        36.639    41121627.300 5 173998854.75005      -401.628 5        31.034
I03        58.000   123497499.747 6 408845183.14706       905.887 6        37.206
C14        59.000                                                                                                                                    23685389.790 7 123335972.29007       915.281 7        45.585    23685391.272 8  95371169.38308       707.654 8        50.109    23685388.352 7 100220551.36707       743.653 7        47.389
R13        60.000    22321539.899 6 119195823.87106      2832.119 6        40.994
> 2025 01 01 09 45 10.0000000  0 53
G19         1.000    23778711.746 7 124958072.57607      2786.805 7        42.080                                    23778715.258 4  97370000.52704      2171.516 4        28.645
R01         2.000    20958272.846 7 112033873.69107     -4059.220 7        47.347                                                                    20958279.239 6  87137500.57406     -3157.233 6        40.565
G24         3.000    22331436.084 7 117352490.62407      2398.323 7        43.094                                    22331440.272 6  91443528.80006      1868.821 6        41.862    22331440.487 6  91443525.81006      1868.845 6        41.149
R02         4.000    19584547.800 8 104506849.02208       -75.035 8        52.392                                                                    19584551.554 7  81283106.67507       -58.338 7        47.001
S21         5.000    38595895.464 6 202822542.87306      -469.349 6        41.964
G17         7.000    22551681.264 7 118510035.78207      1105.479 7        45.780                                    22551684.293 7  92345568.84707       861.408 7        42.660    22551684.761 6  92345564.85306       861.458 6        41.559
R21         8.000    23866249.494 7 127713126.24407      2697.331 7        42.076                                                                    23866262.480 6  99332493.94106      2097.912 6        40.169
E30        10.000    27920831.133 6 146725012.72606      2522.673 6        39.009                                                                    27920843.916 6 109567462.58606      1883.803 6        41.616    27920842.020 6 112425735.92406      1932.980 6        41.304
C26        11.000                                                                                                                                    22055851.447 8 114850629.58108       479.013 8        50.567                                                                    22055853.611 8  93325563.57608       389.300 8        49.293
S27        12.000    39317178.294 5 206612996.70705      -502.566 5        35.952
G15        13.000    20331081.476 8 106840498.81508      -327.493 8        48.886                                    20331081.728 8  83252306.22608      -255.190 8        49.838    20331082.227 7  83252298.23007      -255.173 7        45.783
S36        14.000    38366336.032 7 201616874.67807      -470.212 7        43.879
G12        15.000    25574885.152 6 134396945.82706      3419.387 6        38.601                                    25574893.526 4 104724936.62704      2664.438 4        28.445    25574893.488 5 104724936.67605      2664.208 5        34.638
R11        16.000    21102387.283 8 112764695.55408     -3478.044 8        49.019                                                                    21102392.345 7  87705855.80507     -2705.107 7        46.139
S45        17.000    63549358.167 5 333954489.15805      -520.482 5        35.824
R03        18.000    22519758.569 7 120549965.35007      3361.392 7        46.082                                                                    22519765.288 6  93761080.61006      2614.380 6        41.914
E24        19.000    28711982.295 5 150882248.37005     -3378.611 5        35.933                                                                    28711999.076 6 112671753.03006     -2523.082 6        38.901    28711996.662 6 115611020.52406     -2588.735 6        39.928
E33        20.000    28757516.793 5 151121756.60105      -645.093 5        33.898                                                                    28757522.262 6 112850678.07706      -481.649 6        39.760    28757521.535 6 115794604.92806      -494.222 6        40.727
G30        21.000    23938321.359 6 125796568.32006     -3386.133 6        40.777                                    23938331.476 6  98023261.90906     -2638.543 6        36.170    23938330.941 6  98023265.92206     -2638.608 6        38.363
I06        22.000    38311436.899 7 150342390.51007      -446.540 7        42.660
S28        23.000    41043994.678 5 215687399.21105      -479.928 5        34.671
G14        24.000    21527230.151 7 113126323.38807     -2603.984 7        45.913                                    21527232.207 5  88150374.64105     -2029.072 5        35.919    21527232.453 7  88150376.63007     -2029.101 7        45.129
S23        25.000    38299097.478 7 201263018.65207      -471.323 7        44.021
E08        26.000    23816544.405 7 125156728.52607       335.762 7        47.951                                                                    23816547.770 8  93461174.80408       250.699 8        50.873    23816546.810 8  95899292.01908       257.255 8        51.332
C07        27.000                                                                                                                                    38970040.576 6 202927190.61906      -591.481 6        41.421    38970042.401 7 156916179.87507      -457.332 7        44.506    38970038.973 6 164894956.73806      -480.609 6        41.402
G13        28.000    20449688.305 8 107463781.06608     -2106.082 8        49.243                                    20449688.154 6  83737975.74906     -1641.101 6        40.143
I02        29.000    37289238.854 7 146330984.29507       -51.058 7        43.511
G10        30.000    25943948.989 6 136336347.00906      2290.359 6        39.568                                    25943950.895 4 106236113.81904      1784.702 4        29.886    25943951.892 5 106236105.80405      1784.756 5        35.805
E07        31.000    27249580.357 6 143197421.42006      2248.275 6        38.453                                                                    27249590.630 7 106933131.16907      1678.962 7        42.900    27249589.232 7 109722689.79207      1722.627 7        43.494
E03        32.000    24451054.092 7 128491087.76307     -2369.262 7        47.046                                                                    24451060.429 8  95951130.41708     -1769.242 8        49.410    24451059.507 8  98454200.22508     -1815.386 8        50.212
G05        33.000    24774875.067 6 130192680.06406     -4095.596 6        39.823                                    24774882.650 5 101448791.57805     -3191.366 5        32.635    24774883.410 6 101448794.56206     -3191.519 6        36.828
C36        35.000                                                                                                                                    27037415.530 6 140790660.79706     -3432.102 6        36.147                                                                    27037434.044 6 114403911.25406     -2788.784 6        37.304
G23        36.000    23312900.067 7 122510023.62007       331.402 7        42.679                                    23312903.661 4  95462316.78904       258.236 4        29.024    23312903.725 7  95462317.78507       258.283 7        42.688
I09        38.000    40832353.839 5 160234573.76805      -990.550 5        33.114
C33        39.000                                                                                                                                    25534603.505 7 132965366.21207      2137.364 7        42.262                                                                    25534622.053 7 108045322.30607      1736.790 7        43.553
E25        40.000    24276433.771 7 127573502.80407     -1889.136 7        46.063                                                                    24276439.717 8  95265925.01408     -1410.641 8        49.627    24276438.754 8  97751115.75608     -1447.512 8        50.428
S44        42.000    41038813.181 6 215660353.75306      -449.125 6        37.153
C09        43.000                                                                                                                                    41565103.911 5 216440199.29805     -1099.700 5        30.875    41565117.372 6 167365222.46806      -850.391 6        37.289    41565110.699 5 175875323.89905      -893.476 5        31.970
C05        44.000                                                                                                                                    39557912.090 6 205988291.37406      -516.889 6        37.682    39557918.581 7 159283192.05707      -399.624 7        42.609    39557918.285 6 167382426.72006      -419.908 6        39.706
C40        45.000                                                                                                                                    38998646.225 7 203076159.49307      -707.101 7        42.933                                                                    38998650.342 7 165016024.57907      -574.587 7        42.929
C21        46.000                                                                                                                                    24072719.194 7 125352854.34107     -3440.686 7        47.735                                                                    24072719.150 7 101859411.29907     -2795.777 7        47.168
R20        47.000    23375371.114 5 124998630.46905         3.266 5        31.713                                                                    23375385.821 6  97221212.76906         2.549 6        40.880
C10        49.000                                                                                                                                    38691868.896 6 201478729.03706      -203.708 6        41.657    38691873.154 7 155796151.33207      -157.570 7        45.085    38691869.445 6 163717975.79606      -165.638 6        41.340
C42        50.000                                                                                                                                    22762873.433 8 118532188.64308      -734.450 8        49.660                                                                    22762884.505 8  96317135.56608      -596.811 8        49.454
S48        51.000    77307826.420 6 406254539.53106      -460.858 6        37.595
E02        53.000    23805426.011 8 125098447.74108       953.116 8        48.168                                                                    23805430.427 8  93417750.73508       711.733 8        50.717    23805429.298 8  95854716.85508       730.312 8        51.101
C60        54.000                                                                                                                                    41038810.912 6 213699822.38506      -445.244 6        39.616                                                                    41038806.393 6 173648530.46406      -361.826 6        38.432
C45        55.000                                                                                                                                    22969888.656 8 119610168.61108     -2462.425 8        48.293                                                                    22969885.336 8  97193018.22308     -2000.941 8        48.848
R12        56.000    19548412.599 8 104424211.86308       323.367 8        52.341                                                                    19548416.441 7  81218871.88407       251.476 7        47.123
C02        57.000                                                                                                                                    41122096.197 5 214133372.58715      -494.950 5        31.253    41122102.575 6 165581444.92606      -382.376 6        36.510    41122101.752 5 174000864.03705      -402.087 5        30.536
I03        58.000   123496345.877 6 408840652.85906       906.106 6        37.497
C14        59.000                                                                                                                                    23684511.536 7 123331402.02507       912.705 7        45.287    23684513.708 8  95367635.36708       705.753 8        50.091    23684510.702 7 100216837.65007       741.657 7        47.395
R13        60.000    22318890.153 6 119181666.96706      2830.479 6        41.185
> 2025 01 01 09 45 15.0000000  0 53
G19         1.000    23776060.509 7 124944140.95207      2786.032 7        42.138                                    23776064.024 4  97359144.82804      2170.917 4        28.844
R01         2.000    20962071.023 7 112054176.73407     -4061.821 7        47.063                                                                    20962077.985 6  87153291.77506     -3159.101 6        40.522
G24         3.000    22329154.743 7 117340502.24907      2397.157 7        43.602                                    22329158.984 7  91434187.21407      1867.913 7        42.049    22329159.296 6  91434184.21806      1867.949 6        41.609
R02         4.000    19584620.057 8 104507235.16908       -79.246 8        52.397                                                                    19584623.879 7  81283407.01007       -61.613 7        47.123
S21         5.000    38596342.457 6 202824889.78606      -469.215 6        41.998
G17         7.000    22550630.355 7 118504515.07007      1102.944 7        45.968                                    22550633.730 7  92341267.01607       859.431 7        42.806    22550633.908 6  92341263.03406       859.385 6        41.766
R21         8.000    23863730.278 7 127699644.30707      2695.428 7        42.825                                                                    23863743.504 6  99322007.96006      2096.578 6        39.369
E30        10.000    27918430.734 6 146712401.03706      2522.214 6        39.183                                                                    27918443.897 6 109558044.75006      1883.528 6        41.578    27918441.928 6 112416072.40906      1932.666 6        41.464
C26        11.000                                                                                                                                    22055392.151 8 114848238.47408       477.551 8        50.521                                                                    22055394.416 8  93323620.62608       387.925 8        49.369
S27        12.000    39317655.465 6 206615509.40906      -502.308 6        36.166
G15        13.000    20331394.748 8 106842145.10008      -330.805 8        49.466                                    20331395.019 8  83253589.04408      -257.770 8        49.959    20331395.577 7  83253581.05407      -257.731 7        45.881
S36        14.000    38366782.295 7 201619225.91007      -470.032 7        43.831
G12        15.000    25571631.301 6 134379849.99506      3419.103 6        39.228                                    25571640.438 4 104711615.29504      2664.212 4        28.493    25571640.840 5 104711615.32905      2664.427 5        34.767
R11        16.000    21105641.589 8 112782088.90808     -3479.164 8        49.049                                                                    21105647.016 7  87719383.94107     -2705.958 7        45.950
S45        17.000    63549806.514 5 333957092.38705      -520.269 5        35.952
R03        18.000    22516620.043 7 120533163.03607      3359.729 7        46.757                                                                    22516626.535 7  93748012.14607      2613.187 7        42.317
E24        19.000    28715196.893 5 150899142.04105     -3378.496 5        35.752                                                                    28715213.827 6 112684368.38406     -2522.993 6        39.177    28715211.416 6 115623965.00006     -2588.856 6        39.751
E33        20.000    28758132.082 5 151124988.18405      -647.397 5        34.376                                                                    28758137.291 6 112853091.30406      -483.386 6        39.501    28758136.310 6 115797081.09806      -496.114 6        40.648
G30        21.000    23941543.263 6 125813501.16106     -3386.579 6        40.400                                    23941553.458 5  98036456.32005     -2638.888 5        35.771    23941553.374 6  98036460.31006     -2638.917 6        37.558
I06        22.000    38312006.068 7 150344623.36207      -446.404 7        42.823
S28        23.000    41044451.687 5 215689797.83105      -479.304 5        34.667
G14        24.000    21529708.886 7 113139348.80107     -2605.878 7        46.409                                    21529710.885 5  88160524.30205     -2030.551 5        35.943    21529711.439 7  88160526.28807     -2030.503 7        45.248
S23        25.000    38299545.704 7 201265375.12307      -471.125 7        43.932
E08        26.000    23816225.818 8 125155054.29608       334.206 8        48.034                                                                    23816229.137 8  93459924.56808       249.532 8        50.837    23816228.204 8  95898009.16608       256.063 8        51.214
C07        27.000                                                                                                                                    38970608.923 6 202930149.74906      -591.788 6        41.383    38970610.687 7 156918468.05507      -457.785 7        44.388    38970607.406 6 164897361.28106      -481.056 6        41.571
G13        28.000    20451693.379 8 107474317.99008     -2108.561 8        49.537                                    20451693.279 6  83746186.33106     -1643.031 6        40.288
I02        29.000    37289303.945 7 146331239.91207       -50.990 7        43.551
G10        30.000    25941770.728 6 136324900.22106      2288.640 6        39.724                                    25941772.853 5 106227194.19305      1783.360 5        30.566    25941773.214 6 106227186.17606      1783.529 6        36.234
E07        31.000    27247441.534 6 143186181.31406      2248.067 6        38.345                                                                    27247451.846 7 106924737.56007      1678.777 7        42.882    27247450.264 7 109714077.21507      1722.580 7        43.572
E03        32.000    24453309.090 7 128502937.94407     -2370.625 7        46.907                                                                    24453315.422 8  95959979.56708     -1770.244 8        49.462    24453314.587 8  98463280.22108     -1816.438 8        50.277
G05        33.000    24778772.290 6 130213159.26506     -4095.693 6        39.465                                    24778779.848 5 101464749.35705     -3191.442 5        32.521    24778780.812 6 101464752.32706     -3191.458 6        36.919
C36        35.000                                                                                                                                    27040710.842 6 140807820.47206     -3431.573 6        36.854                                                                    27040729.228 6 114417854.90606     -2788.581 6        37.766
G23        36.000    23312586.057 7 122508374.82307       328.283 7        42.709                                    23312589.954 4  95461031.99604       255.806 4        29.242    23312590.283 7  95461033.00207       255.769 7        42.754
I09        38.000    40833614.331 5 160239525.42305      -990.316 5        32.856
C33        39.000                                                                                                                                    25532552.506 7 132954683.49107      2135.804 7        42.660                                                                    25532570.569 7 108036641.72707      1735.496 7        43.719
E25        40.000    24278231.955 7 127582952.32207     -1890.522 7        46.262                                                                    24278237.961 8  95272981.45408     -1411.764 8        49.606    24278236.986 8  97758356.27608     -1448.591 8        50.441
S44        42.000    41039239.295 6 215662600.23606      -448.999 6        37.123
C09        43.000                                                                                                                                    41566159.994 5 216445697.77805     -1099.825 5        31.049    41566172.463 6 167369474.26006      -850.264 6        36.779    41566166.193 5 175879791.89605      -893.555 5        32.042
C05        44.000                                                                                                                                    39558407.233 6 205990875.23706      -516.465 6        37.395    39558414.573 7 159285190.06407      -399.506 7        42.512    39558414.389 6 167384526.34506      -419.791 6        40.036
C40        45.000                                                                                                                                    38999325.588 7 203079697.50707      -707.807 7        43.014                                                                    38999329.835 7 165018899.51207      -575.378 7        42.995
C21        46.000                                                                                                                                    24076023.529 7 125370061.75607     -3442.084 7        47.787                                                                    24076023.724 7 101873393.71607     -2797.091 7        47.205
R20        47.000    23375369.750 5 124998624.24505        -0.681 5        32.659                                                                    23375384.820 6  97221207.97406        -0.453 6        40.923
C10        49.000                                                                                                                                    38692065.306 6 201479749.92206      -204.323 6        41.616    38692069.418 7 155796940.72207      -157.988 7        45.157    38692065.415 6 163718805.33306      -166.188 6        41.399
C42        50.000                                                                                                                                    22763579.781 8 118535868.23308      -737.156 8        49.438                                                                    22763591.150 8  96320125.52708      -599.121 8        49.528
S48        51.000    77308267.600 6 406256843.92206      -460.723 6        37.743
E02        53.000    23804520.121 8 125093686.69408       951.515 8        48.177                                                                    23804524.399 8  93414195.41608       710.519 8        50.727    23804523.278 8  95851068.78808       729.075 8        50.999
C60        54.000                                                                                                                                    41039238.462 6 213702048.41906      -444.931 6        39.712                                                                    41039233.938 6 173650339.29206      -361.688 6        38.685
C45        55.000                                                                                                                                    22972253.513 8 119622483.55108     -2463.303 8        48.380                                                                    22972250.321 8  97203025.12308     -2001.836 8        49.006
R12        56.000    19548111.334 8 104422602.29308       320.663 8        52.336                                                                    19548115.453 7  81217619.98707       249.432 7        47.772
C02        57.000                                                                                                                                    41122569.827 5 214135845.46305      -494.311 5        31.426    41122576.813 6 165583357.12806      -382.255 6        36.488    41122576.737 5 174002873.47405      -401.653 5        30.491
I03        58.000   123495190.915 6 408836122.67706       906.270 6        37.301
C14        59.000                                                                                                                                    23683635.936 7 123326845.05507       910.356 7        45.148    23683638.561 8  95364111.63208       703.910 8        49.987    23683635.586 7 100213134.74807       739.582 7        47.462
R13        60.000    22316240.894 6 119167518.23806      2829.135 6        41.852
> 2025 01 01 09 45 20.0000000  0 53
G19         1.000    23773410.107 6 124930214.28106      2784.775 6        41.294                                    23773413.841 4  97348292.98204      2169.927 4        28.863
R01         2.000    20965871.881 7 112074493.73207     -4064.840 7        46.885                                                                    20965877.869 6  87169093.86206     -3161.492 6        40.284
G24         3.000    22326874.427 7 117328520.46907      2395.760 7        43.712                                    22326878.926 7  91424850.77107      1866.825 7        42.116    22326879.184 6  91424847.77306      1866.812 6        41.161
R02         4.000    19584696.725 8 104507644.03208       -84.072 8        52.566                                                                    19584700.449 7  81283725.01507       -65.356 7        47.033
S21         5.000    38596789.011 7 202827237.05907      -469.589 7        42.064
G17         7.000    22549582.424 7 118499008.17207      1099.962 7        46.159                                    22549585.823 7  92336975.96207       857.109 7        42.902    22549586.079 6  92336971.98306       857.047 6        41.709
R21         8.000    23861213.804 7 127686173.51907      2692.854 7        42.432                                                                    23861226.320 6  99311530.67906      2094.528 6        39.057
E30        10.000    27916031.447 6 146699792.35606      2521.196 6        39.309                                                                    27916044.682 6 109548629.17706      1882.720 6        41.757    27916042.649 6 112406411.20806      1931.911 6        41.590
C26        11.000                                                                                                                                    22054934.522 8 114845856.31208       475.468 8        50.476                                                                    22054936.983 8  93321684.91608       386.211 8        49.430
S27        12.000    39318134.121 6 206618022.26206      -502.791 6        36.072
G15        13.000    20331711.727 8 106843809.32808      -334.705 8        49.377                                    20331711.713 8  83254885.84808      -260.810 8        50.068    20331712.089 7  83254877.84707      -260.774 7        45.878
S36        14.000    38367231.935 7 201621578.51507      -470.516 7        43.954
G12        15.000    25568378.799 6 134362755.72606      3418.659 6        38.186                                    25568387.520 4 104698295.18404      2663.870 4        28.626    25568388.063 5 104698295.24105      2663.765 5        34.657
R11        16.000    21108897.945 8 112799489.26908     -3480.880 8        48.799                                                                    21108903.072 7  87732917.53507     -2707.315 7        45.592
S45        17.000    63550256.122 5 333959696.14305      -520.899 5        35.895
R03        18.000    22513484.151 7 120516370.48407      3357.529 7        47.632                                                                    22513489.823 7  93734951.26907      2611.428 7        42.849
E24        19.000    28718412.318 5 150916037.11705     -3379.178 5        35.929                                                                    28718428.878 6 112696984.78206     -2523.434 6        39.066    28718426.286 6 115636910.51406     -2589.261 6        39.429
E33        20.000    28758749.366 5 151128232.40905      -650.409 5        33.988                                                                    28758754.596 6 112855513.95806      -485.647 6        39.459    28758753.320 6 115799566.94706      -498.341 6        40.207
G30        21.000    23944765.780 6 125830437.65506     -3387.736 6        40.331                                    23944776.085 5  98049653.56805     -2639.790 5        35.405    23944776.261 6  98049657.57206     -2639.858 6        37.191
I06        22.000    38312575.029 7 150346856.66107      -446.685 7        42.686
S28        23.000    41044905.610 5 215692196.90905      -479.900 5        34.757
G14        24.000    21532189.648 7 113152384.98107     -2608.441 7        46.050                                    21532191.594 6  88170682.35406     -2032.544 6        36.034    21532191.734 7  88170684.34807     -2032.494 7        44.913
S23        25.000    38299992.965 7 201267732.01507      -471.512 7        44.047
E08        26.000    23815908.891 7 125153389.51507       331.936 7        47.927                                                                    23815912.320 8  93458681.38608       247.904 8        50.783    23815911.420 8  95896733.55608       254.363 8        51.151
C07        27.000                                                                                                                                    38971177.582 6 202933112.82006      -593.019 6        41.240    38971179.610 7 156920759.26507      -458.561 7        44.432    38971176.288 6 164899768.98706      -481.852 6        41.526
G13        28.000    20453701.278 8 107484868.79708     -2111.593 8        49.436                                    20453701.042 6  83754407.72506     -1645.396 6        40.327
I02        29.000    37289369.418 7 146331497.12407       -51.646 7        43.581
G10        30.000    25939593.660 6 136313463.05906      2286.379 6        39.580                                    25939596.671 5 106218282.06505      1781.605 5        30.679    25939596.765 5 106218274.04405      1781.720 5        35.929
E07        31.000    27245303.127 6 143174943.86606      2247.138 6        38.294                                                                    27245313.448 7 106916345.95307      1678.122 7        42.900    27245311.869 7 109705466.69507      1721.869 7        43.520
E03        32.000    24455565.776 7 128514796.44707     -2372.627 7        46.856                                                                    24455571.999 8  95968834.93008     -1771.715 8        49.467    24455571.242 8  98472366.59808     -1817.973 8        50.162
G05        33.000    24782669.563 6 130233639.49306     -4096.222 6        38.712                                    24782677.332 5 101480707.93205     -3191.850 5        32.162    24782678.356 6 101480710.91706     -3191.842 6        37.066
C36        35.000                                                                                                                                    27044006.329 6 140824979.80506     -3431.901 6        37.516                                                                    27044024.445 6 114431798.23706     -2788.695 6        38.120
G23        36.000    23312275.685 7 122506743.12107       324.522 7        42.772                                    23312279.530 4  95459760.53304       252.878 4        29.194    23312279.138 7  95459761.52107       252.967 7        42.279
I09        38.000    40834876.883 5 160244477.06305      -990.399 5        32.904
