     3.04           OBSERVATION DATA    M                   RINEX VERSION / TYPE
ssrcrin-15.6.1x                         20250101 083000 UTC PGM / RUN BY / DATE 
(00000000023479385599111004) Septentrio proprietary         COMMENT             
rref                                                        MARKER NAME         
01                                                          MARKER NUMBER       
geodetic                                                    MARKER TYPE         
NFB                 CLIMERS@TUW                             OBSERVER / AGENCY   
3297213             SEPT ASTERX SB3 PROB4.14.4              REC # / TYPE / VERS 
Unknown             Unknown                                 ANT # / TYPE        
  4127831.9280  1207193.2420  4695247.3335                  APPROX POSITION XYZ 
        0.0000        0.0000        0.0000                  ANTENNA: DELTA H/E/N
G   23 X1  C1C L1C D1C S1C C1W S1W C2W L2W D2W S2W C2L L2L  SYS / # / OBS TYPES 
       D2L S2L C5Q L5Q D5Q S5Q C1L L1L D1L S1L              SYS / # / OBS TYPES 
E   21 X1  C1C L1C D1C S1C C6C L6C D6C S6C C5Q L5Q D5Q S5Q  SYS / # / OBS TYPES 
       C7Q L7Q D7Q S7Q C8Q L8Q D8Q S8Q                      SYS / # / OBS TYPES 
S    9 X1  C1C L1C D1C S1C C5I L5I D5I S5I                  SYS / # / OBS TYPES 
R   17 X1  C1C L1C D1C S1C C2P L2P D2P S2P C2C L2C D2C S2C  SYS / # / OBS TYPES 
       C3Q L3Q D3Q S3Q                                      SYS / # / OBS TYPES 
C   25 X1  C1P L1P D1P S1P C5P L5P D5P S5P C2I L2I D2I S2I  SYS / # / OBS TYPES 
       C7I L7I D7I S7I C6I L6I D6I S6I C7D L7D D7D S7D      SYS / # / OBS TYPES 
J   17 X1  C1C L1C D1C S1C C2L L2L D2L S2L C5Q L5Q D5Q S5Q  SYS / # / OBS TYPES 
       C1L L1L D1L S1L                                      SYS / # / OBS TYPES 
I    5 X1  C5A L5A D5A S5A                                  SYS / # / OBS TYPES 
SEPTENTRIO RECEIVERS OUTPUT ALIGNED CARRIER PHASES.         COMMENT             
NO FURTHER PHASE SHIFT APPLIED IN THE RINEX ENCODER.        COMMENT             
G L1C                                                       SYS / PHASE SHIFT   
G L2W                                                       SYS / PHASE SHIFT   
G L2L  0.00000                                              SYS / PHASE SHIFT   
G L5Q  0.00000                                              SYS / PHASE SHIFT   
G L1L  0.00000                                              SYS / PHASE SHIFT   
E L1C  0.00000                                              SYS / PHASE SHIFT   
E L6C  0.00000                                              SYS / PHASE SHIFT   
E L5Q  0.00000                                              SYS / PHASE SHIFT   
E L7Q  0.00000                                              SYS / PHASE SHIFT   
E L8Q  0.00000                                              SYS / PHASE SHIFT   
S L1C                                                       SYS / PHASE SHIFT   
S L5I                                                       SYS / PHASE SHIFT   
R L1C                                                       SYS / PHASE SHIFT   
R L2P  0.00000                                              SYS / PHASE SHIFT   
R L2C                                                       SYS / PHASE SHIFT   
R L3Q  0.00000                                              SYS / PHASE SHIFT   
C L1P  0.00000                                              SYS / PHASE SHIFT   
C L5P  0.00000                                              SYS / PHASE SHIFT   
C L2I                                                       SYS / PHASE SHIFT   
C L7I                                                       SYS / PHASE SHIFT   
C L6I                                                       SYS / PHASE SHIFT   
C L7D                                                       SYS / PHASE SHIFT   
J L1C                                                       SYS / PHASE SHIFT   
J L2L  0.00000                                              SYS / PHASE SHIFT   
J L5Q  0.00000                                              SYS / PHASE SHIFT   
J L1L  0.00000                                              SYS / PHASE SHIFT   
I L5A                                                       SYS / PHASE SHIFT   
  2025     1     1     8    30    0.0000000     GPS         TIME OF FIRST OBS   
 C1C    0.000 C2C    0.000 C2P    0.000                     GLONASS COD/PHS/BIS 
DBHZ                                                        SIGNAL STRENGTH UNIT
    18                                                      LEAP SECONDS        
 24 R01  1 R02 -4 R03  5 R04  6 R05  1 R06 -4 R07  5 R08  6 GLONASS SLOT / FRQ #
    R09 -2 R10 -7 R11  0 R12 -1 R13 -2 R14 -7 R15  0 R16 -1 GLONASS SLOT / FRQ #
    R17  4 R18 -3 R19  3 R20  2 R21  4 R22 -3 R23  3 R24  2 GLONASS SLOT / FRQ #
                                                            END OF HEADER       
> 2025 01 01 08 30  0.0000000  0 55
G08         1.000    24732965.758 6 129972669.09406     -2168.811 6        37.176                                    24732971.584 4 101277460.70004     -1689.979 4        28.360    24732971.981 6 101277470.70406     -1689.920 6        36.378
R01         2.000    19169943.965 8 102474276.00308      -675.723 8        48.635                                                                    19169947.457 6  79702269.83706      -525.551 6        41.528
G24         3.000    25063542.742 6 131709791.73906      3141.473 6        36.008                                    25063549.062 4 102631031.27104      2447.895 4        26.599    25063549.591 5 102631028.30505      2447.439 5        33.168
R02         4.000    21280293.881 8 113555676.92608      2985.835 8        49.906                                                                    21280297.048 7  88321084.82507      2322.361 7        44.644
S21         5.000    38516745.102 7 202406608.08307      -407.641 7        42.747
E05         6.000    24722537.150 6 129917702.29006     -2837.305 6        41.600                                                                    24722548.504 7  97016450.68507     -2118.768 7        45.553    24722546.842 7  99547311.91707     -2174.002 7        46.133
G17         7.000    24590072.201 5 129221711.73505      2598.851 5        35.800                                    24590084.474 4 100692293.34804      2025.063 4        24.271    24590084.903 5 100692289.37005      2025.360 5        33.982
R10         8.000    22383868.685 6 119318523.73906     -4257.329 6        39.814
R19         9.000    23858150.286 5 127624965.75205        24.515 5        32.527                                                                    23858154.341 6  99263925.23406        19.220 6        38.294
G18        10.000    25448601.446 6 133733274.95406     -1953.873 6        36.601                                    25448600.609 3 104207725.27503     -1522.511 3        18.119    25448601.060 5 104207733.31405     -1522.671 5        35.486
C26        11.000                                                                                                                                    23446480.871 7 122091987.52507      2008.512 7        47.545                                                                    23446484.198 7  99209756.66607      1632.094 7        47.166
S27        12.000    39209746.783 5 206048482.37105      -439.518 5        34.762
G15        13.000    21591236.266 7 113462661.04207      2336.848 7        46.435                                    21591236.282 7  88412433.62307      1820.921 7        44.108    21591236.865 7  88412425.63307      1820.912 7        42.538
S36        14.000    38286339.697 7 201196517.94307      -408.706 7        43.985
G20        15.000    23703335.463 6 124561721.13906     -3939.195 6        40.436                                    23703340.245 3  97061024.27103     -3069.496 3        23.981
R11        16.000    19271646.897 8 102981828.02208     -1226.457 8        51.793                                                                    19271648.699 8  80096972.08008      -953.935 8        48.872
S45        17.000    63468018.310 6 333526683.33806      -455.953 6        36.068
E13        18.000    28087481.328 5 147600648.66605     -2568.534 5        35.590                                                                    28087487.664 6 110221231.21606     -1917.807 6        39.799    28087486.282 6 113096571.06606     -1968.042 6        39.321
E24        19.000    26357160.726 7 138507717.53707     -2609.737 7        42.201                                                                    26357166.464 7 103431074.03707     -1948.883 7        45.737    26357165.340 7 106129275.47207     -1999.701 7        45.750
R18        20.000    24229759.497 6 129340089.68706     -2528.160 6        41.361                                                                    24229762.140 6 100597838.12606     -1966.375 6        39.847
G30        21.000    21680389.236 7 113931158.51407     -2468.525 7        47.210                                    21680392.550 7  88777513.99707     -1923.522 7        46.726    21680392.599 7  88777517.98907     -1923.458 7        42.811
I06        22.000    38134239.632 7 149647037.67807      -377.369 7        42.366
S28        23.000    40956437.357 5 215227289.87605      -416.370 5        35.033
G14        24.000    20602698.966 8 108267907.73808       -77.688 8        48.370                                    20602699.063 6  84364603.67006       -60.538 6        40.265    20602699.267 7  84364605.66907       -60.562 7        47.551
S23        25.000    38218961.766 7 200841914.07207      -407.904 7        44.152
E08        26.000    25000776.211 7 131379915.83207      1584.131 7        44.593                                                                    25000779.297 8  98108361.83808      1182.973 8        48.244    25000778.437 8 100667709.81808      1213.792 8        48.812
C07        27.000                                                                                                                                    39076306.843 6 203480566.30806       166.715 6        40.703    39076307.733 7 157344089.79707       128.930 7        44.770    39076304.890 6 165344623.62106       135.536 6        41.495
G13        28.000    20028454.391 8 105250201.58208       391.709 8        48.506                                    20028453.220 6  82013113.30706       305.229 6        40.329
I02        29.000    37687226.528 7 147892768.06007       224.515 7        42.650
C22        30.000                                                                                                                                    24626648.002 7 128237280.58707     -3697.718 7        45.416                                                                    24626649.706 7 104203247.44007     -3004.611 7        45.211
I01        31.000   349015788.304 5  66471779.98405     -3100.531 5        35.867
E03        32.000    23377225.033 7 122848107.72507      -825.976 7        47.894                                                                    23377229.035 8  91737225.76408      -616.802 8        50.919    23377228.156 8  94130366.57508      -632.901 8        51.070
G05        33.000    21962098.241 7 115411549.43807     -2761.902 7        47.230                                    21962099.152 7  89931055.70607     -2152.126 7        45.475    21962099.371 7  89931058.69707     -2152.091 7        43.172
E26        34.000    28246285.725 6 148435202.84106      -495.679 6        36.760                                                                    28246287.711 6 110844463.39306      -370.303 6        40.608    28246286.713 6 113736052.72406      -379.812 6        41.197
C36        35.000                                                                                                                                    24413603.155 7 127127928.03507     -3183.917 7        44.534                                                                    24413613.977 7 103301852.70907     -2587.156 7        45.157
G23        36.000    25047289.349 6 131624374.36006      2752.952 6        38.538                                    25047288.965 3 102564426.55303      2145.169 3        21.619    25047288.856 6 102564427.53106      2145.198 6        39.183
I09        38.000    39995830.051 6 156951952.28606      -967.326 6        40.398
R08        39.000    21955797.323 7 117572169.72707     -4242.070 7        44.360                                                                    21955804.260 7  91444985.56807     -3299.305 7        43.079
E25        40.000    23732003.995 7 124712520.52507        31.389 7        47.791                                                                    23732008.571 8  93129482.06808        23.463 8        50.686    23732007.723 8  95558938.95308        24.069 8        51.022
S44        42.000    40965481.897 6 215275002.76606      -413.787 6        37.066
C09        43.000                                                                                                                                    40946744.024 5 213220208.73005     -1037.879 5        35.181    40946757.392 6 164875315.04706      -802.565 6        40.298    40946751.591 6 173258812.62806      -843.461 6        36.526
C05        44.000                                                                                                                                    39429139.489 6 205317748.52106      -465.585 6        38.144    39429144.548 7 158764689.32007      -359.957 7        42.834    39429144.069 6 166837558.55806      -378.273 6        39.655
C40        45.000                                                                                                                                    39082216.587 7 203511348.36807       233.022 7        42.798                                                                    39082221.089 7 165369653.52607       189.425 7        42.656
C21        46.000                                                                                                                                    22202013.974 8 115611654.44708     -1391.508 8        52.160                                                                    22202011.218 8  93943899.53608     -1130.656 8        49.912
C10        49.000                                                                                                                                    39121748.583 6 203717222.45506       512.167 6        40.660    39121752.102 7 157527096.38707       396.108 7        43.958    39121748.889 6 165536935.01406       416.258 6        40.822
C42        50.000                                                                                                                                    23517562.427 7 122462066.02807      1644.977 7        47.227                                                                    23517572.981 8  99510485.57408      1336.779 8        48.153
S48        51.000    77233308.131 6 405862398.81006      -395.875 6        38.132
E02        53.000    25599610.585 7 134526918.80707      2420.300 7        43.335                                                                    25599617.602 7 100458482.31607      1807.364 7        46.821    25599616.194 7 103079120.84207      1854.528 7        47.007
C60        54.000                                                                                                                                    40965486.882 6 213317974.31906      -410.233 6        40.572                                                                    40965483.234 6 173338241.92506      -333.227 6        38.141
C45        55.000                                                                                                                                    21719417.687 8 113098672.26708      -961.199 8        50.793                                                                    21719412.330 8  91901901.49408      -780.983 8        49.963
R12        56.000    21241551.501 8 113468627.52508      2888.858 8        49.516                                                                    21241556.466 7  88253410.60607      2246.898 7        45.251
C02        57.000                                                                                                                                    41006530.971 5 213531554.00505      -457.293 5        33.335    41006541.266 6 165116068.60006      -353.941 6        36.862    41006540.850 5 173511827.47405      -371.707 5        32.964
I03        58.000   124844200.777 6 414129869.64706       924.135 6        39.664
C14        59.000                                                                                                                                    25616335.281 6 133390939.23806      2612.804 6        39.156    25616334.537 7 103146315.36407      2020.315 7        44.655    25616332.022 7 108391041.86307      2123.006 7        42.563
G07        60.000    24432303.572 6 128392446.30206     -3190.132 6        41.194                                    24432311.650 5 100046005.28805     -2485.797 5        32.952    24432311.484 6 100046006.26906     -2485.741 6        37.289
> 2025 01 01 08 30  5.0000000  0 55
G08         1.000    24735029.691 6 129983519.73006     -2171.356 6        36.707                                    24735036.445 4 101285915.73704     -1691.967 4        28.455    24735037.095 6 101285925.76106     -1692.224 6        36.000
R01         2.000    19170577.727 8 102477664.17808      -679.631 8        48.728                                                                    19170580.634 6  79704905.06706      -528.477 6        41.220
G24         3.000    25060553.949 6 131694085.68806      3141.319 6        36.284                                    25060560.220 4 102618792.77204      2447.783 4        26.922    25060561.255 5 102618789.79805      2447.739 5        32.988
R02         4.000    21277496.515 8 113540751.61608      2984.125 8        49.090                                                                    21277500.001 7  88309476.24307      2321.001 7        44.254
S21         5.000    38517131.513 7 202408645.51807      -407.443 7        42.681
E05         6.000    24725236.950 6 129931890.27406     -2837.956 6        41.504                                                                    24725248.297 7  97027045.58307     -2119.321 7        45.300    24725246.771 7  99558183.19007     -2174.561 7        46.135
G17         7.000    24587599.439 6 129208716.92706      2598.511 6        36.189                                    24587611.729 4 100682167.59404      2024.806 4        24.977    24587611.264 5 100682163.62705      2025.016 5        33.737
R10         8.000    22387863.317 6 119339812.02006     -4258.003 6        39.721
R19         9.000    23858127.897 5 127624852.00305        20.680 5        32.934                                                                    23858133.194 6  99263836.77406        16.157 6        38.835
G18        10.000    25450461.855 6 133743050.29406     -1956.443 6        37.520                                    25450460.661 3 104215342.44503     -1524.490 3        18.090    25450461.799 5 104215350.40705     -1524.376 5        35.071
C26        11.000                                                                                                                                    23444552.896 7 122081947.62007      2007.245 7        47.461                                                                    23444556.174 7  99201598.44207      1631.113 7        47.316
S27        12.000    39210166.848 5 206050679.60205      -439.324 5        34.895
G15        13.000    21589013.662 7 113450981.13207      2335.030 7        46.451                                    21589013.666 7  88403332.39507      1819.503 7        44.212    21589013.846 7  88403324.38807      1819.576 7        42.231
S36        14.000    38286728.424 7 201198559.78707      -408.537 7        44.099
G20        15.000    23707083.587 6 124581418.31006     -3939.752 6        40.546                                    23707088.507 4  97076372.68104     -3069.932 4        24.211
R11        16.000    19272796.045 8 102987968.30808     -1229.757 8        52.031                                                                    19272797.997 8  80101747.86208      -956.521 8        49.108
S45        17.000    63468411.786 6 333528963.48406      -456.039 6        36.057
E13        18.000    28089925.193 5 147613493.06705     -2569.668 5        35.600                                                                    28089932.081 6 110230822.79606     -1918.923 6        39.589    28089930.602 6 113106412.85006     -1968.933 6        39.252
E24        19.000    26359644.217 6 138520769.04506     -2610.996 6        41.790                                                                    26359650.187 7 103440820.26807     -1949.761 7        45.437    26359648.855 7 106139275.95707     -2000.607 7        45.916
R18        20.000    24232127.992 6 129352738.25606     -2531.392 6        41.757                                                                    24232131.082 6 100607675.90906     -1968.771 6        39.778
G30        21.000    21682738.620 7 113943503.82307     -2469.694 7        47.333                                    21682741.788 7  88787133.70007     -1924.434 7        46.832    21682742.149 7  88787137.69407     -1924.388 7        42.684
I06        22.000    38134720.419 7 149648924.29307      -377.259 7        42.391
S28        23.000    40956836.793 5 215229371.30805      -415.974 5        34.962
G14        24.000    20602774.379 8 108268303.56308       -80.716 8        48.066                                    20602774.370 6  84364912.10506       -62.897 6        40.400    20602774.749 7  84364914.10407       -62.884 7        47.590
S23        25.000    38219349.957 7 200843952.54507      -407.708 7        44.265
E08        26.000    24999269.399 7 131371996.39607      1583.452 7        44.482                                                                    24999272.313 8  98102447.97908      1182.426 8        48.154    24999271.463 8 100661641.68008      1213.309 8        48.978
C07        27.000                                                                                                                                    39076146.741 6 203479734.07006       166.144 6        40.737    39076147.955 7 157343446.26407       128.418 7        44.796    39076145.049 6 165343947.38206       134.880 6        41.602
G13        28.000    20028082.866 8 105248248.40908       389.462 8        48.578                                    20028081.548 6  82011591.35306       303.476 6        40.408
I02        29.000    37686940.504 7 147891645.42407       224.256 7        42.601
C22        30.000                                                                                                                                    24630199.024 7 128255770.62007     -3698.484 7        44.889                                                                    24630200.385 7 104218272.07207     -3005.313 7        45.049
I01        31.000   349019738.935 5  66487281.71005     -3100.472 5        35.619
E03        32.000    23378011.719 7 122852240.63107      -827.373 7        47.776                                                                    23378015.545 8  91740312.01908      -617.818 8        50.801    23378014.661 8  94133533.34208      -633.950 8        51.203
G05        33.000    21964727.083 7 115425364.64307     -2764.307 7        46.599                                    21964728.153 7  89941820.77907     -2154.005 7        45.494    21964728.047 7  89941823.77407     -2154.110 7        42.715
E26        34.000    28246758.688 6 148437687.26506      -497.885 6        36.726                                                                    28246760.457 6 110846318.62406      -371.939 6        40.553    28246759.662 6 113737956.36406      -381.639 6        41.220
C36        35.000                                                                                                                                    24416660.286 7 127143848.65907     -3184.494 7        44.072                                                                    24416671.383 7 103314789.49807     -2587.579 7        45.422
G23        36.000    25044670.915 6 131610613.45706      2751.479 6        38.856                                    25044670.316 3 102553703.73603      2143.995 3        21.667    25044669.765 6 102553704.75206      2143.829 6        38.589
I09        38.000    39997062.429 6 156956788.61706      -967.175 6        40.260
R08        39.000    21959759.764 7 117593384.01907     -4243.815 7        44.858                                                                    21959765.568 7  91461485.51607     -3300.829 7        42.849
E25        40.000    23731974.810 7 124712368.38807        29.278 7        47.708                                                                    23731979.634 8  93129368.45608        21.880 8        50.594    23731978.746 8  95558822.37808        22.435 8        51.090
S44        42.000    40965873.844 6 215277071.76906      -413.789 6        37.240
C09        43.000                                                                                                                                    40947741.200 5 213225398.25705     -1037.861 5        35.057    40947754.351 6 164879327.90906      -802.596 6        40.265    40947748.348 6 173263029.53606      -843.318 6        36.582
C05        44.000                                                                                                                                    39429586.257 6 205320075.50206      -465.328 6        38.102    39429591.567 7 158766488.66407      -359.836 7        42.828    39429590.847 6 166839449.40006      -377.948 6        39.862
C40        45.000                                                                                                                                    39081993.559 7 203510184.68207       232.352 7        42.499                                                                    39081997.736 7 165368707.94807       188.798 7        42.883
C21        46.000                                                                                                                                    22203351.294 8 115618617.95208     -1394.015 8        52.227                                                                    22203348.560 8  93949557.96408     -1132.677 8        50.020
C10        49.000                                                                                                                                    39121256.828 6 203714662.49506       511.670 6        40.808    39121260.773 7 157525116.87607       395.568 7        44.152    39121257.164 6 165534854.85206       415.755 6        40.934
C42        50.000                                                                                                                                    23515983.913 7 122453845.16907      1643.245 7        47.140                                                                    23515994.296 8  99503805.46608      1335.263 8        48.198
S48        51.000    77233689.132 6 405864376.42906      -395.460 6        38.162
E02        53.000    25597308.216 7 134514818.93007      2419.400 7        43.469                                                                    25597315.112 7 100449446.72107      1806.761 7        46.783    25597313.660 7 103069849.52707      1853.806 7        47.212
C60        54.000                                                                                                                                    40965880.590 6 213320024.51106      -410.064 6        40.343                                                                    40965876.916 6 173339907.89306      -333.109 6        38.255
C45        55.000                                                                                                                                    21720341.279 8 113103482.85708      -963.140 8        50.647                                                                    21720336.216 8  91905810.49608      -782.550 8        50.078
R12        56.000    21238848.264 8 113454188.28808      2886.687 8        49.417                                                                    21238853.506 7  88242180.10907      2245.185 7        46.044
C02        57.000                                                                                                                                    41006970.294 5 213533840.46205      -457.570 5        32.958    41006980.375 6 165117836.62806      -353.478 6        36.836    41006979.932 5 173513685.42305      -371.308 5        33.455
I03        58.000   124843023.737 6 414125248.83506       924.011 6        39.691
C14        59.000                                                                                                                                    25613825.887 6 133377877.85906      2611.850 6        38.429    25613826.337 7 103136215.46307      2019.623 7        44.631    25613823.793 7 108380428.42407      2122.305 7        42.717
G07        60.000    24435338.657 6 128408397.62606     -3190.387 6        40.784                                    24435347.363 5 100058434.79805     -2485.996 5        33.072    24435347.169 6 100058435.76006     -2485.804 6        37.225
> 2025 01 01 08 30 10.0000000  0 55
G08         1.000    24737097.856 6 129994385.10006     -2174.581 6        36.767                                    24737104.097 4 101294382.25604     -1694.476 4        28.578    24737104.835 5 101294392.26705     -1694.421 5        35.748
R01         2.000    19171215.107 8 102481073.24808      -684.097 8        48.722                                                                    19171218.817 6  79707556.57106      -532.030 6        41.349
G24         3.000    25057565.359 5 131678381.82605      3140.208 5        35.833                                    25057571.830 4 102606555.97604      2446.925 4        26.551    25057572.861 5 102606552.94705      2447.222 5        32.707
R02         4.000    21274701.154 8 113525836.36708      2981.865 8        49.362                                                                    21274705.173 7  88297875.48107      2319.233 7        44.221
S21         5.000    38517519.583 7 202410683.43307      -407.723 7        42.665
E05         6.000    24727937.710 6 129946083.11506     -2839.065 6        41.545                                                                    24727949.079 7  97037644.10607     -2120.127 7        45.463    24727947.680 7  99569058.20407     -2175.482 7        46.148
G17         7.000    24585126.571 6 129195724.50106      2598.006 6        36.722                                    24585139.387 4 100672043.69404      2024.400 4        25.368    24585139.369 5 100672039.75205      2024.457 5        34.014
R10         8.000    22391858.416 6 119361105.26206     -4259.230 6        40.436
R19         9.000    23858110.023 5 127624759.95305        15.811 5        34.338                                                                    23858117.481 6  99263765.17806        12.529 6        39.141
G18        10.000    25452324.518 6 133752838.07306     -1958.936 6        37.985                                    25452322.962 2 104222969.26802     -1526.432 2        17.962    25452323.354 5 104222977.28705     -1526.624 5        35.267
C26        11.000                                                                                                                                    23442626.129 7 122071915.49307      2005.552 7        47.213                                                                    23442629.544 7  99193446.53607      1629.724 7        47.346
S27        12.000    39210581.076 5 206052877.90405      -439.621 5        35.048
G15        13.000    21586792.941 7 113439311.76807      2332.725 7        46.345                                    21586793.063 7  88394239.38407      1817.707 7        44.113    21586793.350 6  88394231.37706      1817.680 6        41.750
S36        14.000    38287117.495 7 201200602.69007      -408.797 7        44.153
G20        15.000    23710832.776 6 124601119.43406     -3940.944 6        40.582                                    23710837.390 4  97091724.16304     -3070.855 4        24.015
R11        16.000    19273948.623 8 102994126.60908     -1233.673 8        51.723                                                                    19273950.395 8  80106537.64608      -959.484 8        49.017
S45        17.000    63468798.072 6 333531244.23506      -456.346 6        36.136
E13        18.000    28092371.313 5 147626345.09805     -2571.363 5        35.938                                                                    28092377.777 6 110240420.06906     -1920.239 6        39.616    28092376.352 6 113116260.49206     -1970.179 6        39.459
E24        19.000    26362129.194 7 138533828.29307     -2612.787 7        42.040                                                                    26362135.277 7 103450572.28507     -1951.056 7        45.598    26362133.931 7 106149282.37907     -2001.966 7        45.899
R18        20.000    24234501.470 7 129365404.02607     -2534.918 7        42.402                                                                    24234503.868 6 100617527.05806     -1971.699 6        39.853
G30        21.000    21685089.211 7 113955856.21507     -2471.342 7        47.298                                    21685092.377 7  88796758.92507     -1925.718 7        46.690    21685092.967 7  88796762.91207     -1925.667 7        42.919
I06        22.000    38135201.490 7 149650811.46907      -377.530 7        42.554
S28        23.000    40957232.210 5 215231453.12505      -417.051 5        34.819
G14        24.000    20602852.660 7 108268715.54507       -84.178 7        47.988                                    20602852.776 6  84365233.13306       -65.588 6        40.265    20602853.126 7  84365235.12907       -65.562 7        47.808
S23        25.000    38219737.342 7 200845991.45607      -407.906 7        44.349
E08        26.000    24997763.338 7 131364081.68107      1582.360 7        44.722                                                                    24997766.167 8  98096537.64308      1181.598 8        48.331    24997765.315 8 100655577.16308      1212.408 8        49.032
C07        27.000                                                                                                                                    39075987.829 6 203478906.41206       164.908 6        40.639    39075989.075 7 157342806.25407       127.526 7        44.817    39075986.076 6 165343274.84406       134.095 6        41.514
G13        28.000    20027713.669 8 105246308.01108       386.675 8        48.543                                    20027712.295 6  82010079.35106       301.305 6        40.324
I02        29.000    37686654.843 7 147890524.39507       223.930 7        42.870
C22        30.000                                                                                                                                    24633750.872 7 128274266.07807     -3699.776 7        44.843                                                                    24633752.298 7 104233301.11607     -3006.248 7        44.879
I01        31.000   349023689.488 5  66502783.78405     -3100.624 5        35.881
E03        32.000    23378799.714 7 122856381.99307      -829.249 7        47.805                                                                    23378803.628 8  91743404.58508      -619.221 8        50.972    23378802.748 8  94136706.58208      -635.362 8        51.235
G05        33.000    21967358.773 7 115439193.68907     -2767.346 7        46.746                                    21967359.747 7  89952596.64107     -2156.367 7        45.439    21967359.940 7  89952599.64307     -2156.344 7        42.470
E26        34.000    28247234.260 6 148440184.44906      -500.915 6        37.539                                                                    28247235.641 6 110848183.40306      -374.061 6        40.653    28247234.845 6 113739869.77906      -383.641 6        41.321
C36        35.000                                                                                                                                    24419718.749 7 127159773.30607     -3185.455 7        44.274                                                                    24419729.632 7 103327729.55807     -2588.346 7        45.488
G23        36.000    25042053.729 6 131596861.20706      2749.366 6        38.330                                    25042053.178 3 102542987.65903      2142.379 3        21.548    25042052.334 6 102542988.64606      2142.464 6        38.426
I09        38.000    39998295.348 6 156961625.47606      -967.606 6        40.324
R08        39.000    21963723.998 7 117614608.44207     -4246.003 7        45.329                                                                    21963729.681 7  91477993.34407     -3302.414 7        42.823
E25        40.000    23731948.029 7 124712228.34607        26.628 7        47.656                                                                    23731952.960 8  93129263.87508        19.932 8        50.736    23731952.101 8  95558715.07008        20.416 8        51.224
S44        42.000    40966268.451 6 215279141.21606      -414.236 6        37.255
C09        43.000                                                                                                                                    40948738.116 5 213230587.96905     -1038.052 5        35.271    40948750.741 6 164883340.88506      -802.824 6        40.198    40948744.766 6 173267246.57706      -843.618 6        36.529
C05        44.000                                                                                                                                    39430033.102 6 205322403.01406      -465.733 6        38.141    39430038.577 7 158768288.40207      -360.055 7        42.900    39430037.781 6 166841340.68606      -378.410 6        39.754
C40        45.000                                                                                                                                    39081771.314 7 203509026.63007       230.947 7        42.400                                                                    39081775.353 7 165367766.94207       187.703 7        42.986
C21        46.000                                                                                                                                    22204691.090 8 115625595.23708     -1396.981 8        52.152                                                                    22204688.433 8  93955227.58108     -1135.065 8        50.014
C10        49.000                                                                                                                                    39120766.137 6 203712106.66906       510.680 6        40.906    39120769.901 7 157523140.54507       394.870 7        44.402    39120766.400 6 165532778.05406       414.971 6        40.937
C42        50.000                                                                                                                                    23514406.760 7 122445634.68507      1640.899 7        47.143                                                                    23514417.535 8  99497133.77908      1333.447 8        48.298
S48        51.000    77234071.017 6 405866354.49406      -395.762 6        38.063
E02        53.000    25595006.988 7 134502725.14307      2418.040 7        43.526                                                                    25595013.779 7 100440415.66407      1805.670 7        46.966    25595012.327 7 103060582.87707      1852.783 7        47.340
C60        54.000                                                                                                                                    40966274.424 6 213322075.11006      -410.252 6        40.527                                                                    40966270.629 6 173341574.19606      -333.345 6        38.399
C45        55.000                                                                                                                                    21721267.191 8 113108304.37208      -965.555 8        50.651                                                                    21721262.129 8  91909728.37708      -784.525 8        50.075
R12        56.000    21236147.485 8 113439761.13008      2884.135 8        49.459                                                                    21236152.932 7  88230958.99807      2243.178 7        46.310
C02        57.000                                                                                                                                    41007408.325 5 213536127.29305      -457.350 5        33.096    41007419.059 6 165119604.95906      -353.693 6        37.017    41007419.068 5 173515543.66605      -371.602 5        33.419
I03        58.000   124841846.395 6 414120628.28106       924.111 6        39.859
C14        59.000                                                                                                                                    25611318.735 6 133364821.91006      2610.514 6        38.841    25611318.809 7 103126119.74407      2018.653 7        44.728    25611316.431 7 108369819.38907      2121.235 7        42.709
G07        60.000    24438374.493 6 128424351.13706     -3191.214 6        40.479                                    24438383.586 5 100070866.02405     -2486.638 5        32.994    24438382.985 6 100070866.99306     -2486.620 6        37.085
> 2025 01 01 08 30 15.0000000  0 55
G08         1.000    24739168.296 6 130005264.99206     -2177.599 6        36.783                                    24739174.485 4 101302860.09104     -1696.827 4        28.815    24739174.917 6 101302870.10406     -1696.795 6        36.439
R01         2.000    19171856.752 8 102484502.95808      -687.943 8        48.739                                                                    19171860.379 6  79710224.11706      -535.136 6        41.764
G24         3.000    25054577.550 5 131662680.01005      3140.215 5        35.109                                    25054583.758 4 102594320.77604      2446.924 4        26.443    25054584.417 5 102594317.78705      2447.069 5        33.748
R02         4.000    21271908.174 8 113510930.97308      2980.149 8        49.493                                                                    21271912.032 7  88286282.39807      2317.810 7        44.677
S21         5.000    38517907.478 7 202412721.62707      -407.665 7        42.540
E05         6.000    24730639.803 6 129960280.65406     -2839.925 6        41.464                                                                    24730650.881 7  97048246.14007     -2120.830 7        45.583    24730649.301 7  99579936.82207     -2176.135 7        46.065
G17         7.000    24582654.822 6 129182734.38006      2597.804 6        37.206                                    24582667.519 4 100661921.59504      2024.250 4        26.156    24582667.070 5 100661917.63705      2024.104 5        34.210
R10         8.000    22395854.222 6 119382403.39006     -4260.134 6        40.634
R19         9.000    23858100.741 5 127624689.46005        12.060 5        34.629                                                                    23858102.720 6  99263710.33206         9.233 6        38.225
G18        10.000    25454188.788 6 133762638.28106     -1961.160 6        36.749                                    25454187.942 2 104230605.77202     -1528.177 2        17.924    25454188.954 5 104230613.77305     -1528.286 5        35.781
C26        11.000                                                                                                                                    23440701.308 7 122061890.97607      2004.126 7        47.325                                                                    23440704.398 7  99185300.76907      1628.613 7        47.419
S27        12.000    39211003.332 5 206055076.11305      -439.521 5        34.967
G15        13.000    21584574.562 7 113427652.78207      2330.743 7        46.408                                    21584574.441 7  88385154.45707      1816.165 7        44.227    21584574.927 7  88385146.46407      1816.163 7        42.241
S36        14.000    38287505.905 7 201202645.08507      -408.462 7        44.149
G20        15.000    23714582.071 6 124620824.26306     -3941.208 6        40.129                                    23714587.127 4  97107078.52504     -3071.056 4        24.286
R11        16.000    19275104.224 8 103000302.75008     -1237.001 8        51.461                                                                    19275105.922 8  80111341.29808      -962.077 8        48.909
S45        17.000    63469189.249 6 333533525.29806      -456.209 6        36.064
E13        18.000    28094818.058 6 147639204.55806     -2572.530 6        36.650                                                                    28094824.757 6 110250022.88606     -1921.068 6        39.910    28094823.451 6 113126113.82706     -1971.287 6        39.520
E24        19.000    26364615.653 7 138546895.16207     -2614.093 7        42.385                                                                    26364621.874 7 103460329.98707     -1952.177 7        45.544    26364620.495 7 106159294.63207     -2003.001 7        45.762
R18        20.000    24236877.773 7 129378086.83307     -2538.402 7        42.838                                                                    24236880.340 6 100627391.45506     -1974.169 6        40.129
G30        21.000    21687440.912 7 113968215.50807     -2472.514 7        46.932                                    21687444.276 7  88806389.52307     -1926.629 7        46.811    21687444.726 7  88806393.52307     -1926.671 7        43.014
I06        22.000    38135682.376 7 149652699.09307      -377.567 7        42.607
S28        23.000    40957625.203 5 215233535.88505      -416.484 5        34.848
G14        24.000    20602934.021 8 108269143.50508       -87.182 8        48.385                                    20602934.208 6  84365566.60606       -67.933 6        40.396    20602934.391 7  84365568.60507       -67.983 7        47.737
S23        25.000    38220125.260 7 200848030.67907      -407.948 7        44.230
E08        26.000    24996258.005 7 131356171.52507      1581.679 7        44.852                                                                    24996260.934 8  98090630.70508      1181.052 8        48.365    24996260.063 8 100649516.13508      1211.823 8        48.972
C07        27.000                                                                                                                                    39075829.623 6 203478083.18706       164.115 6        40.453    39075830.987 7 157342169.67107       126.970 7        44.915    39075827.819 6 165342605.86706       133.449 6        41.511
G13        28.000    20027346.723 8 105244380.20208       384.304 8        48.500                                    20027345.416 6  82008577.15806       299.460 6        40.412
I02        29.000    37686369.447 7 147889404.98707       223.645 7        42.817
C22        30.000                                                                                                                                    24637303.927 7 128292766.80107     -3700.626 7        44.525                                                                    24637305.205 7 104248334.38807     -3007.087 7        44.706
I01        31.000   349027639.564 5  66518286.04405     -3100.304 5        35.695
E03        32.000    23379589.256 8 122860531.63208      -830.740 8        48.003                                                                    23379593.278 8  91746503.33208      -620.347 8        51.039    23379592.431 8  94139886.17308      -636.567 8        51.195
G05        33.000    21969993.105 7 115453036.38607     -2769.941 7        46.922                                    21969993.931 7  89963383.14107     -2158.392 7        45.481    21969994.352 7  89963386.14107     -2158.364 7        43.179
E26        34.000    28247711.209 6 148442694.27706      -503.346 6        36.578                                                                    28247713.031 6 110850057.60106      -375.829 6        40.532    28247712.362 6 113741792.88206      -385.572 6        41.309
C36        35.000                                                                                                                                    24422777.597 7 127175701.81107     -3186.080 7        44.393                                                                    24422788.583 7 103340672.71807     -2588.902 7        45.448
G23        36.000    25039438.529 6 131583117.42806      2747.896 6        37.762                                    25039437.668 3 102532278.17803      2141.226 3        21.214    25039437.791 6 102532279.18306      2141.125 6        38.012
I09        38.000    39999527.825 6 156966462.74106      -967.620 6        40.226
R08        39.000    21967689.112 7 117635842.72707     -4247.859 7        45.729                                                                    21967695.010 7  91494508.83907     -3303.959 7        43.632
E25        40.000    23731923.831 7 124712100.23407        24.430 7        47.841                                                                    23731928.602 8  93129168.20808        18.245 8        50.791    23731927.717 8  95558616.90508        18.680 8        51.155
S44        42.000    40966662.544 6 215281210.85706      -414.049 6        36.964
C09        43.000                                                                                                                                    40949734.383 5 213235777.66005     -1037.884 5        35.814    40949747.213 6 164887353.85206      -802.563 6        39.967    40949741.601 6 173271463.58006      -843.379 6        36.658
C05        44.000                                                                                                                                    39430480.130 6 205324730.84606      -465.542 6        37.909    39430485.628 7 158770088.39807      -360.034 7        42.944    39430484.957 6 166843232.18406      -378.334 6        39.874
C40        45.000                                                                                                                                    39081550.386 7 203507874.00107       229.970 7        42.284                                                                    39081553.948 7 165366830.30307       186.974 7        43.020
C21        46.000                                                                                                                                    22206033.554 8 115632586.12508     -1399.530 8        51.992                                                                    22206030.983 8  93960908.21508     -1137.229 8        50.100
C10        49.000                                                                                                                                    39120276.539 6 203709554.80106       510.007 6        40.796    39120279.655 7 157521167.27907       394.314 7        44.471    39120276.508 6 165530704.42806       414.419 6        41.116
C42        50.000                                                                                                                                    23512832.169 7 122437434.41207      1639.075 7        47.074                                                                    23512842.774 8  99490470.36108      1331.878 8        48.330
S48        51.000    77234454.687 6 405868332.79906      -395.806 6        38.180
E02        53.000    25592706.613 7 134490637.27907      2416.943 7        43.198                                                                    25592713.498 7 100431389.02507      1804.876 7        47.009    25592712.109 7 103051320.75907      1852.022 7        47.326
C60        54.000                                                                                                                                    40966668.320 6 213324125.94706      -410.082 6        40.458                                                                    40966664.700 6 173343240.63906      -333.276 6        38.363
C45        55.000                                                                                                                                    21722195.265 8 113113136.64608      -967.508 8        50.539                                                                    21722190.155 8  91913654.96308      -786.144 8        50.112
R12        56.000    21233448.560 8 113425345.76208      2881.914 8        48.998                                                                    21233454.070 7  88219747.07607      2241.396 7        46.221
C02        57.000                                                                                                                                    41007847.868 5 213538414.43705      -457.294 5        32.946    41007858.472 6 165121373.52706      -353.623 6        36.926    41007857.980 5 173517402.15605      -371.706 5        33.281
I03        58.000   124840668.460 6 414116007.89706       923.972 6        40.031
C14        59.000                                                                                                                                    25608814.040 6 133351771.15806      2609.572 6        39.078    25608812.603 7 103116028.06707      2017.891 7        45.236    25608810.197 7 108359214.53907      2120.674 7        42.669
G07        60.000    24441410.455 6 128440306.62806     -3191.240 6        40.017                                    24441419.992 5 100083298.79005     -2486.663 5        32.946    24441419.301 6 100083299.77206     -2486.748 6        37.270
> 2025 01 01 08 30 20.0000000  0 55
G08         1.000    24741241.690 6 130016159.34106     -2180.141 6        37.077                                    24741247.605 4 101311349.20804     -1698.812 4        29.052    24741248.752 6 101311359.21506     -1698.939 6        36.454
R01         2.000    19172502.289 8 102487953.29108      -692.104 8        48.493                                                                    19172505.639 6  79712907.70406      -538.288 6        41.373
G24         3.000    25051590.167 6 131646980.24806      3139.794 6        36.499                                    25051596.303 4 102582087.16804      2446.599 4        26.635    25051597.246 5 102582084.18705      2446.514 5        33.467
R02         4.000    21269116.828 8 113496035.57708      2978.180 8        49.413                                                                    21269120.796 7  88274697.07207      2316.369 7        44.546
S21         5.000    38518296.362 7 202414759.93907      -407.631 7        42.931
E05         6.000    24733342.397 6 129974482.84906     -2840.815 6        41.316                                                                    24733353.542 7  97058851.64207     -2121.443 7        45.743    24733352.013 7  99590818.99607     -2176.722 7        46.105
G17         7.000    24580183.240 6 129169746.48906      2597.336 6        37.539                                    24580195.883 4 100651801.23504      2023.885 4        26.527    24580195.856 5 100651797.28105      2023.732 5        33.898
R10         8.000    22399851.314 6 119403706.47006     -4261.020 6        41.108
R19         9.000    23858090.655 5 127624640.53705         7.676 5        34.090                                                                    23858093.598 6  99263672.26106         5.875 6        38.240
G18        10.000    25456056.081 6 133772450.72406     -1963.680 6        39.237                                    25456055.206 3 104238251.81203     -1530.164 3        18.298    25456056.439 6 104238259.82106     -1529.932 6        37.618
C26        11.000                                                                                                                                    23438777.851 7 122051874.03507      2002.612 7        47.369                                                                    23438780.749 7  99177161.22107      1627.248 7        47.375
S27        12.000    39211416.456 5 206057274.85405      -439.802 5        34.748
G15        13.000    21582357.829 7 113416004.14207      2328.659 7        46.519                                    21582357.777 7  88376077.59107      1814.544 7        44.281    21582358.209 7  88376069.58807      1814.558 7        42.286
S36        14.000    38287896.206 7 201204687.73507      -408.505 7        44.217
G20        15.000    23718332.726 6 124640532.82806     -3942.044 6        39.616                                    23718337.947 4  97122435.80804     -3071.708 4        24.331
R11        16.000    19276263.168 8 103006496.70808     -1240.606 8        51.265                                                                    19276265.079 8  80116158.81208      -964.821 8        48.625
S45        17.000    63469576.836 6 333535806.70006      -456.178 6        36.106
E13        18.000    28097266.204 6 147652071.44506     -2573.953 6        36.200                                                                    28097273.358 6 110259631.24006     -1922.316 6        39.601    28097272.186 6 113135972.83906     -1972.400 6        39.652
E24        19.000    26367103.616 7 138559969.55307     -2615.551 7        42.476                                                                    26367109.884 7 103470093.31007     -1953.156 7        45.463    26367108.621 7 106169312.65507     -2004.167 7        45.890
R18        20.000    24239257.165 6 129390786.67006     -2541.756 6        41.771                                                                    24239259.441 6 100637269.12006     -1976.901 6        39.378
G30        21.000    21689793.942 7 113980581.69407     -2473.887 7        46.949                                    21689797.499 7  88816025.49007     -1927.699 7        46.827    21689797.830 7  88816029.48507     -1927.695 7        42.832
I06        22.000    38136163.292 7 149654587.14207      -377.641 7        42.442
S28        23.000    40958022.784 5 215235618.73205      -416.375 5        34.976
G14        24.000    20603018.603 8 108269587.40408       -90.320 8        48.453                                    20603018.695 6  84365912.50006       -70.378 6        40.436    20603018.862 7  84365914.50007       -70.437 7        47.665
S23        25.000    38220513.902 7 200850070.48007      -407.953 7        44.400
E08        26.000    24994753.660 7 131348265.89907      1580.692 7        44.781                                                                    24994756.513 8  98084727.15308      1180.388 8        48.244    24994755.660 8 100643458.57408      1211.151 8        48.908
C07        27.000                                                                                                                                    39075672.255 6 203477264.30906       163.368 6        40.374    39075673.843 7 157341536.46607       126.333 7        44.795    39075670.638 6 165341940.48406       132.684 6        41.549
G13        28.000    20026982.413 8 105242464.93108       381.886 8        48.560                                    20026980.983 6  82007084.73806       297.575 6        40.429
I02        29.000    37686084.658 7 147888287.27707       223.376 7        42.662
