     3.04           OBSERVATION DATA    M                   RINEX VERSION / TYPE
ssrcrin-15.6.1x                         20250101 200000 UTC PGM / RUN BY / DATE 
(00000000023479385599111004) Septentrio proprietary         COMMENT             
rref                                                        MARKER NAME         
01                                                          MARKER NUMBER       
geodetic                                                    MARKER TYPE         
NFB                 CLIMERS@TUW                             OBSERVER / AGENCY   
3297213             SEPT ASTERX SB3 PROB4.14.4              REC # / TYPE / VERS 
Unknown             Unknown                                 ANT # / TYPE        
  4127831.7450  1207193.0994  4695248.0546                  APPROX POSITION XYZ 
        0.0000        0.0000        0.0000                  ANTENNA: DELTA H/E/N
G   23 X1  C1C L1C D1C S1C C1W S1W C2W L2W D2W S2W C2L L2L  SYS / # / OBS TYPES 
       D2L S2L C5Q L5Q D5Q S5Q C1L L1L D1L S1L              SYS / # / OBS TYPES 
E   21 X1  C1C L1C D1C S1C C6C L6C D6C S6C C5Q L5Q D5Q S5Q  SYS / # / OBS TYPES 
       C7Q L7Q D7Q S7Q C8Q L8Q D8Q S8Q                      SYS / # / OBS TYPES 
S    9 X1  C1C L1C D1C S1C C5I L5I D5I S5I                  SYS / # / OBS TYPES 
R   17 X1  C1C L1C D1C S1C C2P L2P D2P S2P C2C L2C D2C S2C  SYS / # / OBS TYPES 
       C3Q L3Q D3Q S3Q                                      SYS / # / OBS TYPES 
C   25 X1  C1P L1P D1P S1P C5P L5P D5P S5P C2I L2I D2I S2I  SYS / # / OBS TYPES 
       C7I L7I D7I S7I C6I L6I D6I S6I C7D L7D D7D S7D      SYS / # / OBS TYPES 
J   17 X1  C1C L1C D1C S1C C2L L2L D2L S2L C5Q L5Q D5Q S5Q  SYS / # / OBS TYPES 
       C1L L1L D1L S1L                                      SYS / # / OBS TYPES 
I    5 X1  C5A L5A D5A S5A                                  SYS / # / OBS TYPES 
SEPTENTRIO RECEIVERS OUTPUT ALIGNED CARRIER PHASES.         COMMENT             
NO FURTHER PHASE SHIFT APPLIED IN THE RINEX ENCODER.        COMMENT             
G L1C                                                       SYS / PHASE SHIFT   
G L2W                                                       SYS / PHASE SHIFT   
G L2L  0.00000                                              SYS / PHASE SHIFT   
G L5Q  0.00000                                              SYS / PHASE SHIFT   
G L1L  0.00000                                              SYS / PHASE SHIFT   
E L1C  0.00000                                              SYS / PHASE SHIFT   
E L6C  0.00000                                              SYS / PHASE SHIFT   
E L5Q  0.00000                                              SYS / PHASE SHIFT   
E L7Q  0.00000                                              SYS / PHASE SHIFT   
E L8Q  0.00000                                              SYS / PHASE SHIFT   
S L1C                                                       SYS / PHASE SHIFT   
S L5I                                                       SYS / PHASE SHIFT   
R L1C                                                       SYS / PHASE SHIFT   
R L2P  0.00000                                              SYS / PHASE SHIFT   
R L2C                                                       SYS / PHASE SHIFT   
R L3Q  0.00000                                              SYS / PHASE SHIFT   
C L1P  0.00000                                              SYS / PHASE SHIFT   
C L5P  0.00000                                              SYS / PHASE SHIFT   
C L2I                                                       SYS / PHASE SHIFT   
C L7I                                                       SYS / PHASE SHIFT   
C L6I                                                       SYS / PHASE SHIFT   
C L7D                                                       SYS / PHASE SHIFT   
J L1C                                                       SYS / PHASE SHIFT   
J L2L  0.00000                                              SYS / PHASE SHIFT   
J L5Q  0.00000                                              SYS / PHASE SHIFT   
J L1L  0.00000                                              SYS / PHASE SHIFT   
I L5A                                                       SYS / PHASE SHIFT   
  2025     1     1    20     0    0.0000000     GPS         TIME OF FIRST OBS   
 C1C    0.000 C2C    0.000 C2P    0.000                     GLONASS COD/PHS/BIS 
DBHZ                                                        SIGNAL STRENGTH UNIT
    18                                                      LEAP SECONDS        
 24 R01  1 R02 -4 R03  5 R04  6 R05  1 R06 -4 R07  5 R08  6 GLONASS SLOT / FRQ #
    R09 -2 R10 -7 R11  0 R12 -1 R13 -2 R14 -7 R15  0 R16 -1 GLONASS SLOT / FRQ #
    R17  4 R18 -3 R19  3 R20  2 R21  4 R22 -3 R23  3 R24  2 GLONASS SLOT / FRQ #
                                                            END OF HEADER       
> 2025 01 01 20 00  0.0000000  0 56
G10         1.000    21336525.642 8 112124294.72908      1444.337 8        50.204                                    21336523.633 8  87369641.27408      1125.456 8        50.776    21336523.663 7  87369618.27407      1125.485 7        44.327
G15         2.000    23694299.447 6 124514405.35006     -1172.552 6        40.420                                    23694296.468 5  97024203.06605      -913.673 5        33.156    23694297.126 6  97024206.06006      -913.513 6        36.514
C33         3.000                                                                                                                                    24078208.130 7 125381563.36807      2165.066 7        45.997                                                                    24078219.765 7 101882847.30707      1759.246 7        46.624
E31         4.000    28048064.839 6 147393596.45306      2197.274 6        37.955                                                                    28048066.654 6 110066651.90706      1640.815 6        40.079    28048066.296 6 112937953.23506      1683.592 6        41.361
S21         5.000    38422327.391 7 201910417.33707      -526.982 7        42.307
E13         6.000    23494715.251 7 123465913.31707     -1430.661 7        47.610                                                                    23494715.341 8  92198780.15808     -1068.342 8        50.808    23494714.761 8  94603935.15208     -1096.203 8        51.257
G23         7.000    20928544.026 7 109980368.86607     -1322.370 7        47.362                                    20928540.124 6  85699026.87106     -1030.414 6        38.601    20928540.191 7  85699025.87007     -1030.379 7        46.555
E15         8.000    27026982.487 6 142028073.35806     -3040.871 6        38.541                                                                    27026983.631 7 106060095.08007     -2270.678 7        42.398    27026983.339 7 108826856.31207     -2329.986 7        43.786
G07        10.000    25172569.138 6 132282779.32006     -1160.919 6        38.940                                    25172564.769 4 103077482.34304      -904.616 4        29.393    25172565.027 5 103077486.33505      -904.438 5        34.738
G26        11.000    23548747.888 6 123749870.46406     -4057.817 6        40.474                                    23548748.156 6  96428651.08606     -3161.930 6        37.573    23548748.091 6  96428671.07106     -3161.945 6        39.489
S27        12.000    39159219.993 5 205783115.65205      -495.537 5        35.648
R20        13.000    22145390.934 6 118421402.61606      2346.692 6        37.758                                                                    22145392.508 7  92105601.66307      1825.163 7        43.043
S36        14.000    38192141.610 7 200701590.42507      -526.118 7        43.731
G27        15.000    20200426.360 8 106154241.02408       409.303 8        50.647                                    20200424.030 8  82717749.24808       318.938 8        53.249    20200424.626 7  82717663.24407       318.904 7        46.372
S45        17.000    63404004.096 6 333191270.52106      -575.479 6        37.316
E08        18.000    27671454.013 6 145414501.91606      1961.902 6        37.422                                                                    27671453.672 6 108588749.95006      1465.066 6        41.733    27671452.471 6 111421496.05206      1503.217 6        41.051
G16        19.000    21461997.107 7 112783815.16707     -2989.565 7        47.549                                    21461992.519 6  87883611.63806     -2329.531 6        36.964
E21        20.000    24663642.314 7 129608691.66607     -2622.692 7        46.555                                                                    24663642.696 8  96785927.87408     -1958.554 8        48.960    24663642.218 8  99310752.92108     -2009.630 8        49.596
E26        21.000    24410852.220 7 128280240.12407      1045.348 7        46.680                                                                    24410850.115 8  95793882.23008       780.651 8        49.032    24410849.861 8  98292828.70008       801.073 8        50.293
I06        22.000    38623115.297 6 151565619.42806      -324.578 6        40.913
S28        23.000    40889218.527 5 214874302.67305      -520.137 5        33.868
G08        24.000    22044746.894 7 115845941.17607      2226.267 7        44.488                                    22044745.135 7  90269564.85507      1734.753 7        42.150    22044745.483 6  90269565.86706      1734.609 6        41.337
S23        25.000    38147546.038 7 200466693.00707      -526.526 7        44.352
C13        26.000                                                                                                                                    38304310.284 7 199460793.33107     -1417.886 7        42.995    38304311.381 7 154235848.81607     -1096.389 7        44.403    38304309.774 7 162078320.13007     -1152.114 7        42.055
G18        27.000    22993880.969 7 120834007.26507     -3379.224 7        43.372                                    22993877.083 5  94156541.58705     -2633.159 5        30.875    22993877.066 7  94156532.58507     -2633.176 7        43.120
I02        29.000    39965141.567 6 156831897.02906     -1057.585 6        39.510
C14        30.000                                                                                                                                    23406135.196 7 121881916.74007       853.283 7        46.176    23406130.106 8  94246825.60308       659.818 8        49.777    23406129.084 7  99039028.43007       693.399 7        47.984
R02        31.000    23122824.934 7 123387861.06307     -3321.597 7        44.376                                                                    23122824.874 6  95968356.32206     -2583.502 6        40.944
E03        32.000    27446905.755 6 144234471.95306       117.521 6        37.837                                                                    27446906.117 6 107707573.62806        87.901 6        40.963    27446905.739 6 110517329.67206        90.149 6        41.433
G30        33.000    25775492.436 6 135451119.26506       137.701 6        37.301                                    25775492.390 4 105546329.26704       107.295 4        27.545    25775492.796 5 105546337.28105       107.121 5        33.970
R03        34.000    21044776.863 8 112654369.98508       212.463 8        49.001                                                                    21044774.554 7  87620088.85807       165.285 7        45.539
R10        35.000    21265676.169 7 113358082.13507       161.769 7        45.023
R18        36.000    21268880.627 8 113535134.39708     -3142.889 8        48.393                                                                    21268880.572 7  88305310.19807     -2444.496 7        45.798
E27        37.000    28143647.781 5 147896064.46505     -3770.119 5        32.461                                                                    28143650.459 6 110442007.21006     -2815.355 6        36.442    28143650.170 6 113323084.52106     -2888.852 6        37.429
R16        38.000    23912989.929 7 127738948.02007     -5081.280 7        42.760                                                                    23912993.324 6  99352552.96106     -3952.046 6        40.598
G13        39.000    25009192.903 5 131424179.74705     -1704.659 5        34.443                                    25009189.807 2 102408437.99102     -1328.261 2        12.485
R09        40.000    21006382.682 8 112172977.47108     -3165.868 8        48.496                                                                    21006382.039 7  87245672.11907     -2462.353 7        47.033
E33        41.000    28467110.347 5 149595698.87805      2058.922 5        35.748                                                                    28467111.493 6 111711089.40806      1537.313 6        37.418    28467111.296 6 114625289.67106      1577.493 6        39.132
S44        42.000    40454618.973 6 212590644.74806      -515.053 6        37.652
C38        43.000                                                                                                                                    40203605.216 6 209350874.47606     -1777.852 6        40.057                                                                    40203603.494 6 170114795.66106     -1444.633 6        39.520
C05        44.000                                                                                                                                    39226147.262 6 204260871.50206      -458.936 6        38.141    39226143.625 7 157947484.32107      -354.948 7        42.872    39226145.323 6 165978791.10406      -373.027 6        40.122
C08        45.000                                                                                                                                    38747182.494 6 201766934.16806     -1667.760 6        38.832    38747175.807 7 156019067.23607     -1289.623 7        43.424    38747175.420 6 163952212.54306     -1355.145 6        40.646
C21        46.000                                                                                                                                    26638852.708 6 138715487.92106     -3094.772 6        39.625                                                                    26638848.000 6 112717669.15706     -2514.685 6        39.811
R19        47.000    19627179.564 6 104992544.73706      -941.628 6        41.700                                                                    19627178.644 7  81661035.76707      -732.295 7        45.335
C43        48.000                                                                                                                                    23297703.343 8 121317575.59808     -2660.008 8        48.669                                                                    23297702.454 7  98580593.07907     -2161.437 7        47.372
C42        50.000                                                                                                                                    23803411.507 7 123950656.68207      -775.260 7        46.435                                                                    23803419.071 7 100720110.20907      -630.030 7        47.215
S48        51.000    77168023.015 6 405521868.76806      -563.285 6        37.955
G21        52.000    23971278.993 6 125969965.80306      2519.962 6        36.299                                    23971274.126 2  98158430.39002      1963.586 2        16.906
C37        53.000                                                                                                                                    24790832.238 7 129092385.90507     -2898.180 7        44.501                                                                    24790835.591 7 104898159.63607     -2354.966 7        44.710
C60        54.000                                                                                                                                    40454620.666 6 210658021.92506      -510.375 6        40.307                                                                    40454604.029 6 171176867.31706      -414.633 6        39.610
C27        55.000                                                                                                                                    24401035.383 7 127062609.56107      2053.525 7        45.308                                                                    24401033.902 7 103248781.60807      1668.541 7        43.710
C23        56.000                                                                                                                                    26985324.892 5 140519928.80305     -3718.486 5        34.276                                                                    26985321.309 5 114184043.72305     -3021.281 5        35.781
C02        57.000                                                                                                                                    40561436.371 5 211214090.68305      -463.976 5        34.429    40561429.728 6 163324126.21906      -358.811 6        38.865    40561433.135 5 171628752.77505      -377.251 5        35.157
I03        58.000   110259461.177 6 356896562.23806      1035.334 6        40.217
C11        59.000                                                                                                                                    25149066.976 6 130958084.91606     -3125.422 6        40.429    25149063.938 7 101265245.94407     -2416.672 7        44.221    25149062.772 7 106414278.18407     -2539.588 7        43.175
C28        60.000                                                                                                                                    21689825.971 8 112944932.81808       364.384 8        50.797                                                                    21689824.564 8  91777146.06108       296.077 8        48.763
> 2025 01 01 20 00  5.0000000  0 56
G10         1.000    21335152.448 8 112117079.55408      1441.535 8        50.260                                    21335150.639 8  87364019.06308      1123.274 8        50.758    21335150.673 7  87363996.06807      1123.233 7        44.063
G15         2.000    23695417.458 6 124520276.48106     -1176.074 6        40.293                                    23695413.882 5  97028777.97105      -916.422 5        33.192    23695413.894 6  97028780.95506      -916.283 6        36.578
C33         3.000                                                                                                                                    24076129.946 7 125370741.94907      2163.299 7        45.916                                                                    24076141.669 7 101874054.02807      1757.842 7        46.489
E31         4.000    28045974.769 6 147382612.57306      2196.089 6        37.089                                                                    28045976.400 6 110058449.67806      1640.170 6        40.639    28045976.139 6 112929537.03706      1682.790 6        41.590
S21         5.000    38422828.517 7 201913052.09307      -527.099 7        42.275
E13         6.000    23496077.100 7 123473069.12007     -1431.835 7        47.433                                                                    23496077.050 8  92204123.77608     -1069.186 8        50.764    23496076.469 8  94609418.17508     -1097.114 8        51.067
G23         7.000    20929803.696 7 109986988.37907     -1325.576 7        46.931                                    20929799.758 6  85704184.93406     -1032.918 6        38.649    20929799.959 7  85704183.93007     -1032.896 7        46.386
E15         8.000    27029875.993 6 142043277.50806     -3040.848 6        38.360                                                                    27029876.956 7 106071448.82907     -2270.800 7        42.578    27029876.711 7 108838506.25007     -2330.105 7        43.848
G07        10.000    25173674.246 6 132288589.87706     -1163.283 6        38.108                                    25173670.525 4 103082010.04904      -906.460 4        29.450    25173671.262 5 103082014.07405      -906.499 5        34.490
G26        11.000    23552609.265 6 123770161.06406     -4058.634 6        41.001                                    23552609.250 6  96444461.92906     -3162.569 6        37.410    23552609.394 6  96444481.92706     -3162.528 6        38.715
S27        12.000    39159695.479 5 205785594.66005      -496.131 5        35.771
R20        13.000    22143197.521 6 118409671.86006      2345.552 6        37.501                                                                    22143198.818 7  92096477.72207      1824.336 7        42.415
S36        14.000    38192641.805 7 200704220.19607      -526.095 7        43.708
G27        15.000    20200037.971 8 106152200.45308       406.784 8        50.491                                    20200035.719 8  82716159.19108       316.973 8        53.244    20200035.885 7  82716073.19107       316.977 7        46.148
S45        17.000    63404502.284 6 333194147.79706      -575.708 6        37.081
E08        18.000    27669587.545 6 145404694.75506      1960.947 6        37.323                                                                    27669587.434 6 108581426.43906      1464.287 6        41.366    27669586.359 6 111413981.48206      1502.536 6        40.942
G16        19.000    21464842.728 7 112798769.21007     -2992.172 7        47.577                                    21464838.193 6  87895264.13806     -2331.562 6        36.945
E21        20.000    24666138.934 7 129621809.76807     -2624.565 7        46.487                                                                    24666139.028 8  96795723.86008     -1959.950 8        48.870    24666138.455 8  99320804.45308     -2011.042 8        49.399
E26        21.000    24409858.145 7 128275015.98907      1044.135 7        46.588                                                                    24409855.983 8  95789981.09508       779.689 8        49.002    24409855.734 8  98288825.79708       800.064 8        50.116
I06        22.000    38623529.020 6 151567242.68206      -324.609 6        40.932
S28        23.000    40889712.355 5 214876902.25505      -519.913 5        33.826
G08        24.000    22042629.067 7 115834813.27307      2224.890 7        44.089                                    22042627.540 7  90260893.75907      1733.679 7        42.201    22042628.711 6  90260894.76906      1733.635 6        41.545
S23        25.000    38148047.906 7 200469325.71007      -526.681 7        44.372
C13        26.000                                                                                                                                    38305671.520 7 199467883.16307     -1418.320 7        42.815    38305672.723 7 154241331.11407     -1096.562 7        44.245    38305671.361 6 162084081.20106     -1152.490 6        41.959
G18        27.000    22997096.418 7 120850904.88207     -3379.946 7        43.949                                    22997092.609 5  94169708.55605     -2633.726 5        30.928    22997092.286 7  94169699.56407     -2633.706 7        42.595
I02        29.000    39966488.958 6 156837184.89606     -1057.542 6        39.333
C14        30.000                                                                                                                                    23405316.970 7 121877656.74307       850.526 7        46.084    23405312.158 8  94243531.50908       657.720 8        49.891    23405310.935 7  99035566.85607       691.015 7        47.710
R02        31.000    23125938.665 7 123404476.85007     -3324.829 7        44.846                                                                    23125939.249 6  95981279.70606     -2585.800 6        41.521
E03        32.000    27446795.107 6 144233889.26906       115.262 6        37.837                                                                    27446795.231 6 107707138.49606        86.073 6        40.894    27446794.944 6 110516883.19406        88.345 6        41.442
G30        33.000    25775363.150 6 135450437.27006       135.002 6        36.922                                    25775362.427 4 105545797.83304       105.199 4        27.485    25775363.045 5 105545805.82705       104.933 5        33.814
R03        34.000    21044579.430 8 112653318.72708       207.875 8        49.132                                                                    21044578.096 7  87619271.22707       161.688 7        45.493
R10        35.000    21265527.383 7 113357284.07307       157.266 7        44.542
R18        36.000    21271825.170 8 113550851.28308     -3143.974 8        48.358                                                                    21271824.686 7  88317534.43307     -2445.271 7        45.333
E27        37.000    28147235.032 5 147914916.32005     -3770.395 5        32.437                                                                    28147237.918 6 110456084.86406     -2815.401 6        36.306    28147237.526 6 113337529.43306     -2889.125 6        36.752
R16        38.000    23917746.627 7 127764353.73307     -5081.134 7        43.007                                                                    23917749.837 6  99372312.88906     -3951.985 6        40.346
G13        39.000    25010815.922 5 131432709.22705     -1707.466 5        33.904                                    25010812.957 2 102415084.36302     -1330.562 2        12.848
R09        40.000    21009348.838 8 112188815.43508     -3169.466 8        48.824                                                                    21009348.060 7  87257990.52707     -2465.105 7        46.993
E33        41.000    28465150.521 5 149585405.62305      2058.385 5        35.595                                                                    28465152.566 6 111703402.90406      1537.092 6        37.229    28465152.368 6 114617402.65906      1577.317 6        38.787
S44        42.000    40455111.459 6 212593219.65706      -515.167 6        37.803
C38        43.000                                                                                                                                    40205312.540 6 209359764.03406     -1778.099 6        39.661                                                                    40205310.574 6 170122019.16806     -1444.850 6        39.306
C05        44.000                                                                                                                                    39226588.308 6 204263166.28706      -459.059 6        37.837    39226584.290 7 157949258.79307      -354.959 7        42.790    39226586.105 6 165980655.81406      -373.104 6        40.014
C08        45.000                                                                                                                                    38748783.775 6 201775273.27906     -1668.083 6        38.691    38748777.288 7 156025515.55307     -1289.836 7        43.306    38748776.708 6 163958988.75206     -1355.521 6        40.431
C21        46.000                                                                                                                                    26641824.890 6 138730965.20006     -3096.429 6        39.162                                                                    26641820.137 6 112730245.70806     -2516.143 6        39.201
R19        47.000    19628061.447 7 104997257.51607      -943.699 7        42.023                                                                    19628059.456 7  81664701.24507      -733.908 7        45.150
C43        48.000                                                                                                                                    23300258.189 8 121330877.55908     -2660.923 8        48.506                                                                    23300256.866 7  98591402.02907     -2162.345 7        47.185
C42        50.000                                                                                                                                    23804157.378 7 123954540.06107      -778.179 7        46.569                                                                    23804164.895 7 100723265.78907      -632.442 7        47.084
S48        51.000    77168531.671 6 405524684.50906      -563.083 6        37.921
G21        52.000    23968881.297 5 125957368.61805      2518.751 5        35.867                                    23968876.835 2  98148614.40702      1962.675 2        16.000
C37        53.000                                                                                                                                    24793615.897 7 129106880.25607     -2899.736 7        44.653                                                                    24793619.056 7 104909937.49507     -2356.382 7        44.519
C60        54.000                                                                                                                                    40455110.161 6 210660573.41706      -510.318 6        40.365                                                                    40455094.329 6 171178940.64606      -414.870 6        39.402
C27        55.000                                                                                                                                    24399064.005 7 127052343.04007      2053.006 7        45.392                                                                    24399062.219 7 103240439.24407      1668.023 7        43.405
C23        56.000                                                                                                                                    26988895.002 5 140538518.97905     -3718.018 5        34.310                                                                    26988891.222 5 114199149.74005     -3021.282 5        35.576
C02        57.000                                                                                                                                    40561882.258 5 211216411.35305      -464.348 5        34.429    40561875.468 6 163325920.69006      -359.106 6        38.853    40561878.692 5 171630638.47605      -377.252 5        34.586
I03        58.000   110258141.639 6 356891385.64706      1035.383 6        40.112
C11        59.000                                                                                                                                    25152067.495 6 130973712.18806     -3125.796 6        40.870    25152065.586 7 101277329.95107     -2416.936 7        44.780    25152063.922 7 106426976.64107     -2540.090 7        43.009
C28        60.000                                                                                                                                    21689476.728 8 112943114.07008       362.919 8        50.773                                                                    21689475.329 8  91775668.19608       294.856 8        48.585
> 2025 01 01 20 00 10.0000000  0 56
G10         1.000    21333782.156 8 112109877.69408      1438.919 8        50.587                                    21333780.172 8  87358407.23308      1121.236 8        50.579    21333780.192 7  87358384.23307      1121.289 7        44.433
G15         2.000    23696537.753 6 124526164.98806     -1179.520 6        40.229                                    23696534.569 5  97033366.40805      -919.109 5        32.868    23696534.672 6  97033369.39606      -919.180 6        36.854
C33         3.000                                                                                                                                    24074053.263 7 125359929.22707      2161.644 7        46.014                                                                    24074065.252 7 101865267.81007      1756.447 7        46.635
E31         4.000    28043885.527 6 147371633.39506      2195.359 6        37.361                                                                    28043887.398 6 110050250.95606      1639.240 6        40.703    28043886.854 6 112921124.41106      1682.164 6        41.349
S21         5.000    38423329.080 7 201915686.98707      -527.129 7        42.411
E13         6.000    23497439.885 7 123480230.82807     -1433.003 7        47.570                                                                    23497439.883 8  92209471.81008     -1070.062 8        50.838    23497439.281 8  94614905.72108     -1097.995 8        51.104
G23         7.000    20931066.273 7 109993623.89507     -1328.774 7        46.962                                    20931062.459 6  85709355.46506     -1035.407 6        38.417    20931062.809 7  85709354.46007     -1035.359 7        46.856
E15         8.000    27032769.574 6 142058482.27106     -3041.035 6        38.520                                                                    27032770.304 7 106082803.04207     -2271.021 7        42.654    27032769.946 7 108850156.64807     -2330.224 7        43.585
G07        10.000    25174782.714 6 132294413.10906     -1165.951 6        39.282                                    25174778.642 4 103086547.65604      -908.537 4        29.090    25174778.871 5 103086551.67505      -908.578 5        34.981
G26        11.000    23556471.263 6 123790455.43906     -4059.363 6        41.967                                    23556470.983 6  96460275.71406     -3163.144 6        37.168    23556471.043 6  96460295.74306     -3163.251 6        38.456
S27        12.000    39160167.991 5 205788074.43305      -495.971 5        35.786
R20        13.000    22141005.353 6 118397945.89906      2344.872 6        37.735                                                                    22141005.781 6  92087357.51706      1823.720 6        41.774
S36        14.000    38193146.276 7 200706850.43607      -526.113 7        43.843
G27        15.000    20199651.974 8 106150172.41608       404.326 8        50.576                                    20199649.795 8  82714578.90408       315.058 8        53.006    20199650.109 7  82714492.89807       315.074 7        46.387
S45        17.000    63404999.171 6 333197025.20506      -575.433 6        37.327
E08        18.000    27667722.218 6 145394892.41506      1959.904 6        37.871                                                                    27667721.985 6 108574106.50106      1463.492 6        41.425    27667721.103 6 111406470.58906      1501.714 6        40.920
G16        19.000    21467691.019 7 112813736.15707     -2994.711 7        47.325                                    21467686.339 6  87906926.69306     -2333.541 6        36.733
E21        20.000    24668637.157 7 129634937.02807     -2626.333 7        46.681                                                                    24668637.015 8  96805526.68408     -1961.300 8        48.946    24668636.541 8  99330863.00408     -2012.439 8        49.443
E26        21.000    24408865.302 7 128269797.75307      1042.979 7        46.721                                                                    24408862.948 8  95786084.35908       778.852 8        49.069    24408862.725 8  98284827.40908       799.124 8        50.144
I06        22.000    38623942.898 6 151568865.88006      -324.583 6        40.756
S28        23.000    40890209.644 5 214879502.21205      -519.940 5        34.395
G08        24.000    22040512.951 7 115823691.96607      2223.585 7        44.083                                    22040511.224 7  90252227.80307      1732.660 7        42.053    22040512.331 6  90252228.80906      1732.690 6        41.983
S23        25.000    38148548.915 7 200471958.64207      -526.656 7        44.364
C13        26.000                                                                                                                                    38307033.568 7 199474974.89607     -1418.546 7        42.751    38307034.714 7 154246814.88907     -1096.900 7        44.111    38307033.097 7 162089843.79407     -1152.641 7        42.068
G18        27.000    23000312.543 7 120867806.48607     -3380.778 7        44.110                                    23000308.823 5  94182878.63705     -2634.376 5        30.732    23000308.782 7  94182869.63707     -2634.449 7        42.578
I02        29.000    39967836.429 6 156842472.99206     -1057.618 6        39.294
C14        30.000                                                                                                                                    23404500.733 7 121873410.26907       847.925 7        45.719    23404496.689 8  94240247.86308       655.654 8        49.707    23404495.359 7  99032116.22507       689.012 7        47.878
R02        31.000    23129055.849 7 123421109.12607     -3327.996 7        44.263                                                                    23129056.468 6  95994215.93606     -2588.463 6        41.032
E03        32.000    27446686.289 6 144233318.23006       112.938 6        38.033                                                                    27446686.564 6 107706712.05406        84.307 6        40.863    27446686.471 6 110516445.61106        86.560 6        41.468
G30        33.000    25775235.358 6 135449769.18506       132.217 6        36.253                                    25775235.236 4 105545277.27504       103.022 4        27.042    25775235.555 5 105545285.29805       102.910 5        33.856
R03        34.000    21044387.814 8 112652289.93008       203.457 8        50.060                                                                    21044385.919 7  87618471.05607       158.237 7        45.738
R10        35.000    21265381.238 7 113356508.85607       152.668 7        44.802
R18        36.000    21274770.165 8 113566573.35608     -3144.996 8        48.054                                                                    21274769.887 7  88329762.72507     -2446.110 7        45.685
E27        37.000    28150822.789 5 147933768.42405     -3770.583 5        32.515                                                                    28150825.333 6 110470162.73906     -2815.654 6        36.291    28150824.946 6 113351974.53406     -2888.883 6        36.605
R16        38.000    23922501.948 7 127789759.05307     -5081.047 7        43.500                                                                    23922505.860 6  99392072.51806     -3951.845 6        40.184
G13        39.000    25012441.261 5 131441254.17405     -1710.696 5        33.539                                    25012439.120 1 102421742.71801     -1333.011 1        11.185
R09        40.000    21012318.381 8 112204670.88208     -3172.880 8        48.530                                                                    21012317.014 7  87270322.54407     -2467.801 7        46.467
E33        41.000    28463191.966 5 149575114.19805      2058.007 5        35.690                                                                    28463194.325 6 111695717.79606      1536.836 6        37.289    28463193.769 6 114609517.08106      1576.883 6        38.604
S44        42.000    40455598.723 6 212595794.85906      -515.071 6        37.743
C38        43.000                                                                                                                                    40207020.107 6 209368654.21306     -1778.221 6        39.820                                                                    40207017.796 6 170129243.14406     -1444.995 6        39.495
C05        44.000                                                                                                                                    39227029.169 6 204265461.24806      -459.060 6        38.102    39227024.923 7 157951033.39607      -355.042 7        42.745    39227026.805 6 165982520.64206      -373.056 6        39.991
C08        45.000                                                                                                                                    38750384.914 6 201783614.01706     -1668.388 6        38.523    38750378.981 7 156031965.13907     -1290.136 7        43.441    38750378.369 6 163965766.27706     -1355.619 6        40.343
C21        46.000                                                                                                                                    26644798.609 6 138746451.37206     -3098.233 6        39.060                                                                    26644794.143 6 112742829.50506     -2517.568 6        39.508
R19        47.000    19628943.785 6 105001980.46606      -945.676 6        41.907                                                                    19628942.000 7  81668374.66407      -735.527 7        45.506
C43        48.000                                                                                                                                    23302813.881 8 121344184.53408     -2662.034 8        48.066                                                                    23302812.215 7  98602215.00207     -2163.103 7        47.350
C42        50.000                                                                                                                                    23804906.083 7 123958438.28107      -781.209 7        46.620                                                                    23804913.486 7 100726433.40007      -634.792 7        47.176
S48        51.000    77169045.939 6 405527500.38506      -563.255 6        37.682
G21        52.000    23966484.351 5 125944776.37705      2517.901 5        34.924                                    23966480.752 2  98138802.30902      1961.982 2        16.377
C37        53.000                                                                                                                                    24796400.562 7 129121382.71107     -2901.329 7        44.579                                                                    24796404.059 7 104921721.90707     -2357.619 7        44.686
C60        54.000                                                                                                                                    40455600.260 6 210663125.22206      -510.407 6        40.229                                                                    40455584.231 6 171181014.16906      -414.750 6        39.423
C27        55.000                                                                                                                                    24397092.836 7 127042079.11007      2052.508 7        45.315                                                                    24397091.241 7 103232098.94207      1667.743 7        43.746
C23        56.000                                                                                                                                    26992464.994 5 140557106.65005     -3717.670 5        33.988                                                                    26992460.993 5 114214253.65505     -3020.604 5        35.595
C02        57.000                                                                                                                                    40562328.643 5 211218732.28005      -464.367 5        34.719    40562320.882 6 163327715.38606      -358.993 6        38.652    40562324.562 5 171632524.41305      -377.221 5        34.962
I03        58.000   110256822.708 6 356886209.33106      1035.130 6        40.045
C11        59.000                                                                                                                                    25155069.392 6 130989341.74906     -3126.140 6        41.194    25155067.729 7 101289415.72407     -2417.383 7        45.708    25155065.624 7 106439676.92807     -2540.361 7        43.372
C28        60.000                                                                                                                                    21689128.843 8 112941302.38208       361.540 8        50.690                                                                    21689127.380 8  91774196.03408       293.775 8        48.697
> 2025 01 01 20 00 15.0000000  0 56
G10         1.000    21332414.123 8 112102689.18608      1436.417 8        50.153                                    21332412.253 8  87352805.79908      1119.287 8        50.739    21332412.267 7  87352782.79407      1119.347 7        44.331
G15         2.000    23697661.266 6 124532070.93306     -1182.860 6        40.014                                    23697658.471 5  97037968.43505      -921.705 5        32.683    23697658.695 6  97037971.38706      -921.535 6        36.514
C33         3.000                                                                                                                                    24071978.474 7 125349125.27507      2159.951 7        45.955                                                                    24071990.286 7 101856488.71707      1755.080 7        46.328
E31         4.000    28041797.402 6 147360658.94606      2194.717 6        37.641                                                                    28041799.279 6 110042055.69106      1638.799 6        40.365    28041798.447 6 112912715.38006      1681.511 6        41.297
S21         5.000    38423833.000 7 201918322.18007      -527.098 7        42.210
E13         6.000    23498803.866 7 123487398.48707     -1434.017 7        47.672                                                                    23498803.869 8  92214824.28008     -1070.857 8        50.715    23498803.235 8  94620397.81708     -1098.763 8        51.179
G23         7.000    20932331.966 7 110000275.42907     -1331.809 7        47.002                                    20932328.206 6  85714538.47706     -1037.775 6        38.517    20932328.485 7  85714537.48207     -1037.845 7        47.106
E15         8.000    27035663.366 6 142073687.69506     -3041.000 6        38.847                                                                    27035664.025 7 106094157.72207     -2270.900 7        42.792    27035663.532 7 108861807.55007     -2330.210 7        44.056
G07        10.000    25175893.318 6 132300249.00406     -1168.232 6        38.075                                    25175889.197 4 103091095.11004      -910.311 4        29.185    25175888.683 5 103091099.12705      -910.480 5        34.343
G26        11.000    23560333.534 7 123810753.62107     -4059.947 7        42.034                                    23560333.414 6  96476092.47606     -3163.600 6        37.403    23560334.136 6  96476112.48006     -3163.709 6        38.838
S27        12.000    39160639.429 5 205790553.97505      -495.963 5        35.662
R20        13.000    22138812.573 6 118386224.64706      2343.782 6        36.877                                                                    22138814.224 7  92078241.00307      1822.950 7        42.354
S36        14.000    38193643.507 7 200709480.72207      -526.122 7        43.911
G27        15.000    20199268.631 8 106148156.92908       401.861 8        50.518                                    20199266.260 8  82713008.39308       313.136 8        53.118    20199266.830 7  82712922.39207       313.181 7        46.430
S45        17.000    63405504.875 6 333198302.82916      -575.328 6        37.146
E08        18.000    27665858.367 6 145385094.89706      1959.020 6        38.231                                                                    27665857.497 6 108566790.17206      1462.961 6        41.175    27665856.604 6 111398963.40406      1501.126 6        41.154
G16        19.000    21470541.181 8 112828716.02608     -2997.216 8        48.074                                    21470536.927 6  87918599.31006     -2335.491 6        36.839
E21        20.000    24671137.000 7 129648073.51407     -2628.127 7        46.882                                                                    24671136.819 8  96815336.39008     -1962.548 8        48.768    24671136.347 8  99340928.61708     -2013.762 8        49.553
E26        21.000    24407873.332 7 128264585.42107      1042.008 7        46.943                                                                    24407871.083 8  95782192.03808       778.118 8        48.874    24407870.827 8  98280833.54908       798.410 8        50.254
I06        22.000    38624356.236 6 151570489.05106      -324.482 6        41.004
S28        23.000    40890702.288 5 214882102.23905      -519.853 5        33.647
G08        24.000    22038397.963 7 115812577.32407      2222.363 7        43.975                                    22038396.177 7  90243567.04407      1731.711 7        42.262    22038397.185 6  90243568.04606      1731.737 6        41.573
S23        25.000    38149049.907 7 200474591.56407      -526.389 7        44.617
C13        26.000                                                                                                                                    38308395.635 7 199482068.60807     -1418.960 7        42.861    38308397.202 7 154252300.19007     -1097.249 7        44.056    38308395.409 6 162095608.02806     -1153.090 6        41.928
G18        27.000    23003529.484 7 120884712.11507     -3381.409 7        44.003                                    23003525.749 5  94196051.85505     -2634.864 5        30.800    23003525.573 7  94196042.85307     -2634.844 7        42.245
I02        29.000    39969183.758 6 156847760.79306     -1057.555 6        39.414
C14        30.000                                                                                                                                    23403687.497 7 121869177.37207       845.422 7        45.657    23403683.908 8  94236974.71608       653.640 8        49.626    23403682.479 7  99028676.66107       686.763 7        47.745
R02        31.000    23132175.255 7 123437757.88207     -3331.397 7        44.311                                                                    23132175.693 6  96007164.96306     -2591.020 6        41.197
E03        32.000    27446579.777 6 144232758.89906       110.775 6        38.808                                                                    27446580.223 6 107706294.36006        82.779 6        40.863    27446579.949 6 110516017.01606        84.914 6        41.816
G30        33.000    25775110.659 6 135449114.97806       129.681 6        37.043                                    25775110.644 4 105544767.54604       101.041 4        26.898    25775110.546 5 105544775.57205       100.695 5        32.210
R03        34.000    21044200.565 8 112651283.92408       199.009 8        49.836                                                                    21044198.574 7  87617688.60507       154.698 7        46.269
R10        35.000    21265239.824 7 113355756.37507       148.257 7        44.957
R18        36.000    21277716.046 7 113582300.75007     -3145.854 7        47.802                                                                    21277716.244 7  88341995.13507     -2446.854 7        45.356
E27        37.000    28154410.247 5 147952620.81805     -3770.386 5        32.689                                                                    28154413.064 6 110484240.80406     -2815.665 6        36.295    28154412.522 6 113366419.86906     -2889.122 6        36.473
R16        38.000    23927257.869 7 127815163.85707     -5080.918 7        43.778                                                                    23927261.689 6  99411831.72606     -3951.721 6        39.916
G13        39.000    25014070.383 5 131449814.73305     -1713.510 5        33.665                                    25014068.226 1 102428413.25601     -1335.172 1        10.889
R09        40.000    21015290.702 8 112220543.76108     -3176.354 8        48.992                                                                    21015290.126 7  87282668.10307     -2470.470 7        46.997
E33        41.000    28461234.456 6 149564824.62806      2057.842 6        36.250                                                                    28461236.432 6 111688034.06406      1536.816 6        37.539    28461235.555 6 114601632.90006      1576.783 6        38.679
S44        42.000    40456088.625 6 212598370.40306      -514.997 6        38.063
C38        43.000                                                                                                                                    40208727.162 6 209377545.08406     -1778.218 6        39.718                                                                    40208725.369 6 170136467.70006     -1444.934 6        39.517
C05        44.000                                                                                                                                    39227469.311 6 204267756.43806      -459.033 6        37.921    39227465.718 7 157952808.18807      -354.913 7        42.711    39227467.546 6 165984385.67906      -373.101 6        39.949
C08        45.000                                                                                                                                    38751986.475 6 201791956.47406     -1668.573 6        38.535    38751980.922 7 156038416.04207     -1290.137 7        43.280    38751980.461 6 163972545.21006     -1355.999 6        40.405
C21        46.000                                                                                                                                    26647774.046 6 138761946.28906     -3099.745 6        38.820                                                                    26647769.754 6 112755420.40206     -2519.034 6        39.177
R19        47.000    19629827.932 6 105006713.45106      -947.509 6        41.871                                                                    19629827.301 7  81672055.88007      -737.044 7        45.526
C43        48.000                                                                                                                                    23305370.075 7 121357496.51307     -2662.795 7        47.700                                                                    23305368.627 7  98613032.08507     -2163.903 7        47.133
C42        50.000                                                                                                                                    23805657.464 7 123962351.38707      -784.005 7        46.561                                                                    23805665.014 7 100729613.13007      -637.231 7        47.160
S48        51.000    77169552.972 6 405530316.63606      -563.086 6        38.162
G21        52.000    23964089.630 6 125932189.11006      2517.032 6        36.053                                    23964085.537 2  98128994.07502      1961.326 2        16.679
C37        53.000                                                                                                                                    24799187.352 7 129135893.29007     -2902.898 7        44.548                                                                    24799190.832 7 104933512.94207     -2358.891 7        44.570
C60        54.000                                                                                                                                    40456090.426 6 210665677.36406      -510.481 6        40.210                                                                    40456074.338 6 171183088.00706      -414.919 6        39.321
C27        55.000                                                                                                                                    24395122.528 7 127031817.80507      2052.024 7        45.857                                                                    24395120.591 7 103223760.79607      1667.370 7        43.541
C23        56.000                                                                                                                                    26996034.677 5 140575691.79405     -3716.635 5        33.790                                                                    26996030.291 5 114229355.55505     -3020.175 5        35.224
C02        57.000                                                                                                                                    40562773.989 5 211221053.48305      -463.740 5        34.519    40562766.546 6 163329510.29606      -358.971 6        38.580    40562770.347 5 171634410.61505      -377.247 5        34.695
I03        58.000   110255504.034 6 356881033.28306      1035.238 6        39.952
C11        59.000                                                                                                                                    25158071.812 6 131004973.66106     -3126.543 6        41.302    25158069.878 7 101301503.29307     -2417.643 7        46.184    25158067.537 7 106452379.13207     -2540.700 7        43.139
C28        60.000                                                                                                                                    21688782.339 8 112939497.80108       360.285 8        50.792                                                                    21688780.840 8  91772729.68208       292.618 8        48.569
> 2025 01 01 20 00 20.0000000  0 56
G10         1.000    21331048.454 8 112095513.28208      1433.792 8        49.888                                    21331046.731 8  87347214.18608      1117.240 8        50.632    21331046.830 7  87347191.19207      1117.233 7        44.372
G15         2.000    23698788.094 6 124537993.57206     -1186.232 6        39.796                                    23698785.419 5  97042583.46905      -924.338 5        32.317    23698784.898 6  97042586.45306      -924.316 6        36.299
C33         3.000                                                                                                                                    24069905.377 7 125338329.30407      2158.335 7        46.185                                                                    24069916.922 7 101847716.11807      1753.744 7        46.320
E31         4.000    28039709.837 6 147349688.65106      2193.438 6        38.333                                                                    28039711.701 6 110033863.59506      1637.907 6        40.601    28039710.999 6 112904309.57406      1680.700 6        41.666
S21         5.000    38424333.943 7 201920956.81007      -526.992 7        42.216
E13         6.000    23500168.847 7 123494571.33207     -1435.213 7        47.664                                                                    23500168.812 8  92220180.62708     -1071.827 8        50.709    23500168.175 8  94625893.89308     -1099.746 8        51.331
G23         7.000    20933600.788 7 110006942.22807     -1335.021 7        47.155                                    20933596.845 6  85719733.38506     -1040.276 6        38.495    20933597.149 7  85719732.39407     -1040.281 7        47.162
E15         8.000    27038556.718 6 142088893.00606     -3041.143 6        38.991                                                                    27038557.494 7 106105512.34507     -2271.089 7        42.775    27038557.082 7 108873458.37607     -2330.274 7        44.062
G07        10.000    25177005.778 6 132306096.80106     -1170.767 6        38.823                                    25177001.982 4 103095651.84904      -912.295 4        29.232    25177001.975 5 103095655.85405      -912.395 5        35.014
G26        11.000    23564196.584 6 123831054.83106     -4060.717 6        40.963                                    23564196.574 6  96491911.59606     -3164.192 6        37.282    23564197.869 6  96491931.60906     -3164.335 6        39.471
S27        12.000    39161106.928 5 205793032.44005      -495.704 5        35.505
R20        13.000    22136620.754 6 118374507.39206      2343.084 6        37.777                                                                    22136622.911 6  92069127.61206      1822.328 6        41.852
