     3.04           OBSERVATION DATA    M                   RINEX VERSION / TYPE
ssrcrin-15.6.1x                         20250101 121500 UTC PGM / RUN BY / DATE 
(00000000023479385599111004) Septentrio proprietary         COMMENT             
rref                                                        MARKER NAME         
01                                                          MARKER NUMBER       
geodetic                                                    MARKER TYPE         
NFB                 CLIMERS@TUW                             OBSERVER / AGENCY   
3297213             SEPT ASTERX SB3 PROB4.14.4              REC # / TYPE / VERS 
Unknown             Unknown                                 ANT # / TYPE        
  4127831.7165  1207193.5498  4695246.4935                  APPROX POSITION XYZ 
        0.0000        0.0000        0.0000                  ANTENNA: DELTA H/E/N
G   23 X1  C1C L1C D1C S1C C1W S1W C2W L2W D2W S2W C2L L2L  SYS / # / OBS TYPES 
       D2L S2L C5Q L5Q D5Q S5Q C1L L1L D1L S1L              SYS / # / OBS TYPES 
E   21 X1  C1C L1C D1C S1C C6C L6C D6C S6C C5Q L5Q D5Q S5Q  SYS / # / OBS TYPES 
       C7Q L7Q D7Q S7Q C8Q L8Q D8Q S8Q                      SYS / # / OBS TYPES 
S    9 X1  C1C L1C D1C S1C C5I L5I D5I S5I                  SYS / # / OBS TYPES 
R   17 X1  C1C L1C D1C S1C C2P L2P D2P S2P C2C L2C D2C S2C  SYS / # / OBS TYPES 
       C3Q L3Q D3Q S3Q                                      SYS / # / OBS TYPES 
C   25 X1  C1P L1P D1P S1P C5P L5P D5P S5P C2I L2I D2I S2I  SYS / # / OBS TYPES 
       C7I L7I D7I S7I C6I L6I D6I S6I C7D L7D D7D S7D      SYS / # / OBS TYPES 
J   17 X1  C1C L1C D1C S1C C2L L2L D2L S2L C5Q L5Q D5Q S5Q  SYS / # / OBS TYPES 
       C1L L1L D1L S1L                                      SYS / # / OBS TYPES 
I    5 X1  C5A L5A D5A S5A                                  SYS / # / OBS TYPES 
SEPTENTRIO RECEIVERS OUTPUT ALIGNED CARRIER PHASES.         COMMENT             
NO FURTHER PHASE SHIFT APPLIED IN THE RINEX ENCODER.        COMMENT             
G L1C                                                       SYS / PHASE SHIFT   
G L2W                                                       SYS / PHASE SHIFT   
G L2L  0.00000                                              SYS / PHASE SHIFT   
G L5Q  0.00000                                              SYS / PHASE SHIFT   
G L1L  0.00000                                              SYS / PHASE SHIFT   
E L1C  0.00000                                              SYS / PHASE SHIFT   
E L6C  0.00000                                              SYS / PHASE SHIFT   
E L5Q  0.00000                                              SYS / PHASE SHIFT   
E L7Q  0.00000                                              SYS / PHASE SHIFT   
E L8Q  0.00000                                              SYS / PHASE SHIFT   
S L1C                                                       SYS / PHASE SHIFT   
S L5I                                                       SYS / PHASE SHIFT   
R L1C                                                       SYS / PHASE SHIFT   
R L2P  0.00000                                              SYS / PHASE SHIFT   
R L2C                                                       SYS / PHASE SHIFT   
R L3Q  0.00000                                              SYS / PHASE SHIFT   
C L1P  0.00000                                              SYS / PHASE SHIFT   
C L5P  0.00000                                              SYS / PHASE SHIFT   
C L2I                                                       SYS / PHASE SHIFT   
C L7I                                                       SYS / PHASE SHIFT   
C L6I                                                       SYS / PHASE SHIFT   
C L7D                                                       SYS / PHASE SHIFT   
J L1C                                                       SYS / PHASE SHIFT   
J L2L  0.00000                                              SYS / PHASE SHIFT   
J L5Q  0.00000                                              SYS / PHASE SHIFT   
J L1L  0.00000                                              SYS / PHASE SHIFT   
I L5A                                                       SYS / PHASE SHIFT   
  2025     1     1    12    15    0.0000000     GPS         TIME OF FIRST OBS   
 C1C    0.000 C2C    0.000 C2P    0.000                     GLONASS COD/PHS/BIS 
DBHZ                                                        SIGNAL STRENGTH UNIT
    18                                                      LEAP SECONDS        
 24 R01  1 R02 -4 R03  5 R04  6 R05  1 R06 -4 R07  5 R08  6 GLONASS SLOT / FRQ #
    R09 -2 R10 -7 R11  0 R12 -1 R13 -2 R14 -7 R15  0 R16 -1 GLONASS SLOT / FRQ #
    R17  4 R18 -3 R19  3 R20  2 R21  4 R22 -3 R23  3 R24  2 GLONASS SLOT / FRQ #
                                                            END OF HEADER       
> 2025 01 01 12 15  0.0000000  0 54
G19         1.000    21447348.684 7 112706719.43307     -2133.521 7        46.237                                    21447350.307 6  87823502.10606     -1662.480 6        36.091
G25         2.000    22535606.757 7 118425443.50607      2531.673 7        42.893                                    22535616.274 6  92279626.47206      1972.727 6        38.435    22535616.778 6  92279636.49406      1972.697 6        39.589
G24         3.000    20143614.648 8 105855420.24108     -1732.575 8        50.483                                    20143618.819 8  82484774.40408     -1350.058 8        52.745    20143619.421 7  82484771.39907     -1350.025 7        46.244
R02         4.000    24162744.578 5 128936687.69505     -5131.509 5        35.100                                                                    24162764.956 5 100284018.20405     -3991.172 5        31.170
S21         5.000    38321624.699 7 201381116.63407      -589.179 7        43.285
G06         6.000    23725400.719 6 124677888.12006      1696.151 6        40.465                                    23725411.265 6  97151679.08206      1321.671 6        36.042    23725412.115 6  97151670.10206      1321.641 6        39.829
G17         7.000    24047501.615 6 126370542.80406     -3718.875 6        41.199                                    24047509.853 5  98470618.42405     -2897.825 5        34.567    24047509.951 6  98470614.42906     -2897.755 6        37.754
R21         8.000    23786774.118 7 127287872.90807     -4105.805 7        42.013                                                                    23786786.615 6  99001749.54706     -3193.506 6        39.132
E30        10.000    23957767.608 8 125899048.96708       518.928 8        48.570                                                                    23957774.983 8  94015628.65508       387.566 8        50.814    23957773.756 8  96468199.41408       397.637 8        51.247
C26        11.000                                                                                                                                    22584940.657 8 117605689.60708     -2311.088 8        49.421                                                                    22584945.375 8  95564265.67008     -1878.090 8        48.482
S27        12.000    39094221.713 6 205441304.35606      -613.483 6        37.051
G15        13.000    24228981.815 6 127323912.46406     -4474.406 6        40.801                                    24228993.838 5  99213360.29405     -3486.538 5        33.437    24228993.642 6  99213352.29406     -3486.756 6        37.637
S36        14.000    38093469.436 7 200182900.68607      -589.641 7        45.118
G12        15.000    20362070.950 8 107003537.73608       663.021 8        50.096                                    20362072.504 8  83379452.88708       516.638 8        50.625    20362072.919 7  83379452.89107       516.617 7        45.947
E29        16.000    27092205.886 6 142370367.28106      1783.546 6        39.715                                                                    27092223.093 7 106315523.42907      1331.898 7        43.391    27092220.929 7 109088972.15307      1366.530 7        43.500
S45        17.000    63284552.217 6 332563723.83206      -651.417 6        36.707
R03        18.000    21153179.383 8 113234527.09208     -3643.003 8        48.954                                                                    21153187.306 7  88071288.16907     -2833.361 7        44.953
C35        19.000                                                                                                                                    22941788.336 8 119464037.57508      -139.369 8        48.380                                                                    22941793.547 7  97074389.93007      -113.419 7        47.374
E11        20.000    27206776.573 5 142972606.19405      -521.717 5        35.605                                                                    27206788.827 6 106765324.39506      -389.823 6        37.667    27206786.515 6 109550497.30806      -399.699 6        37.637
R14        21.000    21716439.549 8 115760857.18308      2275.854 8        48.563                                                                    21716451.771 7  90036278.12907      1770.167 7        43.972
I06        22.000    38283017.774 7 150230800.08307      -550.509 7        42.220
S28        23.000    40787471.657 5 214339358.57205      -598.450 5        35.329
S23        25.000    38030878.673 7 199853414.80007      -593.970 7        45.785
E08        26.000    25293044.911 7 132915712.22507     -3291.271 7        45.178                                                                    25293054.034 7  99255197.67007     -2457.732 7        47.733    25293052.635 8 101844466.02808     -2521.823 8        48.149
C07        27.000                                                                                                                                    39731797.238 6 206893791.02806     -1484.446 6        39.003    39731803.302 7 159983389.86207     -1147.813 7        42.863    39731798.789 6 168118130.78906     -1206.559 6        38.835
I02        29.000    36810528.854 7 144452397.00307      -533.346 7        43.117
G10        30.000    25048597.928 6 131631040.84606     -2641.571 6        38.039                                    25048614.019 4 102569588.92204     -2058.366 4        28.777    25048614.435 5 102569580.91905     -2058.429 5        34.705
E07        31.000    24220715.544 7 127280639.98407      -734.154 7        46.775                                                                    24220724.814 8  95047226.46008      -548.257 8        50.321    24220723.357 8  97526717.58708      -562.484 8        50.449
C12        32.000                                                                                                                                    25483046.868 6 132696940.34606      2873.204 6        38.288    25483060.340 7 102609755.41007      2221.759 7        45.804    25483055.375 7 107827174.86907      2334.740 7        42.684
E10        33.000    28286288.006 5 148645490.08605     -1782.197 5        35.086                                                                    28286301.636 6 111001586.13606     -1330.624 6        41.862    28286299.798 6 113897266.67006     -1365.284 6        41.137
R23        34.000    21400299.196 7 114477267.15107      2745.227 7        46.066
C24        35.000                                                                                                                                    21434510.212 8 111615155.73008       310.047 8        51.652                                                                    21434511.913 8  90696478.45508       251.827 8        50.027
R05        36.000    23773158.393 7 127081092.89807      2955.381 7        42.660                                                                    23773171.769 6  98840867.45606      2298.689 6        41.528
E27        37.000    27628410.644 6 145188273.35706      1922.009 6        39.628                                                                    27628428.327 6 108419895.69906      1435.079 6        41.235    27628426.113 6 111248229.20206      1472.642 6        41.204
R04        38.000    21009770.884 8 112506277.55108        20.956 8        49.969                                                                    21009778.455 7  87504868.21207        16.266 7        45.085
C33        39.000                                                                                                                                    24642938.912 7 128322175.39707     -2605.439 7        45.127                                                                    24642959.916 7 104272337.52707     -2117.244 7        44.989
E25        40.000    27876320.025 6 146490890.82906     -3172.327 6        36.684                                                                    27876336.685 6 109392504.08006     -2368.938 6        40.889    27876334.324 6 112246219.15706     -2430.835 6        41.008
S44        42.000    40689451.647 6 213824444.10906      -524.360 6        38.580
R22        43.000    21083162.275 8 112543475.32908      -666.965 8        48.705                                                                    21083169.299 7  87533899.96607      -518.810 7        46.222
C05        44.000                                                                                                                                    39344121.325 6 204874998.42606      -599.182 6        38.535    39344129.041 7 158422316.74407      -463.267 7        43.012    39344127.775 6 166477779.76206      -486.948 6        39.565
C40        45.000                                                                                                                                    40156782.006 6 209106791.26206     -1767.772 6        39.486                                                                    40156791.163 6 169916388.21006     -1436.664 6        39.315
G32        46.000    23858809.035 7 125378752.83207      1960.577 7        43.010                                    23858821.112 6  97697721.46406      1527.720 6        37.879    23858821.762 6  97697723.46606      1527.747 6        39.991
E36        47.000    27039550.783 6 142093841.92306      1624.677 6        40.164                                                                    27039565.818 7 106109138.47207      1213.309 7        43.498    27039564.199 7 108877187.65607      1244.972 7        43.875
C41        48.000                                                                                                                                    25305393.335 7 131771807.46507       -24.020 7        43.213                                                                    25305410.468 7 107075456.27407       -19.705 7        43.920
C10        49.000                                                                                                                                    38854270.297 6 202324348.40206     -1205.699 6        41.061    38854277.419 7 156450026.02907      -932.276 7        43.494    38854273.033 6 164405101.29306      -979.834 6        40.749
C42        50.000                                                                                                                                    26405656.375 6 137500888.87806     -3843.792 6        39.447                                                                    26405678.754 6 111730710.80606     -3123.436 6        40.288
S48        51.000    77029784.736 6 404795273.54806      -595.398 6        38.814
E02        53.000    23763941.873 7 124880413.03307     -1979.994 7        47.786                                                                    23763948.665 8  93254922.67308     -1478.539 8        50.636    23763947.361 8  95687642.26408     -1517.108 8        50.986
C60        54.000                                                                                                                                    40689450.715 6 211880602.71406      -519.649 6        40.167                                                                    40689447.121 6 172170263.00306      -422.341 6        38.526
R12        56.000    21404308.933 8 114337996.05008     -3317.109 8        48.059                                                                    21404318.078 7  88929571.96007     -2580.039 7        45.004
C02        57.000                                                                                                                                    40850072.891 5 212716853.86705      -555.932 5        32.150    40850082.377 6 164486095.81506      -430.083 6        36.998    40850080.942 5 172849820.93205      -451.993 5        31.615
I03        58.000   120259267.920 5 396137614.75805       893.465 5        32.551
C14        59.000                                                                                                                                    25205245.812 6 131250135.60006     -3505.428 6        41.571    25205254.952 7 101490870.04407     -2710.686 7        45.704    25205250.202 7 106651431.26807     -2848.606 7        43.327
R13        60.000    19361630.118 7 103390094.94307      -857.435 7        46.565
> 2025 01 01 12 15  5.0000000  0 54
G19         1.000    21449380.117 7 112717395.24507     -2136.603 7        46.324                                    21449381.855 6  87831820.91006     -1664.883 6        36.057
G25         2.000    22533198.134 7 118412788.35807      2530.673 7        43.365                                    22533208.051 6  92269765.34906      1971.948 6        38.486    22533209.002 6  92269775.37706      1971.842 6        39.429
G24         3.000    20145264.833 8 105864091.12708     -1735.565 8        50.346                                    20145268.835 8  82491530.93308     -1352.386 8        52.736    20145269.299 7  82491527.93007     -1352.330 7        46.074
R02         4.000    24167551.480 5 128962345.98605     -5131.520 5        34.533                                                                    24167572.838 5 100303974.57905     -3991.267 5        30.641
S21         5.000    38322183.678 7 201384063.56007      -589.384 7        43.422
G06         6.000    23723788.075 6 124669413.63506      1693.871 6        40.417                                    23723798.556 6  97145075.61206      1319.894 6        36.004    23723798.944 6  97145066.63406      1319.705 6        39.330
G17         7.000    24051040.714 6 126389140.95706     -3720.095 6        40.818                                    24051048.924 5  98485110.47805     -2898.776 5        34.443    24051049.223 6  98485106.47906     -2898.778 6        37.860
R21         8.000    23790612.091 7 127308409.12307     -4108.433 7        42.823                                                                    23790623.701 6  99017722.23706     -3195.386 6        39.186
E30        10.000    23957274.533 8 125896458.09208       517.645 8        48.518                                                                    23957282.008 8  94013693.91608       386.501 8        50.815    23957280.765 8  96466214.20408       396.572 8        51.181
C26        11.000                                                                                                                                    22587160.587 8 117617249.33008     -2312.538 8        49.383                                                                    22587165.318 8  95573658.88708     -1879.121 8        48.581
S27        12.000    39094805.180 6 205444373.20806      -613.678 6        36.991
G15        13.000    24233239.208 6 127346285.91006     -4474.697 6        40.553                                    24233251.221 5  99230794.07005     -3486.762 5        33.180    24233250.422 6  99230786.05106     -3486.697 6        37.331
S36        14.000    38094031.908 7 200185849.88107      -589.826 7        44.918
G12        15.000    20361441.267 8 107000229.25408       660.563 8        50.018                                    20361442.931 8  83376874.85308       514.721 8        50.604    20361443.476 7  83376874.85707       514.756 7        45.750
E29        16.000    27090509.380 6 142361454.06006      1782.064 6        38.979                                                                    27090527.106 7 106308867.47407      1330.667 7        43.371    27090524.748 7 109082142.56207      1365.409 7        43.426
S45        17.000    63285119.585 6 332566981.83206      -651.669 6        36.817
R03        18.000    21156584.137 8 113252750.87508     -3646.361 8        49.089                                                                    21156591.704 7  88085462.18607     -2836.008 7        45.041
C35        19.000                                                                                                                                    22941923.592 8 119464742.49308      -142.506 8        48.196                                                                    22941928.998 7  97074962.73707      -115.747 7        47.329
E11        20.000    27207274.923 5 142975222.96805      -524.635 5        35.748                                                                    27207287.079 6 106767278.47206      -391.535 6        37.652    27207284.455 6 109552502.35806      -401.857 6        37.554
R14        21.000    21714305.435 8 115749480.85508      2274.834 8        48.777                                                                    21714316.801 7  90027429.91307      1769.257 7        44.498
I06        22.000    38283719.665 7 150233553.54707      -550.687 7        42.220
S28        23.000    40788039.370 5 214342352.08705      -598.908 5        35.805
S23        25.000    38031443.971 7 199856385.44207      -594.105 7        45.771
E08        26.000    25296177.192 7 132932172.57607     -3292.684 7        45.044                                                                    25296186.466 7  99267489.46407     -2458.859 7        47.760    25296185.128 8 101857078.47608     -2522.988 8        48.099
C07        27.000                                                                                                                                    39733223.142 6 206901214.95906     -1484.902 6        38.904    39733229.047 7 159989130.51207     -1148.128 7        42.821    39733224.370 6 168124163.33906     -1206.595 6        39.102
I02        29.000    36811209.232 7 144455065.72307      -533.890 7        43.346
G10        30.000    25051112.383 6 131644253.92906     -2643.505 6        39.351                                    25051128.296 4 102579884.79504     -2059.876 4        29.062    25051127.235 5 102579876.79105     -2059.618 5        33.120
E07        31.000    24221415.260 7 127284317.94807      -736.779 7        46.702                                                                    24221424.683 8  95049972.98608      -550.166 8        50.280    24221423.283 8  97529535.76808      -564.512 8        50.403
C12        32.000                                                                                                                                    25480288.350 6 132682575.49206      2872.898 6        38.486    25480301.941 7 102598647.67407      2221.498 7        45.660    25480296.548 7 107815502.32907      2334.363 7        42.597
E10        33.000    28287984.772 5 148654406.89505     -1784.458 5        35.895                                                                    28287998.207 6 111008244.88306     -1332.457 6        41.547    28287996.670 6 113904099.12206     -1367.289 6        40.994
R23        34.000    21397735.250 7 114463549.36807      2742.213 7        46.147
C24        35.000                                                                                                                                    21434213.354 8 111613610.13008       308.412 8        51.553                                                                    21434215.112 8  90695222.53008       250.625 8        50.067
R05        36.000    23770396.244 7 127066323.24507      2952.730 7        43.736                                                                    23770408.391 6  98829379.79806      2296.799 6        40.827
E27        37.000    27626582.227 6 145178665.80206      1921.367 6        39.324                                                                    27626600.197 6 108412721.22706      1434.655 6        41.318    27626597.815 6 111240867.56206      1472.248 6        41.137
R04        38.000    21009754.310 8 112506185.20308        16.166 8        49.764                                                                    21009761.008 7  87504796.38307        12.578 7        44.746
C33        39.000                                                                                                                                    24645442.304 7 128335208.75607     -2607.664 7        45.198                                                                    24645462.871 7 104282928.17307     -2118.962 7        45.059
E25        40.000    27879338.318 6 146506753.25406     -3172.511 6        36.053                                                                    27879355.092 6 109404349.38906     -2369.144 6        40.570    27879353.031 6 112258373.45806     -2430.813 6        41.006
S44        42.000    40689947.496 6 213827066.81506      -524.528 6        38.598
R22        43.000    21083789.703 8 112546822.79008      -671.752 8        48.685                                                                    21083796.733 7  87536503.57207      -522.485 7        45.625
C05        44.000                                                                                                                                    39344697.011 6 204877994.91506      -599.304 6        38.339    39344704.364 7 158424633.81907      -463.365 7        43.033    39344703.188 6 166480214.65006      -487.015 6        39.604
C40        45.000                                                                                                                                    40158479.206 6 209115631.61906     -1768.116 6        39.508                                                                    40158488.917 6 169923571.73506     -1436.820 6        39.177
G32        46.000    23856945.479 7 125368956.98907      1958.063 7        43.054                                    23856956.995 6  97690088.34806      1525.767 6        37.966    23856957.530 6  97690090.35006      1525.801 6        39.883
E36        47.000    27038005.689 6 142085723.13006      1622.948 6        40.243                                                                    27038020.910 7 106103075.75507      1212.076 7        43.492    27038019.149 7 108870966.78507      1243.643 7        44.014
C41        48.000                                                                                                                                    25305418.271 7 131771935.85707       -27.082 7        42.821                                                                    25305435.094 7 107075560.59207       -22.009 7        43.996
C10        49.000                                                                                                                                    38855428.242 6 202330378.18706     -1206.174 6        41.077    38855435.319 7 156454688.61907      -932.498 7        43.399    38855430.947 6 164410000.97706      -980.078 6        40.815
C42        50.000                                                                                                                                    26409347.544 6 137520108.25206     -3843.945 6        39.646                                                                    26409369.770 6 111746328.07406     -3123.363 6        40.241
S48        51.000    77030343.671 6 404798251.67606      -595.522 6        38.598
E02        53.000    23765826.153 7 124890316.24707     -1981.155 7        47.678                                                                    23765833.194 8  93262317.92508     -1479.385 8        50.659    23765831.930 8  95695230.43808     -1518.022 8        50.923
C60        54.000                                                                                                                                    40689949.806 6 211883201.57706      -519.729 6        40.241                                                                    40689946.244 6 172172374.79706      -422.251 6        38.688
R12        56.000    21407414.182 7 114354584.84907     -3318.239 7        47.880                                                                    21407423.347 7  88942474.34607     -2580.935 7        44.382
C02        57.000                                                                                                                                    40850606.767 5 212719635.08705      -555.919 5        31.668    40850616.504 6 164488246.42906      -430.083 6        36.741    40850614.992 5 172852080.90805      -451.766 5        31.517
I03        58.000   120258129.108 5 396133148.20405       893.330 5        32.629
C14        59.000                                                                                                                                    25208611.933 6 131267666.28306     -3506.687 6        40.934    25208621.541 7 101504425.82307     -2711.491 7        45.500    25208617.210 7 106665676.34507     -2849.399 7        43.185
R13        60.000    19362434.017 7 103394388.34007      -859.734 7        46.715
> 2025 01 01 12 15 10.0000000  0 54
G19         1.000    21451414.518 7 112728085.88307     -2139.687 7        46.100                                    21451416.242 6  87840151.26906     -1667.281 6        36.068
G25         2.000    22530791.145 7 118400138.74907      2529.374 7        42.646                                    22530800.860 6  92259908.53806      1970.938 6        38.429    22530801.606 6  92259918.54706      1970.968 6        39.598
G24         3.000    20146917.432 8 105872775.79208     -1738.315 8        50.373                                    20146921.479 8  82498298.20008     -1354.528 8        52.730    20146922.068 7  82498295.20607     -1354.552 7        45.953
R02         4.000    24172360.420 5 128988002.52005     -5130.963 5        34.433                                                                    24172380.949 5 100323929.58605     -3990.918 5        30.189
S21         5.000    38322745.256 7 201387010.39207      -589.325 7        43.325
G06         6.000    23722177.437 6 124660949.48406      1691.799 6        40.908                                    23722187.712 6  97138480.20306      1318.279 6        36.147    23722188.480 6  97138471.21306      1318.267 6        39.658
G17         7.000    24054580.705 6 126407745.16006     -3721.628 6        40.269                                    24054589.219 5  98499607.24105     -2899.965 5        34.200    24054589.661 6  98499603.23706     -2899.909 6        38.120
R21         8.000    23794453.061 7 127328957.74707     -4111.008 7        43.227                                                                    23794462.913 6  99033704.59606     -3197.523 6        39.111
E30        10.000    23956782.649 8 125893873.40308       516.267 8        48.584                                                                    23956790.110 8  94011763.79208       385.567 8        50.834    23956788.833 8  96464233.72908       395.576 8        51.343
C26        11.000                                                                                                                                    22589381.712 8 117628815.19908     -2313.808 8        49.952                                                                    22589386.423 8  95583057.10208     -1880.129 8        48.378
S27        12.000    39095387.640 6 205447441.72306      -613.998 6        36.805
G15        13.000    24237496.615 6 127368659.63406     -4474.868 6        40.150                                    24237508.689 5  99248228.06605     -3486.893 5        32.880    24237509.024 6  99248220.01706     -3486.803 6        37.051
S36        14.000    38094593.875 7 200188798.75707      -589.872 7        45.010
G12        15.000    20360813.878 8 106996932.08508       658.242 8        49.938                                    20360815.505 8  83374305.63208       512.914 8        50.629    20360815.941 7  83374305.62907       512.924 7        45.684
E29        16.000    27088814.942 6 142352547.67106      1780.581 6        39.700                                                                    27088832.373 7 106302216.59307      1329.590 7        43.361    27088830.011 7 109075318.18807      1364.329 7        43.490
S45        17.000    63285686.180 6 332568539.88616      -651.887 6        36.397
R03        18.000    21159991.732 8 113270990.35908     -3649.532 8        49.259                                                                    21159999.330 7  88099648.41507     -2838.558 7        45.539
C35        19.000                                                                                                                                    22942061.720 8 119465461.71008      -145.307 8        48.135                                                                    22942067.138 7  97075547.15907      -117.990 7        47.163
E11        20.000    27207774.619 5 142977852.27005      -526.951 5        35.886                                                                    27207787.228 6 106769241.96106      -393.774 6        37.894    27207784.963 6 109554517.06506      -403.937 6        37.750
R14        21.000    21712172.231 8 115738109.04908      2273.804 8        49.070                                                                    21712183.401 7  90018585.17907      1768.472 7        44.084
I06        22.000    38284421.222 7 150236306.96007      -550.719 7        42.275
S28        23.000    40788609.189 5 214345345.82805      -598.764 5        35.405
S23        25.000    38032008.424 7 199859355.94207      -594.257 7        45.657
E08        26.000    25299310.842 7 132948639.42007     -3294.122 7        44.780                                                                    25299320.087 7  99279786.09707     -2459.910 7        47.772    25299318.673 8 101869695.90208     -2524.044 8        48.256
C07        27.000                                                                                                                                    39734648.440 6 206908639.54906     -1485.116 6        38.859    39734654.888 7 159994871.68607     -1148.299 7        42.863    39734650.204 6 168130196.42806     -1206.667 6        38.952
I02        29.000    36811889.535 7 144457735.42707      -534.045 7        43.390
G10        30.000    25053628.663 6 131657476.26306     -2645.394 6        38.345                                    25053644.402 4 102590187.88604     -2061.335 4        28.938    25053644.565 5 102590179.89305     -2061.454 5        34.329
E07        31.000    24222117.491 7 127288008.04507      -739.292 7        47.046                                                                    24222126.897 8  95052728.56608      -552.105 8        50.290    24222125.460 8  97532363.23408      -566.471 8        50.573
C12        32.000                                                                                                                                    25477530.396 6 132668211.94406      2872.568 6        39.120    25477543.331 7 102587540.94207      2221.224 7        45.791    25477538.128 7 107803830.80807      2334.313 7        42.413
E10        33.000    28289683.701 5 148663335.09605     -1786.869 5        35.614                                                                    28289697.151 6 111014912.13306     -1334.414 6        41.418    28289695.630 6 113910940.27506     -1369.106 6        41.273
R23        34.000    21395173.867 7 114449845.90207      2739.172 7        46.160
C24        35.000                                                                                                                                    21433917.938 8 111612071.68808       306.917 8        51.645                                                                    21433919.677 8  90693972.42408       249.473 8        49.919
R05        36.000    23767636.433 7 127051565.25807      2950.355 7        44.196                                                                    23767647.528 6  98817901.21206      2294.664 6        40.787
E27        37.000    27624754.302 6 145169060.42106      1920.849 6        38.748                                                                    27624772.638 6 108405548.38106      1434.278 6        41.318    27624769.934 6 111233507.60406      1471.734 6        41.128
R04        38.000    21009740.644 8 112506116.02808        11.442 8        49.759                                                                    21009747.789 7  87504742.59507         8.882 7        44.953
C33        39.000                                                                                                                                    24647947.100 7 128348252.46107     -2609.839 7        45.210                                                                    24647967.767 7 104293527.23307     -2120.664 7        44.849
E25        40.000    27882356.788 5 146522615.32505     -3172.270 5        35.629                                                                    27882373.463 6 109416194.43406     -2369.038 6        40.446    27882371.344 6 112270527.51406     -2430.863 6        40.975
S44        42.000    40690447.526 6 213829689.42206      -524.470 6        38.372
R22        43.000    21084420.786 8 112550193.12308      -676.442 8        49.051                                                                    21084427.650 7  87539124.94107      -526.131 7        46.143
C05        44.000                                                                                                                                    39345272.071 6 204880991.24506      -599.138 6        38.471    39345280.005 7 158426950.79007      -463.392 7        42.978    39345278.610 6 166482649.41506      -486.715 6        39.565
C40        45.000                                                                                                                                    40160177.109 6 209124472.67406     -1768.302 6        39.787                                                                    40160186.803 6 169930755.79906     -1436.654 6        39.126
G32        46.000    23855082.893 7 125359172.01007      1955.936 7        42.779                                    23855094.949 6  97682463.68306      1524.106 6        37.936    23855095.658 6  97682465.68006      1524.044 6        40.017
E36        47.000    27036462.126 6 142077611.80906      1621.390 6        40.489                                                                    27036477.479 7 106097018.63207      1210.840 7        43.475    27036475.566 7 108864751.65207      1242.366 7        44.123
C41        48.000                                                                                                                                    25305446.094 7 131772078.24307       -29.936 7        43.175                                                                    25305462.513 7 107075676.26807       -24.249 7        43.699
C10        49.000                                                                                                                                    38856586.195 6 202336409.15006     -1206.523 6        41.037    38856593.656 7 156459352.14907      -932.870 7        43.486    38856589.141 6 164414901.60206      -980.124 6        40.696
C42        50.000                                                                                                                                    26413037.938 6 137539326.49906     -3843.531 6        39.856                                                                    26413060.460 6 111761944.41806     -3123.104 6        40.069
S48        51.000    77030907.010 6 404801229.75606      -595.864 6        38.468
E02        53.000    23767711.760 7 124900224.25407     -1982.157 7        47.811                                                                    23767718.651 8  93269716.75508     -1480.177 8        50.641    23767717.302 8  95702822.28308     -1518.823 8        51.080
C60        54.000                                                                                                                                    40690449.009 6 211885800.35606      -519.782 6        40.043                                                                    40690445.465 6 172174486.50406      -422.343 6        38.411
R12        56.000    21410520.939 7 114371178.88507     -3319.423 7        47.877                                                                    21410529.872 7  88955380.79307     -2581.696 7        44.379
C02        57.000                                                                                                                                    40851140.223 5 212722416.18205      -555.907 5        31.909    40851150.366 6 164490396.96306      -430.187 6        36.911    40851149.346 5 172854340.81405      -451.873 5        31.396
I03        58.000   120256990.424 5 396128681.44305       893.522 5        32.659
C14        59.000                                                                                                                                    25211980.087 6 131285201.72006     -3507.527 6        41.356    25211989.407 7 101517985.28207     -2712.256 7        46.218    25211984.715 7 106679925.27707     -2850.145 7        43.071
R13        60.000    19363239.813 7 103398692.18507      -861.866 7        46.877
> 2025 01 01 12 15 15.0000000  0 54
G19         1.000    21453451.655 7 112738791.63707     -2142.772 7        46.085                                    21453453.469 6  87848493.40306     -1669.689 6        36.060
G25         2.000    22528384.690 7 118387494.92007      2528.167 7        42.711                                    22528394.787 6  92250056.22306      1969.994 6        38.459    22528395.589 6  92250066.24206      1969.824 6        40.036
G24         3.000    20148572.899 8 105881474.49308     -1741.279 8        50.511                                    20148576.798 8  82505076.40108     -1356.840 8        52.751    20148577.592 7  82505073.40107     -1356.815 7        46.139
R02         4.000    24177168.538 5 129013657.45305     -5130.991 5        33.856                                                                    24177188.674 5 100343883.27305     -3990.742 5        30.664
S21         5.000    38323308.104 7 201389957.35207      -589.630 7        43.090
G06         6.000    23720569.128 6 124652495.95506      1689.468 6        41.323                                    23720578.930 6  97131893.05706      1316.465 6        36.325    23720579.842 6  97131884.05606      1316.523 6        39.231
G17         7.000    24058122.157 6 126426355.59606     -3722.829 6        40.441                                    24058130.735 5  98514108.87005     -2900.902 5        33.952    24058130.620 6  98514104.86306     -2900.863 6        38.111
R21         8.000    23798295.130 7 127349518.86407     -4113.616 7        43.640                                                                    23798305.182 6  99049696.62506     -3199.576 6        38.826
E30        10.000    23956291.940 8 125891295.11508       514.953 8        48.768                                                                    23956299.506 8  94009838.45408       384.514 8        50.635    23956298.254 8  96462258.16208       394.550 8        51.128
C26        11.000                                                                                                                                    22591604.194 8 117640387.50508     -2315.200 8        49.981                                                                    22591608.777 8  95592460.54608     -1881.258 8        48.367
S27        12.000    39095974.339 6 205450510.58006      -614.098 6        36.790
G15        13.000    24241754.300 6 127391033.88706     -4474.902 6        40.205                                    24241766.205 5  99265662.46405     -3486.919 5        32.832    24241766.444 6  99265654.43306     -3486.919 6        37.157
S36        14.000    38095155.837 7 200191747.96207      -590.005 7        44.868
G12        15.000    20360188.668 8 106993646.50308       655.836 8        50.025                                    20360190.282 8  83371745.44108       511.043 8        50.662    20360190.880 7  83371745.44407       511.107 7        45.937
E29        16.000    27087121.559 6 142343648.37706      1779.063 6        40.255                                                                    27087138.740 7 106295571.02707      1328.449 7        43.219    27087136.589 7 109068499.24507      1363.210 7        43.348
S45        17.000    63286257.157 6 332571798.21506      -651.691 6        36.450
R03        18.000    21163401.289 8 113289245.82308     -3652.780 8        48.486                                                                    21163408.724 7  88113847.07507     -2841.032 7        45.392
C35        19.000                                                                                                                                    22942202.727 8 119466195.51708      -148.378 8        48.043                                                                    22942208.016 7  97076143.44407      -120.562 7        47.204
E11        20.000    27208277.613 5 142980494.40705      -529.636 5        35.786                                                                    27208289.916 6 106771215.00906      -395.636 6        37.917    27208287.677 6 109556541.58706      -406.074 6        37.554
R14        21.000    21710039.632 8 115726741.88508      2272.849 8        49.178                                                                    21710050.809 7  90009744.06407      1767.809 7        44.230
I06        22.000    38285122.741 7 150239060.54207      -550.797 7        42.354
S28        23.000    40789178.663 5 214348339.21005      -598.854 5        35.319
S23        25.000    38032574.643 7 199862326.62207      -594.151 7        45.371
E08        26.000    25302445.658 7 132965112.99007     -3295.505 7        44.802                                                                    25302455.004 7  99292087.74807     -2460.973 7        47.580    25302453.370 8 101882318.47308     -2525.139 8        48.036
C07        27.000                                                                                                                                    39736074.302 6 206916065.16606     -1485.347 6        38.886    39736080.901 7 160000613.64507     -1148.616 7        42.993    39736076.266 6 168136230.34106     -1206.954 6        38.772
I02        29.000    36812569.939 7 144460406.07407      -534.250 7        43.414
G10        30.000    25056146.547 6 131670708.07506     -2647.572 6        39.099                                    25056162.257 4 102600498.36804     -2063.032 4        28.815    25056162.632 5 102600490.36705     -2062.994 5        34.252
E07        31.000    24222822.573 7 127291710.53107      -741.870 7        47.046                                                                    24222831.477 8  95055493.39808      -554.012 8        50.151    24222830.060 8  97535200.18908      -568.433 8        50.347
C12        32.000                                                                                                                                    25474773.258 6 132653849.97306      2872.141 6        38.964    25474785.193 7 102576435.43607      2220.846 7        45.982    25474780.007 7 107792160.60107      2333.818 7        42.432
E10        33.000    28291385.283 5 148672274.93105     -1789.153 5        35.905                                                                    28291398.245 6 111021588.06906     -1336.195 6        41.037    28291396.748 6 113917790.36406     -1370.988 6        41.132
R23        34.000    21392614.025 7 114436157.20907      2736.138 7        45.666
C24        35.000                                                                                                                                    21433623.991 8 111610540.67408       305.394 8        51.689                                                                    21433625.682 8  90692728.35308       248.116 8        49.872
R05        36.000    23764877.395 7 127036819.69607      2947.875 7        43.642                                                                    23764889.729 6  98806432.37206      2292.758 6        40.989
E27        37.000    27622927.305 6 145159457.46606      1920.314 6        39.480                                                                    27622945.134 6 108398377.34506      1433.941 6        41.066    27622942.465 6 111226149.50906      1471.322 6        41.106
R04        38.000    21009732.079 8 112506070.02908         6.719 8        49.404                                                                    21009739.190 7  87504706.82007         5.244 7        44.694
C33        39.000                                                                                                                                    24650454.009 7 128361306.78907     -2612.036 7        44.795                                                                    24650474.795 7 104304134.90307     -2122.480 7        44.882
E25        40.000    27885374.862 6 146538477.35206     -3172.629 6        36.253                                                                    27885391.655 6 109428039.42706     -2369.158 6        40.312    27885389.803 6 112282681.52406     -2430.997 6        41.159
S44        42.000    40690947.154 6 213832312.20806      -524.705 6        38.246
R22        43.000    21085056.643 8 112553586.63408      -681.109 8        48.990                                                                    21085063.683 7  87541764.34407      -529.804 7        46.215
C05        44.000                                                                                                                                    39345847.282 6 204883987.72306      -599.379 6        38.432    39345855.275 7 158429267.86407      -463.542 7        43.041    39345853.987 6 166485084.30806      -487.083 6        39.520
C40        45.000                                                                                                                                    40161875.131 6 209133314.60306     -1768.488 6        39.868                                                                    40161884.776 6 169937940.62106     -1437.011 6        39.093
G32        46.000    23853222.865 7 125349398.16607      1953.557 7        42.997                                    23853235.022 6  97674847.70606      1522.254 6        38.021    23853235.599 6  97674849.70406      1522.282 6        40.102
E36        47.000    27034920.007 6 142069508.25006      1619.876 6        40.472                                                                    27034935.468 7 106090967.30207      1209.630 7        43.433    27034933.398 7 108858542.45707      1241.152 7        43.934
C41        48.000                                                                                                                                    25305475.773 7 131772234.92607       -32.927 7        42.993                                                                    25305492.632 7 107075803.56807       -26.672 7        43.793
C10        49.000                                                                                                                                    38857744.399 6 202342441.52906     -1206.833 6        41.113    38857751.810 7 156464016.74407      -933.181 7        43.481    38857747.604 6 164419803.40206      -980.650 6        40.701
C42        50.000                                                                                                                                    26416728.069 6 137558543.90906     -3843.470 6        39.928                                                                    26416751.020 6 111777560.08306     -3123.232 6        40.007
S48        51.000    77031468.592 6 404804208.17006      -595.816 6        38.432
E02        53.000    23769598.256 7 124910137.30607     -1983.227 7        47.963                                                                    23769605.071 8  93277119.35608     -1481.025 8        50.418    23769603.725 8  95710417.99208     -1519.629 8        50.834
C60        54.000                                                                                                                                    40690947.971 6 211888399.27006      -519.955 6        40.217                                                                    40690944.395 6 172176598.33306      -422.433 6        38.480
R12        56.000    21413628.782 8 114387778.36108     -3320.552 8        48.359                                                                    21413637.836 7  88968291.46607     -2582.681 7        44.361
C02        57.000                                                                                                                                    40851674.568 5 212725197.35105      -556.300 5        31.675    40851684.734 6 164492547.54806      -430.330 6        36.904    40851683.169 5 172856600.71805      -452.183 5        31.268
I03        58.000   120255852.378 5 396124214.58005       893.275 5        32.976
C14        59.000                                                                                                                                    25215348.831 6 131302742.17506     -3508.725 6        41.035    25215358.746 7 101531548.62007     -2713.189 7        46.704    25215353.092 7 106694178.28307     -2851.126 7        43.024
R13        60.000    19364047.615 7 103403006.64407      -864.098 7        46.869
> 2025 01 01 12 15 20.0000000  0 54
G19         1.000    21455491.726 7 112749512.04707     -2145.518 7        46.127                                    21455493.526 6  87856846.96106     -1671.833 6        36.023
G25         2.000    22525979.655 7 118374856.44007      2527.279 7        43.039                                    22525989.734 6  92240208.08706      1969.305 6        38.369    22525990.472 6  92240218.08806      1969.232 6        39.613
G24         3.000    20150230.661 8 105890186.79208     -1743.781 8        50.929                                    20150234.710 8  82511865.20108     -1358.789 8        52.685    20150235.182 7  82511862.20007     -1358.821 7        46.106
R02         4.000    24181976.727 5 129039310.10405     -5130.264 5        33.126                                                                    24181995.873 4 100363835.26004     -3990.528 4        29.109
S21         5.000    38323868.657 7 201392904.17707      -589.281 7        43.048
G06         6.000    23718962.377 6 124644052.59706      1687.646 6        41.082                                    23718972.101 6  97125313.83806      1315.043 6        36.439    23718972.409 6  97125304.85906      1314.997 6        39.093
G17         7.000    24061664.763 6 126444971.86806     -3723.804 6        40.591                                    24061673.387 5  98528615.03405     -2901.659 5        33.862    24061673.563 6  98528611.02206     -2901.530 6        37.694
R21         8.000    23802140.076 7 127370092.18207     -4115.889 7        43.439                                                                    23802150.454 6  99065698.19206     -3201.286 6        38.610
E30        10.000    23955802.356 8 125888722.84308       513.840 8        48.890                                                                    23955810.049 8  94007917.59908       383.705 8        50.727    23955808.787 8  96460287.19608       393.759 8        51.099
C26        11.000                                                                                                                                    22593827.641 8 117651965.80208     -2316.183 8        50.067                                                                    22593832.193 8  95601868.85908     -1882.234 8        48.370
S27        12.000    39096557.282 6 205453579.44406      -613.703 6        36.412
G15        13.000    24246012.533 6 127413408.25606     -4474.790 6        40.925                                    24246023.838 5  99283096.96705     -3486.836 5        32.772    24246024.814 6  99283088.95306     -3486.865 6        37.425
S36        14.000    38095716.538 7 200194697.54707      -589.799 7        44.781
G12        15.000    20359565.370 8 106990372.07208       653.842 8        50.208                                    20359567.171 8  83369193.94008       509.486 8        50.595    20359567.996 7  83369193.94107       509.446 7        46.096
E29        16.000    27085429.348 6 142334755.75106      1777.927 6        40.203                                                                    27085446.370 7 106288930.44207      1327.630 7        43.118    27085444.434 7 109061685.42707      1362.365 7        43.391
S45        17.000    63286824.364 6 332575056.32406      -651.769 6        36.416
R03        18.000    21166814.536 8 113307516.76808     -3655.721 8        48.282                                                                    21166822.151 7  88128057.78307     -2843.333 7        45.175
C35        19.000                                                                                                                                    22942346.728 8 119466943.46408      -150.946 8        48.072                                                                    22942351.616 7  97076751.21907      -122.750 7        47.203
E11        20.000    27208782.699 6 142983148.97606      -532.273 6        36.004                                                                    27208794.894 6 106773197.34306      -397.389 6        37.750    27208792.995 6 109558575.62806      -407.950 6        37.342
R14        21.000    21707908.328 8 115715378.93108      2272.270 8        49.230                                                                    21707918.873 7  90000906.24107      1767.230 7        43.839
I06        22.000    38285824.385 7 150241813.95207      -550.656 7        42.235
S28        23.000    40789746.537 5 214351332.57805      -598.431 5        35.271
S23        25.000    38033139.754 7 199865297.06207      -594.138 7        45.440
E08        26.000    25305581.696 7 132981592.84207     -3296.546 7        45.079                                                                    25305590.957 7  99304394.10007     -2461.746 7        47.539    25305589.279 8 101894945.85808     -2525.922 8        48.003
C07        27.000                                                                                                                                    39737500.868 6 206923491.31906     -1485.391 6        38.736    39737506.924 7 160006356.02607     -1148.581 7        42.834    39737502.596 6 168142264.68406     -1206.797 6        39.072
I02        29.000    36813250.916 7 144463077.36007      -534.298 7        43.202
G10        30.000    25058666.107 6 131683948.89506     -2649.023 6        38.195                                    25058681.846 4 102610815.85804     -2064.173 4        28.720    25058682.528 5 102610807.85205     -2064.227 5        34.710
