     3.04           OBSERVATION DATA    M                   RINEX VERSION / TYPE
ssrcrin-15.6.1x                         20250101 071500 UTC PGM / RUN BY / DATE 
(00000000023479385599111004) Septentrio proprietary         COMMENT             
rref                                                        MARKER NAME         
01                                                          MARKER NUMBER       
geodetic                                                    MARKER TYPE         
NFB                 CLIMERS@TUW                             OBSERVER / AGENCY   
3297213             SEPT ASTERX SB3 PROB4.14.4              REC # / TYPE / VERS 
Unknown             Unknown                                 ANT # / TYPE        
  4127831.4687  1207192.6700  4695247.6315                  APPROX POSITION XYZ 
        0.0000        0.0000        0.0000                  ANTENNA: DELTA H/E/N
G   23 X1  C1C L1C D1C S1C C1W S1W C2W L2W D2W S2W C2L L2L  SYS / # / OBS TYPES 
       D2L S2L C5Q L5Q D5Q S5Q C1L L1L D1L S1L              SYS / # / OBS TYPES 
E   21 X1  C1C L1C D1C S1C C6C L6C D6C S6C C5Q L5Q D5Q S5Q  SYS / # / OBS TYPES 
       C7Q L7Q D7Q S7Q C8Q L8Q D8Q S8Q                      SYS / # / OBS TYPES 
S    9 X1  C1C L1C D1C S1C C5I L5I D5I S5I                  SYS / # / OBS TYPES 
R   17 X1  C1C L1C D1C S1C C2P L2P D2P S2P C2C L2C D2C S2C  SYS / # / OBS TYPES 
       C3Q L3Q D3Q S3Q                                      SYS / # / OBS TYPES 
C   25 X1  C1P L1P D1P S1P C5P L5P D5P S5P C2I L2I D2I S2I  SYS / # / OBS TYPES 
       C7I L7I D7I S7I C6I L6I D6I S6I C7D L7D D7D S7D      SYS / # / OBS TYPES 
J   17 X1  C1C L1C D1C S1C C2L L2L D2L S2L C5Q L5Q D5Q S5Q  SYS / # / OBS TYPES 
       C1L L1L D1L S1L                                      SYS / # / OBS TYPES 
I    5 X1  C5A L5A D5A S5A                                  SYS / # / OBS TYPES 
SEPTENTRIO RECEIVERS OUTPUT ALIGNED CARRIER PHASES.         COMMENT             
NO FURTHER PHASE SHIFT APPLIED IN THE RINEX ENCODER.        COMMENT             
G L1C                                                       SYS / PHASE SHIFT   
G L2W                                                       SYS / PHASE SHIFT   
G L2L  0.00000                                              SYS / PHASE SHIFT   
G L5Q  0.00000                                              SYS / PHASE SHIFT   
G L1L  0.00000                                              SYS / PHASE SHIFT   
E L1C  0.00000                                              SYS / PHASE SHIFT   
E L6C  0.00000                                              SYS / PHASE SHIFT   
E L5Q  0.00000                                              SYS / PHASE SHIFT   
E L7Q  0.00000                                              SYS / PHASE SHIFT   
E L8Q  0.00000                                              SYS / PHASE SHIFT   
S L1C                                                       SYS / PHASE SHIFT   
S L5I                                                       SYS / PHASE SHIFT   
R L1C                                                       SYS / PHASE SHIFT   
R L2P  0.00000                                              SYS / PHASE SHIFT   
R L2C                                                       SYS / PHASE SHIFT   
R L3Q  0.00000                                              SYS / PHASE SHIFT   
C L1P  0.00000                                              SYS / PHASE SHIFT   
C L5P  0.00000                                              SYS / PHASE SHIFT   
C L2I                                                       SYS / PHASE SHIFT   
C L7I                                                       SYS / PHASE SHIFT   
C L6I                                                       SYS / PHASE SHIFT   
C L7D                                                       SYS / PHASE SHIFT   
J L1C                                                       SYS / PHASE SHIFT   
J L2L  0.00000                                              SYS / PHASE SHIFT   
J L5Q  0.00000                                              SYS / PHASE SHIFT   
J L1L  0.00000                                              SYS / PHASE SHIFT   
I L5A                                                       SYS / PHASE SHIFT   
  2025     1     1     7    15    0.0000000     GPS         TIME OF FIRST OBS   
 C1C    0.000 C2C    0.000 C2P    0.000                     GLONASS COD/PHS/BIS 
DBHZ                                                        SIGNAL STRENGTH UNIT
    18                                                      LEAP SECONDS        
 24 R01  1 R02 -4 R03  5 R04  6 R05  1 R06 -4 R07  5 R08  6 GLONASS SLOT / FRQ #
    R09 -2 R10 -7 R11  0 R12 -1 R13 -2 R14 -7 R15  0 R16 -1 GLONASS SLOT / FRQ #
    R17  4 R18 -3 R19  3 R20  2 R21  4 R22 -3 R23  3 R24  2 GLONASS SLOT / FRQ #
                                                            END OF HEADER       
> 2025 01 01 07 15  0.0000000  0 55
G08         1.000    24376189.725 6 128097788.79306       629.624 6        37.240                                    24376197.896 5  99816511.36105       490.602 5        30.211    24376198.562 6  99816521.37406       490.647 6        37.297
R01         2.000    20263575.651 8 108320395.34708      2245.930 8        48.747                                                                    20263576.127 6  84249259.82906      1746.778 6        40.875
G09         3.000    24472769.066 6 128605109.91906     -3722.423 6        38.240                                    24472779.206 5 100211733.59305     -2900.574 5        32.000    24472779.494 6 100211734.55306     -2900.519 6        37.134
R02         4.000    24486287.968 7 130663514.87107      3552.711 7        44.442                                                                    24486290.453 5 101627190.57505      2763.680 5        35.919
S21         5.000    38478503.021 7 202205658.29607      -391.505 7        43.554
E05         6.000    22967588.821 7 120695483.02007     -1948.025 7        46.372                                                                    22967592.804 8  90129757.09608     -1454.664 8        49.160    22967592.274 8  92480962.12308     -1492.611 8        50.368
E15         7.000    26997914.063 6 141874962.09206     -2892.576 6        40.441                                                                    26997918.353 7 105945596.47007     -2160.023 7        42.305    26997917.723 7 108709394.21907     -2216.329 7        43.566
R10         8.000    19799479.941 7 105542352.36307     -2145.131 7        45.284
E31         9.000    28014653.793 6 147217946.64006     -2951.705 6        36.227                                                                    28014659.127 6 109935485.39806     -2204.067 6        40.694    28014658.517 6 112803367.74606     -2261.626 6        41.878
G18        10.000    25175714.097 6 132299266.42106       699.162 6        37.917                                    25175711.498 3 103090322.34103       544.794 3        22.210    25175711.970 6 103090330.33606       544.978 6        39.315
S27        12.000    39145832.465 6 205712594.74606      -418.810 6        36.794
G15        13.000    24420819.226 6 128332268.90706      3295.483 6        39.003                                    24420816.028 5  99999153.70805      2567.911 5        30.241    24420816.583 5  99999145.69205      2568.081 5        35.514
S36        14.000    38247360.451 7 200991718.19307      -392.245 7        44.441
G20        15.000    21215566.852 8 111488522.32908     -2238.250 8        48.097                                    21215564.709 6  86874144.30706     -1744.088 6        37.580
R11        16.000    19986580.555 8 106802229.12908      2198.882 8        51.833                                                                    19986582.189 8  83068398.34508      1710.187 8        49.159
S45        17.000    63429026.540 6 333322657.15106      -436.763 6        36.715
E13        18.000    26927993.852 6 141507571.35406      -680.578 6        39.637                                                                    26927995.946 7 105671225.87207      -508.347 7        42.988    26927995.275 7 108427867.59907      -521.515 7        44.119
E24        19.000    25145542.225 7 132140672.99207      -777.162 7        45.055                                                                    25145544.433 8  98676478.20808      -580.354 8        48.146    25145543.621 8 101250644.91208      -595.459 8        49.003
R18        20.000    23888175.914 6 127516701.68306      1081.518 6        41.008                                                                    23888177.861 6  99179649.65106       841.159 6        40.453
G30        21.000    20492065.564 8 107686528.70708      -885.248 8        50.490                                    20492065.379 8  83911582.18108      -689.803 8        52.046    20492065.816 7  83911586.17807      -689.840 7        45.601
I06        22.000    38028879.376 7 149233624.98907      -335.356 7        43.761
S28        23.000    40911744.433 5 214992473.63705      -397.446 5        35.205
G14        24.000    21971154.514 7 115459188.20807      2387.227 7        46.230                                    21971154.595 5  89968198.29305      1860.176 5        34.924    21971154.786 7  89968200.29407      1860.185 7        44.755
S23        25.000    38181261.226 7 200643802.83707      -389.872 7        44.688
E08        26.000    26889136.067 6 141303350.44506      2019.231 6        40.791                                                                    26889135.913 7 105518730.16107      1507.917 7        42.870    26889135.401 7 108271390.78407      1547.172 7        44.277
C07        27.000                                                                                                                                    39834967.267 6 207431111.70806       865.423 6        38.556    39834967.560 7 160398903.01707       669.068 7        42.707    39834964.379 6 168554766.12306       703.108 6        39.411
G13        28.000    21472008.238 7 112836158.53207      2096.685 7        45.977                                    21472005.494 5  87924255.95105      1633.782 5        32.874
R09        29.000    22826211.442 7 121890642.42207     -4400.250 7        43.082                                                                    22826214.070 7  94803820.92207     -3422.520 7        42.686
C22        30.000                                                                                                                                    22285667.373 8 116047295.91508     -2264.921 8        50.880                                                                    22285663.312 8  94297910.51908     -1840.610 8        50.082
I01        31.000   345782724.772 6  53784688.51206     -3052.368 6        41.197
E03        32.000    23533237.007 8 123667987.92608       407.728 8        48.160                                                                    23533238.637 8  92349483.33008       304.427 8        50.847    23533238.124 8  94758594.98608       312.438 8        51.713
G05        33.000    21134199.280 7 111060967.82307       243.696 7        47.536                                    21134196.638 7  86541006.53607       189.893 7        47.596    21134196.880 7  86541009.53607       189.883 7        44.563
C36        35.000                                                                                                                                    22416608.532 8 116729136.13208     -1931.100 8        49.163                                                                    22416615.066 8  94852000.02908     -1569.197 8        50.216
G11        36.000    25586905.812 6 134460027.02906     -3616.062 6        38.709                                    25586908.462 3 104774021.51103     -2817.707 3        18.209    25586907.697 6 104774021.52306     -2817.914 6        36.257
I09        38.000    39221604.324 6 153913833.90106      -903.061 6        41.974
R08        39.000    19641170.633 8 105177552.24908     -1806.244 8        50.679                                                                    19641171.413 7  81804753.85707     -1404.819 7        47.426
E25        40.000    24918310.653 7 130946605.51207      1928.501 7        46.389                                                                    24918315.398 8  97784805.47108      1440.069 8        48.238    24918314.490 8 100335705.55008      1477.666 8        48.868
G27        41.000    24983077.821 5 131286970.67405      -885.440 5        35.986                                    24983079.332 4 102301549.44604      -689.939 4        27.832    24983079.376 5 102301553.49705      -689.985 5        35.100
S44        42.000    40910928.482 6 214988360.41406      -422.469 6        37.251
C09        43.000                                                                                                                                    40321089.961 6 209962400.51006     -1120.371 6        37.138    40321094.047 6 162356207.41206      -866.390 6        41.778    40321089.756 6 170611605.81606      -910.479 6        38.258
C05        44.000                                                                                                                                    39335797.945 6 204831733.05506      -452.418 6        38.712    39335800.496 7 158388881.47807      -349.985 7        43.560    39335800.039 6 166442639.36706      -367.786 6        39.724
C40        45.000                                                                                                                                    39972139.277 6 208145412.32406      1093.102 6        41.049                                                                    39972141.849 6 169135212.17706       888.194 6        40.691
C21        46.000                                                                                                                                    22315064.857 8 116200376.44908       859.274 8        51.391                                                                    22315060.297 8  94422292.09108       698.096 8        49.867
R17        47.000    23430995.359 7 125383997.93207     -1785.509 7        45.503                                                                    23430994.802 6  97520892.60006     -1388.915 6        40.291
C06        49.000                                                                                                                                    41249876.448 5 214798754.83205     -1289.133 5        32.186    41249884.166 5 166095953.35605      -996.803 5        35.419    41249881.073 5 174541520.12705     -1047.545 5        32.042
C42        50.000                                                                                                                                    25803214.958 6 134364105.20006      2705.080 6        40.198                                                                    25803223.678 7 109181876.72507      2198.050 7        42.688
S48        51.000    77200983.970 6 405693449.95006      -377.517 6        38.249
C19        52.000                                                                                                                                    26798721.763 4 139547802.35504     -3675.321 4        26.228                                                                    26798726.859 5 113393976.78005     -2986.515 5        30.581
E02        53.000    28248208.616 5 148445330.77005      2859.928 5        35.219                                                                    28248219.794 6 110852083.19606      2135.691 6        36.268    28248218.352 6 113743861.30206      2191.227 6        36.915
C60        54.000                                                                                                                                    40910929.040 6 213033938.35206      -418.708 6        40.431                                                                    40910922.741 6 173107451.75006      -340.524 6        38.447
C45        55.000                                                                                                                                    22079675.204 8 114974646.61708      1127.186 8        50.996                                                                    22079668.914 8  93426288.33008       915.818 8        50.238
C02        57.000                                                                                                                                    40913919.156 5 213049337.97905      -458.970 5        33.856    40913926.522 6 164743198.73106      -354.886 6        38.757    40913926.254 5 173119995.63105      -372.941 5        35.148
I03        58.000   126203259.432 6 419463171.63006       918.062 6        40.472
R07        59.000    23047772.763 7 123376396.66807     -4134.393 7        43.928                                                                    23047781.385 7  95959380.63107     -3215.623 7        42.389
G07        60.000    22216678.411 7 116749413.89507     -2579.604 7        45.878                                    22216677.119 7  90973551.29107     -2010.075 7        43.664    22216677.189 6  90973552.27706     -2010.059 6        41.988
> 2025 01 01 07 15  5.0000000  0 55
G08         1.000    24375592.408 6 128094648.18106       626.598 6        37.448                                    24375600.125 4  99814064.18804       488.241 4        29.924    24375600.629 6  99814074.19306       488.263 6        36.919
R01         2.000    20261475.476 8 108309171.09208      2243.708 8        48.900                                                                    20261477.324 6  84240529.84306      1745.031 6        41.139
G09         3.000    24476311.543 6 128623723.85906     -3723.221 6        38.495                                    24476321.451 5 100226237.90105     -2901.196 5        32.425    24476322.266 6 100226238.89406     -2901.405 6        37.108
R02         4.000    24482958.772 6 130645749.31806      3553.470 6        41.230                                                                    24482959.874 6 101613373.03006      2763.647 6        39.003
S21         5.000    38478873.124 7 202207615.51207      -391.535 7        43.558
E05         6.000    22969442.824 7 120705225.38607     -1949.098 7        46.342                                                                    22969446.733 8  90137032.22108     -1455.487 8        49.219    22969446.131 8  92488427.03108     -1493.397 8        50.416
E15         7.000    27000666.678 6 141889428.02406     -2894.025 6        40.515                                                                    27000671.160 7 105956398.91607     -2161.024 7        42.296    27000670.605 7 108720478.48107     -2217.422 7        43.687
R10         8.000    19801493.862 7 105553087.46007     -2148.977 7        45.905
E31         9.000    28017462.807 6 147232707.78706     -2952.849 6        36.280                                                                    28017468.014 6 109946508.33006     -2205.132 6        40.548    28017467.530 6 112814678.22606     -2262.563 6        41.876
G18        10.000    25175050.447 6 132295778.03806       696.117 6        38.303                                    25175047.507 3 103087604.10103       542.428 3        22.057    25175047.711 6 103087612.08306       542.334 6        38.649
S27        12.000    39146228.333 6 205714688.67006      -418.799 6        36.790
G15        13.000    24417683.563 6 128315792.72906      3294.969 6        38.736                                    24417680.633 5  99986315.11905      2567.506 5        30.098    24417680.874 5  99986307.12805      2567.548 5        35.371
S36        14.000    38247733.617 7 200993678.94907      -392.290 7        44.489
G20        15.000    21217697.923 8 111499720.90908     -2241.342 8        48.140                                    21217695.791 6  86882870.45406     -1746.496 6        37.664
R11        16.000    19984525.253 8 106791243.65708      2195.249 8        52.337                                                                    19984526.190 8  83059854.08508      1707.424 8        48.811
S45        17.000    63429397.072 6 333324840.55106      -436.996 6        36.646
E13        18.000    26928642.948 6 141510981.05706      -683.271 6        39.583                                                                    26928644.686 7 105673772.07507      -510.282 7        42.929    26928644.160 7 108430480.24307      -523.597 7        44.098
E24        19.000    25146282.940 7 132144564.71007      -779.608 7        45.242                                                                    25146285.070 8  98679384.35308      -582.223 8        48.178    25146284.237 8 101253626.87608      -597.407 8        49.119
R18        20.000    23887164.552 6 127511303.82606      1077.458 6        41.928                                                                    23887166.867 6  99175451.32206       837.914 6        40.024
G30        21.000    20492908.813 8 107690960.43308      -887.563 8        50.805                                    20492908.719 8  83915035.46608      -691.607 8        52.098    20492909.148 7  83915039.46407      -691.648 7        45.824
I06        22.000    38029306.668 7 149235302.06707      -335.560 7        43.672
S28        23.000    40912123.327 5 214994460.50305      -397.571 5        35.152
G14        24.000    21968883.890 7 115447256.62107      2385.187 7        46.033                                    21968884.160 5  89958900.96105      1858.585 5        34.933    21968884.062 7  89958902.95907      1858.675 7        45.044
S23        25.000    38181631.856 7 200645752.53407      -390.106 7        44.739
E08        26.000    26887214.926 6 141293254.56806      2018.888 6        41.073                                                                    26887214.772 7 105511191.01407      1507.683 7        42.906    26887214.265 7 108263654.95607      1547.079 7        44.423
C07        27.000                                                                                                                                    39834136.531 6 207426787.03906       864.345 6        39.063    39834136.925 7 160395558.90207       668.428 7        42.743    39834133.787 6 168551251.94306       702.552 6        39.327
G13        28.000    21470014.125 7 112825678.86107      2095.146 7        46.236                                    21470011.284 5  87916089.96905      1632.584 5        32.922
R09        29.000    22830331.952 7 121912646.36407     -4401.527 7        43.336                                                                    22830335.462 7  94820935.05707     -3423.352 7        42.260
C22        30.000                                                                                                                                    22287842.991 8 116058625.84208     -2267.082 8        51.015                                                                    22287839.115 8  94307116.97908     -1842.116 8        50.065
I01        31.000   345786614.287 6  53799950.52406     -3052.419 6        41.023
E03        32.000    23532849.586 8 123665952.04508       406.483 8        48.279                                                                    23532851.250 8  92347963.01308       303.552 8        50.874    23532850.713 8  94757035.01508       311.454 8        51.731
G05        33.000    21133968.812 7 111059758.22707       240.055 7        47.431                                    21133966.470 7  86540063.98307       187.059 7        47.601    21133966.755 7  86540066.97207       187.089 7        44.719
C36        35.000                                                                                                                                    22418463.723 8 116738796.79008     -1933.301 8        49.271                                                                    22418470.320 8  94859850.08408     -1570.872 8        50.216
G11        36.000    25590346.816 6 134478108.46006     -3616.253 6        39.177                                    25590349.085 3 104788110.89503     -2817.853 3        18.298    25590348.908 6 104788110.86606     -2817.672 6        36.911
I09        38.000    39222754.570 6 153918349.45806      -903.279 6        41.862
R08        39.000    19642858.931 8 105186591.41908     -1809.472 8        50.532                                                                    19642859.421 7  81811784.31907     -1407.336 7        47.463
E25        40.000    24916476.408 7 130936967.36707      1926.715 7        46.323                                                                    24916481.269 8  97777608.16108      1438.771 8        48.261    24916480.404 8 100328320.48408      1476.344 8        48.905
G27        41.000    24983920.561 5 131291406.04805      -888.887 5        35.486                                    24983923.342 4 102305005.63804      -692.671 4        27.904    24983923.875 5 102305009.62705      -692.570 5        35.143
S44        42.000    40911328.196 6 214990473.69806      -422.844 6        37.157
C09        43.000                                                                                                                                    40322165.149 6 209968002.27306     -1120.645 6        37.104    40322169.888 6 162360539.00606      -866.348 6        41.793    40322165.596 6 170616157.66306      -910.332 6        38.309
C05        44.000                                                                                                                                    39336231.952 6 204833995.65606      -452.618 6        38.643    39336234.914 7 158390631.02007      -350.007 7        43.589    39336234.551 6 166444477.85906      -367.742 6        39.766
C40        45.000                                                                                                                                    39971089.934 6 208139948.48606      1092.264 6        41.228                                                                    39971092.536 6 169130772.35406       887.693 6        40.765
C21        46.000                                                                                                                                    22314240.715 8 116196085.37308       857.068 8        51.402                                                                    22314236.219 8  94418805.20908       696.552 8        49.854
R17        47.000    23432665.629 7 125392935.52107     -1789.628 7        45.291                                                                    23432665.331 6  97527844.01006     -1391.894 6        40.055
C06        49.000                                                                                                                                    41251114.618 5 214805199.68405     -1289.377 5        32.120    41251122.172 5 166100936.86705      -996.876 5        34.890    41251118.690 5 174546756.98305     -1047.276 5        32.760
C42        50.000                                                                                                                                    25800618.126 6 134350581.01006      2704.517 6        40.875                                                                    25800626.673 7 109170887.20107      2197.688 7        42.656
S48        51.000    77201349.418 6 405695337.24306      -377.716 6        38.363
C19        52.000                                                                                                                                    26802249.688 4 139566179.87504     -3676.085 4        26.024                                                                    26802256.300 5 113408909.90505     -2986.949 5        30.234
E02        53.000    28245487.310 5 148431030.86705      2859.991 5        35.776                                                                    28245498.661 6 110841404.68106      2135.638 6        36.790    28245497.241 6 113732904.22506      2191.323 6        37.191
C60        54.000                                                                                                                                    40911331.258 6 213036032.41706      -418.839 6        40.482                                                                    40911324.735 6 173109153.28906      -340.242 6        38.414
C45        55.000                                                                                                                                    22078593.930 8 114969016.29508      1124.798 8        50.974                                                                    22078587.665 8  93421713.21108       914.075 8        50.247
C02        57.000                                                                                                                                    40914359.190 5 213051632.48305      -458.942 5        33.790    40914367.080 6 164744972.96006      -355.043 6        38.799    40914366.825 5 173121860.05005      -372.750 5        35.024
I03        58.000   126202089.804 6 419458581.04306       918.017 6        40.477
R07        59.000    23051635.746 7 123397071.84807     -4135.797 7        43.869                                                                    23051644.233 7  95975461.24407     -3216.692 7        42.366
G07        60.000    22219133.782 7 116762314.86607     -2580.803 7        46.608                                    22219132.107 7  90983603.97407     -2011.014 7        43.695    22219132.397 7  90983604.97007     -2010.956 7        42.190
> 2025 01 01 07 15 10.0000000  0 55
G08         1.000    24374997.218 6 128091522.20406       623.677 6        37.437                                    24375005.064 4  99811628.40604       485.970 4        29.763    24375004.430 6  99811638.44906       485.695 6        36.491
R01         2.000    20259377.756 8 108297957.76708      2241.255 8        48.812                                                                    20259378.721 6  84231808.36606      1743.239 6        41.027
G09         3.000    24479854.169 6 128642340.98706     -3724.008 6        38.459                                    24479864.278 5 100240744.68305     -2901.814 5        32.599    24479864.516 6 100240745.66906     -2901.797 6        37.043
R02         4.000    24479628.631 6 130627982.13806      3553.017 6        41.490                                                                    24479630.214 6 101599554.17206      2763.585 6        39.393
S21         5.000    38479246.097 7 202209572.95007      -391.746 7        43.619
E05         6.000    22971297.598 7 120714973.23707     -1950.445 7        46.189                                                                    22971301.718 8  90144311.43108     -1456.438 8        49.173    22971301.008 8  92495896.14108     -1494.470 8        50.425
E15         7.000    27003420.832 6 141903900.41306     -2895.470 6        40.493                                                                    27003425.221 7 105967206.21007     -2162.260 7        42.237    27003424.620 7 108731567.70207     -2218.619 7        43.799
R10         8.000    19803511.723 7 105563841.87107     -2153.121 7        45.883
E31         9.000    28020272.925 6 147247475.25606     -2954.244 6        36.801                                                                    28020278.098 6 109957535.95906     -2206.281 6        40.284    28020277.563 6 112825993.53406     -2263.872 6        41.740
G18        10.000    25174389.845 6 132292305.01106       692.757 6        38.342                                    25174386.489 3 103084897.84703       539.828 3        21.929    25174387.941 6 103084905.82806       539.822 6        38.673
S27        12.000    39146630.086 6 205716782.94406      -419.175 6        36.843
G15        13.000    24414548.937 6 128299318.08806      3294.564 6        39.222                                    24414545.458 4  99973477.72204      2567.186 4        29.772    24414545.892 5  99973469.73705      2566.941 5        35.343
S36        14.000    38248108.388 7 200995640.18407      -392.599 7        44.409
G20        15.000    21219831.660 8 111510934.41008     -2244.498 8        48.037                                    21219829.658 6  86891608.22806     -1748.954 6        37.546
R11        16.000    19982473.027 8 106780275.88508      2191.446 8        52.589                                                                    19982473.361 8  83051323.58608      1704.413 8        48.113
S45        17.000    63429771.136 6 333327024.42206      -437.220 6        36.560
E13        18.000    26929294.165 6 141514403.72906      -686.098 6        39.544                                                                    26929296.002 7 105676327.95507      -512.400 7        43.018    26929295.327 7 108433102.78607      -525.759 7        44.141
E24        19.000    25147025.796 7 132148468.96907      -782.496 7        45.559                                                                    25147028.015 8  98682299.85708      -584.308 8        48.141    25147027.203 8 101256618.44108      -599.560 8        49.173
R18        20.000    23886157.990 6 127505925.75606      1073.227 6        41.049                                                                    23886158.885 6  99171268.35206       834.870 6        39.871
G30        21.000    20493754.281 8 107695403.35808      -890.062 8        50.650                                    20493754.199 8  83918497.47808      -693.555 8        52.081    20493754.934 7  83918501.47107      -693.525 7        45.609
I06        22.000    38029734.330 7 149236979.58607      -335.763 7        43.589
S28        23.000    40912499.636 5 214996448.13205      -397.933 5        35.186
G14        24.000    21966615.353 7 115435335.25007      2382.956 7        45.977                                    21966615.630 5  89949611.59505      1856.842 5        34.895    21966615.614 7  89949613.61507      1856.788 7        44.968
S23        25.000    38182002.281 7 200647702.67107      -390.460 7        44.546
E08        26.000    26885294.009 6 141283159.98806      2018.436 6        41.137                                                                    26885293.876 7 105503652.83907      1507.259 7        43.027    26885293.369 7 108255920.13707      1546.705 7        44.468
C07        27.000                                                                                                                                    39833306.468 6 207422466.05606       863.546 6        39.129    39833307.054 7 160392217.65307       667.739 7        42.851    39833304.073 6 168547740.80506       701.700 6        39.210
G13        28.000    21468021.386 7 112815206.05707      2093.473 7        46.267                                    21468018.429 5  87907929.33405      1631.276 5        32.898
R09        29.000    22834453.782 7 121934656.35907     -4402.821 7        43.448                                                                    22834456.966 7  94838053.94207     -3424.466 7        42.159
C22        30.000                                                                                                                                    22290021.039 8 116069966.23108     -2269.471 8        51.233                                                                    22290016.884 8  94316331.95708     -1844.057 8        49.969
I01        31.000   345790503.551 6  53815213.28406     -3052.864 6        40.648
E03        32.000    23532463.271 8 123663922.05208       405.097 8        48.473                                                                    23532464.977 8  92346447.10308       302.511 8        50.834    23532464.401 8  94755479.55608       310.442 8        51.834
G05        33.000    21133742.181 7 111058566.32907       236.287 7        47.743                                    21133739.661 7  86539135.22007       184.121 7        47.551    21133740.297 7  86539138.21607       184.172 7        44.922
C36        35.000                                                                                                                                    22420321.158 8 116748468.16908     -1935.725 8        49.405                                                                    22420327.627 8  94867708.86008     -1572.826 8        50.113
G11        36.000    25593787.503 6 134496188.99606     -3616.438 6        38.366                                    25593789.646 3 104802199.58803     -2817.994 3        18.269    25593789.622 6 104802199.54806     -2817.960 6        36.824
I09        38.000    39223905.602 6 153922865.73006      -903.524 6        41.604
R08        39.000    19644550.256 8 105195646.56808     -1812.971 8        50.906                                                                    19644550.432 7  81818827.19207     -1410.109 7        47.342
E25        40.000    24914644.114 7 130927337.82107      1924.720 7        46.439                                                                    24914648.828 8  97770417.27308      1437.321 8        48.269    24914648.019 8 100320942.01408      1474.775 8        48.936
G27        41.000    24984768.002 5 131295858.06205      -892.439 5        35.438                                    24984770.477 4 102308474.72704      -695.432 4        27.545    24984771.185 5 102308478.72405      -695.303 5        35.362
S44        42.000    40911733.370 6 214992587.21906      -423.054 6        37.187
C09        43.000                                                                                                                                    40323240.908 6 209973603.74906     -1120.630 6        37.584    40323245.596 6 162364870.39106      -866.519 6        41.759    40323241.420 6 170620709.29006      -910.477 6        38.213
C05        44.000                                                                                                                                    39336666.893 6 204836258.59906      -452.811 6        38.658    39336669.399 7 158392380.83807      -350.111 7        43.598    39336669.121 6 166446316.66406      -367.895 6        39.559
C40        45.000                                                                                                                                    39970041.180 6 208134489.09206      1091.111 6        41.416                                                                    39970044.191 6 169126336.13406       886.654 6        40.687
C21        46.000                                                                                                                                    22313418.741 8 116191804.99008       854.694 8        51.429                                                                    22313414.225 8  94415327.03208       694.591 8        49.776
R17        47.000    23434339.234 7 125401892.76907     -1793.723 7        45.416                                                                    23434338.793 6  97534810.77006     -1395.199 6        39.835
C06        49.000                                                                                                                                    41252351.433 5 214811644.02805     -1288.980 5        32.275    41252360.066 5 166105920.00605      -996.964 5        35.229    41252356.310 5 174551993.54105     -1047.345 5        32.826
C42        50.000                                                                                                                                    25798021.457 6 134337059.23906      2703.880 6        40.927                                                                    25798029.957 7 109159899.64507      2197.062 7        42.809
S48        51.000    77201713.220 6 405697224.84406      -377.790 6        38.279
C19        52.000                                                                                                                                    26805779.462 4 139584559.71804     -3676.058 4        25.429                                                                    26805786.080 5 113423844.99505     -2987.202 5        30.121
E02        53.000    28242765.778 5 148416730.39905      2859.852 5        35.914                                                                    28242777.266 6 110830725.75306      2135.693 6        36.786    28242775.852 6 113721946.71106      2191.261 6        37.645
C60        54.000                                                                                                                                    40911733.462 6 213038126.72106      -419.302 6        40.639                                                                    40911726.971 6 173110855.06606      -340.601 6        38.517
C45        55.000                                                                                                                                    22077514.802 8 114963397.85008      1122.147 8        51.077                                                                    22077508.682 8  93417147.75208       911.944 8        50.169
C02        57.000                                                                                                                                    40914800.029 5 213053927.24405      -459.164 5        34.081    40914807.785 6 164746747.38206      -355.179 6        38.889    40914807.454 5 173123724.70505      -373.291 5        34.895
I03        58.000   126200919.780 6 419453990.67706       917.838 6        40.269
R07        59.000    23055499.063 7 123417753.72707     -4137.352 7        44.488                                                                    23055507.145 7  95991547.07207     -3217.939 7        42.083
G07        60.000    22221590.001 7 116775221.57007     -2582.248 7        46.555                                    22221588.204 7  90993661.13107     -2012.141 7        43.700    22221588.638 7  90993662.11007     -2011.990 7        42.205
> 2025 01 01 07 15 15.0000000  0 55
G08         1.000    24374406.263 6 128088410.89106       620.896 6        38.354                                    24374412.753 5  99809204.05005       483.813 5        30.091    24374413.506 5  99809214.06605       483.909 5        35.538
R01         2.000    20257281.960 8 108286755.25208      2239.589 8        48.538                                                                    20257283.712 6  84223095.28106      1741.985 6        41.371
G09         3.000    24483397.330 6 128660961.27706     -3724.195 6        38.126                                    24483407.650 5 100255253.94305     -2901.961 5        32.635    24483407.652 6 100255254.93606     -2902.030 6        36.896
R02         4.000    24476299.519 7 130610213.54907      3553.978 7        44.438                                                                    24476298.873 6 101585734.03106      2764.232 6        38.541
S21         5.000    38479616.965 7 202211530.72107      -391.367 7        43.441
E05         6.000    22973153.589 7 120724726.56507     -1951.000 7        46.283                                                                    22973157.721 8  90151594.73708     -1456.880 8        49.213    22973156.905 8  92503369.45008     -1494.923 8        50.370
E15         7.000    27006176.090 6 141918379.28206     -2896.254 6        40.410                                                                    27006180.377 7 105978018.31007     -2162.728 7        42.303    27006179.780 7 108742661.86407     -2219.165 7        43.803
R10         8.000    19805532.852 7 105574615.35307     -2156.413 7        46.198
E31         9.000    28023084.359 6 147262248.98606     -2955.147 6        36.741                                                                    28023089.562 6 109968568.28106     -2206.844 6        40.408    28023088.847 6 112837313.65706     -2264.506 6        41.507
G18        10.000    25173731.816 6 132288847.35206       690.022 6        37.671                                    25173728.602 3 103082203.57203       537.683 3        22.152    25173729.585 6 103082211.55306       537.909 6        39.778
S27        12.000    39147027.698 6 205718877.82206      -418.844 6        36.457
G15        13.000    24411414.861 6 128282845.01506      3294.556 6        39.550                                    24411410.681 4  99960641.54704      2567.188 4        29.981    24411410.525 5  99960633.52205      2567.359 5        35.676
S36        14.000    38248482.515 7 200997600.39407      -391.943 7        44.372
G20        15.000    21221968.509 7 111522162.83807     -2246.986 7        47.888                                    21221966.338 6  86900357.63206     -1750.895 6        37.682
R11        16.000    19980423.719 8 106769325.77108      2188.451 8        52.289                                                                    19980424.406 8  83042806.83108      1702.146 8        48.684
S45        17.000    63430145.143 6 333329208.79306      -436.673 6        36.582
E13        18.000    26929948.032 6 141517839.35706      -688.261 6        40.064                                                                    26929949.786 7 105678893.50707      -513.920 7        42.974    26929949.147 7 108435735.27007      -527.344 7        43.977
E24        19.000    25147771.300 7 132152385.75607      -784.429 7        45.675                                                                    25147773.370 8  98685224.72508      -585.772 8        48.180    25147772.502 8 101259619.60408      -601.057 8        49.145
R18        20.000    23885153.358 6 127500567.47306      1069.780 6        41.959                                                                    23885155.352 6  99167100.81906       832.191 6        39.444
G30        21.000    20494601.682 8 107699857.45208      -891.827 8        50.534                                    20494601.805 8  83921968.19008      -694.930 8        52.219    20494602.332 7  83921972.18307      -694.876 7        45.849
I06        22.000    38030162.095 7 149238657.58207      -335.456 7        43.536
S28        23.000    40912880.439 5 214998436.35105      -397.496 5        35.033
G14        24.000    21964348.984 7 115423424.12107      2381.403 7        45.967                                    21964349.009 5  89940330.20505      1855.635 5        35.014    21964349.007 7  89940332.21507      1855.697 7        44.354
S23        25.000    38182373.618 7 200649653.09407      -389.931 7        44.497
E08        26.000    26883373.318 6 141273066.69706      2018.752 6        41.192                                                                    26883373.128 7 105496115.62807      1507.520 7        43.079    26883372.795 7 108248186.31107      1546.757 7        44.412
C07        27.000                                                                                                                                    39832477.307 6 207418148.76906       863.263 6        39.438    39832478.015 7 160388879.25207       667.603 7        42.737    39832474.865 6 168544232.66206       701.590 6        39.405
G13        28.000    21466029.787 7 112804740.14707      2092.698 7        46.562                                    21466026.890 5  87899774.06905      1630.673 5        33.180
R09        29.000    22838576.949 7 121956672.32107     -4403.698 7        43.410                                                                    22838579.952 7  94855177.41807     -3424.918 7        42.248
C22        30.000                                                                                                                                    22292200.836 8 116081317.06008     -2271.021 8        51.436                                                                    22292196.766 8  94325555.44108     -1845.421 8        50.100
I01        31.000   345794393.110 6  53830476.70106     -3052.619 6        40.510
E03        32.000    23532078.186 8 123661897.96508       404.401 8        48.440                                                                    23532079.816 8  92344935.59508       302.051 8        50.889    23532079.267 8  94753928.62208       309.853 8        51.746
G05        33.000    21133518.994 7 111057392.19007       233.243 7        47.562                                    21133516.236 7  86538220.29607       181.751 7        47.718    21133516.833 7  86538223.29407       181.694 7        44.700
C36        35.000                                                                                                                                    22422180.535 8 116758150.26108     -1937.310 8        49.665                                                                    22422186.987 8  94875576.35308     -1574.247 8        50.312
G11        36.000    25597227.378 6 134514268.57706     -3615.648 6        37.508                                    25597230.143 3 104816287.51603     -2817.369 3        18.478    25597230.591 6 104816287.49006     -2817.252 6        36.125
I09        38.000    39225056.703 6 153927382.69606      -903.334 6        41.366
R08        39.000    19646244.700 8 105204717.55608     -1815.597 8        50.960                                                                    19646244.190 7  81825882.39207     -1412.197 7        47.369
E25        40.000    24912813.149 7 130917716.88607      1923.520 7        46.485                                                                    24912818.005 8  97763232.82508      1436.368 8        48.243    24912817.146 8 100313570.13608      1473.881 8        49.000
G27        41.000    24985619.162 5 131300326.66205      -895.127 5        35.810                                    24985620.810 4 102311956.77204      -697.542 4        27.497    24985620.724 5 102311960.78205      -697.570 5        35.371
S44        42.000    40912134.980 6 214994700.97406      -422.586 6        36.911
C09        43.000                                                                                                                                    40324317.452 6 209979205.02206     -1119.989 6        37.626    40324321.176 6 162369201.61206      -866.145 6        41.881    40324317.169 6 170625260.76406      -910.194 6        38.318
C05        44.000                                                                                                                                    39337101.539 6 204838521.92506      -452.550 6        38.967    39337104.385 7 158394130.96707      -349.874 7        43.488    39337103.906 6 166448155.78506      -367.649 6        39.751
C40        45.000                                                                                                                                    39968993.487 6 208129034.11806      1090.847 6        41.399                                                                    39968996.550 6 169121903.53406       886.315 6        40.894
C21        46.000                                                                                                                                    22312598.778 8 116187535.30308       853.074 8        51.576                                                                    22312594.307 8  94411857.56808       693.133 8        50.020
R17        47.000    23436016.136 7 125410869.89907     -1797.222 7        45.493                                                                    23436016.396 6  97541792.97506     -1397.898 6        39.405
C06        49.000                                                                                                                                    41253589.258 5 214818087.88705     -1288.401 5        32.784    41253596.925 5 166110902.76705      -996.380 5        35.495    41253593.820 5 174557229.69805     -1046.903 5        33.539
C42        50.000                                                                                                                                    25795424.612 6 134323539.89106      2703.739 6        40.875                                                                    25795433.580 7 109148914.06807      2197.000 7        42.775
S48        51.000    77202081.324 6 405699112.91206      -377.675 6        38.195
C19        52.000                                                                                                                                    26809310.503 4 139602942.07004     -3676.592 4        24.195                                                                    26809315.740 5 113438782.06005     -2986.978 5        30.347
E02        53.000    28240044.495 6 148402429.39106      2860.257 6        36.098                                                                    28240056.048 6 110820046.42006      2136.005 6        36.896    28240054.423 6 113710988.75406      2191.862 6        37.811
C60        54.000                                                                                                                                    40912135.984 6 213040221.24406      -418.717 6        40.594                                                                    40912129.319 6 173112557.03406      -340.286 6        38.577
C45        55.000                                                                                                                                    22076438.134 8 114957791.26908      1120.320 8        51.111                                                                    22076432.031 8  93412591.96208       910.318 8        50.361
C02        57.000                                                                                                                                    40915241.513 5 213056222.26305      -458.881 5        33.862    40915248.495 6 164748522.02806      -354.922 6        38.772    40915248.463 5 173125589.62505      -373.075 5        35.329
I03        58.000   126199750.077 6 419449400.52506       918.092 6        40.155
R07        59.000    23059364.107 7 123438442.22007     -4138.190 7        44.545                                                                    23059372.246 7  96007638.04707     -3218.580 7        42.082
G07        60.000    22224047.058 7 116788134.07507     -2582.884 7        46.525                                    22224045.437 7  91003722.80507     -2012.632 7        43.886    22224045.723 7  91003723.79407     -2012.496 7        42.343
> 2025 01 01 07 15 20.0000000  0 55
G08         1.000    24373816.692 6 128085314.05906       618.013 6        38.598                                    24373823.130 5  99806790.97105       481.560 5        30.211    24373823.486 5  99806800.98105       481.591 5        35.205
R01         2.000    20255188.065 8 108275563.41908      2237.171 8        48.443                                                                    20255189.794 6  84214390.52306      1739.961 6        41.611
G09         3.000    24486940.955 6 128679584.62006     -3725.055 6        38.390                                    24486951.589 5 100269765.57505     -2902.631 5        32.557    24486951.540 6 100269766.56906     -2902.812 6        36.885
R02         4.000    24472969.732 6 130592443.18706      3554.495 6        38.994                                                                    24472969.525 6 101571912.69606      2764.498 6        36.159
S21         5.000    38479990.386 7 202213488.84507      -391.717 7        43.372
E05         6.000    22975010.869 7 120734485.23807     -1952.328 7        46.400                                                                    22975014.774 8  90158882.03008     -1457.871 8        49.220    22975013.956 8  92510846.85208     -1495.941 8        50.399
E15         7.000    27008932.311 6 141932864.47706     -2897.741 6        40.472                                                                    27008936.916 7 105988835.14307     -2163.928 7        42.303    27008936.187 7 108753760.87807     -2220.274 7        43.881
R10         8.000    19807557.379 7 105585407.87007     -2160.447 7        45.992
E31         9.000    28025896.807 6 147277028.88206     -2956.692 6        37.028                                                                    28025902.026 6 109979605.19506     -2207.894 6        40.238    28025901.266 6 112848638.48606     -2265.388 6        41.428
G18        10.000    25173076.544 6 132285404.91106       686.817 6        37.989                                    25173073.639 3 103079521.12303       535.174 3        22.286    25173074.576 6 103079529.13206       535.188 6        39.811
S27        12.000    39147427.313 6 205720973.61306      -419.156 6        36.703
G15        13.000    24408280.230 6 128266373.34206      3294.222 6        39.468                                    24408276.306 5  99947806.47005      2566.925 5        30.272    24408276.860 6  99947798.46606      2566.787 6        36.136
S36        14.000    38248854.094 7 200999561.26007      -392.193 7        44.343
G20        15.000    21224107.923 7 111533406.06007     -2250.148 7        47.511                                    21224105.835 6  86909118.56106     -1753.357 6        37.667
R11        16.000    19978377.644 8 106758393.25608      2184.672 8        52.440                                                                    19978378.789 8  83034303.76808      1699.175 8        48.201
S45        17.000    63430515.058 6 333329793.36516      -436.853 6        36.431
E13        18.000    26930604.822 6 141521287.78606      -690.917 6        40.026                                                                    26930606.148 7 105681468.62307      -516.021 7        42.887    26930605.357 7 108438377.56007      -529.478 7        44.140
E24        19.000    25148518.878 7 132156314.95807      -787.098 7        45.652                                                                    25148521.066 8  98688158.85608      -587.775 8        48.131    25148520.187 8 101262630.28108      -603.127 8        49.095
R18        20.000    23884153.201 6 127495228.82806      1065.859 6        41.478                                                                    23884155.347 6  99162948.54506       828.919 6        39.336
G30        21.000    20495451.531 8 107704322.60008      -894.196 8        50.364                                    20495451.507 8  83925447.51808      -696.773 8        52.208    20495452.038 7  83925451.51007      -696.795 7        45.696
I06        22.000    38030589.282 7 149240335.92107      -335.761 7        43.475
S28        23.000    40913259.324 5 215000424.65305      -397.629 5        35.000
G14        24.000    21962084.186 7 115411523.12007      2379.156 7        46.820                                    21962084.231 5  89931056.71305      1853.888 5        35.114    21962084.393 7  89931058.70907      1853.940 7        43.875
S23        25.000    38182745.116 7 200651603.66907      -390.138 7        44.474
E08        26.000    26881452.732 6 141262974.57006      2018.310 6        41.230                                                                    26881452.800 7 105488579.28907      1507.118 7        42.993    26881452.294 7 108240453.37107      1546.387 7        44.459
C07        27.000                                                                                                                                    39831649.275 6 207413835.12606       862.296 6        39.523    39831649.570 7 160385543.67907       666.691 7        42.770    39831646.599 6 168540727.48406       700.655 6        39.261
G13        28.000    21464039.809 7 112794281.00607      2091.156 7        46.718                                    21464036.548 5  87891624.08105      1629.474 5        33.138
