     3.04           OBSERVATION DATA    M                   RINEX VERSION / TYPE
ssrcrin-15.6.1x                         20250101 201500 UTC PGM / RUN BY / DATE 
(00000000023479385599111004) Septentrio proprietary         COMMENT             
rref                                                        MARKER NAME         
01                                                          MARKER NUMBER       
geodetic                                                    MARKER TYPE         
NFB                 CLIMERS@TUW                             OBSERVER / AGENCY   
3297213             SEPT ASTERX SB3 PROB4.14.4              REC # / TYPE / VERS 
Unknown             Unknown                                 ANT # / TYPE        
  4127831.5220  1207193.2078  4695247.8399                  APPROX POSITION XYZ 
        0.0000        0.0000        0.0000                  ANTENNA: DELTA H/E/N
G   23 X1  C1C L1C D1C S1C C1W S1W C2W L2W D2W S2W C2L L2L  SYS / # / OBS TYPES 
       D2L S2L C5Q L5Q D5Q S5Q C1L L1L D1L S1L              SYS / # / OBS TYPES 
E   21 X1  C1C L1C D1C S1C C6C L6C D6C S6C C5Q L5Q D5Q S5Q  SYS / # / OBS TYPES 
       C7Q L7Q D7Q S7Q C8Q L8Q D8Q S8Q                      SYS / # / OBS TYPES 
S    9 X1  C1C L1C D1C S1C C5I L5I D5I S5I                  SYS / # / OBS TYPES 
R   17 X1  C1C L1C D1C S1C C2P L2P D2P S2P C2C L2C D2C S2C  SYS / # / OBS TYPES 
       C3Q L3Q D3Q S3Q                                      SYS / # / OBS TYPES 
C   25 X1  C1P L1P D1P S1P C5P L5P D5P S5P C2I L2I D2I S2I  SYS / # / OBS TYPES 
       C7I L7I D7I S7I C6I L6I D6I S6I C7D L7D D7D S7D      SYS / # / OBS TYPES 
J   17 X1  C1C L1C D1C S1C C2L L2L D2L S2L C5Q L5Q D5Q S5Q  SYS / # / OBS TYPES 
       C1L L1L D1L S1L                                      SYS / # / OBS TYPES 
I    5 X1  C5A L5A D5A S5A                                  SYS / # / OBS TYPES 
SEPTENTRIO RECEIVERS OUTPUT ALIGNED CARRIER PHASES.         COMMENT             
NO FURTHER PHASE SHIFT APPLIED IN THE RINEX ENCODER.        COMMENT             
G L1C                                                       SYS / PHASE SHIFT   
G L2W                                                       SYS / PHASE SHIFT   
G L2L  0.00000                                              SYS / PHASE SHIFT   
G L5Q  0.00000                                              SYS / PHASE SHIFT   
G L1L  0.00000                                              SYS / PHASE SHIFT   
E L1C  0.00000                                              SYS / PHASE SHIFT   
E L6C  0.00000                                              SYS / PHASE SHIFT   
E L5Q  0.00000                                              SYS / PHASE SHIFT   
E L7Q  0.00000                                              SYS / PHASE SHIFT   
E L8Q  0.00000                                              SYS / PHASE SHIFT   
S L1C                                                       SYS / PHASE SHIFT   
S L5I                                                       SYS / PHASE SHIFT   
R L1C                                                       SYS / PHASE SHIFT   
R L2P  0.00000                                              SYS / PHASE SHIFT   
R L2C                                                       SYS / PHASE SHIFT   
R L3Q  0.00000                                              SYS / PHASE SHIFT   
C L1P  0.00000                                              SYS / PHASE SHIFT   
C L5P  0.00000                                              SYS / PHASE SHIFT   
C L2I                                                       SYS / PHASE SHIFT   
C L7I                                                       SYS / PHASE SHIFT   
C L6I                                                       SYS / PHASE SHIFT   
C L7D                                                       SYS / PHASE SHIFT   
J L1C                                                       SYS / PHASE SHIFT   
J L2L  0.00000                                              SYS / PHASE SHIFT   
J L5Q  0.00000                                              SYS / PHASE SHIFT   
J L1L  0.00000                                              SYS / PHASE SHIFT   
I L5A                                                       SYS / PHASE SHIFT   
  2025     1     1    20    15    0.0000000     GPS         TIME OF FIRST OBS   
 C1C    0.000 C2C    0.000 C2P    0.000                     GLONASS COD/PHS/BIS 
DBHZ                                                        SIGNAL STRENGTH UNIT
    18                                                      LEAP SECONDS        
 24 R01  1 R02 -4 R03  5 R04  6 R05  1 R06 -4 R07  5 R08  6 GLONASS SLOT / FRQ #
    R09 -2 R10 -7 R11  0 R12 -1 R13 -2 R14 -7 R15  0 R16 -1 GLONASS SLOT / FRQ #
    R17  4 R18 -3 R19  3 R20  2 R21  4 R22 -3 R23  3 R24  2 GLONASS SLOT / FRQ #
                                                            END OF HEADER       
> 2025 01 01 20 15  0.0000000  0 54
G10         1.000    21130597.734 8 111042139.67908       954.963 8        50.884                                    21130595.579 8  86526404.45108       744.125 8        52.256    21130595.559 7  86526381.44607       744.168 7        45.509
G15         2.000    23947456.032 6 125844748.31306     -1778.939 6        39.426                                    23947452.598 5  98060833.26305     -1386.175 5        31.283    23947453.018 6  98060836.22406     -1386.187 6        36.102
C33         3.000                                                                                                                                    23732256.468 7 123580109.21607      1827.620 7        47.625                                                                    23732268.550 7 100419019.09207      1485.076 7        47.567
E31         4.000    27687059.003 6 145496499.57906      2011.017 6        39.216                                                                    27687060.057 6 108649989.92706      1501.599 6        41.330    27687059.591 7 111484334.71307      1540.608 7        42.163
S21         5.000    38512284.708 6 202383139.39906      -522.539 6        41.974
E13         6.000    23756526.557 7 124841741.28207     -1622.186 7        46.942                                                                    23756526.623 8  93226184.07308     -1211.359 8        49.997    23756526.261 8  95658140.91808     -1242.989 8        51.313
G23         7.000    21202449.402 7 111419751.59307     -1868.216 7        46.977                                    21202445.454 6  86820623.86806     -1455.751 6        38.012    21202445.518 7  86820622.88007     -1455.797 7        47.106
E15         8.000    27548425.741 6 144768271.08106     -3045.231 6        38.577                                                                    27548426.309 6 108106346.26006     -2273.893 6        40.725    27548425.883 7 110926487.96607     -2333.311 7        42.758
G07        10.000    25408446.807 6 133522323.42206     -1585.565 6        39.063                                    25408443.272 4 104043360.43404     -1235.492 4        28.322    25408442.163 5 104043364.43105     -1235.464 5        34.505
G26        11.000    24252361.763 6 127447377.72406     -4145.097 6        40.126                                    24252362.026 5  99309823.47305     -3229.940 5        34.257    24252361.908 6  99309843.47306     -3230.013 6        38.285
S27        12.000    39243791.576 5 206227503.82905      -491.032 5        35.900
R20        13.000    21764611.641 6 116385201.85206      2176.300 6        38.462                                                                    21764612.515 7  90521890.44107      1692.700 7        43.852
S36        14.000    38281924.770 7 201173393.77807      -521.738 7        43.630
G27        15.000    20169074.598 8 105989485.25608       -47.732 8        50.553                                    20169071.953 8  82589368.08008       -37.195 8        53.577    20169072.334 7  82589282.08207       -37.211 7        46.470
S45        17.000    63493525.524 6 333661130.65406      -570.004 6        37.233
E08        18.000    27351182.389 6 143731468.31906      1768.835 6        37.951                                                                    27351182.147 6 107331939.74406      1320.879 6        41.881    27351181.764 7 110131899.42007      1355.405 7        42.813
G16        19.000    22010942.507 7 115668540.20807     -3407.521 7        47.083                                    22010938.096 5  90131448.74705     -2655.209 5        35.376
E21        20.000    25139219.908 7 132107864.18307     -2923.231 7        45.368                                                                    25139219.922 7  98652192.45607     -2182.994 7        47.833    25139219.503 8 101225702.74108     -2239.944 8        48.791
E26        21.000    24249150.849 7 127430495.11707       844.112 7        46.999                                                                    24249148.753 8  95159332.72308       630.234 8        49.400    24249148.384 8  97641725.69108       646.752 8        50.519
I06        22.000    38696632.008 6 151854113.95406      -315.874 6        40.920
S28        23.000    40977929.111 5 215340481.97005      -515.296 5        33.587
G08        24.000    21684622.478 7 113953474.47307      1970.961 7        45.837                                    21684620.563 7  88794915.64607      1535.812 7        45.168    21684621.147 7  88794916.65507      1535.680 7        43.513
S23        25.000    38237387.951 7 200938811.77307      -521.724 7        44.302
C13        26.000                                                                                                                                    38554152.514 7 200761788.02707     -1469.769 7        42.199    38554153.854 7 155241860.17507     -1136.668 7        43.039    38554152.373 7 163135484.68707     -1194.503 7        42.099
G18        27.000    23583102.552 7 123930386.90807     -3495.055 7        42.313                                    23583098.527 4  96569304.72004     -2723.422 4        28.701    23583098.867 6  96569295.71706     -2723.429 6        41.499
I02        29.000    40207075.290 6 157781295.84406     -1051.104 6        38.592
C14        30.000                                                                                                                                    23301064.796 7 121334793.96207       357.458 7        46.477    23301060.970 8  93823755.78208       276.390 8        50.481    23301059.611 8  98594446.54108       290.395 8        48.408
R02        31.000    23729097.612 7 126623044.41407     -3848.179 7        43.136                                                                    23729098.813 6  98484608.56706     -2993.131 6        39.865
E03        32.000    27462430.200 6 144316048.74606      -301.075 6        38.261                                                                    27462430.258 6 107768490.81306      -224.783 6        40.689    27462429.701 7 110579836.05107      -230.614 7        42.131
G30        33.000    25794039.557 6 135548587.27206      -354.650 6        37.501                                    25794039.074 4 105622278.42204      -276.354 4        27.018    25794040.501 5 105622286.45205      -276.744 5        32.419
R03        34.000    21077553.350 8 112829826.83408      -604.996 8        49.465                                                                    21077551.125 7  87756555.49807      -470.570 7        45.550
R10        35.000    21307202.980 7 113579444.52407      -654.203 7        44.387
R18        36.000    21813200.873 7 116440752.48207     -3309.536 7        46.689                                                                    21813201.719 7  90565234.95807     -2574.077 7        45.290
G13        39.000    25346890.467 4                     -2230.654 4        27.796
R09        40.000    21588848.815 8 115283307.98608     -3724.918 8        48.896                                                                    21588847.877 7  89664817.20607     -2897.254 7        46.098
E33        41.000    28119619.647 6 147769647.85106      1998.819 6        37.452                                                                    28119620.511 6 110347485.95506      1492.583 6        38.919    28119619.887 6 113226113.27206      1531.380 6        40.036
S44        42.000    40542957.540 6 213054868.10906      -515.726 6        37.917
C38        43.000                                                                                                                                    40511749.037 6 210955454.13706     -1784.908 6        39.072                                                                    40511747.324 6 171418646.96206     -1450.388 6        38.553
C05        44.000                                                                                                                                    39305288.990 6 204672974.17106      -456.034 6        38.811    39305283.510 7 158266148.14207      -352.568 7        42.688    39305285.879 6 166313658.21206      -370.615 6        40.732
C08        45.000                                                                                                                                    39039296.104 6 203288047.52006     -1708.987 6        37.497    39039290.493 7 157195288.04307     -1321.583 7        42.751    39039289.730 6 165188241.33506     -1388.819 6        40.238
C21        46.000                                                                                                                                    27198361.234 6 141628985.04306     -3368.052 6        37.308                                                                    27198356.789 6 115085122.12706     -2736.809 6        38.985
R19        47.000    19815016.782 6 105997345.52606     -1288.328 6        40.970                                                                    19815015.253 7  82442547.43207     -1002.009 7        45.255
C43        48.000                                                                                                                                    23771854.710 7 123786601.29407     -2824.018 7        47.644                                                                    23771853.524 7 100586877.95407     -2294.824 7        46.004
C42        50.000                                                                                                                                    23982479.729 7 124883110.42807     -1293.579 7        45.851                                                                    23982487.333 7 101477805.11907     -1051.164 7        46.937
S48        51.000    77259384.171 6 406001070.81306      -557.640 6        37.539
G21        52.000    23554806.478 6 123781403.54706      2340.904 6        37.675                                    23554802.660 3  96453059.92103      1824.081 3        21.000
C37        53.000                                                                                                                                    25314121.382 7 131817285.04907     -3144.306 7        43.306                                                                    25314125.441 7 107112362.23707     -2555.059 7        44.039
C60        54.000                                                                                                                                    40542959.336 6 211118025.06506      -511.090 6        40.012                                                                    40542943.387 6 171550657.25906      -415.311 6        39.646
C27        55.000                                                                                                                                    24053853.637 7 125254744.70307      1961.807 7        46.351                                                                    24053852.188 7 101779743.59007      1594.138 7        44.924
R04        56.000    21547776.636 8 115387370.22808      2923.971 8        49.028                                                                    21547775.419 7  89745721.90307      2274.141 7        44.482
C02        57.000                                                                                                                                    40641744.668 5 211632272.84405      -464.346 5        34.286    40641738.133 6 163647490.60006      -359.162 6        38.952    40641741.714 5 171968559.56705      -377.596 5        35.910
I03        58.000   110022339.827 6 355966044.44706      1032.875 6        40.477
C11        59.000                                                                                                                                    25695317.490 6 133802549.29806     -3193.445 6        40.858    25695314.755 7 103464765.76107     -2469.440 7        44.862    25695313.221 7 108725638.11107     -2594.958 7        42.580
C28        60.000                                                                                                                                    21648413.119 8 112729286.42308       113.388 8        50.654                                                                    21648411.942 8  91601915.73508        92.063 8        48.749
> 2025 01 01 20 15  5.0000000  0 54
G10         1.000    21129690.431 8 111037372.06108       952.221 8        50.588                                    21129688.331 8  86522689.43108       741.990 8        51.851    21129688.263 7  86522666.43307       741.977 7        45.645
G15         2.000    23949150.344 6 125853651.18106     -1782.118 6        40.076                                    23949146.865 5  98067770.53005     -1388.659 5        31.147    23949148.177 6  98067773.53206     -1388.530 6        36.465
C33         3.000                                                                                                                                    23730502.578 7 123570976.13307      1825.554 7        47.607                                                                    23730514.592 7 100411597.73207      1483.296 7        47.647
E31         4.000    27685145.332 6 145486448.61206      2009.571 6        38.351                                                                    27685147.372 6 108642484.28706      1500.785 6        41.385    27685147.122 7 111476633.26807      1539.903 7        42.106
S21         5.000    38512782.865 6 202385752.00006      -522.308 6        41.840
E13         6.000    23758070.621 7 124849854.58407     -1623.224 7        46.840                                                                    23758070.503 8  93232242.70308     -1212.068 8        50.129    23758070.185 8  95664357.59908     -1243.697 8        51.248
G23         7.000    21204228.469 7 111429100.16107     -1871.161 7        46.689                                    21204224.454 6  86827908.47006     -1458.047 6        37.611    21204224.487 7  86827907.47407     -1458.050 7        46.981
E15         8.000    27551322.946 6 144783496.57806     -3045.078 6        38.751                                                                    27551323.839 6 108117715.94806     -2273.951 6        41.163    27551323.066 7 110938154.25907     -2333.186 7        42.409
G07        10.000    25409956.058 6 133530256.86706     -1587.796 6        38.357                                    25409952.950 4 104049542.33704     -1237.255 4        27.713    25409952.803 5 104049546.33605     -1237.395 5        34.352
G26        11.000    24256306.019 6 127468103.70806     -4145.235 6        40.305                                    24256305.988 5  99325973.57805     -3230.050 5        34.248    24256306.691 6  99325993.57306     -3230.161 6        38.553
S27        12.000    39244261.660 5 206229958.31205      -490.933 5        35.305
R20        13.000    21762576.565 6 116374322.99306      2175.338 6        39.192                                                                    21762577.438 7  90513429.09607      1691.904 7        43.181
S36        14.000    38282420.119 7 201176001.90907      -521.570 7        43.494
G27        15.000    20169121.170 8 105989730.33508       -50.418 8        50.373                                    20169118.592 8  82589559.05108       -39.286 8        53.232    20169118.886 7  82589473.05507       -39.208 7        46.634
S45        17.000    63494023.452 6 333663980.88206      -569.966 6        37.119
E08        18.000    27349500.456 6 143722627.44706      1767.515 6        38.051                                                                    27349499.723 6 107325337.79706      1319.906 6        41.905    27349499.386 7 110125125.25207      1354.392 7        42.749
G16        19.000    22014186.138 7 115685583.23607     -3409.635 7        46.918                                    22014181.328 5  90144729.02605     -2656.859 5        34.948
E21        20.000    25142001.929 7 132122484.48107     -2924.806 7        45.512                                                                    25142002.100 7  98663110.20507     -2184.079 7        47.968    25142001.673 8 101236905.30508     -2241.111 8        48.717
E26        21.000    24248348.391 7 127426277.91207       842.878 7        47.084                                                                    24248346.232 8  95156183.51108       629.463 8        49.491    24248345.857 8  97638494.32708       645.888 8        50.438
I06        22.000    38697034.088 6 151855693.25706      -315.784 6        40.815
S28        23.000    40978426.995 5 215343057.99305      -514.959 5        33.533
G08        24.000    21682747.564 7 113943623.88707      1969.419 7        45.476                                    21682746.054 7  88787239.86107      1534.611 7        44.758    21682746.683 7  88787240.85707      1534.622 7        43.204
S23        25.000    38237885.173 7 200941420.62307      -521.782 7        44.200
C13        26.000                                                                                                                                    38555564.129 7 200769138.65507     -1470.227 7        42.231    38555565.951 7 155247544.14407     -1136.922 7        43.124    38555564.127 7 163141457.68607     -1194.774 7        42.184
G18        27.000    23586428.425 7 123947863.78907     -3495.602 7        42.622                                    23586424.247 4  96582923.05804     -2723.840 4        28.284    23586424.399 6  96582914.06206     -2723.954 6        41.600
I02        29.000    40208413.733 6 157786550.76306     -1050.863 6        38.610
C14        30.000                                                                                                                                    23300723.383 7 121333013.76107       354.628 7        46.479    23300719.163 8  93822379.21608       274.218 8        50.537    23300717.708 8  98593000.00308       288.004 8        48.389
R02        31.000    23732704.925 7 126642292.07207     -3850.803 7        43.795                                                                    23732706.214 6  98499578.96806     -2995.131 6        40.181
E03        32.000    27462717.327 6 144317559.37506      -303.495 6        38.024                                                                    27462717.733 6 107769618.88706      -226.557 6        40.694    27462717.044 7 110580993.55207      -232.359 7        42.114
G30        33.000    25794378.147 6 135550366.80906      -357.305 6        37.312                                    25794377.526 4 105623665.11904      -278.425 4        27.030    25794378.544 5 105623673.13405      -278.305 5        32.323
R03        34.000    21078120.494 8 112832863.44308      -609.570 8        49.034                                                                    21078118.852 7  87758917.30407      -474.110 7        45.929
R10        35.000    21307818.856 7 113582726.69707      -658.699 7        44.798
R18        36.000    21816301.126 7 116457302.41007     -3310.428 7        46.478                                                                    21816301.654 7  90578107.10907     -2574.773 7        45.276
G13        39.000    25349015.758 4                     -2233.746 4        27.916
R09        40.000    21592337.760 8 115301939.77208     -3727.719 8        48.305                                                                    21592337.370 7  89679308.58207     -2899.386 7        46.366
E33        41.000    28117717.779 6 147759655.81206      1998.335 6        36.715                                                                    28117719.101 6 110340024.40106      1492.174 6        39.057    28117718.175 6 113218457.05606      1531.090 6        40.010
S44        42.000    40543448.640 6 213057447.26206      -515.768 6        37.682
C38        43.000                                                                                                                                    40513462.500 6 210964378.68306     -1784.869 6        39.351                                                                    40513461.282 6 171425898.89506     -1450.346 6        38.766
C05        44.000                                                                                                                                    39305726.802 6 204675254.47406      -456.087 6        38.652    39305721.259 7 158267911.40907      -352.446 7        42.555    39305723.977 6 166315511.16606      -370.760 6        40.667
C08        45.000                                                                                                                                    39040936.821 6 203296593.29806     -1709.363 6        37.724    39040931.720 7 157201896.16507     -1321.581 7        42.802    39040930.749 6 165195185.47906     -1389.032 6        40.248
C21        46.000                                                                                                                                    27201595.802 6 141645828.64306     -3369.378 6        37.550                                                                    27201591.379 6 115098808.93006     -2738.095 6        38.724
R19        47.000    19816221.227 6 106003792.13906     -1290.331 6        41.125                                                                    19816220.813 7  82447561.46307     -1003.556 7        45.138
C43        48.000                                                                                                                                    23774566.697 7 123800723.93107     -2824.967 7        47.317                                                                    23774565.668 7 100598353.75807     -2295.589 7        46.100
C42        50.000                                                                                                                                    23983723.572 7 124889585.55407     -1296.382 7        46.220                                                                    23983730.785 7 101483066.70007     -1053.514 7        46.972
S48        51.000    77259892.993 6 406003859.51506      -557.714 6        37.459
G21        52.000    23552580.021 6 123769701.76806      2339.711 6        37.992                                    23552575.617 3  96443941.66403      1823.143 3        20.405
C37        53.000                                                                                                                                    25317141.380 7 131833010.08307     -3145.661 7        43.316                                                                    25317145.312 7 107125140.12107     -2556.189 7        44.230
C60        54.000                                                                                                                                    40543450.105 6 211120580.76906      -511.072 6        40.110                                                                    40543434.188 6 171552733.99806      -415.517 6        39.652
C27        55.000                                                                                                                                    24051970.161 7 125244937.17707      1961.213 7        46.139                                                                    24051968.804 7 101771774.19407      1593.487 7        44.891
R04        56.000    21545048.517 8 115372756.99308      2921.311 8        49.247                                                                    21545046.663 7  89734356.06207      2272.170 7        44.609
C02        57.000                                                                                                                                    40642190.766 5 211634594.87405      -464.275 5        34.448    40642184.088 6 163649286.14706      -359.094 6        39.162    40642187.606 5 171970446.43105      -377.588 5        35.967
I03        58.000   110021023.455 6 355960879.38206      1033.091 6        40.582
C11        59.000                                                                                                                                    25698384.417 6 133818517.54006     -3193.770 6        40.272    25698381.575 7 103477113.40307     -2469.587 7        45.189    25698379.658 7 108738613.62507     -2595.449 7        42.468
C28        60.000                                                                                                                                    21648305.093 8 112728723.27508       111.885 8        50.708                                                                    21648303.731 8  91601458.14408        90.817 8        48.774
> 2025 01 01 20 15 10.0000000  0 54
G10         1.000    21128785.856 8 111032618.18008       949.415 8        50.662                                    21128783.686 8  86518985.11108       739.802 8        52.012    21128783.322 7  86518962.12307       739.741 7        45.536
G15         2.000    23950847.742 6 125862570.22206     -1785.486 6        39.429                                    23950844.221 5  98074720.42005     -1391.288 5        31.653    23950845.311 6  98074723.43406     -1391.277 6        36.862
C33         3.000                                                                                                                                    23728750.659 7 123561853.01807      1823.594 7        47.507                                                                    23728762.624 7 100404184.43207      1481.706 7        47.713
E31         4.000    27683233.597 6 145476403.20706      2008.299 6        37.845                                                                    27683235.904 6 108634982.85306      1499.698 6        41.654    27683235.603 7 111468936.14307      1538.801 7        42.265
S21         5.000    38513277.046 6 202388364.17906      -522.499 6        41.538
E13         6.000    23759615.290 7 124857972.52807     -1624.178 7        47.002                                                                    23759615.323 8  93238304.80608     -1212.838 8        50.220    23759614.948 8  95670577.84708     -1244.579 8        51.248
G23         7.000    21206010.006 7 111438462.89707     -1874.085 7        46.826                                    21206006.131 6  86835204.10606     -1460.324 6        37.728    21206006.081 7  86835203.10707     -1460.302 7        46.607
E15         8.000    27554220.300 6 144798721.67006     -3044.999 6        38.676                                                                    27554221.225 6 108129085.33006     -2273.901 6        41.692    27554220.118 7 110949820.24507     -2333.298 7        42.370
G07        10.000    25411468.051 6 133538201.15806     -1590.044 6        37.762                                    25411464.636 4 104055732.68604     -1238.992 4        27.940    25411464.951 5 104055736.67905     -1239.217 5        33.138
G26        11.000    24260249.843 6 127488830.68606     -4145.549 6        40.222                                    24260250.282 5  99342124.46205     -3230.302 5        34.714    24260251.067 6  99342144.44506     -3230.211 6        38.964
S27        12.000    39244729.450 5 206232412.24805      -491.048 5        35.362
R20        13.000    21760542.708 6 116363448.67106      2174.278 6        38.270                                                                    21760544.121 7  90504971.32007      1691.170 7        43.361
S36        14.000    38282915.977 7 201178609.18607      -521.466 7        43.435
G27        15.000    20169170.392 8 105989988.18008       -52.922 8        50.563                                    20169167.668 8  82589759.96608       -41.237 8        53.294    20169168.010 7  82589673.96507       -41.266 7        46.335
S45        17.000    63494519.297 6 333666830.60906      -570.008 6        37.040
E08        18.000    27347819.635 6 143713792.43306      1766.315 6        38.799                                                                    27347818.470 6 107318740.23606      1319.068 6        41.952    27347817.927 7 110118355.58807      1353.446 7        42.785
G16        19.000    22017430.741 7 115702636.48207     -3411.757 7        46.746                                    22017426.452 5  90158017.26305     -2658.510 5        35.071
E21        20.000    25144785.641 7 132137112.19007     -2926.418 7        45.704                                                                    25144785.730 8  98674033.48908     -2185.242 8        48.111    25144785.279 8 101248113.54208     -2242.308 8        48.816
E26        21.000    24247546.806 7 127422065.93607       841.740 7        46.999                                                                    24247544.735 8  95153038.20408       628.616 8        49.652    24247544.324 8  97635266.96808       644.991 8        50.486
I06        22.000    38697436.654 6 151857272.05306      -315.807 6        40.808
S28        23.000    40978908.396 5 215345633.67805      -515.464 5        33.623
G08        24.000    21680874.832 7 113933780.84307      1967.636 7        45.344                                    21680872.990 7  88779569.96207      1533.221 7        44.883    21680873.933 7  88779570.95607      1533.369 7        43.407
S23        25.000    38238381.058 7 200944029.10407      -521.687 7        44.015
C13        26.000                                                                                                                                    38556975.871 7 200776490.24807     -1470.472 7        42.360    38556977.820 7 155253228.84807     -1136.984 7        43.236    38556975.743 7 163147431.42707     -1194.865 7        42.159
G18        27.000    23589754.426 7 123965343.06307     -3496.277 7        43.052                                    23589750.401 4  96596543.26904     -2724.375 4        28.294    23589750.653 6  96596534.26406     -2724.281 6        41.545
I02        29.000    40209753.340 6 157791805.06306     -1050.737 6        38.556
C14        30.000                                                                                                                                    23300384.255 7 121331247.44007       351.810 7        46.026    23300380.028 8  93821013.39008       272.037 8        50.815    23300378.496 8  98591564.69908       285.822 8        48.419
R02        31.000    23736314.328 7 126661552.45407     -3853.318 7        42.588                                                                    23736315.308 6  98514559.26006     -2997.048 6        40.067
E03        32.000    27463006.534 6 144319081.48106      -305.675 6        38.240                                                                    27463007.318 6 107770755.54306      -228.280 6        40.884    27463006.761 7 110582159.85307      -234.220 7        42.140
G30        33.000    25794719.554 6 135552159.68706      -359.895 6        36.994                                    25794718.604 4 105625062.16804      -280.435 4        26.934    25794720.896 5 105625070.19805      -280.854 5        32.916
R03        34.000    21078691.617 8 112835922.57108      -614.230 8        49.327                                                                    21078689.817 7  87761296.62607      -477.723 7        45.330
R10        35.000    21308439.249 7 113586031.38107      -663.211 7        45.536
R18        36.000    21819402.271 7 116473856.27807     -3311.234 7        46.849                                                                    21819402.568 7  90590982.32907     -2575.365 7        44.883
G13        39.000    25351142.175 4                     -2236.505 4        29.374
R09        40.000    21595829.585 8 115320585.05708     -3730.451 8        48.536                                                                    21595828.528 7  89693810.45807     -2901.511 7        45.926
E33        41.000    28115816.713 6 147749665.21806      1997.839 6        37.463                                                                    28115817.741 6 110332563.91006      1491.850 6        39.078    28115817.209 6 113210801.95106      1530.840 6        40.246
S44        42.000    40543936.092 6 213060026.07806      -515.717 6        37.353
C38        43.000                                                                                                                                    40515176.278 6 210973302.87306     -1784.966 6        39.222                                                                    40515175.140 6 171433150.51006     -1450.294 6        38.595
C05        44.000                                                                                                                                    39306164.502 6 204677534.36306      -456.041 6        38.535    39306159.098 7 158269674.36707      -352.599 7        42.616    39306161.655 6 166317363.72306      -370.466 6        40.694
C08        45.000                                                                                                                                    39042578.197 6 203305139.66306     -1709.338 6        37.573    39042572.851 7 157208504.76907     -1321.724 7        42.876    39042572.095 6 165202130.09506     -1389.185 6        40.238
C21        46.000                                                                                                                                    27204831.898 6 141662678.61106     -3370.764 6        37.675                                                                    27204827.249 6 115112500.86806     -2738.975 6        38.670
R19        47.000    19817427.805 6 106010247.85406     -1292.059 6        40.472                                                                    19817427.517 7  82452582.58207     -1004.978 7        45.469
C43        48.000                                                                                                                                    23777279.701 7 123814850.61507     -2825.834 7        47.184                                                                    23777278.394 7 100609832.82107     -2296.245 7        46.053
C42        50.000                                                                                                                                    23984969.628 7 124896074.48507     -1299.234 7        45.828                                                                    23984976.819 7 101488339.45807     -1055.848 7        47.009
S48        51.000    77260398.344 6 406006647.62006      -557.542 6        37.384
G21        52.000    23550354.272 6 123758004.89506      2338.758 6        38.486                                    23550349.796 3  96434827.22003      1822.399 3        20.357
C37        53.000                                                                                                                                    25320162.457 7 131848740.58207     -3146.691 7        43.098                                                                    25320166.021 7 107137922.40807     -2557.028 7        43.983
C60        54.000                                                                                                                                    40543940.812 6 211123136.14006      -511.022 6        39.820                                                                    40543924.814 6 171554810.42406      -415.317 6        39.616
C27        55.000                                                                                                                                    24050087.347 7 125235132.14207      1960.675 7        46.077                                                                    24050085.730 7 101763806.76507      1593.270 7        44.965
R04        56.000    21542321.984 8 115358156.73608      2918.684 8        49.287                                                                    21542319.932 7  89723000.30507      2270.174 7        44.664
C02        57.000                                                                                                                                    40642636.422 5 211636916.58505      -464.405 5        34.319    40642629.524 6 163651081.44506      -359.171 6        39.033    40642633.351 5 171972332.98805      -377.468 5        35.767
I03        58.000   110019707.337 6 355955714.16306      1033.065 6        40.236
C11        59.000                                                                                                                                    25701450.691 6 133834487.22406     -3194.095 6        39.402    25701448.353 7 103489462.16607     -2469.936 7        45.407    25701446.320 7 108751590.26107     -2595.655 7        42.368
C28        60.000                                                                                                                                    21648198.437 8 112728166.96108       110.433 8        50.561                                                                    21648196.982 8  91601006.06908        89.731 8        48.889
> 2025 01 01 20 15 15.0000000  0 54
G10         1.000    21127884.074 8 111027878.97308       946.213 8        51.008                                    21127881.840 8  86515292.22908       737.308 8        51.944    21127881.651 7  86515269.23507       737.364 7        45.202
G15         2.000    23952548.067 6 125871506.33406     -1789.017 6        39.276                                    23952544.784 5  98081683.60905     -1394.036 5        31.381    23952545.032 6  98081686.60906     -1394.076 6        36.318
C33         3.000                                                                                                                                    23727000.706 7 123552740.76907      1821.287 7        47.542                                                                    23727012.578 7 100396779.98107      1480.037 7        47.542
E31         4.000    27681323.724 6 145466364.28706      2007.161 6        38.192                                                                    27681325.835 6 108627486.26606      1498.849 6        41.866    27681325.289 7 111461243.99407      1537.966 7        42.332
S21         5.000    38513775.265 6 202390976.72606      -522.691 6        41.940
E13         6.000    23761161.263 7 124866096.04607     -1625.401 7        47.181                                                                    23761161.199 8  93244371.07908     -1213.754 8        50.193    23761160.910 8  95676802.36008     -1245.382 8        51.234
G23         7.000    21207794.836 7 111447840.71607     -1877.151 7        46.716                                    21207790.680 6  86842511.49906     -1462.713 6        37.607    21207790.620 7  86842510.50507     -1462.730 7        46.263
E15         8.000    27557117.295 6 144813947.22006     -3045.236 6        38.766                                                                    27557118.699 6 108140455.07206     -2274.159 6        41.723    27557117.504 7 110961486.58007     -2333.379 7        42.330
G07        10.000    25412981.822 6 133546157.10606     -1592.424 6        39.072                                    25412978.499 4 104061932.11604     -1240.850 4        27.988    25412978.129 5 104061936.11505     -1240.646 5        32.844
G26        11.000    24264194.547 6 127509559.55306     -4146.062 6        40.050                                    24264194.999 5  99358276.81005     -3230.696 5        35.019    24264195.873 6  99358296.78806     -3230.617 6        39.192
S27        12.000    39245195.956 5 206234866.89605      -491.025 5        35.490
R20        13.000    21758509.955 6 116352579.94606      2172.972 6        38.640                                                                    21758512.298 7  90496517.83307      1690.230 7        43.410
S36        14.000    38283411.795 7 201181217.21807      -521.946 7        43.524
G27        15.000    20169222.158 8 105990259.72908       -55.745 8        50.684                                    20169219.346 8  82589971.56108       -43.438 8        53.237    20169219.565 7  82589885.55807       -43.398 7        46.220
S45        17.000    63495015.924 6 333669680.77006      -570.041 6        37.229
E08        18.000    27346139.683 6 143704964.23206      1764.875 6        39.180                                                                    27346138.585 6 107312147.75506      1317.984 6        41.843    27346137.987 7 110111591.11807      1352.180 7        42.830
G16        19.000    22020678.066 7 115719700.82607     -3414.101 7        46.673                                    22020673.713 5  90171314.14905     -2660.336 5        34.986
E21        20.000    25147570.462 7 132151748.21207     -2928.116 7        45.761                                                                    25147570.836 8  98684962.98408     -2186.564 8        48.035    25147570.422 8 101259328.15908     -2243.718 8        48.808
E26        21.000    24246746.491 7 127417860.09807       840.457 7        46.979                                                                    24246744.412 8  95149897.48108       627.643 8        49.643    24246743.993 8  97632044.31708       643.949 8        50.513
I06        22.000    38697839.020 6 151858851.05606      -315.896 6        40.601
S28        23.000    40979399.148 5 215348209.88005      -515.483 5        33.425
G08        24.000    21679003.481 7 113923946.23207      1965.921 7        45.567                                    21679001.526 7  88771906.62707      1531.888 7        44.811    21679002.607 7  88771907.61707      1531.987 7        43.101
S23        25.000    38238876.214 7 200946638.05307      -522.010 7        44.101
C13        26.000                                                                                                                                    38558388.011 7 200783843.60907     -1471.021 7        42.292    38558389.676 7 155258914.93507     -1137.421 7        43.367    38558387.971 7 163153406.62107     -1195.156 7        42.045
G18        27.000    23593080.668 7 123982825.63707     -3496.903 7        43.259                                    23593077.136 4  96610166.05404     -2724.860 4        28.227    23593077.529 6  96610157.05606     -2724.884 6        41.802
I02        29.000    40211092.482 6 157797059.65106     -1051.050 6        38.345
C14        30.000                                                                                                                                    23300047.667 7 121329495.91107       348.754 7        46.104    23300043.633 8  93819659.00108       269.662 8        50.788    23300042.181 8  98590141.43208       283.437 8        48.341
R02        31.000    23739925.573 7 126680826.39907     -3856.130 7        42.681                                                                    23739927.653 6  98529550.08906     -2999.277 6        40.112
E03        32.000    27463298.734 6 144320615.99306      -308.359 6        38.306                                                                    27463299.321 6 107771901.42406      -230.157 6        40.660    27463299.020 7 110583335.65307      -236.232 7        42.155
G30        33.000    25795063.688 6 135553966.82106      -362.993 6        36.552                                    25795062.543 4 105626470.33104      -282.850 4        26.814    25795064.380 5 105626478.33005      -282.928 5        33.515
R03        34.000    21079267.954 8 112839005.32608      -619.001 8        49.272                                                                    21079265.407 7  87763694.31707      -481.424 7        44.405
R10        35.000    21309063.687 7 113589359.41707      -668.095 7        45.136
R18        36.000    21822504.790 7 116490415.04707     -3312.349 7        46.996                                                                    21822504.188 7  90603861.37507     -2576.267 7        44.558
G13        39.000    25353271.414 4                     -2239.354 4        28.995
R09        40.000    21599324.211 8 115339244.65408     -3733.486 8        48.845                                                                    21599323.018 7  89708323.47307     -2903.775 7        46.312
E33        41.000    28113916.530 6 147739676.96606      1997.344 6        37.365                                                                    28113916.777 6 110325105.17006      1491.595 6        38.949    28113916.572 6 113203148.63406      1530.500 6        40.186
S44        42.000    40544430.425 6 213062605.49706      -515.965 6        37.622
C38        43.000                                                                                                                                    40516889.978 6 210982227.67306     -1785.138 6        39.174                                                                    40516888.842 6 171440402.64506     -1450.701 6        38.772
C05        44.000                                                                                                                                    39306602.202 6 204679814.73506      -456.320 6        38.456    39306597.116 7 158271437.70407      -352.843 7        42.552    39306599.664 6 166319216.71306      -370.681 6        40.651
C08        45.000                                                                                                                                    39044220.433 6 203313687.54206     -1709.859 6        37.391    39044214.395 7 157215114.54307     -1322.082 7        42.863    39044213.468 6 165209075.94206     -1389.348 6        40.086
C21        46.000                                                                                                                                    27208068.482 6 141679535.77606     -3372.279 6        37.641                                                                    27208064.542 6 115126198.66706     -2740.206 6        38.889
R19        47.000    19818636.356 6 106016713.52206     -1294.235 6        40.570                                                                    19818636.504 7  82457611.43907     -1006.599 7        45.731
C43        48.000                                                                                                                                    23779993.463 7 123828982.27407     -2826.930 7        47.009                                                                    23779992.300 7 100621315.94107     -2297.097 7        45.857
C42        50.000                                                                                                                                    23986218.055 7 124902578.09907     -1302.289 7        45.759                                                                    23986225.744 7 101493624.17407     -1058.118 7        46.886
S48        51.000    77260903.168 6 406009436.29806      -557.832 6        37.592
G21        52.000    23548129.281 6 123746313.83106      2337.544 6        37.301                                    23548125.338 3  96425717.31503      1821.448 3        20.333
C37        53.000                                                                                                                                    25323184.488 7 131864477.48307     -3148.204 7        43.012                                                                    25323188.059 7 107150709.90607     -2558.015 7        43.924
C60        54.000                                                                                                                                    40544431.787 6 211125692.12406      -511.416 6        39.697                                                                    40544415.794 6 171556887.36006      -415.447 6        39.432
C27        55.000                                                                                                                                    24048205.427 7 125225330.47907      1959.864 7        46.374                                                                    24048203.500 7 101755842.11407      1592.644 7        44.859
R04        56.000    21539597.479 8 115343570.28408      2915.797 8        48.470                                                                    21539596.238 7  89711655.31607      2267.874 7        44.941
C02        57.000                                                                                                                                    40643082.099 5 211639238.87305      -464.564 5        34.371    40643075.349 6 163652877.16606      -359.232 6        38.958    40643079.539 5 171974220.02705      -377.511 5        35.924
I03        58.000   110018391.132 6 355950549.43706      1032.777 6        40.291
C11        59.000                                                                                                                                    25704517.053 6 133850459.24806     -3194.758 6        38.898    25704515.426 7 103501812.73207     -2470.415 7        45.308    25704513.580 7 108764568.81807     -2596.001 7        42.180
C28        60.000                                                                                                                                    21648093.086 8 112727618.37108       108.830 8        50.538                                                                    21648091.623 8  91600560.29008        88.466 8        48.804
> 2025 01 01 20 15 20.0000000  0 54
G10         1.000    21126984.821 8 111023154.09108       943.350 8        51.719                                    21126982.731 8  86511610.50508       735.076 8        52.107    21126982.727 7  86511587.50107       735.145 7        45.422
G15         2.000    23954251.589 6 125880459.18506     -1792.274 6        40.150                                    23954248.530 5  98088659.84105     -1396.575 5        31.494    23954248.278 6  98088662.83206     -1396.492 6        36.238
C33         3.000                                                                                                                                    23725252.443 7 123543639.07407      1819.270 7        47.362                                                                    23725264.716 7 100389384.12507      1478.368 7        47.743
E31         4.000    27679415.426 6 145456331.55706      2005.835 6        38.378                                                                    27679416.686 6 108619994.31006      1497.812 6        41.826    27679416.036 7 111453556.58307      1537.030 7        42.235
S21         5.000    38514273.458 6 202393589.24206      -522.490 6        41.797
E13         6.000    23762708.155 7 124874224.78207     -1626.395 7        47.166                                                                    23762708.046 8  93250441.23208     -1214.460 8        50.133    23762707.721 8  95683030.87308     -1246.172 8        51.200
G23         7.000    21209582.074 7 111457233.25607     -1880.027 7        46.809                                    21209578.014 6  86849830.36006     -1464.956 6        37.875    21209578.186 7  86849829.36007     -1464.949 7        46.751
E15         8.000    27560014.545 6 144829172.90606     -3045.181 6        38.477                                                                    27560015.806 6 108151824.88406     -2274.092 6        41.814    27560014.941 7 110973153.00907     -2333.292 7        42.102
G07        10.000    25414497.892 6 133554124.40906     -1594.842 6        39.381                                    25414494.599 4 104068140.39504     -1242.738 4        27.964    25414494.353 5 104068144.43505     -1242.549 5        32.144
G26        11.000    24268139.642 6 127530289.95706     -4146.339 6        40.274                                    24268140.079 5  99374430.35205     -3230.914 5        35.214    24268140.115 6  99374450.33606     -3230.867 6        39.664
S27        12.000    39245664.797 5 206237321.43705      -490.787 5        35.319
R20        13.000    21756478.754 6 116341716.41806      2172.001 6        39.126                                                                    21756480.179 7  90488068.44507      1689.445 7        43.446
S36        14.000    38283906.406 7 201183825.38607      -521.599 7        43.225
G27        15.000    20169275.984 8 105990544.62308       -58.308 8        50.734                                    20169273.565 8  82590193.55508       -45.434 8        53.433    20169273.777 7  82590107.55807       -45.532 7        46.378
S45        17.000    63495509.252 6 333672531.17906      -570.454 6        37.040
E08        18.000    27344460.625 6 143696142.48706      1763.517 6        39.108                                                                    27344459.971 6 107305560.07906      1317.028 6        41.735    27344459.307 7 110104831.59007      1351.320 7        42.944
G16        19.000    22023927.666 7 115736775.88907     -3416.124 7        47.172                                    22023923.035 5  90184619.39305     -2661.914 5        35.176
E21        20.000    25150357.212 7 132166392.19407     -2929.666 7        45.741                                                                    25150357.530 8  98695898.41908     -2187.765 8        48.033    25150357.042 8 101270548.86408     -2244.848 8        48.771
E26        21.000    24245947.435 7 127413660.03307       839.389 7        47.065                                                                    24245945.157 8  95146761.08008       626.794 8        49.567    24245944.705 8  97628826.08908       643.195 8        50.516
I06        22.000    38698241.628 6 151860429.96706      -315.866 6        40.982
S28        23.000    40979892.784 5 215350785.99005      -515.221 5        33.275
G08        24.000    21677133.489 7 113914119.73107      1964.497 7        45.780                                    21677131.605 7  88764249.61307      1530.778 7        44.971    21677132.468 7  88764250.60607      1530.745 7        43.268
S23        25.000    38239373.651 7 200949247.08707      -521.911 7        44.160
C13        26.000                                                                                                                                    38559800.683 7 200791198.43907     -1471.159 7        42.377    38559802.121 7 155264602.14807     -1137.742 7        43.934    38559800.454 7 163159383.03707     -1195.393 7        42.009
G18        27.000    23596407.794 7 124000311.17907     -3497.569 7        43.424                                    23596404.466 4  96623791.14804     -2725.373 4        28.474    23596405.031 6  96623782.13006     -2725.161 6        41.828
I02        29.000    40212431.904 6 157802314.22606     -1051.103 6        38.492
