     3.04           OBSERVATION DATA    M                   RINEX VERSION / TYPE
ssrcrin-15.6.1x                         20250101 110000 UTC PGM / RUN BY / DATE 
(00000000023479385599111004) Septentrio proprietary         COMMENT             
rref                                                        MARKER NAME         
01                                                          MARKER NUMBER       
geodetic                                                    MARKER TYPE         
NFB                 CLIMERS@TUW                             OBSERVER / AGENCY   
3297213             SEPT ASTERX SB3 PROB4.14.4              REC # / TYPE / VERS 
Unknown             Unknown                                 ANT # / TYPE        
  4127832.3111  1207192.9918  4695247.4335                  APPROX POSITION XYZ 
        0.0000        0.0000        0.0000                  ANTENNA: DELTA H/E/N
G   23 X1  C1C L1C D1C S1C C1W S1W C2W L2W D2W S2W C2L L2L  SYS / # / OBS TYPES 
       D2L S2L C5Q L5Q D5Q S5Q C1L L1L D1L S1L              SYS / # / OBS TYPES 
E   21 X1  C1C L1C D1C S1C C6C L6C D6C S6C C5Q L5Q D5Q S5Q  SYS / # / OBS TYPES 
       C7Q L7Q D7Q S7Q C8Q L8Q D8Q S8Q                      SYS / # / OBS TYPES 
S    9 X1  C1C L1C D1C S1C C5I L5I D5I S5I                  SYS / # / OBS TYPES 
R   17 X1  C1C L1C D1C S1C C2P L2P D2P S2P C2C L2C D2C S2C  SYS / # / OBS TYPES 
       C3Q L3Q D3Q S3Q                                      SYS / # / OBS TYPES 
C   25 X1  C1P L1P D1P S1P C5P L5P D5P S5P C2I L2I D2I S2I  SYS / # / OBS TYPES 
       C7I L7I D7I S7I C6I L6I D6I S6I C7D L7D D7D S7D      SYS / # / OBS TYPES 
J   17 X1  C1C L1C D1C S1C C2L L2L D2L S2L C5Q L5Q D5Q S5Q  SYS / # / OBS TYPES 
       C1L L1L D1L S1L                                      SYS / # / OBS TYPES 
I    5 X1  C5A L5A D5A S5A                                  SYS / # / OBS TYPES 
SEPTENTRIO RECEIVERS OUTPUT ALIGNED CARRIER PHASES.         COMMENT             
NO FURTHER PHASE SHIFT APPLIED IN THE RINEX ENCODER.        COMMENT             
G L1C                                                       SYS / PHASE SHIFT   
G L2W                                                       SYS / PHASE SHIFT   
G L2L  0.00000                                              SYS / PHASE SHIFT   
G L5Q  0.00000                                              SYS / PHASE SHIFT   
G L1L  0.00000                                              SYS / PHASE SHIFT   
E L1C  0.00000                                              SYS / PHASE SHIFT   
E L6C  0.00000                                              SYS / PHASE SHIFT   
E L5Q  0.00000                                              SYS / PHASE SHIFT   
E L7Q  0.00000                                              SYS / PHASE SHIFT   
E L8Q  0.00000                                              SYS / PHASE SHIFT   
S L1C                                                       SYS / PHASE SHIFT   
S L5I                                                       SYS / PHASE SHIFT   
R L1C                                                       SYS / PHASE SHIFT   
R L2P  0.00000                                              SYS / PHASE SHIFT   
R L2C                                                       SYS / PHASE SHIFT   
R L3Q  0.00000                                              SYS / PHASE SHIFT   
C L1P  0.00000                                              SYS / PHASE SHIFT   
C L5P  0.00000                                              SYS / PHASE SHIFT   
C L2I                                                       SYS / PHASE SHIFT   
C L7I                                                       SYS / PHASE SHIFT   
C L6I                                                       SYS / PHASE SHIFT   
C L7D                                                       SYS / PHASE SHIFT   
J L1C                                                       SYS / PHASE SHIFT   
J L2L  0.00000                                              SYS / PHASE SHIFT   
J L5Q  0.00000                                              SYS / PHASE SHIFT   
J L1L  0.00000                                              SYS / PHASE SHIFT   
I L5A                                                       SYS / PHASE SHIFT   
  2025     1     1    11     0    0.0000000     GPS         TIME OF FIRST OBS   
 C1C    0.000 C2C    0.000 C2P    0.000                     GLONASS COD/PHS/BIS 
DBHZ                                                        SIGNAL STRENGTH UNIT
    18                                                      LEAP SECONDS        
 24 R01  1 R02 -4 R03  5 R04  6 R05  1 R06 -4 R07  5 R08  6 GLONASS SLOT / FRQ #
    R09 -2 R10 -7 R11  0 R12 -1 R13 -2 R14 -7 R15  0 R16 -1 GLONASS SLOT / FRQ #
    R17  4 R18 -3 R19  3 R20  2 R21  4 R22 -3 R23  3 R24  2 GLONASS SLOT / FRQ #
                                                            END OF HEADER       
> 2025 01 01 11 00  0.0000000  0 54
G19         1.000    21486332.468 7 112911598.75507       846.443 7        46.907                                    21486332.735 6  87983153.34006       659.568 6        37.902
G24         3.000    20331380.604 8 106842150.31808       713.203 8        49.669                                    20331384.228 8  83253658.13508       555.745 8        51.750    20331384.634 7  83253655.14407       555.645 7        46.086
R02         4.000    20736680.142 8 110654799.69208     -3877.434 8        51.217                                                                    20736686.250 7  86064834.76707     -3015.811 7        45.704
S21         5.000    38431613.758 7 201959180.13807      -546.847 7        42.508
G17         7.000    22197166.432 7 116647050.88407     -1722.773 7        46.564                                    22197169.751 7  90893892.57007     -1342.415 7        43.769    22197169.748 7  90893888.56407     -1342.429 7        42.387
R21         8.000    22252255.763 7 119076384.61707      -643.540 7        45.690                                                                    22252264.644 7  92615045.14907      -500.568 7        42.072
E12         9.000    28737765.848 5 151018015.27205      -605.715 5        32.311                                                                    28737775.997 6 112773254.78706      -452.022 6        36.881    28737774.633 6 115715153.16506      -463.763 6        37.766
E30        10.000    25494491.643 7 133974575.98107      1663.152 7        45.014                                                                    25494499.942 7 100046051.02607      1241.965 7        47.402    25494498.634 8 102655937.56608      1274.319 8        48.313
C26        11.000                                                                                                                                    21715152.749 8 113076509.68508     -1044.411 8        50.791                                                                    21715155.731 8  91883943.16808      -848.704 8        49.659
S27        12.000    39180457.097 6 205894479.87406      -577.540 6        36.435
G15        13.000    21345089.692 7 112169110.68807     -3287.686 7        47.772                                    21345092.099 7  87404462.16907     -2561.829 7        46.587    21345092.270 7  87404454.15407     -2561.776 7        42.836
S36        14.000    38202909.979 7 200758037.59307      -547.614 7        44.372
G12        15.000    22359120.185 7 117498082.72907      2503.922 7        46.207                                    22359123.309 7  91557014.98907      1951.107 7        43.678    22359123.736 7  91557015.01907      1951.015 7        42.432
R11        16.000    23742089.565 7 126870340.75907     -4027.151 7        42.119                                                                    23742101.629 6  98676882.59406     -3132.255 6        40.179
S45        17.000    63389006.699 6 333112935.08806      -604.442 6        36.008
R03        18.000    20228457.062 8 108284472.54308       246.774 8        51.813                                                                    20228460.953 7  84221260.22607       191.896 7        47.048
C35        19.000                                                                                                                                    24429796.835 7 127212462.64807      1994.344 7        44.849                                                                    24429802.761 7 103370615.16207      1620.479 7        44.804
E11        20.000    28266264.983 5 148540222.06805      1454.642 5        34.690                                                                    28266278.946 6 110922950.45006      1086.217 6        36.533    28266276.771 6 113816584.25506      1114.662 6        36.938
R14        21.000    24515821.292 6 130683125.04806      2868.353 6        41.640                                                                    24515833.785 5 101642481.97105      2230.670 5        35.790
I06        22.000    38265760.578 6 150163118.53506      -517.699 6        41.719
S28        23.000    40888854.761 5 214872150.68205      -557.693 5        34.757
G14        24.000    23761934.593 6 124869664.08106     -3787.690 6        40.784                                    23761943.192 4  97301001.98804     -2951.426 4        24.496    23761943.364 6  97301003.95806     -2951.417 6        39.808
S23        25.000    38137277.287 7 200412587.62007      -550.517 7        44.810
E08        26.000    23736181.656 8 124734401.60908     -1605.832 8        49.136                                                                    23736186.007 8  93145795.87708     -1199.163 8        50.465    23736184.992 8  95575686.39208     -1230.431 8        51.104
C07        27.000                                                                                                                                    39155366.011 6 203892202.43306     -1185.848 6        39.198    39155370.944 7 157662379.76607      -917.045 7        42.635    39155367.401 6 165679101.09606      -963.682 6        40.915
G13        28.000    22582093.964 7 118669584.05607     -4078.921 7        44.897                                    22582097.783 4  92469753.74904     -3178.370 4        29.772
I02        29.000    36909559.209 7 144841032.33207      -326.013 7        43.096
G10        30.000    24355307.300 6 127987886.18006      -172.979 6        41.578                                    24355315.633 5  99730796.27305      -134.785 5        35.119    24355315.204 6  99730788.25506      -134.728 6        37.573
E07        31.000    25082886.835 7 131811385.89007      1237.179 7        44.846                                                                    25082895.664 8  98430577.20408       923.816 8        48.031    25082894.330 8 100998329.48108       947.928 8        48.438
E03        32.000    26434800.721 7 138915671.13707     -3554.149 7        42.114                                                                    26434812.596 7 103735699.82907     -2653.997 7        45.257    26434810.912 7 106441847.92707     -2723.246 7        45.992
E10        33.000    28307784.860 6 148758403.16306       436.346 6        37.210                                                                    28307803.124 6 111085887.72806       325.894 6        40.448    28307800.931 6 113983769.35906       334.481 6        41.302
G02        34.000    25840158.929 6 135791026.56106     -1504.966 6        37.546                                    25840163.857 3 105811242.37703     -1172.721 3        20.286
C24        35.000                                                                                                                                    22821395.768 8 118837027.55508      1462.310 8        48.368                                                                    22821398.014 8  96564839.67408      1188.228 8        48.916
G23        36.000    23711621.312 6 124605266.89206     -2516.086 6        41.602                                    23711628.757 4  97094960.30104     -1960.576 4        25.940    23711629.236 6  97094961.28806     -1960.560 6        40.169
R04        38.000    23158689.195 7 124013632.69607      3273.606 7        44.039                                                                    23158697.806 6  96455031.83906      2546.041 6        41.175
C33        39.000                                                                                                                                    23994677.882 7 124946570.49607      -142.348 7        46.667                                                                    23994695.452 7 101529394.95707      -115.759 7        46.762
E25        40.000    25812765.127 7 135646912.70507     -2945.389 7        42.923                                                                    25812776.292 7 101294750.15307     -2199.484 7        45.756    25812774.935 7 103937216.90307     -2256.821 7        46.362
S44        42.000    40846744.574 6 214651064.83606      -502.137 6        38.207
R22        43.000    22702341.203 7 121186724.13807      2730.541 7        44.847                                                                    22702349.353 6  94256418.13206      2123.602 6        41.435
C05        44.000                                                                                                                                    39431806.745 6 205331634.41206      -577.869 6        38.790    39431813.128 7 158775424.59307      -446.761 7        42.381    39431812.130 6 166848840.26606      -469.418 6        39.318
C40        45.000                                                                                                                                    39345225.971 6 204880846.95806     -1430.899 6        41.650                                                                    39345233.021 6 166482471.22406     -1162.701 6        41.814
C21        46.000                                                                                                                                    26822877.048 6 139673483.48706     -4046.731 6        37.467                                                                    26822885.134 6 113496061.24006     -3288.521 6        37.047
R20        47.000    24376948.156 4 130354586.10004     -3586.676 4        29.754                                                                    24376957.373 6 101386974.32306     -2790.157 6        38.562
C10        49.000                                                                                                                                    38552910.670 7 200755121.96907      -831.700 7        42.190    38552916.091 7 155236608.17707      -643.111 7        44.777    38552912.509 6 163129982.35506      -675.750 6        41.583
C42        50.000                                                                                                                                    23878304.254 7 124340478.92307     -3075.579 7        46.784                                                                    23878317.882 7 101036836.56107     -2499.207 7        47.315
S48        51.000    77140638.893 6 405376528.70606      -544.640 6        37.856
E02        53.000    23140844.968 8 121606046.20008      -763.956 8        49.273                                                                    23140849.554 8  90809787.39508      -570.459 8        51.192    23140848.465 8  93178719.82208      -585.328 8        51.350
C60        54.000                                                                                                                                    40846747.305 6 212699708.88906      -497.665 6        40.298                                                                    40846742.106 6 172835858.95706      -404.457 6        39.318
C45        55.000                                                                                                                                    24849364.935 7 129397007.80107     -3181.794 7        43.403                                                                    24849365.498 7 105145608.93907     -2585.615 7        44.664
R12        56.000    19711811.293 8 105297034.11308     -1983.356 8        51.322                                                                    19711816.299 7  81897727.96507     -1542.654 7        47.840
C02        57.000                                                                                                                                    40971461.140 5                      -543.692 5        30.498    40971468.931 6 164974887.91206      -420.344 6        36.060    40971468.372 5                      -441.594 5        30.928
I03        58.000   121874552.537 5 402476362.37005       883.842 5        33.844
C14        59.000                                                                                                                                    23425744.790 7 121983916.46007     -1722.154 7        46.326    23425747.170 8  94325669.76908     -1331.698 8        50.527    23425744.195 8  99121891.81908     -1399.473 8        48.033
R13        60.000    20047388.276 7 107052011.93007      1069.326 7        46.073
> 2025 01 01 11 00  5.0000000  0 54
G19         1.000    21485528.164 7 112907374.02407       843.331 7        46.899                                    21485528.791 6  87979861.33806       657.140 6        37.883
G24         3.000    20330703.530 8 106838589.97908       710.843 8        49.740                                    20330706.706 8  83250883.84708       553.902 8        51.768    20330706.959 7  83250880.84607       553.953 7        46.148
R02         4.000    20740314.988 8 110674194.60408     -3880.566 8        51.363                                                                    20740320.635 7  86079919.67007     -3018.268 7        45.547
S21         5.000    38432133.132 7 201961914.37207      -546.875 7        42.510
G17         7.000    22198807.288 7 116655671.89107     -1725.693 7        46.416                                    22198810.255 7  90900610.23007     -1344.694 7        43.757    22198810.267 7  90900606.22807     -1344.735 7        42.315
R21         8.000    22252858.451 7 119079613.14007      -647.987 7        45.974                                                                    22252868.765 7  92617556.25807      -504.094 7        42.411
E12         9.000    28738342.390 5 151021048.14305      -607.979 5        31.713                                                                    28738353.082 6 112775519.62206      -453.992 6        36.858    28738351.839 6 115717477.08706      -465.666 6        37.890
E30        10.000    25492909.733 7 133966263.14007      1661.951 7        45.008                                                                    25492918.116 7 100039843.40007      1241.039 7        47.604    25492916.683 8 102649568.00208      1273.467 8        48.262
C26        11.000                                                                                                                                    21716156.317 8 113081735.05208     -1045.864 8        50.887                                                                    21716159.184 8  91888189.20608      -849.855 8        49.519
S27        12.000    39181007.040 6 205897367.14406      -577.629 6        36.707
G15        13.000    21348218.982 8 112185554.95008     -3290.125 8        48.036                                    21348221.363 7  87417275.85807     -2563.728 7        46.579    21348221.735 7  87417267.84707     -2563.703 7        43.723
S36        14.000    38203431.616 7 200760775.60407      -547.702 7        44.305
G12        15.000    22356738.440 7 117485567.02707      2502.338 7        46.143                                    22356741.637 7  91547262.50807      1949.870 7        43.697    22356742.267 7  91547262.51307      1949.870 7        42.224
R11        16.000    23745857.924 7 126890475.92507     -4026.986 7        42.931                                                                    23745869.402 6  98692543.23606     -3132.239 6        40.324
S45        17.000    63389531.556 6 333114357.38516      -604.386 6        36.113
R03        18.000    20228228.610 8 108283249.67108       242.192 8        52.087                                                                    20228232.809 7  84220309.10007       188.339 7        47.137
C35        19.000                                                                                                                                    24427882.582 7 127202494.45507      1992.797 7        45.032                                                                    24427888.600 7 103362515.20307      1619.324 7        44.612
E11        20.000    28264880.808 5 148532952.16105      1453.183 5        34.624                                                                    28264895.654 6 110917521.66906      1085.168 6        36.745    28264893.296 6 113811013.86806      1113.538 6        36.866
R14        21.000    24513132.121 6 130668784.59006      2867.791 6        41.695                                                                    24513143.658 5 101631328.24405      2230.587 5        35.090
I06        22.000    38266420.297 6 150165706.85806      -517.789 6        41.297
S28        23.000    40889384.398 5 214874938.06405      -557.584 5        34.567
G14        24.000    23765538.163 6 124888603.61006     -3788.215 6        40.789                                    23765547.320 4  97315760.00904     -2951.834 4        24.857    23765547.400 6  97315761.99906     -2951.872 6        40.386
S23        25.000    38137800.177 7 200415339.85407      -550.512 7        44.944
E08        26.000    23737710.441 8 124742436.12708     -1608.015 8        48.931                                                                    23737714.954 8  93151795.67008     -1200.828 8        50.584    23737713.912 8  95581842.70008     -1232.151 8        51.058
C07        27.000                                                                                                                                    39156505.193 6 203898132.88006     -1186.424 6        39.204    39156509.799 7 157666965.55507      -917.428 7        42.646    39156506.279 6 165683920.06906      -964.064 6        40.746
G13        28.000    22585975.642 7 118689981.60207     -4080.268 7        45.049                                    22585979.571 4  92485647.90704     -3179.418 4        29.858
I02        29.000    36909974.735 7 144842662.77407      -326.231 7        42.946
G10        30.000    24355472.893 6 127988758.87806      -176.137 6        40.360                                    24355481.741 5  99731476.26605      -137.246 5        35.114    24355482.034 6  99731468.26206      -137.232 6        38.414
E07        31.000    25081710.255 7 131805204.07507      1235.412 7        44.770                                                                    25081719.334 8  98425960.91008       922.498 8        48.189    25081717.898 8 100993592.75508       946.601 8        48.331
E03        32.000    26438182.436 7 138933443.16707     -3554.851 7        42.167                                                                    26438194.632 7 103748971.10607     -2654.645 7        45.472    26438192.783 7 106455465.40907     -2723.850 7        45.743
E10        33.000    28307370.575 6 148756226.14106       434.053 6        36.957                                                                    28307388.718 6 111084262.06806       324.239 6        40.436    28307386.702 6 113982101.27606       332.743 6        41.178
G02        34.000    25841592.897 6 135798557.69006     -1507.623 6        38.069                                    25841596.891 3 105817110.83403     -1174.765 3        20.214
C24        35.000                                                                                                                                    22819992.074 8 118829718.37208      1461.300 8        48.435                                                                    22819994.314 8  96558900.37408      1187.418 8        48.792
G23        36.000    23714016.738 6 124617853.07106     -2518.481 6        41.857                                    23714023.776 4  97104767.68704     -1962.451 4        26.216    23714024.006 6  97104768.68806     -1962.502 6        40.102
R04        38.000    23155633.675 7 123997270.10507      3271.373 7        43.549                                                                    23155641.449 7  96442305.34707      2544.422 7        42.059
C33        39.000                                                                                                                                    23994816.000 7 124947289.53307      -145.372 7        46.849                                                                    23994833.560 7 101529979.23907      -118.082 7        46.550
E25        40.000    25815567.632 7 135661640.50107     -2945.816 7        43.031                                                                    25815578.993 7 101305748.15507     -2199.906 7        45.815    25815577.577 7 103948501.81207     -2257.242 7        46.256
S44        42.000    40847221.620 6 214653575.96906      -502.179 6        38.270
R22        43.000    22699783.387 7 121173076.79807      2728.263 7        44.421                                                                    22699793.047 6  94245803.53106      2122.029 6        41.645
C05        44.000                                                                                                                                    39432362.031 6 205334522.85606      -577.960 6        38.898    39432367.712 7 158777658.09507      -446.696 7        42.603    39432366.884 6 166851187.34906      -469.426 6        39.102
C40        45.000                                                                                                                                    39346600.138 6 204888002.48706     -1431.511 6        41.845                                                                    39346607.124 6 166488285.67706     -1163.117 6        41.721
C21        46.000                                                                                                                                    26826762.338 6 139693715.85806     -4046.188 6        37.652                                                                    26826770.831 6 113512501.62406     -3287.987 6        36.960
R20        47.000    24380306.380 4 130372528.19204     -3589.843 4        29.915                                                                    24380313.505 6 101400929.53606     -2792.068 6        38.435
C10        49.000                                                                                                                                    38553709.674 7 200759281.58907      -832.377 7        42.453    38553715.036 7 155239824.67307      -643.558 7        44.883    38553711.329 6 163133362.39406      -676.203 6        41.511
C42        50.000                                                                                                                                    23881257.982 7 124355861.22007     -3077.467 7        46.672                                                                    23881271.925 7 101049335.91607     -2500.643 7        47.234
S48        51.000    77141152.861 6 405379251.40106      -544.795 6        37.792
E02        53.000    23141572.627 8 121609869.72908      -765.563 8        49.191                                                                    23141577.194 8  90812642.61808      -571.685 8        51.271    23141576.084 8  93181649.53708      -586.649 8        51.243
C60        54.000                                                                                                                                    40847225.013 6 212702197.20406      -497.751 6        40.291                                                                    40847219.966 6 172837880.90906      -404.330 6        39.198
C45        55.000                                                                                                                                    24852420.294 7 129412918.13707     -3182.385 7        43.336                                                                    24852420.819 7 105158537.35507     -2585.856 7        44.618
R12        56.000    19713668.320 8 105306955.52508     -1985.289 8        51.524                                                                    19713673.630 8  81905444.60908     -1544.102 8        48.215
C02        57.000                                                                                                                                    40971980.653 5                      -543.435 5        30.528    40971990.197 5 164976988.86805      -420.215 5        35.948    40971989.714 5                      -441.252 5        30.249
I03        58.000   121873425.326 5 402471942.00205       884.228 5        33.868
C14        59.000                                                                                                                                    23427399.505 7 121992533.94607     -1724.881 7        46.422    23427402.135 8  94332333.34708     -1333.838 8        50.424    23427399.166 7  99128894.23107     -1401.638 7        47.885
R13        60.000    20046387.406 7 107046670.15607      1067.217 7        46.011
> 2025 01 01 11 00 10.0000000  0 54
G19         1.000    21484727.198 7 112903164.48307       840.391 7        47.025                                    21484727.700 6  87976581.17606       654.849 6        37.800
G24         3.000    20330028.024 8 106835041.24008       708.591 8        49.804                                    20330031.406 8  83248118.60008       552.146 8        51.657    20330031.919 7  83248115.60207       552.099 7        46.267
R02         4.000    20743951.845 8 110693604.67408     -3883.564 8        51.347                                                                    20743958.212 7  86095016.35707     -3020.528 7        45.884
S21         5.000    38432653.669 7 201964648.41007      -546.880 7        42.648
G17         7.000    22200450.476 7 116664307.67007     -1728.689 7        46.104                                    22200453.576 7  90907339.40007     -1347.032 7        43.661    22200453.840 7  90907335.39007     -1346.961 7        42.250
R21         8.000    22253466.036 7 119082864.05407      -652.450 7        46.539                                                                    22253476.545 7  92620084.73307      -507.461 7        42.709
E12         9.000    28738922.147 5 151024093.08305      -610.288 5        32.048                                                                    28738932.388 6 112777793.45206      -455.639 6        36.537    28738931.263 6 115719810.25006      -467.624 6        37.471
E30        10.000    25491329.022 7 133957955.86707      1660.864 7        45.142                                                                    25491337.255 7 100033639.91807      1240.323 7        47.578    25491335.869 8 102643202.69408      1272.638 8        48.207
C26        11.000                                                                                                                                    21717161.074 8 113086967.72908     -1047.271 8        50.939                                                                    21717164.073 8  91892441.18808      -851.118 8        49.449
S27        12.000    39181554.993 6 205900254.14106      -577.312 6        36.854
G15        13.000    21351350.850 8 112202011.43308     -3292.523 8        48.199                                    21351352.948 7  87430099.06907     -2565.598 7        46.489    21351353.286 7  87430091.06207     -2565.631 7        43.592
S36        14.000    38203952.873 7 200763513.81307      -547.601 7        44.513
G12        15.000    22354358.383 7 117473059.04907      2500.802 7        46.230                                    22354361.415 7  91537516.04307      1948.672 7        43.606    22354361.866 7  91537516.04907      1948.728 7        42.006
R11        16.000    23749625.418 7 126910610.74907     -4026.932 7        43.209                                                                    23749637.667 6  98708203.64006     -3132.188 6        40.248
S45        17.000    63390055.697 6 333117379.59506      -604.464 6        36.321
R03        18.000    20228004.378 8 108282049.75208       237.682 8        51.450                                                                    20228007.973 7  84219375.82607       184.886 7        46.548
C35        19.000                                                                                                                                    24425969.551 7 127192533.64207      1991.383 7        44.916                                                                    24425975.806 7 103354421.24507      1618.129 7        44.874
E11        20.000    28263498.712 5 148525689.83505      1451.793 5        34.552                                                                    28263513.508 6 110912098.57206      1083.935 6        36.828    28263511.415 6 113805449.26506      1112.458 6        36.488
R14        21.000    24510442.266 7 130654445.80607      2867.541 7        42.176                                                                    24510455.493 6 101620175.83106      2230.465 6        36.817
I06        22.000    38267079.512 6 150168295.13406      -517.690 6        41.447
S28        23.000    40889913.100 5 214877725.31705      -557.779 5        35.019
G14        24.000    23769142.557 6 124907545.37506     -3788.604 6        40.555                                    23769152.016 4  97330519.79104     -2952.150 4        24.692    23769152.238 6  97330521.77606     -2952.150 6        40.694
S23        25.000    38138326.030 7 200418091.88207      -550.404 7        45.002
E08        26.000    23739241.239 8 124750481.32708     -1610.087 8        49.160                                                                    23739245.839 8  93157803.43708     -1202.351 8        50.478    23739244.818 8  95588007.19508     -1233.761 8        50.990
C07        27.000                                                                                                                                    39157644.388 6 203904065.36006     -1186.731 6        39.192    39157649.234 7 157671552.91607      -917.681 7        42.665    39157645.514 6 165688740.69306      -964.362 6        40.660
G13        28.000    22589858.421 7 118710385.62007     -4081.423 7        45.142                                    22589862.590 5  92501547.10505     -3180.325 5        30.030
I02        29.000    36910390.745 7 144844294.40307      -326.425 7        43.136
G10        30.000    24355641.463 6 127989647.10206      -179.234 6        40.408                                    24355650.777 5  99732168.36205      -139.657 5        35.029    24355651.035 6  99732160.36506      -139.645 6        38.147
E07        31.000    25080535.455 7 131799030.42707      1233.918 7        44.903                                                                    25080544.530 8  98421350.72808       921.406 8        48.087    25080543.149 8 100988862.31408       945.428 8        48.266
E03        32.000    26441564.906 7 138951218.91607     -3555.531 7        42.051                                                                    26441577.338 7 103762245.15507     -2655.094 7        45.470    26441575.260 7 106469085.75307     -2724.414 7        45.655
E10        33.000    28306958.772 6 148754060.26006       431.832 6        36.715                                                                    28306976.470 6 111082644.71906       322.686 6        40.217    28306974.555 6 113980441.74506       331.165 6        40.965
G02        34.000    25843027.751 6 135806101.73206     -1510.215 6        38.183                                    25843032.627 3 105822989.34003     -1176.792 3        19.851
C24        35.000                                                                                                                                    22818589.634 8 118822414.31808      1460.269 8        48.599                                                                    22818591.686 8  96552965.24008      1186.530 8        48.753
G23        36.000    23716413.970 6 124630450.88806     -2520.734 6        40.648                                    23716421.031 4  97114584.14104     -1964.198 4        25.910    23716421.351 6  97114585.11006     -1964.179 6        40.572
R04        38.000    23152578.554 7 123980917.67907      3269.443 7        43.100                                                                    23152587.976 7  96429586.82507      2542.889 7        42.482
C33        39.000                                                                                                                                    23994956.827 7 124948023.14007      -148.165 7        46.926                                                                    23994974.424 7 101530575.35907      -120.502 7        46.576
E25        40.000    25818370.701 7 135676371.00107     -2946.366 7        42.963                                                                    25818382.151 7 101316748.16907     -2200.251 7        45.708    25818380.687 7 103959788.79207     -2257.623 7        46.188
S44        42.000    40847699.583 6 214656086.84006      -502.129 6        38.363
R22        43.000    22697229.054 7 121159440.60207      2726.061 7        44.241                                                                    22697238.564 7  94235197.61407      2120.246 7        42.341
C05        44.000                                                                                                                                    39432917.299 6 205337411.01806      -577.631 6        39.126    39432922.752 7 158779891.41307      -446.692 7        42.527    39432921.491 6 166853534.24606      -469.483 6        39.054
C40        45.000                                                                                                                                    39347974.733 6 204895160.51006     -1431.842 6        41.876                                                                    39347981.759 6 166494102.15906     -1163.645 6        41.723
C21        46.000                                                                                                                                    26830647.842 6 139713946.45406     -4046.026 6        37.410                                                                    26830655.847 6 113528940.53106     -3287.846 6        36.491
R20        47.000    24383661.522 5 130390484.16505     -3592.852 5        30.725                                                                    24383670.779 6 101414895.44006     -2794.217 6        38.459
C10        49.000                                                                                                                                    38554509.182 7 200763443.54107      -832.584 7        42.372    38554514.510 7 155243042.98107      -643.914 7        44.865    38554510.619 6 163136744.35706      -676.742 6        41.359
C42        50.000                                                                                                                                    23884213.872 7 124371252.47907     -3079.163 7        46.514                                                                    23884227.693 7 101061842.56007     -2502.204 7        47.230
S48        51.000    77141673.246 6 405381974.24606      -544.608 6        37.970
E02        53.000    23142301.853 8 121613701.34108      -767.165 8        49.197                                                                    23142306.383 8  90815503.87408      -572.895 8        51.227    23142305.223 8  93184585.43508      -587.862 8        51.232
C60        54.000                                                                                                                                    40847702.886 6 212704685.24706      -497.564 6        40.532                                                                    40847697.862 6 172839902.65706      -404.422 6        38.985
C45        55.000                                                                                                                                    24855475.974 7 129428830.37707     -3182.713 7        43.033                                                                    24855476.663 7 105171467.33707     -2586.278 7        44.438
R12        56.000    19715527.610 8 105316886.40108     -1987.147 8        51.699                                                                    19715532.721 8  81913168.60808     -1545.575 8        48.123
C02        57.000                                                                                                                                    40972503.386 5                      -543.206 5        30.808    40972512.045 5 164979089.59305      -420.241 5        35.929    40972511.624 5                      -441.373 5        30.347
I03        58.000   121872299.029 5 402467521.31705       884.188 5        33.802
C14        59.000                                                                                                                                    23429057.650 7 122001164.92207     -1727.582 7        46.491    23429059.713 8  94339007.33608     -1335.875 8        50.279    23429056.574 7  99135907.59107     -1403.884 7        47.805
R13        60.000    20045388.890 7 107041338.76007      1065.223 7        46.172
> 2025 01 01 11 00 15.0000000  0 54
G19         1.000    21483929.250 7 112898970.89707       837.009 7        46.967                                    21483929.676 6  87973313.44606       652.216 6        37.955
G24         3.000    20329354.795 8 106831504.82108       705.921 8        49.425                                    20329358.453 8  83245362.95208       550.067 8        51.740    20329358.908 7  83245359.96107       550.027 7        46.185
R02         4.000    20747592.082 8 110713030.95908     -3886.997 8        51.187                                                                    20747598.376 7  86110125.65407     -3023.169 7        45.436
S21         5.000    38433173.339 7 201967382.90407      -547.136 7        42.519
G17         7.000    22202096.727 7 116672959.00907     -1732.056 7        45.812                                    22202099.858 7  90914080.69107     -1349.651 7        43.702    22202099.919 7  90914076.69107     -1349.606 7        42.080
R21         8.000    22254077.643 7 119086138.13707      -657.300 7        46.593                                                                    22254087.944 7  92622631.24407      -511.331 7        43.048
E12         9.000    28739504.392 5 151027151.00805      -613.035 5        32.784                                                                    28739514.356 6 112780077.01106      -457.638 6        36.609    28739513.079 6 115722153.37006      -469.701 6        37.762
E30        10.000    25489749.337 7 133949654.86107      1659.439 7        45.177                                                                    25489757.622 7 100027441.12907      1239.222 7        47.454    25489756.255 8 102636842.19308      1271.549 8        48.227
C26        11.000                                                                                                                                    21718167.620 8 113092208.43408     -1049.100 8        50.899                                                                    21718170.530 8  91896699.67208      -852.355 8        49.548
S27        12.000    39182106.791 6 205903141.82906      -577.565 6        36.877
G15        13.000    21354484.762 8 112218480.85308     -3295.388 8        48.095                                    21354487.005 7  87442932.36207     -2567.831 7        46.524    21354487.244 7  87442924.34607     -2567.828 7        43.433
S36        14.000    38204473.410 7 200766252.39907      -547.744 7        44.275
G12        15.000    22351980.216 7 117460559.55307      2498.917 7        46.493                                    22351982.776 7  91527776.18707      1947.205 7        43.700    22351983.275 7  91527776.20407      1947.213 7        42.078
R11        16.000    23753393.814 7 126930745.94507     -4027.271 7        43.793                                                                    23753405.803 6  98723864.30906     -3132.174 6        39.946
S45        17.000    63390582.718 6 333120402.42706      -604.868 6        36.087
R03        18.000    20227784.636 8 108280873.18708       232.781 8        51.743                                                                    20227788.380 7  84218460.71607       181.051 7        46.612
C35        19.000                                                                                                                                    24424058.300 7 127182580.99807      1989.604 7        44.770                                                                    24424064.593 7 103346333.91807      1616.781 7        44.954
E11        20.000    28262118.914 5 148518435.82105      1449.891 5        34.400                                                                    28262133.169 6 110906681.67906      1082.622 6        36.941    28262130.874 6 113799891.04706      1110.911 6        36.261
R14        21.000    24507752.823 6 130640109.50806      2866.847 6        41.633                                                                    24507766.246 6 101609025.35806      2229.787 6        36.151
I06        22.000    38267739.166 6 150170883.87406      -517.846 6        41.321
S28        23.000    40890447.946 5 214880513.26105      -557.851 5        34.952
G14        24.000    23772747.907 6 124926490.13406     -3789.352 6        40.250                                    23772757.360 4  97345281.88004     -2952.726 4        24.872    23772757.289 6  97345283.86006     -2952.701 6        40.958
S23        25.000    38138847.846 7 200420844.53307      -550.702 7        44.918
E08        26.000    23740774.356 8 124758537.96008     -1612.639 8        49.119                                                                    23740779.040 8  93163819.74208     -1204.201 8        50.524    23740777.970 8  95594180.44508     -1235.623 8        50.929
C07        27.000                                                                                                                                    39158784.087 6 203910000.62206     -1187.518 6        39.066    39158788.867 7 157676142.41807      -918.308 7        42.472    39158785.412 6 165693563.55906      -964.832 6        40.789
G13        28.000    22593742.618 7 118730796.88207     -4083.112 7        44.834                                    22593747.039 5  92517451.94405     -3181.641 5        30.075
I02        29.000    36910806.819 7 144845927.47607      -326.904 7        43.118
G10        30.000    24355814.324 6 127990551.58606      -182.704 6        39.589                                    24355822.867 5  99732873.13405      -142.361 5        35.071    24355823.339 6  99732865.13406      -142.328 6        38.390
E07        31.000    25079362.486 7 131792865.74307      1231.905 7        45.019                                                                    25079371.391 8  98416747.22408       919.934 8        48.098    25079370.051 8 100984138.71508       944.019 8        48.288
E03        32.000    26444948.433 6 138968999.13406     -3556.597 6        41.409                                                                    26444960.914 7 103775522.54707     -2655.951 7        45.415    26444958.714 7 106482709.50807     -2725.203 7        45.428
E10        33.000    28306549.025 6 148751906.28806       429.514 6        36.363                                                                    28306566.458 6 111081036.29506       320.729 6        40.238    28306564.626 6 113978791.36306       328.957 6        40.717
G02        34.000    25844465.775 6 135813659.45006     -1513.098 6        37.796                                    25844470.830 3 105828878.50203     -1179.027 3        19.224
C24        35.000                                                                                                                                    22817188.137 8 118815116.12208      1458.885 8        48.407                                                                    22817190.181 8  96547034.84908      1185.609 8        48.900
G23        36.000    23718813.774 6 124643061.04106     -2523.504 6        40.911                                    23718820.700 4  97124410.20704     -1966.357 4        25.895    23718820.733 6  97124411.19206     -1966.301 6        39.991
R04        38.000    23149527.188 7 123964576.22807      3267.017 7        44.405                                                                    23149536.719 7  96416876.76707      2541.147 7        42.210
C33        39.000                                                                                                                                    23995100.400 7 124948772.03707      -151.421 7        46.788                                                                    23995118.214 7 101531183.88607      -122.995 7        46.673
E25        40.000    25821174.469 7 135691104.93307     -2947.213 7        43.128                                                                    25821185.955 7 101327750.74607     -2200.841 7        45.609    25821184.421 7 103971078.39907     -2258.294 7        46.124
S44        42.000    40848178.230 6 214658598.19206      -502.577 6        38.087
R22        43.000    22694676.698 7 121145816.27207      2723.560 7        44.400                                                                    22694686.179 7  94224600.94307      2118.234 7        43.012
C05        44.000                                                                                                                                    39433471.758 6 205340299.68106      -577.867 6        38.772    39433477.184 7 158782125.09707      -446.788 7        42.529    39433476.303 6 166855881.49606      -469.492 6        39.384
C40        45.000                                                                                                                                    39349350.091 6 204902321.78306     -1432.776 6        41.731                                                                    39349356.997 6 166499921.25706     -1164.105 6        41.907
C21        46.000                                                                                                                                    26834532.425 6 139734175.92006     -4045.905 6        37.180                                                                    26834540.817 6 113545378.52506     -3287.558 6        36.529
R20        47.000    24387023.580 5 130408454.89105     -3595.812 5        30.943                                                                    24387031.678 6 101428872.81306     -2796.721 6        39.486
C10        49.000                                                                                                                                    38555309.196 7 200767608.62607      -833.445 7        42.489    38555314.403 7 155246263.68107      -644.498 7        44.859    38555310.432 6 163140128.81106      -677.099 6        41.435
C42        50.000                                                                                                                                    23887171.395 7 124386653.42907     -3081.329 7        46.654                                                                    23887185.380 7 101074357.06007     -2503.701 7        47.205
S48        51.000    77142191.422 6 405384697.77606      -545.057 6        37.962
E02        53.000    23143032.508 8 121617541.74508      -769.100 8        49.273                                                                    23143037.139 8  90818371.69708      -574.324 8        51.132    23143036.022 8  93187528.07008      -589.278 8        51.252
C60        54.000                                                                                                                                    40848180.741 6 212707173.76606      -497.921 6        40.305                                                                    40848175.802 6 172841924.76006      -404.380 6        39.030
C45        55.000                                                                                                                                    24858532.148 7 129444745.26307     -3183.436 7        42.794                                                                    24858533.040 7 105184399.44707     -2586.707 7        44.438
R12        56.000    19717388.328 8 105326827.55308     -1989.348 8        51.455                                                                    19717393.685 8  81920900.61008     -1547.341 8        48.207
C02        57.000                                                                                                                                    40973025.260 5                      -543.618 5        30.717    40973034.031 5 164981190.65305      -420.156 5        35.933    40973033.507 5                      -441.952 5        30.755
I03        58.000   121871172.516 5 402463100.89605       883.884 5        33.701
C14        59.000                                                                                                                                    23430717.628 7 122009810.09207     -1730.560 7        46.452    23430719.796 8  94345692.31708     -1338.189 8        50.250    23430716.799 7  99142932.48407     -1406.092 7        47.896
R13        60.000    20044392.837 7 107036018.25807      1062.820 7        46.304
> 2025 01 01 11 00 20.0000000  0 54
G19         1.000    21483134.265 7 112894793.95107       833.701 7        47.268                                    21483134.796 6  87970058.68506       649.634 6        37.856
G24         3.000    20328684.468 8 106827981.39908       703.382 8        49.269                                    20328687.965 8  83242617.43708       548.089 8        51.648    20328688.272 7  83242614.45207       547.995 7        45.991
R02         4.000    20751235.818 8 110732473.91308     -3890.228 8        50.906                                                                    20751242.281 7  86125247.93907     -3025.782 7        45.920
S21         5.000    38433694.793 7 201970118.69607      -547.365 7        42.328
G17         7.000    22203745.995 7 116681626.66607     -1735.242 7        45.913                                    22203749.238 7  90920834.70307     -1352.135 7        43.592    22203749.516 7  90920830.69607     -1352.109 7        42.131
R21         8.000    22254694.667 7 119089436.06407      -661.984 7        47.435                                                                    22254704.071 7  92625196.28307      -514.883 7        42.836
E12         9.000    28740089.130 5 151030222.43205      -616.074 5        33.012                                                                    28740098.980 6 112782370.64406      -459.872 6        36.473    28740097.643 6 115724506.82406      -471.811 6        37.648
E30        10.000    25488171.035 7 133941360.76907      1658.006 7        44.909                                                                    25488179.274 7 100021247.50807      1238.183 7        47.467    25488177.974 8 102630486.99508      1270.500 8        48.191
C26        11.000                                                                                                                                    21719175.758 8 113097457.81708     -1050.769 8        50.969                                                                    21719178.679 8  91900965.23508      -853.893 8        49.488
S27        12.000    39182656.791 6 205906030.81806      -577.862 6        36.594
G15        13.000    21357621.045 8 112234963.83008     -3298.030 8        48.189                                    21357623.643 7  87455776.21507     -2569.889 7        46.463    21357623.697 7  87455768.19607     -2569.783 7        43.780
S36        14.000    38204995.763 7 200768991.72907      -547.972 7        44.420
G12        15.000    22349603.231 7 117448069.30607      2497.135 7        46.414                                    22349605.903 7  91518043.54007      1945.818 7        43.613    22349606.749 6  91518043.54606      1945.882 6        41.743
R11        16.000    23757162.239 7 126950882.15907     -4027.406 7        43.736                                                                    23757173.247 6  98739525.78306     -3132.383 6        40.067
S45        17.000    63391105.276 5 333123426.64205      -604.827 5        35.681
R03        18.000    20227569.160 8 108279720.91908       228.001 8        51.745                                                                    20227573.451 7  84217564.51207       177.323 7        46.685
C35        19.000                                                                                                                                    24422148.758 7 127172637.14407      1987.919 7        45.302                                                                    24422154.757 7 103338253.74407      1615.195 7        44.727
E11        20.000    28260740.162 5 148511190.79905      1447.889 5        34.029                                                                    28260754.308 6 110901271.44906      1081.425 6        36.968    28260752.267 6 113794339.69106      1109.489 6        36.389
R14        21.000    24505063.249 6 130625776.24106      2866.246 6        41.371                                                                    24505076.191 5 101597877.23005      2229.360 5        35.310
I06        22.000    38268399.589 6 150173473.58306      -517.942 6        41.435
S28        23.000    40890978.080 5 214883302.36305      -557.970 5        34.876
G14        24.000    23776354.192 6 124945438.49106     -3790.080 6        40.184                                    23776363.214 4  97360046.79004     -2953.308 4        25.023    23776363.376 6  97360048.77006     -2953.150 6        40.520
S23        25.000    38139373.374 7 200423598.26907      -550.852 7        44.912
E08        26.000    23742309.686 8 124766606.64408     -1615.004 8        49.068                                                                    23742314.452 8  93169845.04808     -1206.005 8        50.487    23742313.384 8  95600362.93808     -1237.464 8        50.909
C07        27.000                                                                                                                                    39159924.449 6 203915939.27606     -1188.082 6        39.309    39159929.467 7 157680734.55807      -918.710 7        42.438    39159925.699 6 165698389.22006      -965.507 6        40.815
G13        28.000    22597628.253 7 118751215.98007     -4084.616 7        44.780                                    22597632.987 4  92533362.89004     -3182.811 4        29.924
I02        29.000    36911223.665 7 144847562.66107      -327.313 7        43.297
G10        30.000    24355989.685 6 127991472.96106      -185.940 6        40.887                                    24355998.200 5  99733591.05605      -144.882 5        35.014    24355998.725 6  99733583.04506      -144.791 6        38.135
