     3.04           OBSERVATION DATA    M                   RINEX VERSION / TYPE
ssrcrin-15.6.1x                         20250101 140000 UTC PGM / RUN BY / DATE 
(00000000023479385599111004) Septentrio proprietary         COMMENT             
rref                                                        MARKER NAME         
01                                                          MARKER NUMBER       
geodetic                                                    MARKER TYPE         
NFB                 CLIMERS@TUW                             OBSERVER / AGENCY   
3297213             SEPT ASTERX SB3 PROB4.14.4              REC # / TYPE / VERS 
Unknown             Unknown                                 ANT # / TYPE        
  4127831.7275  1207194.0751  4695247.3348                  APPROX POSITION XYZ 
        0.0000        0.0000        0.0000                  ANTENNA: DELTA H/E/N
G   23 X1  C1C L1C D1C S1C C1W S1W C2W L2W D2W S2W C2L L2L  SYS / # / OBS TYPES 
       D2L S2L C5Q L5Q D5Q S5Q C1L L1L D1L S1L              SYS / # / OBS TYPES 
E   21 X1  C1C L1C D1C S1C C6C L6C D6C S6C C5Q L5Q D5Q S5Q  SYS / # / OBS TYPES 
       C7Q L7Q D7Q S7Q C8Q L8Q D8Q S8Q                      SYS / # / OBS TYPES 
S    9 X1  C1C L1C D1C S1C C5I L5I D5I S5I                  SYS / # / OBS TYPES 
R   17 X1  C1C L1C D1C S1C C2P L2P D2P S2P C2C L2C D2C S2C  SYS / # / OBS TYPES 
       C3Q L3Q D3Q S3Q                                      SYS / # / OBS TYPES 
C   25 X1  C1P L1P D1P S1P C5P L5P D5P S5P C2I L2I D2I S2I  SYS / # / OBS TYPES 
       C7I L7I D7I S7I C6I L6I D6I S6I C7D L7D D7D S7D      SYS / # / OBS TYPES 
J   17 X1  C1C L1C D1C S1C C2L L2L D2L S2L C5Q L5Q D5Q S5Q  SYS / # / OBS TYPES 
       C1L L1L D1L S1L                                      SYS / # / OBS TYPES 
I    5 X1  C5A L5A D5A S5A                                  SYS / # / OBS TYPES 
SEPTENTRIO RECEIVERS OUTPUT ALIGNED CARRIER PHASES.         COMMENT             
NO FURTHER PHASE SHIFT APPLIED IN THE RINEX ENCODER.        COMMENT             
G L1C                                                       SYS / PHASE SHIFT   
G L2W                                                       SYS / PHASE SHIFT   
G L2L  0.00000                                              SYS / PHASE SHIFT   
G L5Q  0.00000                                              SYS / PHASE SHIFT   
G L1L  0.00000                                              SYS / PHASE SHIFT   
E L1C  0.00000                                              SYS / PHASE SHIFT   
E L6C  0.00000                                              SYS / PHASE SHIFT   
E L5Q  0.00000                                              SYS / PHASE SHIFT   
E L7Q  0.00000                                              SYS / PHASE SHIFT   
E L8Q  0.00000                                              SYS / PHASE SHIFT   
S L1C                                                       SYS / PHASE SHIFT   
S L5I                                                       SYS / PHASE SHIFT   
R L1C                                                       SYS / PHASE SHIFT   
R L2P  0.00000                                              SYS / PHASE SHIFT   
R L2C                                                       SYS / PHASE SHIFT   
R L3Q  0.00000                                              SYS / PHASE SHIFT   
C L1P  0.00000                                              SYS / PHASE SHIFT   
C L5P  0.00000                                              SYS / PHASE SHIFT   
C L2I                                                       SYS / PHASE SHIFT   
C L7I                                                       SYS / PHASE SHIFT   
C L6I                                                       SYS / PHASE SHIFT   
C L7D                                                       SYS / PHASE SHIFT   
J L1C                                                       SYS / PHASE SHIFT   
J L2L  0.00000                                              SYS / PHASE SHIFT   
J L5Q  0.00000                                              SYS / PHASE SHIFT   
J L1L  0.00000                                              SYS / PHASE SHIFT   
I L5A                                                       SYS / PHASE SHIFT   
  2025     1     1    14     0    0.0000000     GPS         TIME OF FIRST OBS   
 C1C    0.000 C2C    0.000 C2P    0.000                     GLONASS COD/PHS/BIS 
DBHZ                                                        SIGNAL STRENGTH UNIT
    18                                                      LEAP SECONDS        
 24 R01  1 R02 -4 R03  5 R04  6 R05  1 R06 -4 R07  5 R08  6 GLONASS SLOT / FRQ #
    R09 -2 R10 -7 R11  0 R12 -1 R13 -2 R14 -7 R15  0 R16 -1 GLONASS SLOT / FRQ #
    R17  4 R18 -3 R19  3 R20  2 R21  4 R22 -3 R23  3 R24  2 GLONASS SLOT / FRQ #
                                                            END OF HEADER       
> 2025 01 01 14 00  0.0000000  0 56
G19         1.000    25018371.740 6 131472654.60006     -4241.618 6        36.756                                    25018368.429 2 102446329.22302     -3305.215 2        17.396
G25         2.000    20034919.601 8 105284327.29608       422.124 8        50.101                                    20034924.378 8  82039816.44008       328.926 8        50.352    20034925.233 7  82039826.44607       328.950 7        45.166
G24         3.000    23402784.338 6 122982393.17606     -4311.840 6        41.943                                    23402794.079 6  95830447.51106     -3359.868 6        39.703    23402793.406 6  95830444.49706     -3359.760 6        40.732
G29         4.000    22309092.167 7 117235283.04507      2363.205 7        46.993                                    22309097.363 7  91352295.49607      1841.454 7        44.272    22309097.670 6  91352298.50506      1841.337 6        41.518
S21         5.000    38447812.416 7 202044218.58107      -622.540 7        43.071
G06         6.000    23278737.849 7 122330713.38607     -2176.730 7        42.061                                    23278745.065 6  95322725.53006     -1696.152 6        38.480    23278745.552 6  95322716.54206     -1696.202 6        40.226
E19         7.000    27482574.558 5 144421791.64405      1222.324 5        33.593                                                                    27482590.741 6 107847425.63506       912.937 6        37.172    27482588.789 6 110660840.60606       936.838 6        37.588
E15         8.000    27794098.845 6 146059016.56406      2647.082 6        39.057                                                                    27794120.422 7 109070132.75407      1976.769 7        42.197    27794118.208 7 111915426.29607      2028.266 7        43.134
G11         9.000    22480104.414 7 118133919.50607       267.311 7        46.328                                    22480108.287 5  92052506.63805       208.290 5        34.019    22480108.554 7  92052506.64807       208.284 7        44.011
E30        10.000    23643064.452 8 124245286.91508      -958.214 8        49.384                                                                    23643070.790 8  92780680.71708      -715.515 8        50.821    23643069.562 8  95201034.95108      -734.254 8        51.203
C26        11.000                                                                                                                                    25630981.823 7 133467134.06407     -3597.157 7        42.844                                                                    25630991.313 7 108452969.28307     -2922.965 7        42.497
S27        12.000    39241845.719 6 206217117.06906      -633.143 6        36.325
R15        13.000    22330541.163 7 119327725.63207      2763.289 7        46.160                                                                    22330555.063 7  92810539.51307      2149.143 7        43.443
S36        14.000    38220133.695 7 200848493.71607      -622.401 7        44.852
G12        15.000    20679488.779 8 108671585.66408     -2109.372 8        48.891                                    20679489.877 8  84679232.00008     -1643.667 8        49.322    20679490.655 7  84679232.00507     -1643.692 7        45.058
E29        16.000    25817027.027 7 135669311.33207      -894.517 7        43.467                                                                    25817039.917 7 101311504.52807      -668.109 7        45.509    25817038.347 7 103954411.72407      -685.509 7        46.385
S45        17.000    63419393.195 6 333272164.70006      -686.919 6        36.359
G31        18.000    25397576.859 6 133465159.32806      3078.138 6        38.306                                    25397591.099 4 103998903.12004      2398.547 4        25.579    25397591.296 5 103998882.14105      2398.625 5        33.802
C35        19.000                                                                                                                                    24576791.664 7 127977913.20407     -3254.886 7        44.146                                                                    24576797.262 7 103992608.26307     -2644.890 7        43.918
R14        21.000    19404776.540 8 103438478.11808       293.567 8        52.116                                                                    19404782.870 8  80452227.18108       228.378 8        48.009
I06        22.000    38574275.976 6 151373757.50306      -555.890 6        41.976
S28        23.000    40922589.008 5 215049442.83405      -627.763 5        34.852
E34        24.000    25420968.012 7 133588270.51207      1443.246 7        46.013                                                                    25420978.765 7  99757623.15207      1077.641 7        47.781    25420977.115 7 102359980.24507      1105.897 7        47.815
S23        25.000    38162957.883 7 200547502.31707      -627.302 7        45.409
C07        27.000                                                                                                                                    40979646.595 5 213391730.04205     -1520.036 5        34.881    40979649.097 6 165008023.28206     -1175.581 6        37.251    40979646.136 6 173398250.37806     -1235.236 6        37.195
R24        28.000    20195188.245 8 107992984.36808      2043.685 8        51.349                                                                    20195194.235 7  83994698.30807      1589.573 7        46.697
I02        29.000    37236647.907 7 146124577.26307      -734.261 7        42.138
G28        30.000    23239450.659 7 122124148.68807      2465.133 7        43.012                                    23239460.196 4  95161725.75704      1920.869 4        28.976    23239460.792 7  95161722.78507      1920.839 7        43.101
E07        31.000    26187725.311 7 137617263.29807     -3263.223 7        43.050                                                                    26187740.993 7 102766108.69407     -2436.977 7        45.490    26187739.084 7 105446964.85607     -2500.411 7        45.728
C12        32.000                                                                                                                                    22301614.608 7 116130533.21407       893.047 7        47.889    22301618.153 8  89799596.50508       690.567 8        52.315    22301615.635 8  94365642.56708       725.678 8        49.648
R17        33.000    23857431.522 7 127665975.10907      4017.747 7        42.093                                                                    23857450.558 6  99295843.44906      3124.939 6        40.145
R23        34.000    20597863.870 7 110184816.11207     -2664.677 7        47.775
C24        35.000                                                                                                                                    21718580.989 8 113094390.47208     -1865.516 8        51.341                                                                    21718582.536 8  91898478.59608     -1515.973 8        49.940
R05        36.000    22380334.741 7 119635630.29507     -2000.616 7        46.208                                                                    22380348.723 7  93049947.06007     -1556.076 7        42.070
E27        37.000    25131461.861 7 132066811.26507      1201.605 7        45.386                                                                    25131472.929 8  98621428.52008       897.326 8        48.115    25131471.322 8 101194146.66708       920.737 8        48.521
R04        38.000    23433782.059 7 125486596.04707     -4404.542 7        45.794                                                                    23433796.664 6  97600634.95406     -3425.921 6        39.820
R06        39.000    24166628.755 5 128957748.94505      1734.427 5        30.830
C32        40.000                                                                                                                                    26634493.282 6 138692642.03506      -960.621 6        40.513                                                                    26634507.857 6 112699131.42906      -780.635 6        41.197
C34        41.000                                                                                                                                    23213580.286 8 120879395.15908      2209.669 8        48.156                                                                    23213587.199 7  98224518.70707      1795.458 7        46.791
S44        42.000    40726532.756 6 214019356.34906      -541.456 6        37.807
R22        43.000    24165343.475 6 128996465.03706     -4799.641 6        40.822                                                                    24165344.794 6 100330694.67306     -3732.975 6        38.877
C05        44.000                                                                                                                                    39469478.461 6 205527780.53806      -600.188 6        38.351    39469485.175 7 158927093.52707      -464.011 7        43.143    39469483.775 6 167008222.12106      -487.812 6        39.601
G32        46.000    23063983.505 7 121201941.37207     -1800.073 7        44.993                                    23063993.843 7  94443069.80607     -1402.651 7        42.256    23063994.034 7  94443071.81107     -1402.702 7        42.142
E36        47.000    26091932.027 7 137114135.13507     -1267.326 7        43.090                                                                    26091942.494 7 102390544.83907      -946.377 7        45.330    26091941.012 7 105061585.07207      -971.096 7        45.597
C41        48.000                                                                                                                                    26724278.450 6 139160199.81206     -2968.537 6        39.081                                                                    26724301.347 6 113079106.03406     -2412.090 6        39.354
C10        49.000                                                                                                                                    39831935.189 6 207415305.66306     -1347.750 6        37.981    39831941.648 6 160386677.25106     -1042.148 6        40.687    39831937.619 6 168541921.16106     -1095.252 6        38.535
C44        50.000                                                                                                                                    21901445.744 8 114046608.76708      -796.543 8        50.593                                                                    21901448.810 8  92672242.32208      -647.326 8        49.220
S48        51.000    77158744.859 6 405473482.54406      -642.583 6        37.985
E02        53.000    26103980.325 7 137177355.01407     -2814.056 7        42.506                                                                    26103990.120 7 102437691.57007     -2101.349 7        45.318    26103988.598 7 105109963.10607     -2156.252 7        45.792
C60        54.000                                                                                                                                    40726532.906 6 212073743.39306      -536.484 6        39.165                                                                    40726527.578 6 172327214.45106      -436.075 6        39.141
C25        55.000                                                                                                                                    22262176.599 8 115925087.76808      1165.783 8        49.542                                                                    22262180.630 8  94198686.48808       947.211 8        48.852
C23        56.000                                                                                                                                    26933448.961 6 140249528.58106      2444.889 6        38.426                                                                    26933458.623 6 113964265.19306      1986.664 6        39.381
C02        57.000                                                                                                                                    40919657.952 5 213079230.09105      -552.560 5        33.425    40919664.862 6 164766314.90606      -427.137 6        37.176    40919665.139 5 173144286.75505      -449.144 5        34.143
I03        58.000   118197861.214 5 388048274.10005       926.267 5        32.557
C11        59.000                                                                                                                                    25271396.132 6 131594832.81006      2859.803 6        41.719    25271408.306 7 101757556.01907      2211.350 7        44.275    25271402.669 7 106931636.70207      2323.730 7        42.468
R13        60.000    21307766.301 7 113782322.21207     -3398.929 7        43.467
> 2025 01 01 14 00  5.0000000  0 56
G19         1.000    25022407.143 6 131493862.83606     -4241.840 6        36.582                                    25022404.077 2 102462855.33102     -3305.378 2        17.170
G25         2.000    20034518.600 8 105282222.02908       419.886 8        50.006                                    20034523.747 8  82038175.98608       327.182 8        50.321    20034524.368 7  82038185.99107       327.160 7        45.087
G24         3.000    23406887.006 7 123003954.28207     -4312.798 7        42.042                                    23406897.017 6  95847248.33606     -3360.616 6        39.234    23406896.748 6  95847245.32206     -3360.618 6        40.207
G29         4.000    22306844.721 7 117223471.64307      2361.388 7        46.983                                    22306849.670 7  91343091.83307      1840.037 7        44.281    22306850.450 6  91343094.85006      1840.032 6        41.783
S21         5.000    38448404.441 7 202047330.92007      -622.670 7        43.412
G06         6.000    23280810.145 7 122341604.70607     -2179.924 7        42.459                                    23280817.636 6  95331212.28906     -1698.646 6        38.465    23280818.054 6  95331203.30406     -1698.742 6        40.122
E19         7.000    27481412.347 5 144415683.68405      1220.392 5        33.437                                                                    27481428.510 6 107842864.48506       911.533 6        37.009    27481426.446 6 110656160.48806       935.285 6        37.161
E15         8.000    27791580.245 6 146045780.89806      2647.157 6        38.949                                                                    27791601.703 7 109060249.09007      1976.677 7        42.381    27791599.449 7 111905284.77507      2028.328 7        43.067
G11         9.000    22479851.639 7 118132591.46407       263.947 7        46.230                                    22479855.484 5  92051471.82305       205.673 5        33.964    22479855.613 7  92051471.83107       205.682 7        44.089
E30        10.000    23643976.487 8 124250080.69508      -959.317 8        49.492                                                                    23643983.017 8  92784260.50008      -716.429 8        50.991    23643981.773 8  95204708.11308      -735.078 8        51.188
C26        11.000                                                                                                                                    25634436.195 7 133485121.49607     -3597.792 7        43.164                                                                    25634445.637 7 108467585.53007     -2923.651 7        42.720
S27        12.000    39242450.452 6 206220282.47406      -632.794 6        36.284
R15        13.000    22327955.567 7 119313910.29707      2762.752 7        46.944                                                                    22327969.539 7  92799794.29107      2148.872 7        43.306
S36        14.000    38220723.994 7 200851606.30307      -622.491 7        45.099
G12        15.000    20681496.812 8 108682137.25908     -2111.328 8        49.324                                    20681497.779 8  84687454.02608     -1645.192 8        49.281    20681498.330 7  84687454.03207     -1645.205 7        45.472
E29        16.000    25817879.029 7 135673790.56707      -897.057 7        43.670                                                                    25817892.248 7 101314849.40707      -669.945 7        45.711    25817890.715 7 103957843.86507      -687.434 7        46.344
S45        17.000    63419991.328 6 333275599.25706      -686.885 6        36.231
G31        18.000    25394648.865 6 133449769.15606      3077.827 6        36.877                                    25394662.410 4 103986910.80904      2398.306 4        26.060    25394663.017 5 103986889.83705      2398.084 5        34.338
C35        19.000                                                                                                                                    24579917.474 7 127994191.20507     -3256.399 7        44.053                                                                    24579923.151 7 104005835.46807     -2646.205 7        43.898
R14        21.000    19404502.031 8 103437016.44208       291.081 8        52.214                                                                    19404508.396 7  80451090.33607       226.347 7        47.675
I06        22.000    38574984.445 6 151376536.80406      -555.790 6        41.888
S28        23.000    40923191.229 5 215052581.48505      -627.858 5        34.767
E34        24.000    25419595.640 7 133581058.88807      1441.289 7        45.705                                                                    25419606.456 7  99752237.86107      1076.296 7        47.848    25419604.792 7 102354454.47007      1104.368 7        47.837
S23        25.000    38163553.468 7 200550638.64007      -627.354 7        45.443
C07        27.000                                                                                                                                    40981106.018 5 213399330.53305     -1519.880 5        35.095    40981108.605 6 165013900.51406     -1175.402 6        37.607    40981105.901 6 173404426.42406     -1235.308 6        37.180
R24        28.000    20193279.074 8 107982775.05708      2039.950 8        52.064                                                                    20193285.263 7  83986757.75907      1586.642 7        46.925
I02        29.000    37237583.382 7 146128248.04807      -734.308 7        42.144
G28        30.000    23237105.758 7 122111826.71007      2463.606 7        42.940                                    23237115.331 4  95152124.26504      1919.681 4        29.005    23237115.723 7  95152121.29007      1919.583 7        42.089
E07        31.000    26190830.751 7 137633582.78907     -3264.544 7        43.075                                                                    26190846.575 7 102778295.27307     -2437.745 7        45.550    26190844.723 7 105459469.35507     -2501.435 7        45.783
C12        32.000                                                                                                                                    22300758.401 7 116126074.23307       890.450 7        47.901    22300761.795 8  89796148.55208       688.531 8        52.382    22300759.296 8  94362019.28608       723.503 8        49.750
R17        33.000    23853677.398 7 127645886.68607      4017.386 7        42.053                                                                    23853695.857 6  99280219.26206      3124.474 6        40.052
R23        34.000    20600356.305 7 110198149.56407     -2668.789 7        47.500
C24        35.000                                                                                                                                    21720373.148 8 113103722.75008     -1867.503 8        51.433                                                                    21720374.625 8  91906061.82508     -1517.514 8        50.073
R05        36.000    22382208.240 7 119645643.43507     -2004.697 7        46.267                                                                    22382222.227 7  93057735.02107     -1559.267 7        43.107
E27        37.000    25130318.877 7 132060804.71107      1200.919 7        45.568                                                                    25130329.881 8  98616943.13108       896.756 8        48.292    25130328.271 8 101189544.27208       920.130 8        48.500
R04        38.000    23437894.270 7 125508621.72007     -4405.835 7        44.608                                                                    23437911.066 6  97617765.95006     -3426.752 6        39.601
R06        39.000    24165004.942 5 128949085.72205      1731.055 5        31.162
C32        40.000                                                                                                                                    26635416.638 6 138697451.17606      -963.180 6        40.102                                                                    26635431.434 6 112703039.24506      -782.804 6        41.113
C34        41.000                                                                                                                                    23211459.249 8 120868350.85408      2208.011 8        48.299                                                                    23211466.150 7  98215544.32307      1794.145 7        46.913
S44        42.000    40727047.909 6 214022063.15106      -541.517 6        37.871
R22        43.000    24169839.528 6 129020466.25806     -4800.813 6        40.605                                                                    24169840.186 6 100349362.27006     -3733.775 6        38.387
C05        44.000                                                                                                                                    39470053.928 6 205530780.62606      -600.030 6        38.168    39470061.308 7 158929413.38907      -464.045 7        43.276    39470059.922 6 167010659.91706      -487.635 6        39.766
G32        46.000    23065697.383 7 121210949.17407     -1803.115 7        45.232                                    23065708.017 7  94450088.84807     -1405.023 7        42.199    23065708.320 7  94450090.84307     -1405.077 7        42.040
E36        47.000    26093138.916 7 137120478.10707     -1269.904 7        42.963                                                                    26093149.524 7 102395281.49007      -948.337 7        45.403    26093148.087 7 105066445.28107      -973.050 7        45.579
C41        48.000                                                                                                                                    26727129.542 6 139175045.22806     -2969.825 6        39.111                                                                    26727152.291 6 113091169.11006     -2413.147 6        39.348
C10        49.000                                                                                                                                    39833229.825 6 207422044.26106     -1347.704 6        38.381    39833235.985 6 160391887.98006     -1042.182 6        40.696    39833231.624 6 168547396.83006     -1095.196 6        38.378
C44        50.000                                                                                                                                    21902211.887 8 114050598.40708      -799.375 8        50.797                                                                    21902214.947 8  92675484.23408      -649.608 8        49.311
S48        51.000    77159339.782 6 405475094.79016      -642.672 6        37.766
E02        53.000    26106658.019 7 137191426.59107     -2814.571 7        42.705                                                                    26106667.914 7 102448199.55407     -2101.828 7        45.410    26106666.205 7 105120745.20907     -2156.622 7        45.666
C60        54.000                                                                                                                                    40727048.292 6 212076425.57806      -536.454 6        39.384                                                                    40727042.521 6 172329393.95406      -435.979 6        39.345
C25        55.000                                                                                                                                    22261057.949 8 115919262.62308      1164.231 8        49.639                                                                    22261061.968 8  94193953.08608       946.061 8        49.005
C23        56.000                                                                                                                                    26931101.160 6 140237303.19906      2445.164 6        38.769                                                                    26931110.993 6 113954331.08406      1986.690 6        39.435
C02        57.000                                                                                                                                    40920188.371 5 213081992.82005      -553.099 5        33.198    40920195.890 6 164768451.22906      -427.397 6        37.006    40920195.760 5 173146531.66905      -448.960 5        34.495
I03        58.000   118196680.407 5 388043643.50705       925.747 5        32.533
C11        59.000                                                                                                                                    25268649.263 6 131580535.43306      2859.168 6        41.290    25268662.418 7 101746500.45307      2210.954 7        44.603    25268656.933 7 106920018.97307      2323.229 7        42.770
R13        60.000    21310949.229 7 113799320.65607     -3400.659 7        43.473
> 2025 01 01 14 00 10.0000000  0 56
G19         1.000    25026443.756 6 131515072.79206     -4241.856 6        36.688                                    25026439.841 2 102479382.75702     -3305.367 2        17.208
G25         2.000    20034120.125 8 105280127.62508       418.018 8        49.641                                    20034125.178 8  82036543.99708       325.727 8        50.326    20034125.560 7  82036554.00307       325.703 7        45.220
G24         3.000    23410991.645 7 123025520.32107     -4313.668 7        42.004                                    23411000.750 6  95864053.00706     -3361.293 6        39.051    23411000.506 6  95864049.99406     -3361.132 6        39.730
G29         4.000    22304598.717 7 117211669.09407      2359.854 7        46.947                                    22304603.691 7  91333895.06507      1838.843 7        44.328    22304604.390 7  91333898.06807      1838.868 7        42.294
S21         5.000    38448997.088 7 202050443.68207      -622.461 7        42.921
G06         6.000    23282885.732 6 122352511.65306     -2182.782 6        41.166                                    23282893.175 6  95339711.22406     -1700.870 6        38.510    23282894.572 6  95339702.22706     -1700.966 6        41.204
E19         7.000    27480251.747 5 144409585.33405      1218.758 5        33.916                                                                    27480267.873 6 107838310.50706       910.315 6        37.112    27480266.053 6 110651487.72606       933.803 6        37.735
E15         8.000    27789061.596 6 146032545.10506      2647.167 6        38.661                                                                    27789083.019 7 109050365.30707      1976.940 7        42.233    27789080.721 7 111895143.15707      2028.418 7        43.306
G11         9.000    22479601.748 7 118131279.54007       260.903 7        45.839                                    22479605.842 5  92050449.56205       203.299 5        34.005    22479606.220 7  92050449.57407       203.311 7        44.277
E30        10.000    23644889.788 8 124254880.08308      -960.253 8        49.205                                                                    23644896.242 8  92787844.46008      -717.086 8        50.982    23644895.059 8  95208385.56908      -735.804 8        51.424
C26        11.000                                                                                                                                    25637891.549 7 133503112.45207     -3598.368 7        42.813                                                                    25637900.632 7 108482204.62207     -2923.967 7        42.616
S27        12.000    39243048.456 6 206223447.52906      -632.785 6        36.321
R15        13.000    22325371.780 7 119300097.52407      2762.481 7        46.964                                                                    22325384.798 7  92789051.05507      2148.493 7        43.399
S36        14.000    38221318.384 7 200854719.65307      -622.728 7        44.841
G12        15.000    20683506.609 8 108692698.53908     -2113.060 8        48.791                                    20683507.509 8  84695683.59608     -1646.543 8        49.323    20683508.330 7  84695683.60207     -1646.547 7        45.688
E29        16.000    25818733.991 7 135678282.20507      -899.381 7        43.422                                                                    25818746.986 7 101318203.55407      -671.604 7        45.678    25818745.464 7 103961285.50707      -689.148 7        46.569
S45        17.000    63420591.053 6 333279033.97206      -686.806 6        36.166
G31        18.000    25391719.853 6 133434381.17606      3077.622 6        38.150                                    25391734.065 4 103974920.16704      2398.162 4        26.898    25391734.079 5 103974899.20205      2398.235 5        34.033
C35        19.000                                                                                                                                    24583045.183 7 128010477.00807     -3257.775 7        44.075                                                                    24583050.630 7 104019069.00807     -2647.181 7        43.943
R14        21.000    19404230.645 8 103435566.89508       288.845 8        52.340                                                                    19404236.460 8  80449962.92208       224.584 8        48.083
I06        22.000    38575692.644 6 151379316.15606      -555.780 6        41.940
S28        23.000    40923781.961 5 215055720.57305      -627.746 5        34.919
E34        24.000    25418225.275 7 133573856.95407      1439.519 7        45.318                                                                    25418235.887 7  99746859.80407      1075.035 7        47.900    25418234.257 8 102348936.11908      1103.052 8        48.007
S23        25.000    38164150.174 7 200553775.22307      -627.092 7        45.508
C07        27.000                                                                                                                                    40982565.421 5 213406930.83405     -1519.948 5        35.467    40982568.134 6 165019777.55106     -1175.304 6        37.750    40982565.277 6 173410602.26906     -1235.089 6        37.191
R24        28.000    20191373.808 8 107972584.31408      2036.412 8        51.989                                                                    20191379.445 7  83978831.64307      1583.901 7        46.850
I02        29.000    37238518.788 7 146131919.76807      -734.327 7        42.269
G28        30.000    23234763.078 7 122099512.25707      2462.426 7        42.641                                    23234771.955 4  95142528.63104      1918.766 4        29.005    23234772.524 6  95142525.64606      1918.772 6        41.971
E07        31.000    26193937.374 7 137649908.07707     -3265.453 7        42.971                                                                    26193953.181 7 102790486.18507     -2438.485 7        45.553    26193951.322 7 105471978.29307     -2502.093 7        46.010
C12        32.000                                                                                                                                    22299904.623 7 116121628.32207       888.017 7        47.933    22299907.804 8  89792710.70608       686.656 8        52.419    22299905.520 8  94358406.62308       721.614 8        49.733
R17        33.000    23849924.032 6 127625799.62406      4017.438 6        41.993                                                                    23849942.010 6  99264596.13006      3124.651 6        40.246
R23        34.000    20602852.902 8 110211503.48808     -2672.634 8        48.092
C24        35.000                                                                                                                                    21722167.175 8 113113064.50008     -1869.087 8        51.342                                                                    21722168.621 8  91913652.75408     -1518.796 8        50.049
R05        36.000    22384085.859 7 119655677.22007     -2008.692 7        47.126                                                                    22384098.633 7  93065539.04807     -1562.315 7        42.516
E27        37.000    25129176.490 7 132054801.63107      1200.442 7        45.103                                                                    25129187.508 8  98612460.33408       896.427 8        48.150    25129185.888 8 101184944.52708       919.763 8        48.715
R04        38.000    23442007.785 7 125530653.86207     -4406.903 7        45.077                                                                    23442023.890 6  97634902.00806     -3427.526 6        38.733
R06        39.000    24163384.607 5 128940439.46805      1727.774 5        32.102
C32        40.000                                                                                                                                    26636342.821 6 138702273.87206      -965.762 6        39.802                                                                    26636357.645 6 112706958.02406      -784.740 6        41.018
C34        41.000                                                                                                                                    23209339.414 8 120857314.70508      2206.560 8        48.061                                                                    23209346.813 7  98206576.56207      1793.029 7        46.938
S44        42.000    40727562.937 6 214024770.11806      -541.519 6        37.841
R22        43.000    24174337.289 6 129044473.55606     -4801.716 6        40.763                                                                    24174338.801 6 100368034.63206     -3734.967 6        38.652
C05        44.000                                                                                                                                    39470630.003 6 205533780.80706      -599.991 6        38.180    39470637.419 7 158931733.32107      -463.836 7        43.295    39470635.960 6 167013097.79806      -487.381 6        39.685
G32        46.000    23067414.919 7 121219971.61907     -1805.734 7        45.704                                    23067424.977 7  94457119.31207     -1407.063 7        42.207    23067425.353 6  94457121.31406     -1407.195 6        41.523
E36        47.000    26094348.357 7 137126833.86507     -1272.288 7        42.688                                                                    26094358.924 7 102400027.69007      -950.070 7        45.326    26094357.461 7 105071315.29707      -974.922 7        45.828
C41        48.000                                                                                                                                    26729981.998 6 139189897.01306     -2970.822 6        38.583                                                                    26730004.650 6 113103237.39006     -2414.211 6        39.249
C10        49.000                                                                                                                                    39834523.937 6 207428782.99306     -1347.487 6        38.559    39834530.231 6 160397098.81006     -1042.066 6        41.097    39834525.874 6 168552872.60406     -1095.051 6        38.447
C44        50.000                                                                                                                                    21902980.754 8 114054602.03108      -801.945 8        50.856                                                                    21902983.792 8  92678737.51208      -651.597 8        49.292
S48        51.000    77159936.426 6 405478307.37306      -642.407 6        37.667
E02        53.000    26109336.060 7 137205500.53807     -2814.790 7        42.557                                                                    26109346.076 7 102458709.29907     -2101.999 7        45.454    26109344.308 7 105131529.12107     -2156.812 7        45.786
C60        54.000                                                                                                                                    40727563.248 6 212079107.94906      -536.394 6        39.246                                                                    40727557.723 6 172331573.60106      -435.796 6        39.099
C25        55.000                                                                                                                                    22259940.778 8 115913444.87808      1163.016 8        49.665                                                                    22259944.708 8  94189225.71008       945.012 8        49.013
C23        56.000                                                                                                                                    26928753.063 6 140225077.70406      2445.257 6        38.414                                                                    26928763.341 6 113944396.85806      1987.056 6        39.982
C02        57.000                                                                                                                                    40920718.598 5 213084755.60905      -552.269 5        33.389    40920726.032 6 164770587.59306      -427.049 6        37.372    40920726.385 5 173148776.70105      -449.068 5        34.410
I03        58.000   118195500.461 5 388039012.86305       926.647 5        32.737
C11        59.000                                                                                                                                    25265903.302 6 131566241.09806      2858.710 6        40.858    25265917.439 7 101735447.26107      2210.519 7        45.160    25265911.963 7 106908403.70907      2322.952 7        42.845
R13        60.000    21314134.951 7 113816328.12207     -3402.362 7        44.017
> 2025 01 01 14 00 15.0000000  0 56
G19         1.000    25030479.780 6 131536284.21206     -4242.528 6        36.548                                    25030475.776 2 102495911.32802     -3305.912 2        17.094
G25         2.000    20033723.721 8 105278043.93808       415.581 8        49.733                                    20033728.653 8  82034920.36108       323.828 8        50.310    20033729.339 7  82034930.37507       323.823 7        45.374
G24         3.000    23415096.382 6 123047091.11506     -4314.719 6        41.871                                    23415105.382 6  95880861.39206     -3362.114 6        38.778    23415105.481 6  95880858.38006     -3362.109 6        39.688
G29         4.000    22302354.332 7 117199875.20807      2357.788 7        46.814                                    22302359.397 7  91324705.05007      1837.232 7        44.307    22302360.027 7  91324708.07207      1837.231 7        42.279
S21         5.000    38449587.901 7 202053556.77807      -622.712 7        42.830
G06         6.000    23284964.053 6 122363434.04906     -2186.138 6        41.313                                    23284971.684 6  95348222.19806     -1703.487 6        38.399    23284972.185 6  95348213.19406     -1703.362 6        40.946
E19         7.000    27479093.405 5 144403496.49305      1216.612 5        33.922                                                                    27479109.352 6 107833763.68006       908.515 6        37.149    27479107.232 6 110646822.27206       932.067 6        37.732
E15         8.000    27786542.485 6 146019309.00206      2647.038 6        38.721                                                                    27786564.090 7 109040481.32207      1976.714 7        42.326    27786561.831 7 111885001.30307      2028.284 7        43.266
G11         9.000    22479355.003 7 118129983.58507       257.536 7        46.088                                    22479359.169 5  92049439.75405       200.674 5        33.928    22479359.413 7  92049439.77007       200.622 7        44.166
E30        10.000    23645804.082 8 124259684.90108      -961.589 8        49.052                                                                    23645810.577 8  92791432.47508      -718.052 8        51.081    23645809.403 8  95212067.18308      -736.797 8        51.436
C26        11.000                                                                                                                                    25641346.514 7 133521106.71607     -3599.150 7        42.457                                                                    25641356.242 7 108496826.41107     -2924.650 7        42.419
S27        12.000    39243653.435 6 206226613.17306      -633.296 6        36.405
R15        13.000    22322787.030 7 119286287.06807      2761.757 7        47.253                                                                    22322801.284 7  92778309.65807      2147.986 7        43.932
S36        14.000    38221909.729 7 200857832.51207      -622.680 7        44.743
G12        15.000    20685517.984 8 108703269.31708     -2115.213 8        48.571                                    20685519.060 8  84703920.56908     -1648.217 8        49.299    20685519.574 7  84703920.57207     -1648.277 7        45.543
E29        16.000    25819591.324 7 135682786.09407      -902.125 7        43.395                                                                    25819603.977 7 101321566.84107      -673.666 7        45.789    25819602.528 7 103964736.52907      -691.187 7        46.543
S45        17.000    63421189.624 6 333280768.81816      -687.008 6        36.144
G31        18.000    25388791.735 6 133418995.08506      3076.926 6        39.222                                    25388806.319 4 103962931.02704      2397.590 4        26.994    25388806.913 5 103962910.03405      2397.645 5        33.814
C35        19.000                                                                                                                                    24586174.219 7 128026770.45407     -3259.627 7        43.985                                                                    24586179.755 7 104032308.77407     -2648.653 7        43.970
R14        21.000    19403961.022 8 103434129.53408       286.205 8        52.573                                                                    19403966.900 8  80448844.98008       222.588 8        48.002
I06        22.000    38576400.927 6 151382095.41906      -555.894 6        41.907
S28        23.000    40924383.989 5 215058859.34905      -627.747 5        34.886
E34        24.000    25416856.524 7 133566664.52607      1437.466 7        45.439                                                                    25416867.104 7  99741488.86007      1073.453 7        47.970    25416865.601 8 102343425.05908      1101.413 8        48.069
S23        25.000    38164747.109 7 200556911.74007      -627.384 7        45.363
C07        27.000                                                                                                                                    40984025.066 5 213414530.65105     -1519.943 5        35.367    40984028.011 6 165025654.25306     -1175.349 6        37.905    40984024.665 6 173416777.77806     -1235.161 6        37.187
R24        28.000    20189471.081 8 107962411.86308      2032.530 8        51.995                                                                    20189477.089 7  83970919.76307      1580.870 7        46.673
I02        29.000    37239454.800 7 146135591.88707      -734.603 7        42.114
G28        30.000    23232421.383 7 122087205.20307      2460.514 7        42.811                                    23232429.849 4  95132938.77004      1917.279 4        28.976    23232430.491 7  95132935.78507      1917.306 7        42.087
E07        31.000    26197045.161 7 137666238.97207     -3266.764 7        42.935                                                                    26197060.892 7 102802681.29907     -2439.597 7        45.639    26197058.965 7 105484491.54907     -2503.190 7        46.105
C12        32.000                                                                                                                                    22299053.680 7 116117195.30707       885.217 7        47.975    22299056.702 8  89789282.82408       684.540 8        52.525    22299054.178 8  94354804.43808       719.291 8        49.594
R17        33.000    23846170.464 7 127605713.72807      4016.982 7        42.032                                                                    23846188.156 6  99248973.89206      3124.268 6        39.781
R23        34.000    20605353.223 7 110224877.62807     -2676.926 7        47.819
C24        35.000                                                                                                                                    21723962.952 8 113122415.54608     -1871.228 8        51.160                                                                    21723964.391 8  91921251.24108     -1520.544 8        49.941
R05        36.000    22385966.171 7 119665731.33707     -2012.897 7        47.702                                                                    22385979.354 7  93073358.89507     -1565.652 7        42.237
E27        37.000    25128034.878 7 132048801.86107      1199.577 7        45.189                                                                    25128045.761 8  98607980.00208       895.763 8        48.363    25128044.116 8 101180347.31408       919.146 8        48.718
R04        38.000    23446123.842 7 125552692.23507     -4408.391 7        44.625                                                                    23446140.043 6  97652042.90206     -3428.703 6        38.775
R06        39.000    24161767.440 5 128931809.83605      1724.188 5        32.335
C32        40.000                                                                                                                                    26637272.109 6 138707110.05006      -968.559 6        39.868                                                                    26637286.220 6 112710887.82606      -787.205 6        40.901
C34        41.000                                                                                                                                    23207221.943 8 120846286.53408      2204.782 8        48.077                                                                    23207229.073 7  98197615.29507      1791.533 7        46.801
S44        42.000    40728079.642 6 214027477.12206      -541.516 6        37.837
R22        43.000    24178835.182 6 129068486.43806     -4803.013 6        41.097                                                                    24178836.571 6 100386711.24206     -3735.877 6        39.501
C05        44.000                                                                                                                                    39471206.171 6 205536780.88906      -600.117 6        38.300    39471213.605 7 158934053.18307      -464.026 7        43.285    39471212.156 6 167015535.61806      -487.577 6        39.375
G32        46.000    23069134.556 7 121229008.56607     -1808.916 7        45.049                                    23069144.651 7  94464161.07107     -1409.541 7        42.174    23069144.356 6  94464163.06406     -1409.557 6        41.402
E36        47.000    26095560.668 7 137133202.25107     -1275.020 7        42.709                                                                    26095570.697 7 102404783.32707      -952.115 7        45.487    26095569.387 7 105076194.98607      -976.979 7        45.782
C41        48.000                                                                                                                                    26732835.138 6 139204755.02206     -2972.203 6        38.823                                                                    26732858.022 6 113115310.69706     -2415.262 6        39.381
C10        49.000                                                                                                                                    39835817.687 6 207435521.66206     -1347.878 6        38.453    39835824.027 6 160402309.57306     -1042.293 6        41.273    39835819.956 6 168558348.32906     -1095.242 6        38.222
C44        50.000                                                                                                                                    21903752.128 8 114058619.48108      -804.941 8        50.766                                                                    21903755.278 8  92682002.02708      -654.135 8        49.195
S48        51.000    77160533.893 6 405481520.17406      -642.669 6        37.671
E02        53.000    26112014.614 7 137219576.66907     -2815.601 7        42.836                                                                    26112024.677 7 102469220.67007     -2102.456 7        45.553    26112022.802 7 105142314.70607     -2157.304 7        45.682
C60        54.000                                                                                                                                    40728078.424 6 212081790.35406      -536.594 6        39.387                                                                    40728072.827 6 172333753.28106      -435.860 6        39.162
C25        55.000                                                                                                                                    22258825.003 8 115907634.36008      1161.254 8        49.682                                                                    22258828.859 8  94184504.21308       943.559 8        48.917
C23        56.000                                                                                                                                    26926405.151 6 140212851.86906      2445.176 6        38.354                                                                    26926415.678 6 113934462.39706      1986.654 6        40.081
C02        57.000                                                                                                                                    40921249.670 5 213087518.37205      -552.609 5        33.431    40921256.863 6 164772723.92106      -427.222 6        37.240    40921257.095 5 173151021.65205      -449.141 5        34.190
I03        58.000   118194321.017 5 388034382.06105       926.185 5        32.934
C11        59.000                                                                                                                                    25263158.670 6 131551949.62206      2857.972 6        40.558    25263173.375 7 101724396.27707      2209.854 7        45.673    25263167.558 7 106896790.80207      2322.170 7        42.730
R13        60.000    21317321.775 7 113833344.55207     -3404.235 7        43.666
> 2025 01 01 14 00 20.0000000  0 56
G19         1.000    25034515.883 6 131557497.07006     -4242.731 6        36.722                                    25034512.265 2 102512440.97402     -3306.016 2        16.528
G25         2.000    20033329.147 8 105275970.89708       413.553 8        49.877                                    20033334.148 8  82033305.01808       322.244 8        50.453    20033334.773 7  82033315.03407       322.223 7        45.509
G24         3.000    23419202.056 6 123068666.58206     -4315.571 6        41.566                                    23419211.029 6  95897673.41106     -3362.776 6        38.793    23419211.947 6  95897670.39606     -3362.762 6        40.181
G29         4.000    22300111.451 7 117188089.97307      2356.138 7        47.025                                    22300116.744 7  91315521.77907      1835.950 7        44.433    22300116.763 7  91315524.78507      1835.955 7        42.095
S21         5.000    38450181.487 7 202056669.92007      -622.692 7        43.179
G06         6.000    23287045.804 6 122374371.81006     -2189.190 6        41.783                                    23287053.049 6  95356745.14106     -1705.861 6        38.523    23287053.510 6  95356736.14706     -1705.852 6        40.255
E19         7.000    27477936.620 5 144397416.99105      1215.130 5        34.067                                                                    27477952.459 6 107829223.81806       907.367 6        36.578    27477950.294 6 110642163.98906       930.902 6        37.331
E15         8.000    27784023.496 6 146006072.55606      2647.328 6        38.616                                                                    27784045.151 7 109030597.07007      1976.813 7        42.364    27784042.952 7 111874859.18307      2028.511 7        43.071
G11         9.000    22479111.729 7 118128703.55407       254.397 7        46.121                                    22479115.578 5  92048442.35305       198.233 5        34.100    22479115.867 7  92048442.36607       198.207 7        44.131
E30        10.000    23646719.324 8 124264495.08008      -962.624 8        49.095                                                                    23646725.950 8  92795024.49708      -718.866 8        51.021    23646724.744 8  95215752.90808      -737.574 8        51.484
C26        11.000                                                                                                                                    25644802.947 7 133539104.27507     -3600.000 7        42.150                                                                    25644812.516 7 108511450.87007     -2925.201 7        42.260
S27        12.000    39244256.728 6 206229779.05106      -633.390 6        36.839
R15        13.000    22320202.541 7 119272478.89207      2761.409 7        46.403                                                                    22320216.567 7  92767570.01507      2147.688 7        43.340
S36        14.000    38222502.313 7 200860944.84107      -622.412 7        44.947
G12        15.000    20687531.396 8 108713849.52508     -2116.995 8        49.008                                    20687532.408 8  84712164.88508     -1649.604 8        49.418    20687532.595 7  84712164.88607     -1649.655 7        45.612
E29        16.000    25820450.579 7 135687302.15707      -904.466 7        43.723                                                                    25820463.382 7 101324939.21507      -675.388 7        45.704    25820461.953 7 103968196.88607      -692.990 7        46.591
