     3.04           OBSERVATION DATA    M                   RINEX VERSION / TYPE
ssrcrin-15.6.1x                         20250101 234500 UTC PGM / RUN BY / DATE 
(00000000023479385599111004) Septentrio proprietary         COMMENT             
rref                                                        MARKER NAME         
01                                                          MARKER NUMBER       
geodetic                                                    MARKER TYPE         
NFB                 CLIMERS@TUW                             OBSERVER / AGENCY   
3297213             SEPT ASTERX SB3 PROB4.14.4              REC # / TYPE / VERS 
Unknown             Unknown                                 ANT # / TYPE        
  4127831.9371  1207193.2466  4695247.6012                  APPROX POSITION XYZ 
        0.0000        0.0000        0.0000                  ANTENNA: DELTA H/E/N
G   23 X1  C1C L1C D1C S1C C1W S1W C2W L2W D2W S2W C2L L2L  SYS / # / OBS TYPES 
       D2L S2L C5Q L5Q D5Q S5Q C1L L1L D1L S1L              SYS / # / OBS TYPES 
E   21 X1  C1C L1C D1C S1C C6C L6C D6C S6C C5Q L5Q D5Q S5Q  SYS / # / OBS TYPES 
       C7Q L7Q D7Q S7Q C8Q L8Q D8Q S8Q                      SYS / # / OBS TYPES 
S    9 X1  C1C L1C D1C S1C C5I L5I D5I S5I                  SYS / # / OBS TYPES 
R   17 X1  C1C L1C D1C S1C C2P L2P D2P S2P C2C L2C D2C S2C  SYS / # / OBS TYPES 
       C3Q L3Q D3Q S3Q                                      SYS / # / OBS TYPES 
C   25 X1  C1P L1P D1P S1P C5P L5P D5P S5P C2I L2I D2I S2I  SYS / # / OBS TYPES 
       C7I L7I D7I S7I C6I L6I D6I S6I C7D L7D D7D S7D      SYS / # / OBS TYPES 
J   17 X1  C1C L1C D1C S1C C2L L2L D2L S2L C5Q L5Q D5Q S5Q  SYS / # / OBS TYPES 
       C1L L1L D1L S1L                                      SYS / # / OBS TYPES 
I    5 X1  C5A L5A D5A S5A                                  SYS / # / OBS TYPES 
SEPTENTRIO RECEIVERS OUTPUT ALIGNED CARRIER PHASES.         COMMENT             
NO FURTHER PHASE SHIFT APPLIED IN THE RINEX ENCODER.        COMMENT             
G L1C                                                       SYS / PHASE SHIFT   
G L2W                                                       SYS / PHASE SHIFT   
G L2L  0.00000                                              SYS / PHASE SHIFT   
G L5Q  0.00000                                              SYS / PHASE SHIFT   
G L1L  0.00000                                              SYS / PHASE SHIFT   
E L1C  0.00000                                              SYS / PHASE SHIFT   
E L6C  0.00000                                              SYS / PHASE SHIFT   
E L5Q  0.00000                                              SYS / PHASE SHIFT   
E L7Q  0.00000                                              SYS / PHASE SHIFT   
E L8Q  0.00000                                              SYS / PHASE SHIFT   
S L1C                                                       SYS / PHASE SHIFT   
S L5I                                                       SYS / PHASE SHIFT   
R L1C                                                       SYS / PHASE SHIFT   
R L2P  0.00000                                              SYS / PHASE SHIFT   
R L2C                                                       SYS / PHASE SHIFT   
R L3Q  0.00000                                              SYS / PHASE SHIFT   
C L1P  0.00000                                              SYS / PHASE SHIFT   
C L5P  0.00000                                              SYS / PHASE SHIFT   
C L2I                                                       SYS / PHASE SHIFT   
C L7I                                                       SYS / PHASE SHIFT   
C L6I                                                       SYS / PHASE SHIFT   
C L7D                                                       SYS / PHASE SHIFT   
J L1C                                                       SYS / PHASE SHIFT   
J L2L  0.00000                                              SYS / PHASE SHIFT   
J L5Q  0.00000                                              SYS / PHASE SHIFT   
J L1L  0.00000                                              SYS / PHASE SHIFT   
I L5A                                                       SYS / PHASE SHIFT   
  2025     1     1    23    45    0.0000000     GPS         TIME OF FIRST OBS   
 C1C    0.000 C2C    0.000 C2P    0.000                     GLONASS COD/PHS/BIS 
DBHZ                                                        SIGNAL STRENGTH UNIT
    18                                                      LEAP SECONDS        
 24 R01  1 R02 -4 R03  5 R04  6 R05  1 R06 -4 R07  5 R08  6 GLONASS SLOT / FRQ #
    R09 -2 R10 -7 R11  0 R12 -1 R13 -2 R14 -7 R15  0 R16 -1 GLONASS SLOT / FRQ #
    R17  4 R18 -3 R19  3 R20  2 R21  4 R22 -3 R23  3 R24  2 GLONASS SLOT / FRQ #
                                                            END OF HEADER       
> 2025 01 01 23 45  0.0000000  0 55
G10         1.000    24758946.596 6 130109238.69206     -3576.859 6        39.820                                    24758944.850 5 101383883.36305     -2787.165 5        32.359    24758944.315 6 101383860.36306     -2787.265 6        36.159
G14         2.000    24492018.896 6 128706476.37006     -2206.731 6        39.015                                    24492014.997 3 100290762.79003     -1719.530 3        20.429    24492015.929 6 100290758.78106     -1719.478 6        36.741
C33         3.000                                                                                                                                    25695917.183 7 133805409.07107     -3551.303 7        42.425                                                                    25695928.627 7 108727914.01807     -2885.794 7        42.902
E31         4.000    27664759.929 6 145379336.86006     -2898.448 6        38.402                                                                    27664760.062 6 108562503.64706     -2164.348 6        40.946    27664759.445 6 111394565.54806     -2220.800 6        40.899
S21         5.000    38521487.218 7 202431548.53007      -473.061 7        42.406
E13         6.000    28447784.635 5 149494452.13705     -3049.560 5        34.057                                                                    28447785.650 6 111635671.50006     -2276.967 6        36.790    28447785.002 6 114547876.36706     -2336.510 6        37.936
G28         7.000    24613204.906 6 129343271.53906      2118.832 6        39.213                                    24613201.616 3 100786945.65903      1651.038 3        23.752    24613201.473 6 100786953.65006      1651.168 6        39.856
G03         8.000    21435584.188 7 112644853.49307      1925.313 7        46.677                                    21435581.844 7  87775252.20407      1500.245 7        46.588    21435582.500 7  87775250.20607      1500.243 7        43.570
G02         9.000    20816493.614 8 109391466.77608        31.260 8        50.058                                    20816486.801 7  85240099.37007        24.359 7        43.441
R12        10.000    24473315.613 6 130732094.40706     -3240.512 6        40.279                                                                    24473315.967 6 101680551.51006     -2520.415 6        38.054
C30        11.000                                                                                                                                    22367017.108 8 116470944.92908       880.941 8        50.247                                                                    22367017.463 8  94642186.57608       715.771 8        48.852
S27        12.000    39180919.145 5 205897172.31205      -448.775 5        35.767
R20        13.000    20694125.823 6 110660836.16206     -3199.836 6        37.648                                                                    20694127.312 7  86069606.22007     -2488.780 7        46.369
S36        14.000    38289317.534 7 201212252.24307      -472.523 7        43.917
S45        17.000    63491819.577 6 333652956.74206      -514.847 6        38.084
E08        18.000    28078598.890 6 147554067.85806     -3177.600 6        36.892                                                                    28078598.047 6 110186479.06606     -2372.911 6        40.810    28078597.930 6 113060904.92706     -2434.852 6        41.888
E12        19.000    27771323.592 5 145939296.80205      2081.276 5        35.767                                                                    27771320.059 6 108980631.37906      1554.136 6        38.727    27771320.189 6 111823603.94706      1594.646 6        39.411
G17        20.000    23629507.643 7 124173921.04707      2124.898 7        42.269                                    23629502.945 6  96758888.95506      1655.761 6        38.237    23629502.794 6  96758887.97906      1655.572 6        39.823
E26        21.000    24246685.246 7 127417539.23107     -1866.197 7        47.081                                                                    24246682.514 8  95149658.68508     -1393.567 8        49.776    24246682.445 8  97631799.19308     -1429.960 8        50.905
I06        22.000    38391406.876 7 150656363.28707      -246.237 7        42.565
S28        23.000    40968079.924 5 215288723.37405      -465.578 5        34.657
G08        24.000    23199985.027 7 121916754.12907     -3976.443 7        43.336                                    23199982.854 6  95000067.68206     -3098.529 6        39.477    23199983.969 6  95000068.69406     -3098.593 6        40.427
S23        25.000    38241616.138 7 200961018.12907      -470.113 7        45.008
C13        26.000                                                                                                                                    40853617.802 6 212735700.89006     -1221.592 6        38.721    40853619.138 6 164500848.84606      -944.513 6        39.018    40853616.819 6 172865269.46106      -992.469 6        36.862
E24        27.000    27900170.710 6 146616422.35206     -1032.840 6        38.571                                                                    27900169.209 6 109486302.10306      -771.309 6        41.106    27900168.669 7 112342463.02507      -791.385 7        42.459
R21        29.000    19400926.578 8 103818282.03708       660.574 8        51.662                                                                    19400924.588 7  80747556.25707       513.781 7        46.114
E19        30.000    27533205.918 5 144687990.40705      2783.634 5        34.248                                                                    27533205.202 6 108046223.82906      2078.776 6        37.059    27533204.179 6 110864818.33606      2132.991 6        36.949
R05        31.000    20371596.334 8 108897899.53708     -3196.491 8        49.953                                                                    20371595.525 7  84698376.58707     -2486.139 7        46.862
R13        32.000    23880997.718 6 127523215.40106     -1019.136 6        38.550
E29        33.000    24776088.459 7 130199302.58007      1802.670 7        46.247                                                                    24776086.753 8  97226765.67808      1346.165 8        48.969    24776086.510 8  99763110.71608      1381.296 8        49.511
C16        35.000                                                                                                                                    39753569.387 6 207007290.41506       852.767 6        41.170    39753568.244 6 160071179.06706       659.394 6        41.647    39753566.129 6 168210379.36506       692.918 6        37.595
C32        36.000                                                                                                                                    22947848.457 8 119495524.69708      1667.229 8        50.007                                                                    22947848.278 8  97099923.15308      1354.774 8        49.267
G32        37.000    22512778.241 7 118305489.67107     -2361.896 7        46.936                                    22512775.712 7  92186098.42007     -1840.436 7        45.592    22512776.543 7  92186107.41307     -1840.416 7        43.465
E07        38.000    24585002.593 7 129195079.51007     -1069.799 7        45.625                                                                    24585002.704 8  96476883.24708      -798.870 8        49.083    24585002.336 8  98993663.86008      -819.727 8        50.082
C41        39.000                                                                                                                                    22278542.902 8 116010251.42108     -1565.725 8        50.683                                                                    22278547.712 8  94267861.59908     -1272.292 8        50.204
C39        40.000                                                                                                                                    39408708.796 7 205211510.45507       480.739 7        42.220                                                                    39408703.779 7 166751156.99807       390.691 7        42.823
E33        41.000    23616367.139 8 124104934.71708       495.284 8        48.032                                                                    23616364.719 8  92675796.23408       369.873 8        50.890    23616364.570 8  95093421.59008       379.540 8        51.850
S44        42.000    40619535.673 6 213457277.00706      -531.552 6        38.550
R06        43.000    19926491.444 7 106331638.26207      1788.877 7        42.112
C05        44.000                                                                                                                                    39210095.855 6 204177295.94006      -449.856 6        38.610    39210089.797 7 157882862.31107      -347.724 7        43.592    39210092.069 6 165910882.21506      -365.521 6        40.453
C29        45.000                                                                                                                                    26452614.070 6 137745700.64406      2757.545 6        41.085                                                                    26452610.988 6 111929659.43806      2240.766 6        39.577
G04        46.000    25249412.837 6 132686567.68106      3375.903 6        36.669                                    25249410.527 2 103392110.10402      2630.543 2        16.113    25249411.409 5 103392112.08505      2630.478 5        35.276
R22        48.000    22832991.671 7 121884083.36807      3398.457 7        46.293                                                                    22832990.597 7  94798727.04207      2643.212 7        43.393
I05        49.000  -497586845.591 5-876852452.46605       251.245 5        32.060
C06        50.000                                                                                                                                    39462453.793 6 205491379.10606       966.005 6        38.814    39462448.916 7 158898950.91607       746.964 7        42.169    39462448.306 6 166978557.43406       784.841 6        39.622
S48        51.000    77277859.265 6 406099215.38006      -483.610 6        38.327
G21        52.000    20944433.745 7 110063817.57607     -1470.318 7        44.841                                    20944428.189 6  85764036.05806     -1145.701 6        37.433
C09        53.000                                                                                                                                    40460920.084 6 210690633.48806      1234.491 6        39.021    40460916.491 7 162919350.31907       954.626 7        43.124    40460914.317 6 171203375.36206      1003.169 6        38.844
C60        54.000                                                                                                                                    40619532.295 6 211516775.82806      -526.766 6        40.493                                                                    40619515.792 6 171874678.04706      -427.938 6        39.901
C27        55.000                                                                                                                                    22031407.658 8 114723340.59408     -2120.872 8        51.503                                                                    22031405.845 8  93222115.87608     -1723.359 8        48.930
R04        56.000    24506030.264 6 131228678.01506     -4781.908 6        37.860                                                                    24506029.806 5 102066737.40205     -3719.222 5        31.766
C02        57.000                                                                                                                                    40612550.496 5 211480265.27205      -491.680 5        34.333    40612543.030 6 163529952.53706      -380.177 6        40.296    40612547.050 6 171845044.02906      -399.293 6        36.601
I03        58.000   105626720.506 6 338716709.12606       961.588 6        40.946
R07        59.000    23476068.463 7 125669272.39407      3771.360 7        45.500                                                                    23476065.506 6  97742816.82006      2933.174 6        39.420
C28        60.000                                                                                                                                    25113889.874 7 130774922.82707     -3714.818 7        42.485                                                                    25113888.820 6 106265471.39606     -3018.776 6        41.943
> 2025 01 01 23 45  5.0000000  0 55
G10         1.000    24762349.860 6 130127123.14206     -3577.158 6        40.153                                    24762348.063 5 101397819.29905     -2787.392 5        32.293    24762347.295 5 101397796.31805     -2787.410 5        35.533
G14         2.000    24494119.700 6 128717515.21906     -2209.073 6        38.568                                    24494115.573 3 100299364.48403     -1721.352 3        20.167    24494115.483 6 100299360.47706     -1721.108 6        36.465
C33         3.000                                                                                                                                    25699327.440 7 133823166.82207     -3551.881 7        42.428                                                                    25699338.807 7 108742343.64007     -2886.073 7        42.925
E31         4.000    27667517.786 6 145393830.30606     -2899.231 6        38.541                                                                    27667518.134 6 108573326.67306     -2165.039 6        40.703    27667517.531 6 111405670.90606     -2221.446 6        41.092
S21         5.000    38521936.218 7 202433914.51007      -473.460 7        42.400
E13         6.000    28450686.384 5 149509699.90105     -3050.015 5        33.335                                                                    28450687.200 6 111647057.83606     -2277.518 6        36.662    28450686.524 6 114559559.71806     -2336.725 6        37.784
G28         7.000    24611189.246 6 129332680.09506      2117.528 6        38.853                                    24611186.135 3 100778692.58503      1650.021 3        23.429    24611185.286 6 100778700.58506      1649.854 6        39.288
G03         8.000    21433752.836 7 112635230.93307      1923.604 7        46.409                                    21433750.746 7  87767754.10407      1498.912 7        46.723    21433751.539 7  87767752.11307      1498.848 7        43.257
G02         9.000    20816464.828 8 109391314.95508        29.308 8        50.007                                    20816457.914 7  85239981.06907        22.837 7        43.581
R12        10.000    24476349.093 6 130748302.34606     -3242.732 6        41.986                                                                    24476349.843 6 101693157.68506     -2522.124 6        37.868
C30        11.000                                                                                                                                    22366172.320 8 116466545.65808       878.703 8        50.381                                                                    22366172.646 8  94638611.82308       714.079 8        48.684
S27        12.000    39181345.215 5 205899415.92105      -448.759 5        35.714
R20        13.000    20697118.201 6 110676841.71006     -3202.550 6        38.048                                                                    20697119.733 7  86082055.00107     -2490.873 7        46.256
S36        14.000    38289765.765 7 201214614.53007      -472.526 7        44.179
S45        17.000    63492266.060 6 333655530.70606      -515.012 6        38.039
E08        18.000    28081622.827 6 147569958.78106     -3178.813 6        36.669                                                                    28081621.993 6 110198345.65606     -2373.785 6        40.384    28081621.824 7 113073081.08007     -2435.732 7        42.125
E12        19.000    27769343.210 5 145928890.30505      2081.434 5        35.767                                                                    27769339.940 6 108972860.29006      1554.144 6        38.622    27769339.898 6 111815630.13006      1594.633 6        39.489
G17        20.000    23627486.865 7 124163301.01807      2123.052 7        43.096                                    23627482.044 6  96750613.61906      1654.324 6        38.456    23627481.940 6  96750612.61406      1654.318 6        39.501
E26        21.000    24248461.379 7 127426873.17007     -1867.484 7        47.059                                                                    24248458.720 8  95156628.82708     -1394.502 8        49.763    24248458.598 8  97638951.16508     -1430.913 8        51.211
I06        22.000    38391720.206 7 150657594.19307      -246.281 7        42.555
S28        23.000    40968523.397 5 215291050.20705      -465.175 5        34.724
G08        24.000    23203768.787 7 121936639.09207     -3977.574 7        43.154                                    23203767.067 6  95015562.45106     -3099.409 6        39.919    23203767.996 6  95015563.44406     -3099.341 6        41.030
S23        25.000    38242060.474 7 200963368.48907      -470.063 7        44.924
C13        26.000                                                                                                                                    40854791.099 6 212741808.22706     -1221.484 6        38.727    40854791.647 6 164505571.43106      -944.499 6        39.198    40854789.889 6 172870232.17606      -992.326 6        36.991
E24        27.000    27901154.654 6 146621592.13006     -1035.201 6        38.483                                                                    27901153.118 6 109490162.65606      -772.974 6        41.039    27901152.449 7 112346424.30407      -793.250 7        42.665
R21        29.000    19400310.715 8 103814987.12508       657.255 8        51.753                                                                    19400308.487 7  80744993.54707       511.136 7        45.479
E19        30.000    27530557.620 5 144674072.02605      2783.659 5        34.286                                                                    27530556.642 6 108035830.25406      2078.648 6        36.730    27530555.890 6 110854153.61106      2132.980 6        37.527
R05        31.000    20374587.575 8 108913889.10008     -3199.419 8        50.461                                                                    20374586.631 7  84710812.90707     -2488.373 7        46.674
R13        32.000    23881953.747 6 127528320.94306     -1023.228 6        37.758
E29        33.000    24774374.274 7 130190293.23207      1800.990 7        46.704                                                                    24774372.282 8  97220037.92008      1344.869 8        48.889    24774372.089 8  99756207.45008      1379.969 8        49.689
C16        35.000                                                                                                                                    39752750.151 6 207003028.38706       851.928 6        41.461    39752749.823 7 160067883.40507       658.853 7        42.013    39752747.673 6 168206916.14306       692.198 6        37.660
C32        36.000                                                                                                                                    22946248.506 8 119487192.99508      1665.329 8        50.156                                                                    22946248.207 8  97093152.97408      1353.274 8        49.193
G32        37.000    22515026.532 7 118317305.43607     -2364.549 7        46.852                                    22515024.182 7  92195305.50907     -1842.502 7        45.737    22515024.447 7  92195314.51607     -1842.495 7        42.876
E07        38.000    24586021.734 7 129200434.30807     -1072.126 7        45.857                                                                    24586021.692 8  96480881.95808      -800.653 8        49.042    24586021.302 8  98997766.88508      -821.568 8        50.268
C41        39.000                                                                                                                                    22280047.312 8 116018085.18608     -1567.865 8        50.736                                                                    22280052.085 8  94274227.18208     -1273.972 8        50.235
C39        40.000                                                                                                                                    39408247.545 7 205209108.83107       479.637 7        42.654                                                                    39408242.587 7 166749205.49507       389.901 7        42.684
E33        41.000    23615896.273 8 124102461.06408       494.117 8        48.153                                                                    23615894.034 8  92673949.02408       368.999 8        50.797    23615893.816 8  95091526.19508       378.605 8        52.121
S44        42.000    40620036.450 6 213459934.61406      -531.703 6        38.423
R06        43.000    19924816.759 7 106322702.53307      1785.319 7        42.038
C05        44.000                                                                                                                                    39210527.299 6 204179544.63206      -449.924 6        38.910    39210521.720 7 157884601.14307      -347.823 7        43.429    39210523.983 6 165912709.46206      -365.457 6        40.272
C29        45.000                                                                                                                                    26449965.722 6 137731913.34606      2757.213 6        41.490                                                                    26449963.504 6 111918456.15106      2240.531 6        39.799
G04        46.000    25246200.998 6 132669687.99206      3375.983 6        36.662                                    25246198.503 2 103378957.10602      2630.625 2        16.302    25246199.278 5 103378959.11405      2630.597 5        35.567
R22        48.000    22829809.407 7 121867092.19007      3397.911 7        46.353                                                                    22829807.915 7  94785511.67707      2642.787 7        43.437
I05        49.000  -497587163.770 5-876853708.04805       250.745 5        31.313
C06        50.000                                                                                                                                    39461525.991 6 205486550.77006       965.128 6        38.240    39461521.712 7 158895217.33207       746.270 7        42.193    39461521.130 6 166974634.01806       784.397 6        39.396
S48        51.000    77278305.596 6 406101633.33906      -483.575 6        38.333
G21        52.000    20945833.970 7 110071173.20907     -1472.086 7        44.947                                    20945827.905 6  85769767.71806     -1147.083 6        37.565
C09        53.000                                                                                                                                    40459734.135 6 210684462.04106      1233.881 6        38.610    40459731.212 7 162914578.16507       954.190 7        43.192    40459729.138 6 171198360.57306      1002.626 6        38.646
C60        54.000                                                                                                                                    40620038.094 6 211519409.27706      -526.853 6        40.605                                                                    40620021.564 6 171876817.94106      -427.797 6        39.928
C27        55.000                                                                                                                                    22033445.392 8 114733950.31308     -2123.136 8        51.498                                                                    22033443.307 8  93230737.15408     -1725.144 8        48.893
R04        56.000    24510494.677 6 131252587.21906     -4781.905 6        37.573                                                                    24510494.560 5 102085333.42405     -3719.174 5        32.317
C02        57.000                                                                                                                                    40613022.994 5 211482722.73005      -491.703 5        34.538    40613015.229 6 163531852.80106      -380.194 6        40.505    40613018.909 6 171847040.95206      -399.459 6        36.333
I03        58.000   105625494.879 6 338711900.97506       961.482 6        41.035
R07        59.000    23472546.211 7 125650417.97807      3770.243 7        44.676                                                                    23472543.594 6  97728152.29206      2932.431 6        39.565
C28        60.000                                                                                                                                    25117456.989 7 130793499.07607     -3715.679 7        42.792                                                                    25117456.110 6 106280566.13606     -3019.277 6        41.967
> 2025 01 01 23 45 10.0000000  0 55
G10         1.000    24765753.109 6 130145007.88906     -3576.902 6        40.398                                    24765751.326 5 101411755.47205     -2787.197 5        32.210    24765750.964 5 101411732.46005     -2787.090 5        35.157
G14         2.000    24496222.160 6 128728564.39906     -2210.805 6        38.357                                    24496218.197 3 100307974.24803     -1722.689 3        20.548    24496218.677 6 100307970.22806     -1722.627 6        37.066
C33         3.000                                                                                                                                    25702737.796 7 133840926.60107     -3552.008 7        42.555                                                                    25702749.514 7 108756774.92207     -2886.366 7        43.064
E31         4.000    27670277.151 6 145408328.17006     -2899.873 6        38.381                                                                    27670276.967 6 108584152.98606     -2165.462 6        40.858    27670276.534 6 111416779.66906     -2222.153 6        41.004
S21         5.000    38522388.952 7 202436280.05507      -472.849 7        42.555
E13         6.000    28453587.933 5 149524949.02105     -3050.003 5        33.078                                                                    28453588.943 6 111658445.15206     -2277.572 6        36.684    28453588.343 6 114571244.10706     -2337.011 6        37.887
G28         7.000    24609175.255 6 129322095.23106      2116.557 6        38.874                                    24609171.669 3 100770444.63803      1649.253 3        22.952    24609171.096 6 100770452.64606      1649.121 6        39.039
G03         8.000    21431923.587 7 112625616.56607      1922.167 7        46.551                                    21431921.181 7  87760262.39107      1497.794 7        46.787    21431921.789 7  87760260.38807      1497.880 7        43.204
G02         9.000    20816437.584 8 109391172.44408        27.662 8        50.030                                    20816430.785 7  85239870.02107        21.555 7        43.630
R12        10.000    24479386.594 7 130764521.76307     -3244.821 7        42.027                                                                    24479387.195 6 101705772.76906     -2523.832 6        38.372
C30        11.000                                                                                                                                    22365329.629 8 116462157.00308       876.739 8        50.497                                                                    22365329.814 8  94635045.68608       712.464 8        48.854
S27        12.000    39181776.610 5 205901659.18705      -448.485 5        35.838
R20        13.000    20700114.354 6 110692860.03906     -3204.890 6        38.324                                                                    20700115.501 7  86094513.68107     -2492.646 7        46.593
S36        14.000    38290215.655 7 201216976.45607      -472.189 7        43.882
S45        17.000    63492709.980 6 333658104.19706      -514.355 6        37.917
E08        18.000    28084647.735 6 147585854.04606     -3179.417 6        36.552                                                                    28084646.730 6 110210215.51406     -2374.208 6        40.379    28084646.587 7 113085260.58007     -2436.206 7        42.193
E12        19.000    27767363.236 5 145918483.55705      2081.550 5        35.643                                                                    27767359.525 6 108965089.03406      1554.303 6        38.718    27767359.486 6 111807656.14506      1594.878 6        39.366
G17        20.000    23625467.581 7 124152689.60007      2121.492 7        42.988                                    23625462.735 6  96742344.98406      1653.111 6        38.517    23625462.655 6  96742343.98506      1653.185 6        38.751
E26        21.000    24250238.367 7 127436212.66607     -1868.298 7        47.096                                                                    24250235.988 8  95163603.13008     -1395.168 8        49.823    24250235.791 8  97646107.40708     -1431.568 8        51.036
I06        22.000    38392033.729 7 150658824.79707      -245.998 7        42.762
S28        23.000    40968966.275 5 215293376.49605      -464.771 5        34.633
G08        24.000    23207553.833 7 121956528.42007     -3978.174 7        43.295                                    23207552.215 6  95031060.62406     -3099.872 6        40.105    23207552.663 6  95031061.62506     -3099.902 6        40.715
S23        25.000    38242508.383 7 200965718.38607      -469.883 7        44.652
C13        26.000                                                                                                                                    40855963.646 6 212747914.23106     -1220.975 6        38.580    40855964.420 6 164510292.99406      -944.131 6        39.222    40855962.664 6 172875193.82306      -992.119 6        37.206
E24        27.000    27902140.139 6 146626773.02806     -1037.201 6        38.345                                                                    27902139.006 6 109494031.50606      -774.500 6        41.192    27902138.301 7 112350394.07807      -794.691 7        42.667
R21        29.000    19399697.938 8 103811708.29508       654.277 8        51.399                                                                    19399696.270 7  80742443.34807       508.842 7        45.938
E19        30.000    27527909.061 5 144660153.70505      2783.722 5        33.701                                                                    27527908.057 6 108025436.69706      2078.782 6        37.077    27527907.159 6 110843488.94306      2132.857 6        37.784
R05        31.000    20377581.169 8 108929892.22808     -3201.883 8        50.081                                                                    20377580.301 7  84723259.79007     -2490.369 7        47.065
R13        32.000    23882913.292 6 127533446.27606     -1026.909 6        37.176
E29        33.000    24772661.067 7 130181291.67707      1799.654 7        46.489                                                                    24772659.356 8  97213315.97908      1343.904 8        48.915    24772659.097 8  99749310.15908      1378.946 8        49.641
C16        35.000                                                                                                                                    39751932.173 6 206998769.91106       851.497 6        41.292    39751932.089 7 160064590.47607       658.465 7        42.290    39751929.812 6 168203455.78406       691.820 6        37.800
C32        36.000                                                                                                                                    22944650.176 8 119478870.28008      1663.747 8        50.346                                                                    22944649.983 8  97086390.10208      1351.916 8        49.305
G32        37.000    22517277.455 7 118329133.42607     -2366.668 7        46.867                                    22517274.956 7  92204522.12207     -1844.158 7        45.813    22517275.104 7  92204531.12507     -1844.172 7        42.732
E07        38.000    24587043.044 7 129205800.28307     -1074.182 7        45.597                                                                    24587042.805 8  96484889.02408      -802.172 8        49.000    24587042.391 8  99001878.48008      -823.054 8        50.173
C41        39.000                                                                                                                                    22281553.665 8 116025929.07608     -1569.699 8        50.791                                                                    22281558.473 8  94280600.99108     -1275.500 8        50.317
C39        40.000                                                                                                                                    39407786.958 7 205206711.52207       479.098 7        42.794                                                                    39407782.241 7 166747257.50807       389.247 7        42.730
E33        41.000    23615426.385 8 124099992.62308       493.244 8        48.061                                                                    23615424.283 8  92672105.71008       368.320 8        50.830    23615424.102 8  95089634.79308       377.973 8        51.990
S44        42.000    40620546.890 6 213462591.85106      -531.253 6        38.685
R06        43.000    19923144.961 6 106313783.56906      1782.203 6        41.983
C05        44.000                                                                                                                                    39210959.088 6 204181792.95706      -449.448 6        38.859    39210953.634 7 157886339.70107      -347.596 7        43.554    39210955.740 6 165914536.43606      -365.372 6        40.646
C29        45.000                                                                                                                                    26447317.810 6 137718127.17606      2757.339 6        41.197                                                                    26447316.239 6 111907253.80706      2240.381 6        39.655
G04        46.000    25242988.791 6 132652807.27506      3376.433 6        36.522                                    25242986.264 2 103365803.34102      2630.975 2        17.321    25242986.676 5 103365805.34605      2631.029 5        35.557
R22        48.000    22826626.749 7 121850103.12007      3397.724 7        45.428                                                                    22826624.757 7  94772297.95807      2642.611 7        43.189
I05        49.000  -497587486.041 5-876854963.77705       251.295 5        30.098
C06        50.000                                                                                                                                    39460598.917 6 205481725.82706       964.719 6        37.879    39460595.252 7 158891486.38307       746.086 7        42.011    39460594.435 6 166970713.36206       784.146 6        39.426
S48        51.000    77278751.998 6 406104051.14906      -483.402 6        38.102
G21        52.000    20947235.046 7 110078537.54107     -1473.697 7        44.837                                    20947229.281 6  85775506.15906     -1148.334 6        37.603
C09        53.000                                                                                                                                    40458549.003 6 210678292.73006      1233.782 6        38.802    40458546.211 7 162909807.67107       954.027 7        43.357    40458544.330 6 171193347.51506      1002.491 6        38.465
C60        54.000                                                                                                                                    40620544.044 6 211522042.35606      -526.576 6        40.856                                                                    40620527.206 6 171878957.56206      -427.875 6        40.091
C27        55.000                                                                                                                                    22035484.737 8 114744570.74008     -2124.979 8        51.364                                                                    22035482.850 8  93239367.12808     -1726.812 8        48.920
R04        56.000    24514959.800 6 131276495.80506     -4781.515 6        37.497                                                                    24514958.738 5 102103929.03105     -3718.979 5        32.234
C02        57.000                                                                                                                                    40613494.585 5 211485179.94305      -491.336 5        34.262    40613486.685 6 163533752.85706      -379.878 6        40.246    40613491.031 6 171849037.63306      -399.393 6        36.491
I03        58.000   105624269.580 6 338707092.70206       961.605 6        41.192
R07        59.000    23469023.963 7 125631567.90107      3769.671 7        43.975                                                                    23469021.991 6  97713491.13506      2932.156 6        39.967
C28        60.000                                                                                                                                    25121025.163 7 130812078.76207     -3716.141 7        43.479                                                                    25121024.172 7 106295663.67407     -3019.746 7        42.006
> 2025 01 01 23 45 15.0000000  0 55
G10         1.000    24769156.519 6 130162893.01806     -3577.281 6        40.238                                    24769154.620 5 101425691.94805     -2787.493 5        32.287    24769154.227 5 101425668.97905     -2787.534 5        35.462
G14         2.000    24498327.051 6 128739624.02406     -2213.205 6        39.027                                    24498322.703 3 100316592.11903     -1724.576 3        20.500    24498322.837 6 100316588.14206     -1724.718 6        36.439
C33         3.000                                                                                                                                    25706148.860 7 133858688.53407     -3552.906 7        42.955                                                                    25706160.530 7 108771207.94207     -2887.014 7        43.139
E31         4.000    27673036.640 6 145422830.51406     -2901.299 6        38.757                                                                    27673036.705 6 108594982.63506     -2166.322 6        40.892    27673036.370 6 111427891.83106     -2222.991 6        40.880
S21         5.000    38522837.657 7 202438645.21007      -473.317 7        42.409
E13         6.000    28456490.497 5 149540199.51605     -3050.427 5        33.275                                                                    28456491.086 6 111669833.53506     -2278.034 6        36.983    28456490.220 6 114582929.56006     -2337.418 6        37.524
G28         7.000    24607162.004 6 129311517.05506      2114.710 6        38.306                                    24607158.603 3 100762201.90303      1647.839 3        22.686    24607158.402 6 100762209.90606      1647.853 6        39.240
G03         8.000    21430095.603 7 112616010.50007      1920.068 7        46.264                                    21430093.209 7  87752777.14507      1496.156 7        46.757    21430094.102 7  87752775.14507      1496.193 7        43.285
G02         9.000    20816412.371 8 109391039.35308        25.440 8        49.982                                    20816405.458 7  85239766.31307        19.825 7        43.602
R12        10.000    24482425.296 6 130780752.79006     -3247.661 6        41.375                                                                    24482424.953 6 101718396.97506     -2525.939 6        36.722
C30        11.000                                                                                                                                    22364488.884 8 116457779.06808       874.208 8        50.371                                                                    22364489.118 8  94631488.25308       710.448 8        48.773
S27        12.000    39182197.287 5 205903902.28305      -448.835 5        35.614
R20        13.000    20703111.211 6 110708891.27406     -3207.856 6        37.909                                                                    20703113.191 7  86106982.44207     -2494.962 7        46.056
S36        14.000    38290665.969 7 201219338.13107      -472.597 7        44.105
S45        17.000    63493153.815 6 333658977.37416      -514.821 6        37.909
E08        18.000    28087673.481 6 147601753.77906     -3180.736 6        36.824                                                                    28087672.445 6 110222088.69006     -2375.178 6        40.367    28087672.230 7 113097443.48407     -2437.104 7        42.078
E12        19.000    27765383.042 5 145908076.71005      2081.232 5        35.786                                                                    27765379.414 6 108957317.68106      1554.069 6        38.871    27765379.202 6 111799682.06206      1594.583 6        39.393
G17        20.000    23623449.535 7 124142086.95507      2119.316 7        43.170                                    23623445.077 6  96734083.18006      1651.417 6        38.628    23623445.034 6  96734082.17006      1651.501 6        39.219
E26        21.000    24252016.872 7 127445557.84007     -1869.909 7        47.303                                                                    24252014.359 8  95170581.67108     -1396.370 8        49.911    24252014.068 8  97653267.99408     -1432.786 8        50.955
I06        22.000    38392347.414 7 150660055.12707      -246.203 7        42.588
S28        23.000    40969410.227 5 215295702.39405      -465.445 5        34.081
G08        24.000    23211339.194 7 121976422.23207     -3979.536 7        44.095                                    23211337.922 6  95046562.28506     -3100.936 6        39.949    23211338.141 6  95046563.30406     -3100.982 6        39.640
S23        25.000    38242954.709 7 200968067.87507      -470.072 7        44.874
C13        26.000                                                                                                                                    40857134.940 6 212754019.12606     -1221.143 6        38.075    40857136.700 6 164515013.65706      -944.156 6        39.384    40857135.027 6 172880154.52706      -992.188 6        37.656
E24        27.000    27903128.003 6 146631965.17206     -1039.934 6        38.589                                                                    27903127.094 6 109497908.76206      -776.504 6        41.299    27903126.377 7 112354372.46607      -796.710 7        42.455
R21        29.000    19399088.106 8 103808445.59008       650.638 8        51.190                                                                    19399086.391 7  80739905.69007       506.077 7        45.869
E19        30.000    27525260.192 5 144646235.47605      2783.039 5        33.778                                                                    27525259.571 6 108015043.24606      2078.351 6        37.028    27525258.837 6 110832824.31606      2132.744 6        38.039
R05        31.000    20380577.602 8 108945908.98208     -3205.013 8        50.312                                                                    20380576.783 7  84735717.26707     -2492.817 7        47.211
R13        32.000    23883877.115 6 127538591.63406     -1031.214 6        38.306
E29        33.000    24770949.619 7 130172298.02207      1797.659 7        46.471                                                                    24770947.893 8  97206599.94108      1342.425 8        49.000    24770947.800 8  99742418.91808      1377.461 8        49.554
C16        35.000                                                                                                                                    39751115.289 6 206994515.06906       850.336 6        40.980    39751114.997 7 160061300.36907       657.623 7        42.195    39751112.710 6 168199998.36606       691.101 6        37.641
C32        36.000                                                                                                                                    22943053.461 8 119470556.66808      1661.531 8        50.193                                                                    22943053.430 8  97079634.60108      1350.197 8        49.264
G32        37.000    22519530.693 7 118340973.76007     -2369.601 7        46.866                                    22519528.121 7  92213748.35907     -1846.444 7        45.776    22519528.567 7  92213757.36507     -1846.491 7        42.779
E07        38.000    24588066.060 7 129211177.54307     -1076.891 7        45.752                                                                    24588066.022 8  96488904.50808      -804.164 8        49.134    24588065.683 8  99005998.71308      -825.116 8        50.103
C41        39.000                                                                                                                                    22283062.130 8 116033783.20508     -1572.106 8        50.645                                                                    22283066.776 8  94286983.10808     -1277.408 8        50.252
C39        40.000                                                                                                                                    39407327.333 7 205204318.65807       477.908 7        43.007                                                                    39407322.655 7 166745313.10807       388.377 7        42.815
E33        41.000    23614957.694 8 124097529.50308       491.819 8        48.126                                                                    23614955.572 8  92670266.36808       367.304 8        50.929    23614955.409 8  95087747.46908       376.849 8        51.937
S44        42.000    40621050.699 6 213465248.80706      -531.560 6        38.718
R06        43.000    19921477.250 6 106304881.45306      1778.617 6        41.876
C05        44.000                                                                                                                                    39211390.590 6 204184041.05206      -449.903 6        38.664    39211385.034 7 157888078.05907      -347.971 7        43.517    39211387.221 6 165916363.17406      -365.458 6        40.288
C29        45.000                                                                                                                                    26444670.919 6 137704342.33506      2756.448 6        41.197                                                                    26444668.702 6 111896052.48206      2239.909 6        39.757
G04        46.000    25239776.177 6 132635925.68106      3375.836 6        36.813                                    25239773.863 2 103352648.88902      2630.501 2        17.585    25239774.275 5 103352650.89605      2630.592 5        35.957
R22        48.000    22823443.447 7 121833116.35307      3396.800 7        45.368                                                                    22823443.082 7  94759086.03507      2641.990 7        42.919
I05        49.000  -497587805.409 5-876856219.62905       250.738 5        32.281
C06        50.000                                                                                                                                    39459673.163 6 205476904.39706       963.726 6        37.769    39459669.572 7 158887758.16907       745.171 7        42.385    39459668.634 6 166966795.57306       783.148 6        39.225
S48        51.000    77279204.132 6 406106468.40806      -483.831 6        38.447
G21        52.000    20948638.311 7 110085910.66307     -1475.666 7        44.844                                    20948632.342 6  85781251.44806     -1149.873 6        37.565
C09        53.000                                                                                                                                    40457365.219 6 210672125.68206      1232.760 6        38.931    40457361.938 7 162905038.91507       953.389 7        43.492    40457360.059 6 171188336.27706      1001.792 6        38.360
C60        54.000                                                                                                                                    40621049.382 6 211524675.17306      -526.905 6        40.565                                                                    40621032.906 6 171881096.93406      -428.115 6        39.892
C27        55.000                                                                                                                                    22037526.296 8 114755201.96908     -2127.627 8        51.470                                                                    22037524.403 8  93248005.86208     -1728.757 8        48.877
R04        56.000    24519424.631 6 131300403.63606     -4781.878 6        37.161                                                                    24519423.287 5 102122524.01105     -3719.124 5        32.228
C02        57.000                                                                                                                                    40613965.974 5 211487636.86305      -491.731 5        34.671    40613958.638 6 163535652.71206      -380.071 6        40.274    40613962.676 6 171851034.09406      -399.557 6        36.276
I03        58.000   105623044.500 6 338702284.38206       961.322 6        41.089
R07        59.000    23465502.944 7 125612722.30607      3768.387 7        43.371                                                                    23465502.572 6  97698833.47506      2930.971 6        39.862
C28        60.000                                                                                                                                    25124594.143 7 130830661.99407     -3717.250 7        43.977                                                                    25124593.119 7 106310764.06307     -3020.544 7        42.593
> 2025 01 01 23 45 20.0000000  0 55
G10         1.000    24772560.234 6 130180779.15206     -3577.084 6        40.412                                    24772558.115 5 101439629.20505     -2787.342 5        32.563    24772557.751 5 101439606.19505     -2787.367 5        35.971
G14         2.000    24500433.506 6 128750694.73606     -2215.171 6        38.213                                    24500429.437 3 100325218.65603     -1726.094 3        20.333    24500429.788 6 100325214.62606     -1725.972 6        36.457
C33         3.000                                                                                                                                    25709560.603 7 133876453.21607     -3553.169 7        43.139                                                                    25709571.947 7 108785643.20607     -2887.109 7        42.904
E31         4.000    27675796.750 6 145437337.95706     -2901.937 6        37.996                                                                    27675797.269 6 108605816.10806     -2166.921 6        40.725    27675796.905 6 111439007.91006     -2223.378 6        40.768
S21         5.000    38523287.359 7 202441010.54807      -473.070 7        42.317
E13         6.000    28459392.560 5 149555452.10505     -3050.551 5        33.359                                                                    28459393.563 6 111681223.44306     -2278.061 6        36.624    28459392.698 6 114594616.62006     -2337.493 6        37.157
G28         7.000    24605150.346 6 129300946.20906      2113.481 6        38.273                                    24605146.833 3 100753964.88303      1646.864 3        22.705    24605147.044 6 100753972.88006      1646.945 6        39.529
G03         8.000    21428269.202 7 112606413.36707      1918.696 7        46.118                                    21428266.931 7  87745298.85907      1495.085 7        46.858    21428267.677 7  87745296.85707      1495.194 7        43.234
G02         9.000    20816388.948 8 109390916.31208        23.767 8        49.990                                    20816382.040 7  85239670.43607        18.518 7        43.729
R12        10.000    24485465.710 6 130796996.03006     -3249.723 6        41.754                                                                    24485464.705 6 101731030.54006     -2527.371 6        38.198
C30        11.000                                                                                                                                    22363650.218 8 116453412.47308       872.280 8        50.319                                                                    22363650.545 8  94627940.03908       708.921 8        48.795
S27        12.000    39182627.247 5 205906145.67905      -448.451 5        35.614
R20        13.000    20706111.365 6 110724936.09106     -3210.219 6        38.081                                                                    20706113.858 7  86119461.71607     -2496.780 7        46.363
S36        14.000    38291117.313 7 201221701.04107      -472.442 7        43.954
S45        17.000    63493599.855 6 333661550.85006      -514.313 6        37.890
E08        18.000    28090699.944 6 147617658.57606     -3181.343 6        36.586                                                                    28090698.863 6 110233965.63606     -2375.541 6        40.420    28090698.819 7 113109630.27007     -2437.676 7        42.008
E12        19.000    27763403.001 5 145897670.33105      2081.553 5        35.333                                                                    27763398.920 6 108949546.68806      1554.361 6        38.853    27763398.903 6 111791708.35606      1594.850 6        39.057
G17        20.000    23621433.522 7 124131493.71407      2117.884 7        43.263                                    23621429.251 6  96725828.70806      1650.302 6        38.670    23621430.059 6  96725827.70406      1650.306 6        39.438
E26        21.000    24253796.323 7 127454909.31807     -1870.798 7        47.255                                                                    24253793.811 8  95177564.91208     -1397.018 8        49.795    24253793.568 8  97660433.41208     -1433.477 8        50.728
I06        22.000    38392660.715 7 150661285.69107      -246.124 7        42.633
S28        23.000    40969849.944 5 215298028.70405      -464.934 5        34.448
