     3.04           OBSERVATION DATA    M                   RINEX VERSION / TYPE
ssrcrin-15.6.1x                         20250101 143000 UTC PGM / RUN BY / DATE 
(00000000023479385599111004) Septentrio proprietary         COMMENT             
rref                                                        MARKER NAME         
01                                                          MARKER NUMBER       
geodetic                                                    MARKER TYPE         
NFB                 CLIMERS@TUW                             OBSERVER / AGENCY   
3297213             SEPT ASTERX SB3 PROB4.14.4              REC # / TYPE / VERS 
Unknown             Unknown                                 ANT # / TYPE        
  4127831.8806  1207194.6181  4695247.0897                  APPROX POSITION XYZ 
        0.0000        0.0000        0.0000                  ANTENNA: DELTA H/E/N
G   23 X1  C1C L1C D1C S1C C1W S1W C2W L2W D2W S2W C2L L2L  SYS / # / OBS TYPES 
       D2L S2L C5Q L5Q D5Q S5Q C1L L1L D1L S1L              SYS / # / OBS TYPES 
E   21 X1  C1C L1C D1C S1C C6C L6C D6C S6C C5Q L5Q D5Q S5Q  SYS / # / OBS TYPES 
       C7Q L7Q D7Q S7Q C8Q L8Q D8Q S8Q                      SYS / # / OBS TYPES 
S    9 X1  C1C L1C D1C S1C C5I L5I D5I S5I                  SYS / # / OBS TYPES 
R   17 X1  C1C L1C D1C S1C C2P L2P D2P S2P C2C L2C D2C S2C  SYS / # / OBS TYPES 
       C3Q L3Q D3Q S3Q                                      SYS / # / OBS TYPES 
C   25 X1  C1P L1P D1P S1P C5P L5P D5P S5P C2I L2I D2I S2I  SYS / # / OBS TYPES 
       C7I L7I D7I S7I C6I L6I D6I S6I C7D L7D D7D S7D      SYS / # / OBS TYPES 
J   17 X1  C1C L1C D1C S1C C2L L2L D2L S2L C5Q L5Q D5Q S5Q  SYS / # / OBS TYPES 
       C1L L1L D1L S1L                                      SYS / # / OBS TYPES 
I    5 X1  C5A L5A D5A S5A                                  SYS / # / OBS TYPES 
SEPTENTRIO RECEIVERS OUTPUT ALIGNED CARRIER PHASES.         COMMENT             
NO FURTHER PHASE SHIFT APPLIED IN THE RINEX ENCODER.        COMMENT             
G L1C                                                       SYS / PHASE SHIFT   
G L2W                                                       SYS / PHASE SHIFT   
G L2L  0.00000                                              SYS / PHASE SHIFT   
G L5Q  0.00000                                              SYS / PHASE SHIFT   
G L1L  0.00000                                              SYS / PHASE SHIFT   
E L1C  0.00000                                              SYS / PHASE SHIFT   
E L6C  0.00000                                              SYS / PHASE SHIFT   
E L5Q  0.00000                                              SYS / PHASE SHIFT   
E L7Q  0.00000                                              SYS / PHASE SHIFT   
E L8Q  0.00000                                              SYS / PHASE SHIFT   
S L1C                                                       SYS / PHASE SHIFT   
S L5I                                                       SYS / PHASE SHIFT   
R L1C                                                       SYS / PHASE SHIFT   
R L2P  0.00000                                              SYS / PHASE SHIFT   
R L2C                                                       SYS / PHASE SHIFT   
R L3Q  0.00000                                              SYS / PHASE SHIFT   
C L1P  0.00000                                              SYS / PHASE SHIFT   
C L5P  0.00000                                              SYS / PHASE SHIFT   
C L2I                                                       SYS / PHASE SHIFT   
C L7I                                                       SYS / PHASE SHIFT   
C L6I                                                       SYS / PHASE SHIFT   
C L7D                                                       SYS / PHASE SHIFT   
J L1C                                                       SYS / PHASE SHIFT   
J L2L  0.00000                                              SYS / PHASE SHIFT   
J L5Q  0.00000                                              SYS / PHASE SHIFT   
J L1L  0.00000                                              SYS / PHASE SHIFT   
I L5A                                                       SYS / PHASE SHIFT   
  2025     1     1    14    30    0.0000000     GPS         TIME OF FIRST OBS   
 C1C    0.000 C2C    0.000 C2P    0.000                     GLONASS COD/PHS/BIS 
DBHZ                                                        SIGNAL STRENGTH UNIT
    18                                                      LEAP SECONDS        
 24 R01  1 R02 -4 R03  5 R04  6 R05  1 R06 -4 R07  5 R08  6 GLONASS SLOT / FRQ #
    R09 -2 R10 -7 R11  0 R12 -1 R13 -2 R14 -7 R15  0 R16 -1 GLONASS SLOT / FRQ #
    R17  4 R18 -3 R19  3 R20  2 R21  4 R22 -3 R23  3 R24  2 GLONASS SLOT / FRQ #
                                                            END OF HEADER       
> 2025 01 01 14 30  0.0000000  0 57
G20         1.000    25097158.937 5 131886484.36105      1914.123 5        35.648                                    25097165.018 2 102768717.82002      1491.493 2        14.381
G25         2.000    19727093.857 8 103666708.49308      -384.479 8        49.920                                    19727097.599 8  80779338.28608      -299.597 8        50.463    19727098.196 7  80779348.29307      -299.635 7        44.674
G24         3.000    24624413.587 6 129402037.37306     -4526.806 6        38.889                                    24624426.236 5 100832752.49605     -3527.370 5        33.575    24624427.096 6 100832749.49206     -3527.316 6        37.372
G29         4.000    21317224.174 8 112023016.00508      1653.363 8        48.573                                    21317227.503 7  87290797.21907      1288.331 7        47.984    21317227.863 7  87290800.21907      1288.359 7        42.971
S21         5.000    38362254.935 7 201594602.99707      -627.087 7        42.876
G06         6.000    23902689.455 6 125609633.65606     -3172.701 6        40.296                                    23902695.178 5  97877736.12705     -2472.219 5        35.457    23902696.324 6  97877727.10506     -2472.217 6        38.718
E19         7.000    26889902.457 5 141307286.96705       465.600 5        34.843                                                                    26889918.146 6 105521661.56506       347.835 6        38.084    26889916.001 6 108274404.16606       356.884 6        38.964
E15         8.000    26597349.541 6 139770139.96606      2553.038 6        40.355                                                                    26597365.480 7 104373918.23207      1906.339 7        45.532    26597363.281 7 107096698.97107      1956.107 7        45.628
G11         9.000    22292213.984 7 117146564.32907      -929.430 7        45.851                                    22292217.094 5  91283142.95305      -724.233 5        34.424    22292217.069 7  91283142.95707      -724.294 7        44.131
E30        10.000    23738747.012 8 124748109.93908     -1349.293 8        48.963                                                                    23738752.976 8  93156167.50208     -1007.607 8        51.457    23738751.761 8  95586316.79508     -1033.840 8        51.463
C26        11.000                                                                                                                                    26610906.978 5 138569816.54305     -3787.589 5        30.400                                                                    26610918.250 5 112599308.15905     -3078.242 5        33.479
S27        12.000    39159203.386 6 205782792.99006      -632.967 6        36.280
R15        13.000    21140283.167 8 112967422.62308      2486.503 8        49.918                                                                    21140291.997 7  87863656.74207      1933.927 7        44.837
S36        14.000    38134613.158 7 200399085.64407      -626.804 7        44.777
G12        15.000    21215080.984 8 111486138.73008     -2751.800 8        48.036                                    21215082.483 7  86872389.31407     -2144.258 7        47.327    21215083.184 7  86872389.31207     -2144.381 7        43.772
E29        16.000    25971618.865 7 136481679.63607     -1742.481 7        43.094                                                                    25971632.685 7 101918138.54807     -1301.229 7        45.491    25971630.712 7 104576871.52507     -1335.159 7        45.604
S45        17.000    63336138.263 6 332834913.81506      -691.074 6        36.008
G31        18.000    24082724.076 6 126555595.77506      2803.048 6        40.546                                    24082737.214 5  98614835.37805      2184.200 5        33.581    24082737.757 6  98614814.38106      2184.320 6        36.408
C35        19.000                                                                                                                                    25483575.575 6 132699798.85506     -3684.076 6        40.789                                                                    25483580.322 6 107829531.64806     -2993.526 6        41.752
R14        21.000    19163335.614 8 102151474.63708      -665.582 8        51.793                                                                    19163341.228 8  79451227.59108      -517.663 8        48.112
I06        22.000    38528355.831 6 151193558.34106      -549.472 6        41.964
S28        23.000    40838638.060 5 214608293.02605      -631.047 5        34.419
E34        24.000    24755004.651 7 130088635.39607       668.904 7        45.863                                                                    24755012.873 8  97144267.30408       499.461 8        48.696    24755011.778 8  99678448.95108       512.519 8        49.351
S23        25.000    38079046.540 7 200106556.12707      -631.512 7        45.138
C13        26.000                                                                                                                                    40670266.814 6 211780769.97106      1565.773 6        38.006    40670280.506 6 163762388.68406      1210.684 6        39.405    40670275.939 6 172089272.12806      1272.075 6        37.187
C07        27.000                                                                                                                                    41200063.599 5 214539551.59005     -1486.979 5        35.119    41200063.213 6 165895605.13106     -1149.787 6        38.144    41200060.433 5 174330960.19705     -1208.190 5        34.986
R24        28.000    19447614.047 8 103995390.55208       575.715 8        52.362                                                                    19447618.455 7  80885464.34307       447.820 7        46.778
I02        29.000    37284202.047 7 146311196.00807      -778.943 7        42.076
G28        30.000    22203600.010 7 116680773.38007      1784.205 7        44.730                                    22203605.601 5  90920149.55105      1390.283 5        33.449    22203605.685 7  90920146.56207      1390.347 7        43.886
E07        31.000    27062180.659 6 142212497.06806     -3551.030 6        40.017                                                                    27062200.908 7 106197596.85807     -2651.754 7        43.390    27062197.950 7 108967972.15507     -2720.919 7        42.883
C12        32.000                                                                                                                                    21859241.169 8 113826994.26708       -76.373 8        48.795    21859243.153 8  88018358.21908       -59.106 8        52.369    21859241.285 8  92493831.82208       -62.084 8        50.134
R17        33.000    22244439.363 7 119034644.36807      3720.643 7        46.157                                                                    22244449.986 7  92582616.19307      2893.872 7        43.297
R23        34.000    21417591.206 7 114569810.68707     -3913.149 7        46.279
C24        35.000                                                                                                                                    22178468.767 8 115489140.24308     -2522.281 8        50.290                                                                    22178470.515 8  93844407.76008     -2049.581 8        49.978
R05        36.000    22981937.216 7 122851480.31207     -3283.692 7        44.527                                                                    22981954.167 6  95551148.98406     -2553.864 6        40.965
E27        37.000    24463135.658 7 128554760.29107       945.564 7        46.714                                                                    24463144.846 8  95998800.80208       706.086 8        49.547    24463143.527 8  98503101.67308       724.501 8        50.236
R06        39.000    23504705.537 5 125425547.43205       368.379 5        34.371
C32        40.000                                                                                                                                    26828663.528 6 139703670.63306     -1873.372 6        38.778                                                                    26828681.665 6 113520660.88206     -1522.061 6        40.086
C34        41.000                                                                                                                                    22260977.524 8 115918972.88408      1538.851 8        50.169                                                                    22260983.144 8  94193775.46208      1250.443 8        48.728
S44        42.000    40612939.408 6 213422466.27406      -544.324 6        36.079
C38        43.000                                                                                                                                    40154512.808 6 209095099.52806      1154.744 6        40.722                                                                    40154518.181 6 169906928.64606       938.385 6        40.725
C05        44.000                                                                                                                                    39376621.494 6 205044256.54406      -595.514 6        38.003    39376629.116 7 158553202.24107      -460.605 7        42.885    39376627.828 6 166615319.39406      -484.044 6        40.040
C08        45.000                                                                                                                                    40442473.360 6 210594584.64006      1622.498 6        37.157    40442478.145 6 162845121.96806      1254.471 6        40.625    40442474.241 6 171125365.82206      1318.292 6        38.321
G32        46.000    23546407.457 7 123737054.99407     -2720.410 7        42.726                                    23546420.012 6  96418472.75006     -2119.792 6        38.435    23546419.971 6  96418474.72606     -2119.741 6        39.138
E36        47.000    26377136.233 6 138612905.30106     -2127.436 6        41.266                                                                    26377145.945 7 103509759.90007     -1588.645 7        44.396    26377144.468 7 106209996.62207     -1630.163 7        44.403
C43        48.000                                                                                                                                    25902290.361 6 134880029.45806      2828.284 6        40.033                                                                    25902305.444 6 109601131.73506      2298.217 6        40.510
C10        49.000                                                                                                                                    39996980.473 6 208274756.45106     -1338.368 6        37.599    39996987.108 6 161051262.30906     -1034.924 6        40.493    39996983.283 6 169240297.89806     -1087.552 6        38.601
C44        50.000                                                                                                                                    22044311.021 8 114790553.37608     -1743.677 8        49.676                                                                    22044314.231 8  93276759.50508     -1416.901 8        49.257
S48        51.000    77074853.951 6 405031620.80906      -650.854 6        37.611
E02        53.000    26794330.597 6 140805156.94506     -2962.281 6        40.315                                                                    26794341.904 7 105146759.96307     -2212.122 7        44.150    26794340.225 7 107889703.36907     -2269.835 7        44.343
C60        54.000                                                                                                                                    40612945.425 6 211482279.81606      -539.423 6        39.252                                                                    40612938.701 6 171846606.18806      -438.357 6        40.863
C25        55.000                                                                                                                                    21659157.157 8 112785030.67008       563.415 8        50.910                                                                    21659160.368 8  91647137.52908       457.853 8        49.460
C23        56.000                                                                                                                                    25791914.289 7 134305307.32707      2405.059 7        42.669                                                                    25791920.615 7 109134109.89907      1954.294 7        42.707
C02        57.000                                                                                                                                    40810480.622 5 212510742.61105      -548.929 5        33.617    40810486.723 6 164326731.30006      -424.284 6        39.204    40810486.736 5 172682349.75905      -445.888 5        35.662
I03        58.000   117470923.851 5 385195641.29805       937.362 5        35.638
C11        59.000                                                                                                                                    24032134.830 7 125141757.21407      2540.157 7        44.510    24032143.116 7  96767648.79507      1964.163 7        47.812    24032138.747 7 101688000.43307      2064.026 7        45.815
R13        60.000    22255987.469 6 118845744.37606     -3984.933 6        40.753
> 2025 01 01 14 30  5.0000000  0 57
G20         1.000    25095338.125 5 131876916.31505      1913.156 5        35.929                                    25095344.299 2 102761262.23702      1490.753 2        15.143
G25         2.000    19727460.617 8 103668636.45008      -386.616 8        49.939                                    19727464.482 8  80780840.60108      -301.258 8        50.518    19727465.002 7  80780850.60907      -301.161 7        44.936
G24         3.000    24628721.277 6 129424671.88006     -4526.812 6        38.985                                    24628733.464 5 100850389.71905     -3527.377 5        33.796    24628733.987 6 100850386.71006     -3527.365 6        37.879
G29         4.000    21315652.207 8 112014754.56808      1651.391 8        48.213                                    21315655.396 7  87284359.74907      1286.794 7        47.986    21315656.011 7  87284362.77007      1286.779 7        43.572
S21         5.000    38362851.762 7 201597737.80907      -626.778 7        42.806
G06         6.000    23905709.148 6 125625502.91106     -3174.681 6        40.074                                    23905715.209 5  97890101.74305     -2473.765 5        35.433    23905716.042 6  97890092.72106     -2473.830 6        38.796
E19         7.000    26889460.788 5 141304964.79805       463.315 5        34.262                                                                    26889476.200 6 105519927.40206       346.167 6        37.905    26889474.249 6 108272624.77706       355.176 6        38.661
E15         8.000    26594920.876 6 139757376.79906      2552.308 6        40.117                                                                    26594936.696 7 104364387.33207      1906.071 7        45.565    26594934.524 7 107086919.43407      1955.805 7        45.901
G11         9.000    22293099.747 7 117151220.07407      -932.680 7        45.728                                    22293103.146 5  91286770.80105      -726.763 5        34.371    22293102.545 7  91286770.79707      -726.710 7        44.235
E30        10.000    23740031.329 8 124754858.79808     -1350.109 8        48.757                                                                    23740037.278 8  93161207.23108     -1008.131 8        51.533    23740036.051 8  95591487.99808     -1034.456 8        51.570
C26        11.000                                                                                                                                    26614543.792 4 138588757.02004     -3788.214 4        29.270                                                                    26614555.340 5 112614698.77005     -3078.125 5        33.413
S27        12.000    39159804.967 6 205785958.11606      -632.991 6        36.495
R15        13.000    21137957.237 8 112954992.95008      2485.559 8        49.673                                                                    21137965.937 7  87853989.26607      1933.159 7        45.083
S36        14.000    38135210.844 7 200402219.99607      -626.639 7        44.695
G12        15.000    21217699.906 8 111499901.75108     -2753.255 8        48.174                                    21217701.513 7  86883113.73907     -2145.395 7        47.359    21217702.001 7  86883113.74107     -2145.372 7        44.132
E29        16.000    25973277.688 7 136490398.11207     -1744.576 7        42.595                                                                    25973291.776 7 101924649.06907     -1302.793 7        45.499    25973289.856 7 104583551.89207     -1336.729 7        45.646
S45        17.000    63336736.410 6 332838368.90606      -690.928 6        36.200
G31        18.000    24080057.358 6 126541582.82706      2802.147 6        40.546                                    24080070.646 5  98603916.20505      2183.484 5        33.377    24080071.659 6  98603895.22506      2183.506 6        37.645
C35        19.000                                                                                                                                    25487113.332 6 132718220.44306     -3684.488 6        41.173                                                                    25487118.112 6 107844500.70506     -2994.084 6        41.983
R14        21.000    19163961.317 8 102154809.95208      -668.294 8        51.817                                                                    19163966.915 8  79453821.72808      -519.744 8        48.121
I06        22.000    38529055.779 6 151196305.70206      -549.328 6        41.971
S28        23.000    40839237.950 5 214611447.32905      -630.853 5        34.486
E34        24.000    24754369.261 7 130085296.56807       666.756 7        45.971                                                                    24754377.432 8  97141774.02208       497.985 8        48.750    24754376.339 8  99675890.63308       510.886 8        49.402
S23        25.000    38079648.532 7 200109713.40607      -631.274 7        45.071
C13        26.000                                                                                                                                    40668764.045 6 211772942.19606      1565.492 6        38.027    40668777.233 6 163756335.78206      1210.647 6        39.459    40668772.548 6 172082911.42206      1272.081 6        37.130
C07        27.000                                                                                                                                    41201491.287 5 214546986.31305     -1486.804 5        35.529    41201490.904 6 165901354.10106     -1149.542 6        38.114    41201488.089 5 174337001.49905     -1208.203 5        35.138
R24        28.000    19447077.958 8 103992522.90008       571.525 8        52.402                                                                    19447082.446 7  80883233.95907       444.633 7        47.072
I02        29.000    37285194.683 7 146315090.01907      -778.651 7        42.150
G28        30.000    22201903.645 7 116671858.11407      1782.091 7        45.252                                    22201909.067 5  90913202.62405      1388.635 5        33.563    22201909.397 7  90913199.64407      1388.668 7        44.084
E07        31.000    27065559.490 6 142230253.21406     -3551.312 6        39.625                                                                    27065579.583 7 106210856.25807     -2651.917 7        43.154    27065576.846 7 108981577.44307     -2721.010 7        43.206
C12        32.000                                                                                                                                    21859316.109 8 113827383.09908       -78.975 8        48.870    21859317.917 8  88018658.88908       -61.086 8        52.210    21859315.981 8  92494147.77608       -64.189 8        50.164
R17        33.000    22240962.914 7 119016044.72407      3719.396 7        46.427                                                                    22240974.823 7  92568149.82807      2892.907 7        43.082
R23        34.000    21421249.749 7 114589383.75607     -3915.837 7        46.499
C24        35.000                                                                                                                                    22180891.462 8 115501756.12908     -2523.863 8        50.398                                                                    22180893.338 8  93854659.18708     -2050.906 8        50.011
R05        36.000    22985009.589 7 122867906.19207     -3286.511 7        44.570                                                                    22985027.233 6  95563924.61506     -2556.153 6        40.641
E27        37.000    24462236.497 7 128550034.32607       944.977 7        46.528                                                                    24462245.533 8  95995271.68508       705.692 8        49.663    24462244.222 8  98499480.48908       724.170 8        50.371
R06        39.000    23504359.864 5 125423715.63905       364.408 5        34.495
C32        40.000                                                                                                                                    26830463.392 6 139713042.61406     -1875.395 6        39.210                                                                    26830481.536 6 113528276.37506     -1523.896 6        40.381
C34        41.000                                                                                                                                    22259501.323 8 115911284.06908      1536.881 8        50.160                                                                    22259506.597 8  94187527.67408      1248.769 8        48.733
S44        42.000    40613459.127 6 213425188.26806      -544.156 6        36.431
C38        43.000                                                                                                                                    40153404.498 6 209089327.19006      1154.246 6        40.551                                                                    40153409.699 6 169902238.11006       937.870 6        40.753
C05        44.000                                                                                                                                    39377193.383 6 205047234.53106      -595.407 6        38.030    39377200.992 7 158555505.00807      -460.379 7        42.743    39377199.699 6 166617739.24406      -483.868 6        39.991
C08        45.000                                                                                                                                    40440915.759 6 210586473.30306      1622.193 6        37.070    40440920.092 6 162838849.80306      1254.279 6        40.605    40440916.548 6 171118774.71706      1318.014 6        38.327
G32        46.000    23548997.102 7 123750661.88907     -2722.143 7        43.765                                    23549009.332 6  96429075.49006     -2121.140 6        38.405    23549009.992 6  96429077.48106     -2121.282 6        39.066
E36        47.000    26379161.542 6 138623547.81906     -2129.464 6        41.170                                                                    26379170.999 7 103517707.27007     -1590.084 7        44.494    26379169.674 7 106218151.31107     -1631.625 7        44.567
C43        48.000                                                                                                                                    25899574.959 6 134865889.08906      2828.020 6        40.112                                                                    25899589.731 6 109589641.59406      2297.978 6        40.529
C10        49.000                                                                                                                                    39998265.964 6 208281448.60206     -1338.499 6        37.645    39998272.692 6 161056437.07806     -1034.844 6        40.296    39998268.380 6 169245735.79406     -1087.444 6        38.399
C44        50.000                                                                                                                                    22045986.558 8 114799277.74308     -1745.978 8        49.857                                                                    22045989.664 8  93283848.75708     -1418.798 8        49.258
S48        51.000    77075450.935 6 405034875.21506      -650.800 6        37.864
E02        53.000    26797149.491 6 140819969.28506     -2962.511 6        39.862                                                                    26797160.643 7 105157821.12007     -2212.206 7        44.220    26797158.993 7 107901053.07907     -2269.944 7        44.503
C60        54.000                                                                                                                                    40613463.078 6 211484977.05506      -539.420 6        39.129                                                                    40613456.770 6 171848797.90406      -438.290 6        40.837
C25        55.000                                                                                                                                    21658617.065 8 112782218.03308       561.742 8        50.924                                                                    21658620.192 8  91644852.02808       456.434 8        49.570
C23        56.000                                                                                                                                    25789604.159 7 134293282.92407      2404.906 7        42.559                                                                    25789611.340 7 109124339.12807      1954.160 7        42.868
C02        57.000                                                                                                                                    40811007.902 5 212513486.50905      -548.658 5        33.257    40811013.905 6 164328853.08206      -424.004 6        39.099    40811013.936 5 172684579.42505      -445.873 5        35.624
I03        58.000   117469729.624 5 385190954.08905       937.566 5        35.729
C11        59.000                                                                                                                                    24029695.977 7 125129059.26507      2539.229 7        44.927    24029704.949 7  96757829.99307      1963.468 7        47.616    24029700.353 7 101677682.33707      2063.244 7        45.717
R13        60.000    22259720.799 6 118865672.61306     -3986.230 6        41.173
> 2025 01 01 14 30 10.0000000  0 57
G20         1.000    25093518.056 5 131867353.21105      1911.788 5        35.976                                    25093524.362 2 102753810.51202      1489.702 2        15.190
G25         2.000    19727829.742 8 103670576.04008      -389.338 8        49.741                                    19727833.561 8  80782351.97708      -303.381 8        50.582    19727834.435 7  80782361.98507      -303.361 7        44.868
G24         3.000    24633028.467 6 129447307.56406     -4527.443 6        38.766                                    24633040.960 5 100868027.87005     -3527.865 5        33.856    24633041.976 6 100868024.87906     -3528.080 6        37.981
G29         4.000    21314082.062 8 112006504.01908      1648.760 8        48.541                                    21314085.374 8  87277930.76608      1284.746 8        48.063    21314085.940 7  87277933.77407      1284.795 7        43.653
S21         5.000    38363448.988 7 201600872.65207      -627.138 7        42.997
G06         6.000    23908731.683 6 125641384.22306     -3177.656 6        40.255                                    23908737.373 5  97902476.79105     -2476.101 5        35.429    23908738.521 6  97902467.80406     -2476.151 6        38.757
E19         7.000    26889021.437 5 141302654.12205       460.723 5        34.286                                                                    26889036.752 6 105518201.78706       344.261 6        37.611    26889034.639 6 108270854.17306       352.974 6        38.817
E15         8.000    26592492.366 6 139744616.56206      2551.543 6        40.072                                                                    26592508.414 7 104354858.64207      1905.320 7        45.372    26592506.406 7 107077142.16007      1955.100 7        46.085
G11         9.000    22293989.086 7 117155892.67607      -936.467 7        45.601                                    22293992.346 5  91290411.78505      -729.713 5        34.467    22293992.212 7  91290411.78707      -729.753 7        44.203
E30        10.000    23741316.628 8 124761613.14108     -1351.664 8        48.621                                                                    23741322.556 8  93166251.06408     -1009.382 8        51.380    23741321.319 8  95596663.40508     -1035.708 8        51.639
C26        11.000                                                                                                                                    26618180.865 4 138607699.38504     -3789.027 4        27.772                                                                    26618192.955 5 112630090.96805     -3078.986 5        33.072
S27        12.000    39160407.751 6 205789123.26106      -633.295 6        36.476
R15        13.000    21135632.010 8 112942568.91108      2483.979 8        49.682                                                                    21135640.731 7  87844326.15107      1931.998 7        44.871
S36        14.000    38135806.848 7 200405354.94807      -627.174 7        44.716
G12        15.000    21220320.724 8 111513673.05508     -2755.286 8        48.052                                    21220322.094 7  86893844.62307     -2146.975 7        47.427    21220322.393 7  86893844.63207     -2147.066 7        43.932
E29        16.000    25974938.738 7 136499127.69307     -1747.327 7        42.743                                                                    25974953.001 7 101931167.87307     -1304.815 7        45.276    25974951.048 7 104590240.75207     -1338.807 7        45.756
S45        17.000    63337339.779 5 332840124.06815      -691.397 5        35.933
G31        18.000    24077392.411 6 126527575.77906      2800.555 6        39.865                                    24077405.224 5  98593001.67805      2182.235 5        33.509    24077406.077 6  98592980.71706      2182.296 6        37.369
C35        19.000                                                                                                                                    25490652.187 6 132736646.36406     -3685.905 6        41.869                                                                    25490656.655 6 107859473.26606     -2995.028 6        41.878
R14        21.000    19164589.528 8 102158159.75808      -671.639 8        51.783                                                                    19164595.394 7  79456427.14607      -522.392 7        47.692
I06        22.000    38529755.988 6 151199052.97306      -549.687 6        41.874
S28        23.000    40839839.706 5 214614601.49605      -631.116 5        34.395
E34        24.000    24753736.280 7 130081969.56407       663.983 7        46.094                                                                    24753744.382 8  97139289.57808       495.806 8        48.623    24753743.146 8  99673341.37308       508.757 8        49.421
S23        25.000    38080248.181 7 200112870.76307      -631.741 7        45.144
C13        26.000                                                                                                                                    40667261.155 6 211765116.12506      1564.795 6        38.048    40667274.398 6 163750284.18006      1210.001 6        39.333    40667269.476 6 172076552.09406      1271.595 6        37.028
C07        27.000                                                                                                                                    41202918.917 5 214554420.55605     -1487.305 5        35.210    41202918.443 6 165907102.71206     -1150.033 6        38.474    41202916.008 5 174343042.40505     -1208.451 5        34.852
R24        28.000    19446545.475 8 103989677.20808       566.673 8        52.129                                                                    19446550.011 7  80881020.66307       440.785 7        46.861
I02        29.000    37286187.003 7 146318984.53807      -779.097 7        42.210
G28        30.000    22200209.356 7 116662954.37407      1779.287 7        45.237                                    22200214.716 5  90906264.67705      1386.449 5        33.719    22200215.155 7  90906261.69107      1386.369 7        43.981
E07        31.000    27068938.568 6 142248011.69606     -3552.152 6        39.135                                                                    27068958.884 7 106224117.39807     -2652.576 7        42.942    27068956.430 7 108995184.53207     -2721.724 7        43.228
C12        32.000                                                                                                                                    21859393.235 8 113827785.69108       -82.235 8        48.806    21859395.341 8  88018970.20508       -63.494 8        52.259    21859393.282 8  92494474.92008       -66.807 8        50.139
R17        33.000    22237488.693 7 118997452.14107      3717.508 7        46.692                                                                    22237500.218 7  92553688.94907      2891.472 7        42.772
R23        34.000    21424912.424 7 114608970.83007     -3919.035 7        47.447
C24        35.000                                                                                                                                    22183315.998 8 115514380.87208     -2526.081 8        50.381                                                                    22183317.782 8  93864917.82608     -2052.698 8        50.023
R05        36.000    22988085.739 7 122884346.71107     -3289.822 7        45.422                                                                    22988102.987 6  95576711.61906     -2558.856 6        41.983
E27        37.000    24461337.821 7 128545312.21907       943.773 7        46.479                                                                    24461346.906 8  95991745.45708       704.715 8        49.512    24461345.606 8  98495862.27108       723.168 8        50.331
R06        39.000    23504022.140 5 125421904.51105       360.031 5        34.395
C32        40.000                                                                                                                                    26832266.245 6 139722426.21906     -1878.121 6        39.255                                                                    26832283.511 6 113535901.29406     -1526.129 6        40.517
C34        41.000                                                                                                                                    22258026.668 8 115903605.78208      1534.356 8        50.300                                                                    22258032.032 8  94181288.44408      1246.814 8        48.655
S44        42.000    40613978.067 5 213427910.29905      -544.716 5        35.967
C38        43.000                                                                                                                                    40152296.562 6 209083558.44106      1153.113 6        40.660                                                                    40152301.791 6 169897550.49606       937.095 6        40.815
C05        44.000                                                                                                                                    39377765.049 6 205050212.49106      -596.017 6        38.081    39377772.756 7 158557807.75407      -460.672 7        42.863    39377771.637 6 166620159.08806      -484.101 6        40.002
C08        45.000                                                                                                                                    40439357.974 6 210578364.38606      1621.245 6        37.130    40439362.718 6 162832579.50406      1253.683 6        40.911    40439359.358 6 171112185.57606      1317.517 6        38.501
G32        46.000    23551588.443 7 123764279.56607     -2724.823 7        43.829                                    23551600.673 6  96439686.63806     -2123.230 6        38.520    23551600.983 6  96439688.63606     -2123.399 6        38.474
E36        47.000    26381188.646 6 138634201.37106     -2131.970 6        41.187                                                                    26381198.328 7 103525662.88307     -1592.087 7        44.352    26381196.986 7 106226314.45307     -1633.593 7        44.697
C43        48.000                                                                                                                                    25896859.888 6 134851750.57606      2827.300 6        40.441                                                                    25896874.467 6 109578152.98006      2297.404 6        40.393
C10        49.000                                                                                                                                    39999551.435 6 208288140.56506     -1338.663 6        38.027    39999557.900 6 161061611.70606     -1035.076 6        40.312    39999553.589 6 169251173.54506     -1087.798 6        38.399
C44        50.000                                                                                                                                    22047664.445 8 114808014.35508     -1748.848 8        49.793                                                                    22047667.387 8  93290947.96708     -1421.052 8        49.196
S48        51.000    77076054.229 6 405038129.83706      -651.382 6        38.033
E02        53.000    26799968.553 6 140834783.57006     -2963.235 6        39.342                                                                    26799979.795 7 105168883.73207     -2212.882 7        44.272    26799978.106 7 107912404.27907     -2270.556 7        44.492
C60        54.000                                                                                                                                    40613980.950 6 211487674.33706      -539.730 6        39.348                                                                    40613974.727 6 171850989.67606      -438.614 6        40.758
C25        55.000                                                                                                                                    21658078.952 8 112779414.91908       559.382 8        50.948                                                                    21658081.900 8  91642574.27808       454.561 8        49.588
C23        56.000                                                                                                                                    25787294.984 7 134281260.06807      2404.058 7        42.307                                                                    25787302.286 7 109114569.62007      1953.530 7        42.880
C02        57.000                                                                                                                                    40811534.207 5 212516230.44405      -548.752 5        33.796    40811540.729 6 164330974.88406      -424.398 6        39.225    40811540.706 5 172686809.11605      -446.097 5        35.619
I03        58.000   117468535.784 5 385186266.75205       937.330 5        35.652
C11        59.000                                                                                                                                    24027258.787 7 125116367.29707      2537.539 7        44.834    24027267.121 7  96748015.80307      1962.233 7        47.101    24027262.591 7 101667369.11507      2061.870 7        45.667
R13        60.000    22263453.911 6 118885608.21006     -3988.064 6        41.421
> 2025 01 01 14 30 15.0000000  0 57
G20         1.000    25091699.472 6 131857795.04106      1911.316 6        36.212                                    25091705.570 2 102746362.62002      1489.322 2        15.095
G25         2.000    19728201.108 8 103672527.26408      -391.248 8        49.619                                    19728204.862 8  80783872.42208      -304.875 8        50.535    19728205.699 7  80783882.42907      -304.817 7        44.814
G24         3.000    24637336.130 6 129469944.44706     -4527.133 6        38.486                                    24637348.711 5 100885666.94505     -3527.625 5        33.988    24637349.384 6 100885663.93206     -3527.697 6        38.057
G29         4.000    21312514.343 8 111998264.31308      1647.119 8        48.692                                    21312517.408 8  87271510.22808      1283.469 8        48.104    21312518.046 7  87271513.22807      1283.443 7        43.712
S21         5.000    38364042.166 7 201604007.59007      -626.658 7        42.781
G06         6.000    23911755.728 6 125657277.48306     -3179.580 6        40.019                                    23911761.594 5  97914861.18905     -2477.603 5        35.248    23911761.601 6  97914852.20806     -2477.604 6        38.396
E19         7.000    26888583.202 5 141300355.09505       459.111 5        34.581                                                                    26888599.158 6 105516485.05506       342.757 6        37.686    26888597.083 6 108269092.64206       351.524 6        38.751
E15         8.000    26590065.016 6 139731859.29506      2551.361 6        40.472                                                                    26590080.570 7 104345332.15607      1905.320 7        45.407    26590078.776 7 107067367.14807      1954.923 7        45.776
G11         9.000    22294881.408 7 117160582.12407      -939.314 7        46.331                                    22294884.779 5  91294065.89505      -731.931 5        34.452    22294884.612 7  91294065.89607      -731.932 7        44.749
E30        10.000    23742602.885 8 124768372.91408     -1352.277 8        48.576                                                                    23742608.927 8  93171298.94608     -1009.790 8        51.338    23742607.683 8  95601842.97208     -1036.153 8        51.680
C26        11.000                                                                                                                                    26621819.332 4 138626643.61304     -3788.464 4        28.294                                                                    26621831.007 5 112645484.67705     -3079.052 5        32.772
S27        12.000    39161011.567 6 205792288.09306      -632.815 6        36.291
R15        13.000    21133307.579 8 112930150.41208      2483.436 8        49.544                                                                    21133317.149 7  87834667.37007      1931.495 7        45.586
S36        14.000    38136403.783 7 200408489.45307      -626.828 7        44.683
G12        15.000    21222942.854 7 111527452.62007     -2756.502 7        47.366                                    21222944.262 7  86904581.93607     -2147.919 7        47.380    21222945.116 7  86904581.92907     -2147.926 7        44.209
E29        16.000    25976601.649 7 136507868.32407     -1749.019 7        42.609                                                                    25976616.346 7 101937694.94007     -1306.069 7        45.281    25976614.316 7 104596938.08907     -1340.188 7        45.789
S45        17.000    63337943.167 6 332843579.22506      -690.972 6        36.083
G31        18.000    24074727.866 6 126513574.62406      2799.836 6        40.999                                    24074740.678 5  98582091.78205      2181.670 5        33.689    24074741.597 6  98582070.79706      2181.809 6        36.711
C35        19.000                                                                                                                                    25494191.306 7 132755076.52807     -3686.240 7        42.281                                                                    25494196.078 7 107874449.28407     -2995.344 7        42.072
R14        21.000    19165220.780 8 102161523.91408      -674.005 8        51.778                                                                    19165226.671 8  79459043.71008      -524.238 8        48.148
I06        22.000    38530456.292 6 151201800.13106      -549.093 6        41.971
S28        23.000    40840438.085 5 214617755.52005      -630.393 5        34.562
E34        24.000    24753105.499 7 130078654.36907       662.059 7        46.286                                                                    24753113.525 8  97136813.95008       494.443 8        48.592    24753112.337 8  99670801.16208       507.324 8        49.452
S23        25.000    38080848.988 7 200116028.42307      -631.418 7        45.169
C13        26.000                                                                                                                                    40665758.148 6 211757291.70306      1564.970 6        38.294    40665771.678 6 163744233.86806      1210.040 6        39.652    40665767.036 6 172070194.12906      1271.618 6        37.074
C07        27.000                                                                                                                                    41204345.817 5 214561854.31605     -1486.363 5        35.219    41204346.266 6 165912850.96406     -1149.444 6        38.399    41204343.583 5 174349082.92705     -1207.855 5        34.976
R24        28.000    19446017.007 8 103986853.32708       562.811 8        51.983                                                                    19446021.993 7  80878824.33107       437.728 7        47.069
I02        29.000    37287179.402 7 146322879.96607      -779.005 7        42.195
G28        30.000    22198517.078 7 116654062.16607      1777.463 7        45.040                                    22198522.551 5  90899335.70605      1385.036 5        33.713    22198523.009 7  90899332.71907      1385.082 7        44.158
E07        31.000    27072318.861 6 142265772.45906     -3552.216 6        39.429                                                                    27072338.695 7 106237380.23207     -2652.560 7        42.758    27072336.192 7 109008793.36707     -2721.749 7        43.259
C12        32.000                                                                                                                                    21859473.185 8 113828201.99208       -84.412 8        48.980    21859475.150 8  88019292.12908       -65.307 8        52.198    21859473.220 8  92494813.20208       -68.645 8        50.147
R17        33.000    22234015.639 7 118978866.68007      3716.491 7        46.363                                                                    22234026.916 7  92539233.63007      2890.577 7        42.673
R23        34.000    21428577.584 7 114628572.07707     -3921.448 7        47.443
C24        35.000                                                                                                                                    22185742.104 8 115527014.38708     -2527.350 8        50.518                                                                    22185743.810 8  93875183.58008     -2053.767 8        49.976
R05        36.000    22991164.145 7 122900802.15907     -3292.343 7        44.271                                                                    22991181.392 6  95589510.24606     -2560.686 6        41.683
E27        37.000    24460439.779 7 128540593.95507       943.538 7        46.430                                                                    24460449.059 8  95988222.09008       704.592 8        49.459    24460447.755 8  98492246.99408       722.961 8        50.398
R06        39.000    23503687.055 5 125420114.06605       356.498 5        33.563
C32        40.000                                                                                                                                    26834070.593 6 139731821.28206     -1880.031 6        39.712                                                                    26834087.758 6 113543535.47506     -1527.642 6        40.086
C34        41.000                                                                                                                                    22256554.190 8 115895938.00008      1532.706 8        50.365                                                                    22256559.479 8  94175057.75008      1245.450 8        48.743
S44        42.000    40614498.667 6 213430632.36906      -544.170 6        36.147
C38        43.000                                                                                                                                    40151189.536 6 209077793.27206      1152.880 6        40.589                                                                    40151194.588 6 169892865.79006       936.797 6        40.744
C05        44.000                                                                                                                                    39378336.952 6 205053190.38206      -595.292 6        38.147    39378344.730 7 158560110.45107      -460.236 7        42.874    39378343.518 6 166622578.86006      -483.812 6        40.062
C08        45.000                                                                                                                                    40437801.383 6 210570257.83906      1621.395 6        37.130    40437805.897 6 162826311.05606      1253.754 6        40.872    40437802.555 6 171105598.39606      1317.289 6        38.498
G32        46.000    23554181.530 7 123777908.00707     -2726.608 7        44.259                                    23554194.098 6  96450306.16306     -2124.628 6        38.508    23554194.876 6  96450308.15206     -2124.498 6        38.423
E36        47.000    26383218.105 6 138644865.99806     -2133.726 6        41.068                                                                    26383227.718 7 103533626.76407     -1593.351 7        44.289    26383226.236 7 106234486.09007     -1634.953 7        44.807
C43        48.000                                                                                                                                    25894145.057 6 134837613.93706      2827.299 6        40.720                                                                    25894159.540 6 109566665.85806      2297.445 6        40.410
C10        49.000                                                                                                                                    40000836.915 6 208294832.29706     -1338.188 6        38.111    40000842.866 6 161066786.15406     -1034.627 6        40.274    40000838.692 6 169256611.10206     -1087.344 6        38.372
C44        50.000                                                                                                                                    22049344.487 8 114816763.18308     -1750.748 8        49.782                                                                    22049347.516 8  93298057.10108     -1422.723 8        49.267
S48        51.000    77076655.242 6 405041384.57706      -650.772 6        37.830
E02        53.000    26802787.703 6 140849599.78106     -2963.198 6        39.631                                                                    26802799.347 7 105179947.77207     -2212.724 7        44.107    26802797.398 7 107923756.95507     -2270.537 7        44.576
C60        54.000                                                                                                                                    40614499.466 6 211490371.66106      -539.192 6        39.429                                                                    40614492.621 6 171853181.47306      -438.315 6        40.877
C25        55.000                                                                                                                                    21657542.505 8 112776621.26908       558.002 8        51.077                                                                    21657545.421 8  91640304.20908       453.376 8        49.615
C23        56.000                                                                                                                                    25784986.457 7 134269238.70907      2404.388 7        42.301                                                                    25784993.639 7 109104801.33307      1953.738 7        42.954
C02        57.000                                                                                                                                    40812061.349 5 212518974.35905      -548.631 5        33.383    40812067.289 6 164333096.68806      -424.195 6        39.333    40812067.580 5 172689038.76805      -445.891 5        35.562
I03        58.000   117467341.197 5 385181579.27005       937.572 5        35.919
C11        59.000                                                                                                                                    24024822.313 7 125103681.31907      2536.867 7        44.597    24024830.466 7  96738206.24407      1961.625 7        46.869    24024826.323 7 101657060.74307      2061.361 7        45.714
R13        60.000    22267188.119 6 118905550.96606     -3989.181 6        41.385
> 2025 01 01 14 30 20.0000000  0 57
G20         1.000    25089881.534 6 131848241.96506      1909.933 6        36.367                                    25089887.555 2 102738918.71202      1488.265 2        15.857
G25         2.000    19728574.629 8 103674490.23508      -393.787 8        49.501                                    19728578.399 8  80785402.01908      -306.848 8        50.430    19728578.980 7  80785412.02907      -306.802 7        44.647
G24         3.000    24641644.172 6 129492582.61206     -4527.816 6        38.231                                    24641656.726 5 100903307.01905     -3528.154 5        33.898    24641657.483 6 100903304.00906     -3528.120 6        38.333
G29         4.000    21310948.235 8 111990035.65508      1644.630 8        48.343                                    21310951.531 7  87265098.29807      1281.528 7        47.995    21310951.921 7  87265101.31907      1281.425 7        43.547
S21         5.000    38364643.264 7 201607142.62207      -626.967 7        43.010
