     3.04           OBSERVATION DATA    M                   RINEX VERSION / TYPE
ssrcrin-15.6.1x                         20250101 093000 UTC PGM / RUN BY / DATE 
(00000000023479385599111004) Septentrio proprietary         COMMENT             
rref                                                        MARKER NAME         
01                                                          MARKER NUMBER       
geodetic                                                    MARKER TYPE         
NFB                 CLIMERS@TUW                             OBSERVER / AGENCY   
3297213             SEPT ASTERX SB3 PROB4.14.4              REC # / TYPE / VERS 
Unknown             Unknown                                 ANT # / TYPE        
  4127832.7625  1207193.3466  4695247.8171                  APPROX POSITION XYZ 
        0.0000        0.0000        0.0000                  ANTENNA: DELTA H/E/N
G   23 X1  C1C L1C D1C S1C C1W S1W C2W L2W D2W S2W C2L L2L  SYS / # / OBS TYPES 
       D2L S2L C5Q L5Q D5Q S5Q C1L L1L D1L S1L              SYS / # / OBS TYPES 
E   21 X1  C1C L1C D1C S1C C6C L6C D6C S6C C5Q L5Q D5Q S5Q  SYS / # / OBS TYPES 
       C7Q L7Q D7Q S7Q C8Q L8Q D8Q S8Q                      SYS / # / OBS TYPES 
S    9 X1  C1C L1C D1C S1C C5I L5I D5I S5I                  SYS / # / OBS TYPES 
R   17 X1  C1C L1C D1C S1C C2P L2P D2P S2P C2C L2C D2C S2C  SYS / # / OBS TYPES 
       C3Q L3Q D3Q S3Q                                      SYS / # / OBS TYPES 
C   25 X1  C1P L1P D1P S1P C5P L5P D5P S5P C2I L2I D2I S2I  SYS / # / OBS TYPES 
       C7I L7I D7I S7I C6I L6I D6I S6I C7D L7D D7D S7D      SYS / # / OBS TYPES 
J   17 X1  C1C L1C D1C S1C C2L L2L D2L S2L C5Q L5Q D5Q S5Q  SYS / # / OBS TYPES 
       C1L L1L D1L S1L                                      SYS / # / OBS TYPES 
I    5 X1  C5A L5A D5A S5A                                  SYS / # / OBS TYPES 
SEPTENTRIO RECEIVERS OUTPUT ALIGNED CARRIER PHASES.         COMMENT             
NO FURTHER PHASE SHIFT APPLIED IN THE RINEX ENCODER.        COMMENT             
G L1C                                                       SYS / PHASE SHIFT   
G L2W                                                       SYS / PHASE SHIFT   
G L2L  0.00000                                              SYS / PHASE SHIFT   
G L5Q  0.00000                                              SYS / PHASE SHIFT   
G L1L  0.00000                                              SYS / PHASE SHIFT   
E L1C  0.00000                                              SYS / PHASE SHIFT   
E L6C  0.00000                                              SYS / PHASE SHIFT   
E L5Q  0.00000                                              SYS / PHASE SHIFT   
E L7Q  0.00000                                              SYS / PHASE SHIFT   
E L8Q  0.00000                                              SYS / PHASE SHIFT   
S L1C                                                       SYS / PHASE SHIFT   
S L5I                                                       SYS / PHASE SHIFT   
R L1C                                                       SYS / PHASE SHIFT   
R L2P  0.00000                                              SYS / PHASE SHIFT   
R L2C                                                       SYS / PHASE SHIFT   
R L3Q  0.00000                                              SYS / PHASE SHIFT   
C L1P  0.00000                                              SYS / PHASE SHIFT   
C L5P  0.00000                                              SYS / PHASE SHIFT   
C L2I                                                       SYS / PHASE SHIFT   
C L7I                                                       SYS / PHASE SHIFT   
C L6I                                                       SYS / PHASE SHIFT   
C L7D                                                       SYS / PHASE SHIFT   
J L1C                                                       SYS / PHASE SHIFT   
J L2L  0.00000                                              SYS / PHASE SHIFT   
J L5Q  0.00000                                              SYS / PHASE SHIFT   
J L1L  0.00000                                              SYS / PHASE SHIFT   
I L5A                                                       SYS / PHASE SHIFT   
  2025     1     1     9    30    0.0000000     GPS         TIME OF FIRST OBS   
 C1C    0.000 C2C    0.000 C2P    0.000                     GLONASS COD/PHS/BIS 
DBHZ                                                        SIGNAL STRENGTH UNIT
    18                                                      LEAP SECONDS        
 24 R01  1 R02 -4 R03  5 R04  6 R05  1 R06 -4 R07  5 R08  6 GLONASS SLOT / FRQ #
    R09 -2 R10 -7 R11  0 R12 -1 R13 -2 R14 -7 R15  0 R16 -1 GLONASS SLOT / FRQ #
    R17  4 R18 -3 R19  3 R20  2 R21  4 R22 -3 R23  3 R24  2 GLONASS SLOT / FRQ #
                                                            END OF HEADER       
> 2025 01 01 09 30  0.0000000  0 54
G19         1.000    24273964.187 6 127560602.18106      2918.540 6        40.765                                    24273970.905 4  99397935.58004      2274.165 4        26.491
R01         2.000    20313325.513 8 108586277.94808     -3500.747 8        48.653                                                                    20313331.026 7  84456041.81907     -2722.921 7        42.125
G24         3.000    22766233.640 7 119637360.62307      2617.943 7        42.851                                    22766238.343 6  93223945.14806      2039.952 6        39.625    22766239.087 6  93223942.13806      2039.972 6        40.064
R02         4.000    19640490.758 8 104805372.99708       722.526 8        52.156                                                                    19640494.524 7  81515292.27207       562.013 7        47.156
S21         5.000    38515841.758 7 202401861.36107      -454.645 7        42.362
E05         6.000    26569502.829 5 139623465.72405     -3368.199 5        34.043                                                                    26569521.560 6 104264229.79606     -2515.027 6        37.240    26569519.884 6 106984167.17006     -2580.705 6        38.339
G17         7.000    22784566.251 7 119733839.39207      1573.564 7        44.575                                    22784570.011 6  93299178.08506      1226.146 6        40.951    22784570.815 6  93299174.10906      1226.159 6        40.849
R21         8.000    24355534.424 6 130331390.05706      3034.771 6        40.238                                                                    24355547.249 6 101368922.31806      2360.392 6        38.081
R19         9.000    24562479.509 5 131392653.54405     -2872.940 5        32.742                                                                    24562480.194 6 102194351.67006     -2234.115 6        36.227
E30        10.000    28366114.023 6 149064967.26606      2615.427 6        38.135                                                                    28366128.396 6 111314824.58506      1953.184 6        40.186    28366126.614 6 114218682.07206      2004.120 6        40.892
C26        11.000                                                                                                                                    22167816.551 8 115433659.81508       803.218 8        50.048                                                                    22167819.034 8  93799322.86308       652.686 8        48.960
S27        12.000    39231371.291 6 206162046.88806      -487.705 6        36.416
G15        13.000    20330150.474 8 106835606.01808       313.155 8        49.005                                    20330150.456 8  83248493.71608       244.014 8        49.493    20330150.748 7  83248485.72407       244.014 7        45.666
S36        14.000    38286107.029 7 201195282.65607      -455.415 7        44.120
R11        16.000    20533828.451 8 109726506.83308     -3185.348 8        50.251                                                                    20533832.246 7  85342824.46207     -2477.477 7        46.551
S45        17.000    63468758.628 6 333531858.95106      -505.032 6        36.098
R03        18.000    23117259.649 7 123748432.62507      3649.351 7        45.234                                                                    23117264.541 6  96248779.21106      2838.354 6        41.442
E24        19.000    28132100.651 6 147834982.04006     -3311.129 6        37.928                                                                    28132114.754 6 110396206.82706     -2472.526 6        40.574    28132112.787 6 113276111.13406     -2537.087 6        41.535
E33        20.000    28685580.406 5 150743726.55905      -185.164 5        34.924                                                                    28685585.723 6 112568382.77006      -138.249 6        39.517    28685584.829 6 115504945.39306      -141.762 6        40.088
G30        21.000    23363824.266 7 122777589.11207     -3244.649 7        42.017                                    23363833.014 6  95670815.83406     -2528.294 6        38.550    23363833.495 6  95670819.81706     -2528.284 6        39.787
I06        22.000    38209540.987 7 149942522.82007      -431.614 7        43.115
S28        23.000    40962139.163 5 215257284.31105      -464.655 5        34.805
G14        24.000    21111754.748 7 110942993.86807     -2183.646 7        46.332                                    21111756.161 6  86449081.28706     -1701.541 6        37.837    21111756.331 7  86449083.28707     -1701.506 7        46.527
S23        25.000    38218722.790 7 200840650.64207      -456.214 7        44.147
E08        26.000    23903248.351 7 125612361.16707       660.867 7        47.986                                                                    23903251.450 8  93801420.29708       493.493 8        50.444    23903250.510 8  96248413.44308       506.370 8        50.954
C07        27.000                                                                                                                                    38879258.795 6 202454478.53806      -445.438 6        40.808    38879261.279 7 156550650.29107      -344.512 7        44.024    38879258.246 6 164510840.59006      -361.956 6        41.347
G13        28.000    20129135.873 8 105779271.07608     -1592.609 8        48.889                                    20129135.072 6  82425371.94806     -1240.994 6        40.586
I02        29.000    37284049.836 7 146310618.87007         6.856 7        42.445
E07        31.000    27645966.852 6 145280455.49006      2324.438 6        38.390                                                                    27645975.981 6 108488646.79906      1735.758 6        40.913    27645974.715 7 111318783.70307      1781.119 7        42.027
E03        32.000    24067204.782 7 126473954.55707     -2061.181 7        47.987                                                                    24067210.452 8  94444832.27208     -1539.142 8        50.017    24067209.495 8  96908607.03608     -1579.326 8        50.761
G05        33.000    24071295.967 7 126495374.64907     -4013.711 7        42.233                                    24071301.722 6  98567781.99106     -3127.561 6        36.030    24071302.300 6  98567784.97606     -3127.497 6        38.294
E26        34.000    28876650.216 5 151747764.39905     -2130.005 5        35.929                                                                    28876653.617 6 113318122.38506     -1590.492 6        37.297    28876652.608 6 116274242.80806     -1632.030 6        38.342
C36        35.000                                                                                                                                    26436861.192 6 137663419.94906     -3436.746 6        39.333                                                                    26436878.202 6 111862773.54106     -2792.620 6        39.943
G23        36.000    23423126.056 6 123089274.49306       937.032 6        41.843                                    23423128.962 4  95913683.40704       730.155 4        28.047    23423129.088 6  95913684.41006       730.134 6        41.905
I09        38.000    40602419.071 6 159332272.67406      -991.522 6        37.909
C33        39.000                                                                                                                                    25934663.679 6 135048598.12206      2430.831 6        41.251                                                                    25934681.886 7 109738121.29007      1975.287 7        42.499
E25        40.000    23977478.791 7 126002487.11207     -1556.515 7        47.027                                                                    23977484.704 8  94092764.70608     -1162.315 8        49.998    23977483.747 8  96547351.18308     -1192.666 8        50.736
S44        42.000    40961752.663 6 215255433.17906      -439.590 6        36.408
C09        43.000                                                                                                                                    41375280.030 5 215451715.59005     -1073.138 5        34.609    41375291.565 6 166600861.35006      -829.787 6        40.794    41375285.664 5 175072097.67505      -872.016 5        35.724
C05        44.000                                                                                                                                    39468584.843 6 205523143.27806      -504.677 6        37.898    39468590.564 7 158923510.83307      -390.266 7        42.199    39468590.644 6 167004456.44906      -409.855 6        39.574
C40        45.000                                                                                                                                    38890643.679 7 202513766.64607      -526.516 7        43.706                                                                    38890648.003 7 164559034.93507      -427.801 7        42.787
C21        46.000                                                                                                                                    23498539.401 8 122362968.16408     -3119.514 8        48.872                                                                    23498538.357 8  99429887.83908     -2534.792 8        48.011
R20        47.000    23442374.649 5 125356926.05805       776.497 5        31.691                                                                    23442386.746 6  97499889.47306       603.872 6        40.372
C10        49.000                                                                                                                                    38668730.676 6 201358239.36006       -59.653 6        41.189    38668734.919 7 155702980.25407       -46.029 7        44.208    38668731.558 6 163620067.41006       -48.417 6        40.982
C42        50.000                                                                                                                                    22681787.949 8 118109959.05508      -193.987 8        49.580                                                                    22681799.234 8  95974039.88608      -157.520 8        49.418
S48        51.000    77228586.215 6 405838599.76906      -445.462 6        38.195
E02        53.000    24000681.424 8 126124516.57508      1300.496 8        48.200                                                                    24000686.016 8  94183969.63408       971.171 8        49.907    24000684.927 8  96640924.23308       996.471 8        50.455
C60        54.000                                                                                                                                    40961754.526 6 213298583.03706      -435.864 6        39.532                                                                    40961749.135 6 173322493.51806      -354.176 6        38.069
C45        55.000                                                                                                                                    22559283.739 8 117472047.99508     -2229.975 8        48.778                                                                    22559279.875 8  95455621.71408     -1812.015 8        49.455
R12        56.000    19650172.786 8 104967791.57008       873.561 8        52.303                                                                    19650176.366 7  81641655.54307       679.491 7        47.454
C02        57.000                                                                                                                                    41036407.616 5 213687164.25005      -485.198 5        31.479    41036415.797 6 165236405.26106      -375.211 6        36.450    41036415.318 5 173638280.72005      -394.197 5        30.785
I03        58.000   123706908.070 6 409666931.47206       910.733 6        39.108
C14        59.000                                                                                                                                    23885037.157 7 124375592.97607      1374.715 7        44.305    23885039.121 8  96175070.47508      1063.081 8        49.179    23885036.257 7 101065328.68207      1117.122 7        46.307
R13        60.000    22825135.187 6 121884979.22106      3105.142 6        40.079
> 2025 01 01 09 30  5.0000000  0 54
G19         1.000    24271187.255 6 127546009.68306      2918.158 6        40.951                                    24271193.849 4  99386564.91404      2273.867 4        26.862
R01         2.000    20316601.506 8 108603789.60708     -3504.016 8        48.684                                                                    20316606.810 7  84469661.97607     -2725.519 7        42.129
G24         3.000    22763743.123 7 119624273.14807      2616.821 7        42.855                                    22763747.882 6  93213747.12706      2039.080 6        39.613    22763748.106 6  93213744.13406      2039.052 6        40.770
R02         4.000    19639815.773 8 104801770.51308       718.321 8        52.280                                                                    19639819.305 7  81512490.33607       558.699 7        47.399
S21         5.000    38516273.847 7 202404133.88007      -454.669 7        42.102
E05         6.000    26572707.407 5 139640306.81805     -3368.858 5        34.138                                                                    26572726.267 6 104276805.91406     -2515.577 6        37.217    26572724.648 6 106997071.35206     -2581.073 6        38.462
G17         7.000    22783070.231 7 119725977.20407      1571.095 7        44.489                                    22783073.913 6  93293051.74806      1224.220 6        40.927    22783074.040 6  93293047.76606      1224.438 6        40.503
R21         8.000    24352699.273 6 130316219.42406      3033.371 6        40.925                                                                    24352713.072 6 101357122.89706      2359.198 6        38.973
R19         9.000    24565165.885 5 131407024.84605     -2876.158 5        32.898                                                                    24565167.922 6 102205529.32806     -2236.798 6        37.512
E30        10.000    28363625.273 6 149051890.06006      2615.023 6        38.312                                                                    28363640.034 6 111305059.12006      1952.896 6        40.462    28363638.123 6 114208661.86306      2003.698 6        40.896
C26        11.000                                                                                                                                    22167046.171 8 115429647.83308       801.380 8        50.039                                                                    22167048.575 8  93796062.79308       651.255 8        49.023
S27        12.000    39231834.023 6 206164485.58406      -487.700 6        36.344
G15        13.000    20329853.994 8 106834048.25208       309.803 8        48.851                                    20329854.005 8  83247279.87308       241.406 8        49.465    20329854.408 7  83247271.87507       241.365 7        45.744
S36        14.000    38286541.595 7 201197558.97007      -455.496 7        44.155
R11        16.000    20536809.496 8 109742437.67108     -3187.122 8        50.251                                                                    20536813.791 7  85355215.08207     -2478.906 7        46.972
S45        17.000    63469193.319 6 333534383.72806      -505.012 6        36.219
R03        18.000    23113850.627 7 123730188.50307      3648.090 7        46.047                                                                    23113856.609 6  96234589.33406      2837.390 6        41.585
E24        19.000    28135250.847 6 147851538.22906     -3311.551 6        37.837                                                                    28135265.470 6 110408570.15706     -2473.048 6        40.882    28135263.101 6 113288796.98506     -2537.398 6        41.423
E33        20.000    28685757.472 5 150744657.62905      -187.686 5        34.814                                                                    28685762.964 6 112569078.02706      -140.157 6        39.643    28685761.847 6 115505658.79906      -143.867 6        39.889
G30        21.000    23366912.200 6 122793813.93206     -3245.497 6        41.735                                    23366920.571 6  95683458.51906     -2528.953 6        38.667    23366920.751 6  95683462.50806     -2529.053 6        39.961
I06        22.000    38210090.801 7 149944680.51907      -431.698 7        43.052
S28        23.000    40962589.706 5 215259607.91205      -464.773 5        34.710
G14        24.000    21113833.067 7 110953917.53707     -2186.118 7        46.647                                    21113834.889 6  86457593.22006     -1703.464 6        37.800    21113834.901 7  86457595.20707     -1703.411 7        46.708
S23        25.000    38219156.528 7 200842930.95707      -456.189 7        44.187
E08        26.000    23902620.326 8 125609060.51308       659.174 8        48.206                                                                    23902623.369 8  93798955.52608       492.227 8        50.608    23902622.430 8  96245884.37408       505.058 8        50.975
C07        27.000                                                                                                                                    38879687.185 6 202456707.47006      -446.291 6        40.670    38879689.321 7 156552373.87307      -345.127 7        44.236    38879686.261 6 164512651.79106      -362.662 6        41.237
G13        28.000    20130652.280 8 105787240.78308     -1595.438 8        48.800                                    20130651.641 6  82431582.10306     -1243.200 6        40.601
I02        29.000    37284040.870 7 146310584.88207         6.442 7        42.237
E07        31.000    27643755.173 6 145268833.34706      2324.180 6        38.589                                                                    27643764.253 6 108479967.88006      1735.663 6        41.201    27643763.072 7 111309878.38607      1780.872 7        42.080
E03        32.000    24069166.623 7 126484264.14307     -2062.852 7        47.963                                                                    24069172.227 8  94452530.97408     -1540.443 8        50.143    24069171.294 8  96916506.57408     -1580.611 8        50.740
G05        33.000    24075115.137 6 126515444.46406     -4014.381 6        41.619                                    24075120.819 5  98583420.76605     -3128.078 5        35.676    24075120.905 6  98583423.76106     -3128.260 6        38.243
E26        34.000    28878677.915 6 151758419.13906     -2132.073 6        36.189                                                                    28878681.128 6 113326078.85606     -1592.067 6        37.255    28878679.983 6 116282406.80406     -1633.348 6        38.468
C36        35.000                                                                                                                                    26440161.082 6 137680603.19506     -3436.689 6        39.604                                                                    26440178.080 6 111876736.33606     -2792.794 6        39.910
G23        36.000    23422235.542 7 123084596.82907       933.792 7        42.161                                    23422238.917 4  95910038.47604       727.628 4        27.892    23422239.194 6  95910039.47006       727.611 6        41.955
I09        38.000    40603682.302 6 159337229.43706      -991.260 6        37.928
C33        39.000                                                                                                                                    25932330.407 6 135036447.20906      2429.306 6        41.409                                                                    25932348.418 7 109728247.67307      1973.914 7        42.618
E25        40.000    23978960.685 7 126010274.07407     -1558.496 7        47.279                                                                    23978966.562 8  94098579.64108     -1163.758 8        50.055    23978965.613 8  96553317.81008     -1194.128 8        50.743
S44        42.000    40962170.339 6 215257631.94106      -440.079 6        36.333
C09        43.000                                                                                                                                    41376309.667 5 215457080.79205     -1073.098 5        34.476    41376321.819 6 166605010.07306      -829.876 6        40.765    41376316.097 5 175076457.36505      -871.969 5        35.762
C05        44.000                                                                                                                                    39469069.992 6 205525666.26806      -504.720 6        37.841    39469075.208 7 158925461.75307      -390.292 7        42.480    39469075.010 6 167006506.56206      -409.937 6        39.754
C40        45.000                                                                                                                                    38891149.584 7 202516401.39807      -527.549 7        43.602                                                                    38891154.072 7 164561175.88007      -428.756 7        42.817
C21        46.000                                                                                                                                    23501535.381 8 122378569.50408     -3121.299 8        49.140                                                                    23501534.492 8  99442565.19308     -2536.316 8        48.131
R20        47.000    23441649.530 5 125353053.82905       772.198 5        31.275                                                                    23441661.946 6  97496877.72006       600.704 6        40.484
C10        49.000                                                                                                                                    38668787.988 6 201358538.60306       -60.389 6        41.178    38668792.661 7 155703211.65307       -46.677 7        44.272    38668788.917 6 163620310.57506       -49.143 6        41.092
C42        50.000                                                                                                                                    22681975.651 8 118110935.65208      -196.884 8        49.566                                                                    22681986.794 8  95974833.45208      -160.023 8        49.598
S48        51.000    77229013.773 6 405840826.37406      -445.468 6        38.042
E02        53.000    23999444.792 8 126118018.27908      1298.638 8        48.311                                                                    23999449.443 8  94179117.02208       969.751 8        50.083    23999448.303 8  96635945.02608       995.066 8        50.509
C60        54.000                                                                                                                                    40962172.555 6 213300761.77506      -435.886 6        39.456                                                                    40962167.464 6 173324263.90306      -354.088 6        38.075
C45        55.000                                                                                                                                    22561425.792 8 117483200.90208     -2231.328 8        48.672                                                                    22561421.659 8  95464684.35608     -1813.168 8        49.622
R12        56.000    19649355.953 8 104963430.80508       870.572 8        52.211                                                                    19649359.900 7  81638263.85607       677.094 7        47.757
C02        57.000                                                                                                                                    41036873.631 5 213689590.05005      -485.374 5        30.928    41036881.610 6 165238281.09006      -375.288 6        36.582    41036881.364 5 173640251.93005      -394.462 5        30.589
I03        58.000   123705748.243 6 409662377.91606       910.578 6        39.063
C14        59.000                                                                                                                                    23883718.067 7 124368724.55207      1372.475 7        44.328    23883719.972 8  96169759.38908      1061.214 8        49.504    23883717.276 7 101059747.53507      1115.109 7        46.392
R13        60.000    22822228.873 6 121869457.10606      3103.623 6        39.357
> 2025 01 01 09 30 10.0000000  0 54
G19         1.000    24268410.493 6 127531419.36206      2917.614 6        40.901                                    24268417.226 4  99375195.94104      2273.455 4        26.731
R01         2.000    20319880.707 8 108621317.62908     -3507.472 8        48.340                                                                    20319885.366 6  84483294.86806     -2728.044 6        41.232
G24         3.000    22761253.146 7 119611190.99307      2615.669 7        42.955                                    22761258.409 6  93203553.24606      2038.181 6        39.592    22761258.997 6  93203550.25606      2038.304 6        40.353
R02         4.000    19639144.585 8 104798188.77308       714.057 8        52.720                                                                    19639147.619 7  81509704.53807       555.337 7        46.805
S21         5.000    38516707.053 7 202406406.60207      -454.743 7        42.004
E05         6.000    26575912.959 5 139657150.24505     -3369.046 5        34.095                                                                    26575931.707 6 104289383.77706     -2515.798 6        37.074    26575929.917 6 107009977.33906     -2581.541 6        38.498
G17         7.000    22781576.175 7 119718126.66207      1568.729 7        44.548                                    22781579.967 6  93286934.48906      1222.377 6        40.765    22781580.354 6  93286930.50506      1222.435 6        40.698
R21         8.000    24349865.663 6 130301056.01406      3031.926 6        41.404                                                                    24349878.340 6 101345329.11406      2358.219 6        38.216
R19         9.000    24567852.586 5 131421412.34105     -2879.412 5        32.766                                                                    24567858.655 6 102216719.70006     -2239.708 6        37.603
E30        10.000    28361136.949 6 149038814.76906      2614.482 6        38.243                                                                    28361152.028 6 111295295.07706      1952.499 6        40.491    28361149.933 6 114198643.11606      2003.391 6        40.787
C26        11.000                                                                                                                                    22166277.342 8 115425644.53708       799.624 8        49.826                                                                    22166279.760 8  93792809.79408       649.833 8        48.977
S27        12.000    39232300.861 6 206166924.46506      -488.251 6        36.102
G15        13.000    20329560.694 8 106832507.49608       306.277 8        49.067                                    20329560.805 8  83246079.28508       238.656 8        49.400    20329561.080 7  83246071.28207       238.654 7        45.354
S36        14.000    38286973.755 7 201199835.82807      -455.556 7        43.884
R11        16.000    20539792.369 8 109758377.43008     -3189.092 8        50.110                                                                    20539796.727 7  85367612.64707     -2480.448 7        47.085
S45        17.000    63469628.412 5 333535308.81215      -505.408 5        35.967
R03        18.000    23110443.236 7 123711950.43007      3646.821 7        44.951                                                                    23110448.946 6  96220404.14506      2836.465 6        41.044
E24        19.000    28138402.179 6 147868096.60506     -3312.114 6        37.217                                                                    28138416.363 6 110420935.14106     -2473.457 6        40.553    28138414.213 6 113301484.53406     -2537.838 6        41.442
E33        20.000    28685936.754 5 150745601.04505      -190.285 5        34.233                                                                    28685942.580 6 112569782.52706      -141.878 6        39.204    28685941.174 6 115506381.67806      -145.824 6        39.592
G30        21.000    23370000.419 7 122810042.72807     -3246.299 7        42.246                                    23370008.906 6  95696104.29906     -2529.575 6        38.586    23370009.117 6  95696108.27906     -2529.528 6        39.799
I06        22.000    38210640.764 7 149946838.49307      -431.659 7        43.151
S28        23.000    40963024.620 5 215261931.75205      -464.856 5        34.552
G14        24.000    21115914.718 7 110964853.35707     -2188.602 7        46.954                                    21115915.960 6  86466114.62206     -1705.401 6        37.777    21115916.163 7  86466116.61607     -1705.393 7        46.558
S23        25.000    38219590.794 7 200845211.32607      -456.367 7        44.003
E08        26.000    23901993.645 8 125605768.13608       657.419 8        48.196                                                                    23901996.816 8  93796496.93508       490.965 8        50.586    23901995.928 8  96243361.64408       503.775 8        50.990
C07        27.000                                                                                                                                    38880116.626 6 202458940.29106      -447.047 6        40.687    38880118.296 7 156554100.42607      -345.855 7        44.200    38880115.061 6 164514466.15006      -363.418 6        41.380
G13        28.000    20132171.554 8 105795224.62908     -1598.382 8        48.884                                    20132170.906 6  82437803.27506     -1245.491 6        40.605
I02        29.000    37284032.888 7 146310552.21607         6.241 7        42.267
E07        31.000    27641544.202 6 145257212.57706      2323.686 6        38.081                                                                    27641553.107 6 108471289.99806      1735.318 6        41.073    27641551.650 7 111300974.13107      1780.691 7        42.146
E03        32.000    24071130.170 7 126494582.14107     -2064.679 7        47.962                                                                    24071135.718 8  94460235.96308     -1541.780 8        50.094    24071134.732 8  96924412.55908     -1581.976 8        50.790
G05        33.000    24078934.511 7 126535517.56407     -4015.142 7        42.421                                    24078940.572 5  98599062.10005     -3128.674 5        35.576    24078941.102 6  98599065.08606     -3128.748 6        38.183
E26        34.000    28880707.040 5 151769083.06505     -2133.824 5        34.905                                                                    28880710.236 6 113334042.18906     -1593.607 6        37.482    28880709.094 6 116290577.87306     -1634.980 6        38.039
C36        35.000                                                                                                                                    26443460.730 6 137697786.43006     -3436.844 6        39.426                                                                    26443478.012 6 111890699.07706     -2792.661 6        39.658
G23        36.000    23421349.117 6 123079935.13206       930.539 6        41.890                                    23421351.912 4  95906405.98004       725.092 4        27.880    23421351.936 7  95906406.98307       725.035 7        42.305
I09        38.000    40604945.570 6 159342186.06006      -991.318 6        37.853
C33        39.000                                                                                                                                    25929998.587 6 135024303.20406      2427.848 6        41.473                                                                    25930016.651 7 109718379.63107      1972.951 7        42.770
E25        40.000    23980444.352 7 126018070.47807     -1560.450 7        47.106                                                                    23980450.179 8  94104401.61808     -1165.253 8        50.020    23980449.181 8  96559291.66308     -1195.663 8        50.773
S44        42.000    40962586.942 6 215259830.69706      -439.918 6        36.174
C09        43.000                                                                                                                                    41377339.874 5 215462446.47705     -1073.423 5        34.386    41377352.049 6 166609159.17006      -829.891 6        40.515    41377346.854 5 175080817.42205      -872.088 5        35.686
C05        44.000                                                                                                                                    39469554.335 6 205528189.37706      -504.776 6        37.868    39469559.551 7 158927412.75707      -390.266 7        42.155    39469559.676 6 167008556.79106      -410.047 6        39.658
C40        45.000                                                                                                                                    38891656.125 7 202519041.04007      -528.558 7        43.718                                                                    38891661.006 7 164563320.78007      -429.354 7        42.756
C21        46.000                                                                                                                                    23504533.535 8 122394180.29508     -3123.284 8        49.029                                                                    23504532.396 8  99455250.22008     -2537.818 8        48.141
R20        47.000    23440928.782 5 125349201.85005       768.460 5        31.517                                                                    23440942.263 6  97493881.74106       597.486 6        40.021
C10        49.000                                                                                                                                    38668846.283 6 201358841.67906       -61.170 6        40.894    38668850.886 7 155703446.01007       -47.273 7        44.057    38668847.063 6 163620556.84206       -49.439 6        41.092
C42        50.000                                                                                                                                    22682166.115 8 118111926.75508      -199.836 8        49.408                                                                    22682177.140 8  95975638.79308      -162.255 8        49.569
S48        51.000    77229443.469 6 405843053.40706      -445.625 6        37.788
E02        53.000    23998209.912 8 126111529.12708      1296.726 8        48.356                                                                    23998214.523 8  94174271.22808       968.354 8        50.029    23998213.444 8  96630972.82008       993.594 8        50.499
C60        54.000                                                                                                                                    40962590.996 6 213302940.56806      -436.022 6        39.306                                                                    40962585.990 6 173326034.34206      -354.114 6        38.120
C45        55.000                                                                                                                                    22563568.570 8 117494360.48608     -2232.780 8        48.381                                                                    22563564.770 8  95473752.41508     -1814.229 8        49.593
R12        56.000    19648542.426 8 104959085.08308       867.466 8        51.944                                                                    19648546.338 7  81634883.84507       674.724 7        47.442
C02        57.000                                                                                                                                    41037339.560 5 213692015.93805      -485.403 5        31.253    41037347.942 6 165240156.97106      -375.423 6        36.526    41037346.860 5 173642223.14805      -394.194 5        30.838
I03        58.000   123704587.686 6 409657824.32606       910.538 6        39.036
C14        59.000                                                                                                                                    23882401.966 7 124361867.96107      1369.959 7        44.417    23882403.701 8  96164457.42708      1059.335 8        49.269    23882400.443 7 101054175.97907      1113.342 7        46.459
R13        60.000    22819322.393 6 121853941.81406      3102.241 6        40.210
> 2025 01 01 09 30 15.0000000  0 54
G19         1.000    24265634.172 6 127516831.11806      2917.381 6        40.422                                    24265641.015 4  99363828.59404      2273.266 4        26.659
R01         2.000    20323162.632 8 108638861.99108     -3510.484 8        48.920                                                                    20323167.736 6  84496940.46706     -2730.377 6        41.776
G24         3.000    22758764.929 7 119598114.08007      2614.820 7        42.663                                    22758769.955 6  93193363.45206      2037.524 6        39.664    22758770.341 6  93193360.45506      2037.539 6        40.462
R02         4.000    19638477.877 8 104794627.96908       710.102 8        52.893                                                                    19638480.525 7  81506935.02407       552.316 7        47.211
S21         5.000    38517138.229 7 202408679.22607      -454.518 7        42.009
E05         6.000    26579118.161 5 139673995.96905     -3369.364 5        34.062                                                                    26579137.220 6 104301963.33906     -2516.025 6        36.987    26579135.383 6 107022885.08606     -2581.889 6        38.550
G17         7.000    22780084.289 7 119710287.72507      1566.582 7        44.790                                    22780088.126 6  93280826.26806      1220.703 6        40.753    22780089.202 6  93280822.28606      1220.818 6        40.789
R21         8.000    24347033.474 6 130285899.68106      3030.540 6        41.719                                                                    24347045.773 6 101333540.82206      2357.084 6        38.123
R19         9.000    24570545.406 5 131435815.95005     -2882.359 5        32.431                                                                    24570549.374 6 102227922.53606     -2241.869 6        37.112
E30        10.000    28358649.259 6 149025741.25706      2614.482 6        37.822                                                                    28358664.350 6 111285532.36906      1952.457 6        40.677    28358662.148 6 114188625.72606      2003.414 6        40.725
C26        11.000                                                                                                                                    22165510.248 8 115421649.82608       798.070 8        49.999                                                                    22165512.636 8  93789563.77108       648.410 8        49.166
S27        12.000    39232759.909 6 206169363.08606      -487.817 6        36.181
G15        13.000    20329271.085 8 106830983.64408       303.048 8        48.810                                    20329270.812 8  83244891.86808       236.140 8        49.407    20329270.915 7  83244883.87107       236.082 7        45.270
S36        14.000    38287409.059 7 201202113.31007      -455.502 7        43.862
R11        16.000    20542776.626 8 109774326.02608     -3190.632 8        49.285                                                                    20542781.211 7  85380017.06707     -2481.604 7        47.146
S45        17.000    63470062.956 6 333537834.03006      -505.148 6        36.068
R03        18.000    23107036.591 7 123693718.36507      3645.786 7        45.580                                                                    23107043.181 6  96206223.63706      2835.602 6        40.794
E24        19.000    28141553.684 6 147884657.09706     -3312.232 6        37.108                                                                    28141567.713 6 110433301.67506     -2473.568 6        40.746    28141565.402 6 113314173.68806     -2538.076 6        41.061
E33        20.000    28686118.767 5 150746556.75605      -192.256 5        34.324                                                                    28686124.331 6 112570496.19106      -143.668 6        39.276    28686122.988 6 115507113.95906      -147.397 6        39.435
G30        21.000    23373089.266 7 122826275.37307     -3246.796 7        42.231                                    23373097.903 6  95708753.08006     -2529.967 6        38.538    23373098.229 6  95708757.08106     -2530.069 6        40.048
I06        22.000    38211190.575 7 149948996.64607      -431.674 7        42.861
S28        23.000    40963468.219 5 215264255.43105      -464.801 5        34.705
G14        24.000    21117997.625 7 110975801.21807     -2190.779 7        46.867                                    21117999.266 6  86474645.40806     -1707.098 6        37.796    21117999.532 7  86474647.40407     -1707.133 7        46.632
S23        25.000    38220023.817 7 200847491.91107      -456.118 7        44.008
E08        26.000    23901368.501 8 125602483.91908       656.030 8        48.275                                                                    23901371.906 8  93794044.43208       489.911 8        50.671    23901370.913 8  96240845.16508       502.656 8        51.020
C07        27.000                                                                                                                                    38880545.916 6 202461176.95406      -447.791 6        40.420    38880547.795 7 156555829.96107      -346.215 7        44.215    38880544.537 6 164516283.61106      -363.969 6        41.430
G13        28.000    20133693.393 8 105803222.46308     -1600.970 8        48.807                                    20133692.867 6  82444035.34906     -1247.507 6        40.541
I02        29.000    37284024.982 7 146310520.93807         6.166 7        42.241
E07        31.000    27639333.066 6 145245593.11806      2323.717 6        38.595                                                                    27639342.209 6 108462613.08106      1735.289 6        41.344    27639340.683 7 111292070.86807      1780.497 7        42.315
E03        32.000    24073095.326 8 126504908.44408     -2066.097 8        48.108                                                                    24073100.768 8  94467947.14908     -1542.904 8        50.130    24073099.805 8  96932324.91308     -1583.152 8        50.838
G05        33.000    24082755.047 7 126555593.87807     -4015.541 7        42.627                                    24082761.060 5  98614705.94305     -3128.990 5        35.757    24082761.789 6  98614708.93406     -3128.992 6        38.691
E26        34.000    28882737.952 5 151779756.02905     -2135.352 5        34.286                                                                    28882741.204 6 113342012.23706     -1594.583 6        37.134    28882739.981 6 116298755.84706     -1636.154 6        38.156
C36        35.000                                                                                                                                    26446760.271 6 137714969.51006     -3436.547 6        39.222                                                                    26446777.991 6 111904661.71106     -2792.581 6        39.952
G23        36.000    23420464.472 6 123075289.26606       927.542 6        41.402                                    23420467.832 4  95902785.82004       722.753 4        27.665    23420467.931 6  95902786.81806       722.674 6        41.554
I09        38.000    40606208.492 6 159347142.49006      -991.392 6        37.750
C33        39.000                                                                                                                                    25927667.717 6 135012166.07006      2426.736 6        40.999                                                                    25927685.973 7 109708517.18407      1971.842 7        43.111
E25        40.000    23981929.588 7 126025876.20007     -1562.108 7        47.310                                                                    23981935.550 8  94110230.55708     -1166.526 8        50.067    23981934.567 8  96565272.66208     -1196.920 8        50.866
S44        42.000    40963007.302 6 215262029.42806      -439.825 6        36.382
C09        43.000                                                                                                                                    41378370.271 5 215467812.47705     -1073.118 5        34.581    41378382.208 6 166613308.54106      -830.046 6        40.284    41378377.140 6 175085177.75406      -872.125 6        36.004
C05        44.000                                                                                                                                    39470038.402 6 205530712.50806      -504.652 6        37.754    39470044.244 7 158929363.80207      -390.173 7        42.267    39470044.324 6 167010607.04606      -410.120 6        39.943
C40        45.000                                                                                                                                    38892164.088 7 202521685.44907      -529.269 7        43.879                                                                    38892168.848 7 164565469.56407      -430.235 7        42.900
C21        46.000                                                                                                                                    23507533.044 8 122409800.41308     -3124.981 8        49.241                                                                    23507532.037 8  99467942.83808     -2539.402 8        48.223
R20        47.000    23440211.606 5 125345370.12305       764.343 5        32.898                                                                    23440225.507 6  97490901.47906       594.474 6        40.379
C10        49.000                                                                                                                                    38668905.397 6 201359148.42706       -61.793 6        41.089    38668909.631 7 155703683.23607       -47.807 7        44.059    38668905.998 6 163620806.14406       -50.403 6        41.297
C42        50.000                                                                                                                                    22682359.055 8 118112932.26008      -202.542 8        49.414                                                                    22682370.245 8  95976455.85108      -164.678 8        49.689
S48        51.000    77229869.378 6 405845280.34606      -445.323 6        37.951
E02        53.000    23996976.850 8 126105048.99708      1295.118 8        48.373                                                                    23996981.391 8  94169432.17608       967.088 8        50.105    23996980.325 8  96626007.52908       992.363 8        50.588
C60        54.000                                                                                                                                    40963009.370 6 213305119.31106      -435.840 6        39.523                                                                    40963004.341 6 173327804.76706      -354.363 6        38.171
C45        55.000                                                                                                                                    22565712.643 8 117505526.63008     -2233.913 8        48.431                                                                    22565709.153 8  95482825.81208     -1815.347 8        49.784
R12        56.000    19647731.679 8 104954754.23608       864.633 8        52.273                                                                    19647735.604 7  81631515.42207       672.534 7        47.585
C02        57.000                                                                                                                                    41037805.924 5 213694441.71805      -484.837 5        31.026    41037813.228 6 165242032.78006      -375.093 6        36.646    41037813.004 5 173644194.35505      -394.082 5        30.838
I03        58.000   123703426.944 6 409653270.64406       910.779 6        39.048
C14        59.000                                                                                                                                    23881087.746 7 124355023.04207      1367.826 7        44.214    23881088.811 8  96159164.50808      1057.695 8        48.971    23881085.970 7 101048613.94207      1111.346 7        46.544
R13        60.000    22816420.018 6 121838433.28906      3101.129 6        40.336
> 2025 01 01 09 30 20.0000000  0 54
G19         1.000    24262858.824 6 127502245.38906      2916.799 6        40.143                                    24262865.282 4  99352463.20304      2272.812 4        26.659
R01         2.000    20326448.010 8 108656422.99708     -3513.900 8        48.400                                                                    20326453.014 6  84510598.99306     -2733.012 6        41.924
G24         3.000    22756277.326 7 119585042.77407      2613.709 7        42.015                                    22756282.553 6  93183178.02506      2036.654 6        39.610    22756283.025 6  93183175.03106      2036.698 6        40.276
R02         4.000    19637813.955 8 104791088.16208       705.836 8        52.340                                                                    19637817.362 7  81504181.84807       549.004 7        46.971
S21         5.000    38517570.045 7 202410952.35107      -454.559 7        42.138
E05         6.000    26582324.566 5 139690844.32705     -3369.839 5        33.701                                                                    26582343.387 6 104314544.89306     -2516.548 6        37.130    26582341.653 6 107035794.84806     -2582.271 6        38.426
G17         7.000    22778594.869 7 119702460.79307      1564.211 7        45.141                                    22778598.606 6  93274727.40906      1218.858 6        40.944    22778599.414 6  93274723.43106      1218.776 6        40.644
R21         8.000    24344202.227 6 130270750.75906      3028.936 6        41.380                                                                    24344215.336 6 101321758.27906      2356.084 6        38.189
R19         9.000    24573241.195 5 131450236.15205     -2885.623 5        32.120                                                                    24573245.383 6 102239138.30006     -2244.584 6        37.210
E30        10.000    28356162.030 6 149012669.95406      2613.976 6        37.539                                                                    28356177.024 6 111275771.32506      1951.961 6        40.872    28356174.875 6 114178610.04306      2002.969 6        40.346
C26        11.000                                                                                                                                    22164744.948 8 115417664.11108       796.219 8        50.035                                                                    22164747.233 8  93786325.04608       646.951 8        49.292
S27        12.000    39233222.310 6 206171802.43706      -488.048 6        36.355
G15        13.000    20328984.073 8 106829477.08108       299.629 8        48.764                                    20328984.109 8  83243717.92608       233.480 8        49.394    20328984.375 7  83243709.92307       233.480 7        45.258
S36        14.000    38287842.001 7 201204391.31407      -455.640 7        43.907
R11        16.000    20545762.895 8 109790283.77208     -3192.471 8        49.495                                                                    20545767.318 7  85392428.62607     -2482.982 7        46.897
S45        17.000    63470497.521 6 333540359.68606      -505.026 6        36.151
R03        18.000    23103633.225 7 123675492.88507      3644.465 7        45.914                                                                    23103639.112 6  96192048.24106      2834.643 6        41.669
E24        19.000    28144705.473 6 147901220.06306     -3312.708 6        37.036                                                                    28144719.897 6 110445670.06306     -2473.896 6        40.682    28144717.208 6 113326864.73206     -2538.296 6        40.768
E33        20.000    28686303.550 5 150747525.16905      -194.826 5        34.200                                                                    28686308.780 6 112571219.34606      -145.559 6        39.501    28686307.478 6 115507855.98206      -149.409 6        39.703
G30        21.000    23376179.139 7 122842512.27307     -3247.813 7        42.080                                    23376187.736 6  95721405.17606     -2530.757 6        38.501    23376187.767 6  95721409.17306     -2530.812 6        39.793
I06        22.000    38211741.068 7 149951155.29207      -431.879 7        42.984
S28        23.000    40963911.862 5 215266579.67605      -464.857 5        34.533
G14        24.000    21120083.236 7 110986761.49507     -2193.303 7        47.066                                    21120084.930 6  86483185.86806     -1709.065 6        37.732    21120085.116 7  86483187.85807     -1709.038 7        46.967
S23        25.000    38220458.347 7 200849773.05307      -456.306 7        44.006
E08        26.000    23900745.175 8 125599208.26708       654.309 8        48.170                                                                    23900748.490 8  93791598.33608       488.539 8        50.730    23900747.603 8  96238335.25108       501.354 8        50.885
C07        27.000                                                                                                                                    38880975.571 6 202463417.77706      -448.565 6        40.350    38880978.059 7 156557562.72307      -346.871 7        44.176    38880974.801 6 164518104.47606      -364.471 6        41.428
G13        28.000    20135218.107 8 105811234.67408     -1603.870 8        48.772                                    20135217.570 6  82450278.62206     -1249.766 6        40.524
I02        29.000    37284017.551 7 146310491.53007         5.813 7        42.307
E07        31.000    27637122.204 6 145233975.34306      2323.426 6        38.844                                                                    27637131.473 6 108453937.43606      1734.982 6        41.640    27637129.816 7 111283168.89307      1780.353 7        42.150
