     3.04           OBSERVATION DATA    M                   RINEX VERSION / TYPE
ssrcrin-15.6.1x                         20250101 191500 UTC PGM / RUN BY / DATE 
(00000000023479385599111004) Septentrio proprietary         COMMENT             
rref                                                        MARKER NAME         
01                                                          MARKER NUMBER       
geodetic                                                    MARKER TYPE         
NFB                 CLIMERS@TUW                             OBSERVER / AGENCY   
3297213             SEPT ASTERX SB3 PROB4.14.4              REC # / TYPE / VERS 
Unknown             Unknown                                 ANT # / TYPE        
  4127831.6412  1207192.9127  4695247.9803                  APPROX POSITION XYZ 
        0.0000        0.0000        0.0000                  ANTENNA: DELTA H/E/N
G   23 X1  C1C L1C D1C S1C C1W S1W C2W L2W D2W S2W C2L L2L  SYS / # / OBS TYPES 
       D2L S2L C5Q L5Q D5Q S5Q C1L L1L D1L S1L              SYS / # / OBS TYPES 
E   21 X1  C1C L1C D1C S1C C6C L6C D6C S6C C5Q L5Q D5Q S5Q  SYS / # / OBS TYPES 
       C7Q L7Q D7Q S7Q C8Q L8Q D8Q S8Q                      SYS / # / OBS TYPES 
S    9 X1  C1C L1C D1C S1C C5I L5I D5I S5I                  SYS / # / OBS TYPES 
R   17 X1  C1C L1C D1C S1C C2P L2P D2P S2P C2C L2C D2C S2C  SYS / # / OBS TYPES 
       C3Q L3Q D3Q S3Q                                      SYS / # / OBS TYPES 
C   25 X1  C1P L1P D1P S1P C5P L5P D5P S5P C2I L2I D2I S2I  SYS / # / OBS TYPES 
       C7I L7I D7I S7I C6I L6I D6I S6I C7D L7D D7D S7D      SYS / # / OBS TYPES 
J   17 X1  C1C L1C D1C S1C C2L L2L D2L S2L C5Q L5Q D5Q S5Q  SYS / # / OBS TYPES 
       C1L L1L D1L S1L                                      SYS / # / OBS TYPES 
I    5 X1  C5A L5A D5A S5A                                  SYS / # / OBS TYPES 
SEPTENTRIO RECEIVERS OUTPUT ALIGNED CARRIER PHASES.         COMMENT             
NO FURTHER PHASE SHIFT APPLIED IN THE RINEX ENCODER.        COMMENT             
G L1C                                                       SYS / PHASE SHIFT   
G L2W                                                       SYS / PHASE SHIFT   
G L2L  0.00000                                              SYS / PHASE SHIFT   
G L5Q  0.00000                                              SYS / PHASE SHIFT   
G L1L  0.00000                                              SYS / PHASE SHIFT   
E L1C  0.00000                                              SYS / PHASE SHIFT   
E L6C  0.00000                                              SYS / PHASE SHIFT   
E L5Q  0.00000                                              SYS / PHASE SHIFT   
E L7Q  0.00000                                              SYS / PHASE SHIFT   
E L8Q  0.00000                                              SYS / PHASE SHIFT   
S L1C                                                       SYS / PHASE SHIFT   
S L5I                                                       SYS / PHASE SHIFT   
R L1C                                                       SYS / PHASE SHIFT   
R L2P  0.00000                                              SYS / PHASE SHIFT   
R L2C                                                       SYS / PHASE SHIFT   
R L3Q  0.00000                                              SYS / PHASE SHIFT   
C L1P  0.00000                                              SYS / PHASE SHIFT   
C L5P  0.00000                                              SYS / PHASE SHIFT   
C L2I                                                       SYS / PHASE SHIFT   
C L7I                                                       SYS / PHASE SHIFT   
C L6I                                                       SYS / PHASE SHIFT   
C L7D                                                       SYS / PHASE SHIFT   
J L1C                                                       SYS / PHASE SHIFT   
J L2L  0.00000                                              SYS / PHASE SHIFT   
J L5Q  0.00000                                              SYS / PHASE SHIFT   
J L1L  0.00000                                              SYS / PHASE SHIFT   
I L5A                                                       SYS / PHASE SHIFT   
  2025     1     1    19    15    0.0000000     GPS         TIME OF FIRST OBS   
 C1C    0.000 C2C    0.000 C2P    0.000                     GLONASS COD/PHS/BIS 
DBHZ                                                        SIGNAL STRENGTH UNIT
    18                                                      LEAP SECONDS        
 24 R01  1 R02 -4 R03  5 R04  6 R05  1 R06 -4 R07  5 R08  6 GLONASS SLOT / FRQ #
    R09 -2 R10 -7 R11  0 R12 -1 R13 -2 R14 -7 R15  0 R16 -1 GLONASS SLOT / FRQ #
    R17  4 R18 -3 R19  3 R20  2 R21  4 R22 -3 R23  3 R24  2 GLONASS SLOT / FRQ #
                                                            END OF HEADER       
> 2025 01 01 19 15  0.0000000  0 55
G10         1.000    22698504.015 7 119281531.17507      2595.784 7        46.298                                    22698502.629 7  92946706.29807      2022.690 7        44.605    22698503.208 6  92946683.31006      2022.697 6        41.938
G15         2.000    23862725.977 6 125399496.61206       623.983 6        39.664                                    23862722.632 5  97713886.08505       486.226 5        33.389    23862722.826 6  97713889.09706       486.096 6        37.682
C33         3.000                                                                                                                                    25679888.301 7 133721926.41707      2743.374 7        42.030                                                                    25679901.392 7 108660073.23107      2229.344 7        43.215
G29         4.000    25071719.441 6 131753118.09106     -3816.901 6        37.512                                    25071716.565 4 102664927.13204     -2974.211 4        29.280    25071717.232 5 102664930.12205     -2974.325 5        34.705
S21         5.000    38448772.482 7 202049407.53607      -536.902 7        42.370
E13         6.000    23235608.650 8 122104295.69008      -708.790 8        48.449                                                                    23235608.364 8  91181987.39408      -529.283 8        50.746    23235607.991 8  93560617.40108      -543.043 8        51.094
G23         7.000    21001963.823 8 110366188.23608       448.619 8        48.257                                    21001960.250 6  85999664.42906       349.576 6        39.574    21001960.312 7  85999663.42807       349.505 7        46.887
E15         8.000    25791214.828 7 135534069.79407     -2899.709 7        42.815                                                                    25791214.859 7 101210678.09707     -2165.379 7        45.779    25791214.468 7 103850932.65107     -2221.950 7        46.626
E05         9.000    27030102.195 5 142044148.27305      -834.472 5        35.243                                                                    27030103.912 6 106071936.07406      -623.346 6        40.656    27030103.454 6 108839031.69106      -639.664 6        41.118
G07        10.000    25237818.782 6 132625660.77406       262.874 6        39.649                                    25237814.611 5 103344661.05205       204.843 5        31.849    25237814.939 5 103344665.05105       204.957 5        35.490
G26        11.000    21923054.977 7 115206807.29707     -3320.606 7        46.550                                    21923054.033 7  89771721.52007     -2587.481 7        45.934    21923054.166 7  89771741.52107     -2587.535 7        43.082
S27        12.000    39201229.662 5 206003852.93705      -507.631 5        35.405
R20        13.000    23741853.862 5 126958379.79805      2766.483 5        34.157                                                                    23741857.429 6  98745465.51306      2151.688 6        38.126
S36        14.000    38219132.471 7 200843424.40707      -535.835 7        43.972
G27        15.000    21020450.675 7 110463496.76207      1552.596 7        47.970                                    21020448.539 8  86075610.44708      1209.814 8        49.601    21020448.927 7  86075524.44007      1209.858 7        44.683
S45        17.000    63431347.058 6 333335092.61306      -587.242 6        37.316
G16        19.000    20623667.145 8 108378367.41208     -1368.455 8        48.912                                    20623662.207 6  84450796.76706     -1066.329 6        40.300
E21        20.000    23888231.748 8 125533885.01108     -1525.423 8        48.393                                                                    23888231.286 8  93743054.43508     -1139.099 8        50.276    23888230.874 8  96188499.98608     -1168.795 8        50.881
E26        21.000    25403144.880 7 133494767.46207      1644.627 7        44.384                                                                    25403143.757 7  99687845.15407      1228.146 7        46.776    25403143.371 7 102288373.53107      1260.142 7        47.886
I06        22.000    38690859.752 6 151831459.86706      -350.044 6        41.986
S28        23.000    40919163.875 5 215031663.85005      -529.865 5        34.352
G08        24.000    23626240.534 6 124156743.19206      2693.049 6        40.565                                    23626239.310 5  96745513.11505      2098.483 5        33.898    23626240.029 6  96745514.12706      2098.578 6        36.960
S23        25.000    38174106.711 7 200606253.30707      -536.791 7        44.685
C13        26.000                                                                                                                                    37928329.958 7 197502966.96707     -1165.405 7        44.015    37928330.877 7 152721933.79907      -901.292 7        44.954    37928329.095 7 160487426.23907      -947.038 7        42.802
G18        27.000    21693060.459 7 113998151.50507     -2784.535 7        46.214                                    21693055.985 6  88829901.52906     -2169.765 6        36.635    21693056.153 7  88829892.52307     -2169.786 7        45.258
I02        29.000    39536547.446 6 155150005.40406     -1054.987 6        40.753
C14        30.000                                                                                                                                    24479260.227 6 127469947.76206      2037.906 6        41.709    24479256.368 7  98567842.54307      1575.861 7        47.818    24479254.644 7 103579758.87907      1655.963 7        44.730
R02        31.000    22252270.246 7 118742420.25707     -1199.726 7        46.587                                                                    22252270.312 7  92355236.74907      -933.032 7        42.038
E03        32.000    28099630.799 6 147664566.16306      1198.991 6        37.074                                                                    28099631.131 6 110269007.91306       895.232 6        40.100    28099630.770 6 113145583.93806       918.561 6        40.594
R17        33.000    23572588.366 7 126142041.84307     -3932.294 7        43.757                                                                    23572587.699 6  98110642.43206     -3058.329 6        40.219
R03        34.000    22010776.328 7 117825435.96107      2295.732 7        47.990                                                                    22010776.038 7  91642026.50007      1785.504 7        44.158
R10        35.000    22223016.324 6 118461233.80006      2321.688 6        40.906
R18        36.000    20136689.004 8 107491423.85408     -2470.014 8        49.262                                                                    20136688.930 7  83604647.03007     -1921.136 7        47.003
E27        37.000    26541968.516 6 139479208.94706     -3564.196 6        41.671                                                                    26541969.596 7 104156700.54807     -2661.575 7        45.631    26541968.459 7 106873812.45007     -2731.070 7        45.378
R16        38.000    21718662.962 8 116017302.33808     -4598.305 8        48.900                                                                    21718663.503 7  90235731.09907     -3576.399 7        45.661
G13        39.000    24871615.999 6 130701209.00306         6.541 6        36.480                                    24871612.590 2 101845084.89602         5.116 2        13.091
R09        40.000    20245860.731 8 108111837.29708      -922.709 8        51.310                                                                    20245859.540 8  84087009.43508      -717.682 8        48.570
C34        41.000                                                                                                                                    25895918.391 6 134847151.45006     -3315.709 6        41.321                                                                    25895918.286 6 109574490.23706     -2694.128 6        40.124
S44        42.000    40491344.217 6 212783646.41106      -508.885 6        37.766
C38        43.000                                                                                                                                    39604136.464 6 206229287.48706     -1668.182 6        40.887                                                                    39604134.106 6 167578251.57906     -1355.417 6        40.687
C05        44.000                                                                                                                                    39286311.857 6 204574155.70406      -465.569 6        38.799    39286306.373 7 158189735.03007      -359.947 7        42.432    39286309.292 6 166233359.80506      -378.262 6        40.465
C08        45.000                                                                                                                                    38234991.302 6 199099825.91106     -1438.128 6        40.019    38234985.489 7 153956690.51607     -1112.074 7        45.276    38234984.679 6 161784969.07906     -1168.611 6        41.893
C21        46.000                                                                                                                                    25619664.716 6 133408320.18806     -1911.871 6        41.955                                                                    25619659.893 7 108405162.55207     -1553.435 7        42.406
R19        47.000    19730389.155 7 105544640.50807       182.880 7        42.976                                                                    19730387.023 7  82090443.37107       142.260 7        45.285
C43        48.000                                                                                                                                    22360640.250 8 116438045.40008     -2091.979 8        49.993                                                                    22360638.581 8  94615576.10108     -1699.884 8        49.221
C42        50.000                                                                                                                                    24104679.922 7 125519432.87907       751.086 7        46.001                                                                    24104688.034 7 101994867.71407       610.363 7        46.820
S48        51.000    77189864.866 6 405636965.72806      -575.148 6        38.006
C37        53.000                                                                                                                                    23858557.799 7 124237794.02407     -1767.093 7        46.393                                                                    23858560.458 7 100953407.70907     -1435.811 7        47.371
C60        54.000                                                                                                                                    40491347.689 6 210849268.98306      -504.242 6        39.775                                                                    40491331.799 6 171332270.40306      -409.720 6        39.327
C27        55.000                                                                                                                                    25819899.884 6 134450993.18506      2243.656 6        41.266                                                                    25819898.931 6 109252445.17906      1823.279 6        39.610
C23        56.000                                                                                                                                    25330967.965 7 131905328.27507     -3717.194 7        42.470                                                                    25330961.319 7 107183989.63307     -3020.477 7        43.968
C02        57.000                                                                                                                                    40621429.801 5 211526483.38905      -461.063 5        33.922    40621424.544 6 163565686.56506      -356.555 6        40.322    40621427.267 6 171882596.19706      -374.408 6        36.227
I03        58.000   111274124.285 6 360878311.26806      1042.003 6        40.367
C11        59.000                                                                                                                                    23893798.992 7 124421591.78407     -2855.661 7        44.354    23893795.618 8  96210818.68908     -2208.165 8        48.349    23893794.272 7 101102845.18307     -2320.458 7        45.360
C28        60.000                                                                                                                                    22359988.441 8 116434643.52708      1046.922 8        49.232                                                                    22359987.322 8  94612821.41408       850.721 8        48.083
> 2025 01 01 19 15  5.0000000  0 55
G10         1.000    22696034.841 7 119268555.67807      2594.464 7        46.488                                    22696033.529 7  92936595.52507      2021.659 7        44.629    22696034.056 7  92936572.53107      2021.648 7        42.343
G15         2.000    23862133.213 6 125396384.15406       621.168 6        39.547                                    23862130.298 5  97711460.78505       484.027 5        33.174    23862130.068 6  97711463.78906       484.098 6        37.206
C33         3.000                                                                                                                                    25677254.064 6 133708210.04806      2743.208 6        41.483                                                                    25677267.204 7 108648927.56907      2229.106 7        43.027
G29         4.000    25075351.163 6 131772203.26906     -3817.144 6        38.318                                    25075348.448 4 102679798.69004     -2974.394 4        29.289    25075348.365 5 102679801.70005     -2974.369 5        34.838
S21         5.000    38449284.765 7 202052091.63207      -536.589 7        42.028
E13         6.000    23236283.642 8 122107843.07208      -710.154 8        48.492                                                                    23236283.434 8  91184636.41508      -530.326 8        50.812    23236282.993 8  93563335.52808      -544.088 8        51.181
G23         7.000    21001538.664 8 110363953.23508       445.482 8        48.409                                    21001534.913 6  85997922.87006       347.128 6        39.444    21001534.961 7  85997921.87707       347.128 7        47.227
E15         8.000    25793973.947 7 135548569.73307     -2900.115 7        42.864                                                                    25793974.049 7 101221505.97507     -2165.813 7        45.595    25793973.813 7 103862042.98107     -2222.218 7        46.773
E05         9.000    27030897.226 5 142048326.50705      -836.717 5        35.333                                                                    27030899.005 6 106075056.11406      -624.816 6        40.989    27030898.524 6 108842233.13106      -641.002 6        41.721
G07        10.000    25237569.610 6 132624352.65406       260.335 6        38.901                                    25237565.555 5 103343641.74405       202.858 5        31.389    25237566.057 5 103343645.72805       202.944 5        35.133
G26        11.000    21926215.213 7 115223415.09707     -3322.514 7        46.869                                    21926214.437 7  89784662.66007     -2588.973 7        45.779    21926214.709 7  89784682.66107     -2588.912 7        43.706
S27        12.000    39201713.545 5 206006390.68405      -507.480 5        35.205
R20        13.000    23739267.089 5 126944550.10705      2765.624 5        33.988                                                                    23739272.032 6  98734709.09606      2151.198 6        38.363
S36        14.000    38219642.813 7 200846102.99507      -535.755 7        43.736
G27        15.000    21018974.515 8 110455738.24008      1550.913 8        48.111                                    21018972.134 8  86069564.84908      1208.503 8        49.517    21018972.534 7  86069478.85607      1208.459 7        44.916
S45        17.000    63431854.010 6 333338029.18606      -587.300 6        37.490
G16        19.000    20624970.825 8 108385218.05908     -1371.735 8        48.882                                    20624965.828 6  84456134.93006     -1068.885 6        40.164
E21        20.000    23889684.199 8 125541517.38608     -1527.453 8        48.117                                                                    23889683.668 8  93748753.93708     -1140.657 8        50.247    23889683.291 8  96194348.16908     -1170.416 8        51.025
E26        21.000    25401580.665 7 133486546.64307      1643.778 7        44.167                                                                    25401579.448 7  99681706.23907      1227.369 7        46.752    25401579.005 7 102282074.46907      1259.452 7        47.977
I06        22.000    38691306.165 7 151833210.20307      -349.992 7        42.146
S28        23.000    40919670.782 5 215034314.84505      -529.850 5        33.748
G08        24.000    23623678.450 6 124143278.89606      2692.570 6        40.555                                    23623677.142 5  96735021.47205      2098.105 5        33.742    23623678.571 6  96735022.49106      2098.060 6        37.883
S23        25.000    38174617.241 7 200608937.30807      -536.822 7        44.602
C13        26.000                                                                                                                                    37929449.171 7 197508795.43207     -1165.953 7        44.015    37929450.102 7 152726440.72107      -901.569 7        45.038    37929448.434 7 160492162.32107      -947.239 7        42.847
G18        27.000    21695710.261 7 114012077.82907     -2785.940 7        46.249                                    21695706.128 6  88840753.20506     -2170.864 6        36.499    21695706.439 7  88840744.20507     -2170.894 7        45.527
I02        29.000    39537891.681 6 155155280.02906     -1054.863 6        40.684
C14        30.000                                                                                                                                    24477303.948 6 127459762.30206      2036.386 6        41.507    24477300.424 8  98559966.50308      1574.679 8        48.047    24477298.334 7 103571482.34707      1654.947 7        44.643
R02        31.000    22253395.368 7 118748429.60807     -1203.933 7        46.259                                                                    22253396.492 7  92359910.69207      -936.379 7        42.451
E03        32.000    28098490.584 6 147658575.54006      1197.379 6        36.427                                                                    28098491.014 6 110264534.40006       894.092 6        39.898    28098490.612 6 113140993.71206       917.457 6        40.992
R17        33.000    23576262.633 7 126161703.11007     -3932.241 7        43.247                                                                    23576262.196 6  98125934.52506     -3058.348 6        39.676
R03        34.000    22008633.648 7 117813964.71207      2292.888 7        47.519                                                                    22008632.975 7  91633104.41807      1783.450 7        44.203
R10        35.000    22220839.760 6 118449633.04906      2318.604 6        40.863
R18        36.000    20139003.216 8 107503777.43808     -2471.368 8        49.424                                                                    20139003.555 7  83614255.37607     -1922.211 7        47.176
E27        37.000    26545360.065 7 139497032.05207     -3564.970 7        42.000                                                                    26545361.060 7 104170010.00407     -2662.165 7        45.377    26545359.913 7 106887469.10107     -2731.586 7        45.091
R16        38.000    21722967.908 8 116040298.38608     -4600.083 8        49.182                                                                    21722968.340 7  90253616.91007     -3577.898 7        45.007
G13        39.000    24871610.498 5 130701184.10305         3.633 5        35.871                                    24871607.805 2 101845065.49402         2.831 2        13.091
R09        40.000    20246727.081 8 108116462.22008      -927.242 8        50.758                                                                    20246725.421 8  84090606.59208      -721.170 8        48.686
C34        41.000                                                                                                                                    25899101.478 6 134863729.50906     -3315.546 6        40.851                                                                    25899101.969 6 109587961.26706     -2694.116 6        40.241
S44        42.000    40491829.598 6 212786190.65806      -508.954 6        37.353
C38        43.000                                                                                                                                    39605738.382 6 206237629.45206     -1668.535 6        41.106                                                                    39605736.080 6 167585030.10406     -1355.639 6        40.882
C05        44.000                                                                                                                                    39286758.380 6 204576483.10306      -465.398 6        38.778    39286753.446 7 158191534.72107      -359.871 7        42.451    39286756.182 6 166235251.00106      -377.989 6        40.598
C08        45.000                                                                                                                                    38236372.496 6 199107017.91706     -1438.644 6        40.012    38236366.522 7 153962251.83007     -1112.465 7        45.383    38236365.809 7 161790813.16307     -1168.767 7        42.059
C21        46.000                                                                                                                                    25621501.539 6 133417885.62106     -1914.207 6        41.869                                                                    25621496.969 7 108412935.22707     -1555.362 7        42.741
R19        47.000    19730218.536 7 105543731.26507       180.931 7        43.153                                                                    19730216.896 7  82089736.18507       140.699 7        45.123
C43        48.000                                                                                                                                    22362649.476 8 116448508.06208     -2093.030 8        49.730                                                                    22362647.859 8  94624077.85608     -1700.612 8        49.258
C42        50.000                                                                                                                                    24103959.815 7 125515683.57707       748.637 7        45.863                                                                    24103968.006 7 101991821.08807       608.448 7        46.953
S48        51.000    77190385.922 6 405638240.83116      -574.829 6        37.887
C37        53.000                                                                                                                                    23860255.407 7 124246635.28407     -1769.436 7        46.608                                                                    23860258.369 7 100960591.94707     -1437.669 7        47.530
C60        54.000                                                                                                                                    40491831.720 6 210851790.09406      -504.086 6        39.796                                                                    40491816.049 6 171334319.00906      -409.612 6        39.538
C27        55.000                                                                                                                                    25817745.559 6 134439774.83806      2243.531 6        41.347                                                                    25817744.668 6 109243329.35706      1823.319 6        39.829
C23        56.000                                                                                                                                    25334537.524 7 131923915.63707     -3717.643 7        42.559                                                                    25334530.399 7 107199093.37107     -3020.793 7        43.848
C02        57.000                                                                                                                                    40621871.986 5 211528788.20005      -460.764 5        34.076    40621867.145 6 163567468.80806      -356.375 6        40.434    40621869.801 6 171884469.06506      -374.470 6        36.125
I03        58.000   111272796.669 6 360873100.82106      1042.235 6        40.424
C11        59.000                                                                                                                                    23896541.657 7 124435871.49707     -2856.144 7        44.749    23896537.908 8  96221860.67108     -2208.569 8        48.444    23896536.631 7 101114448.61907     -2320.767 7        45.555
C28        60.000                                                                                                                                    22358983.470 8 116429411.62008      1045.879 8        49.330                                                                    22358982.577 8  94608570.04708       849.957 8        48.149
> 2025 01 01 19 15 10.0000000  0 55
G10         1.000    22693567.200 7 119255588.05807      2592.632 7        46.372                                    22693565.989 7  92926490.88407      2020.229 7        44.597    22693566.214 7  92926467.89807      2020.281 7        42.438
G15         2.000    23861544.421 6 125393286.85906       617.928 6        39.541                                    23861540.889 5  97709047.30705       481.502 5        32.778    23861540.700 6  97709050.31406       481.443 6        36.820
C33         3.000                                                                                                                                    25674620.554 6 133694495.92506      2742.554 6        41.507                                                                    25674633.612 7 108637783.74207      2228.690 7        43.075
G29         4.000    25078983.401 6 131791290.66806     -3817.885 6        38.168                                    25078980.640 4 102694671.97304     -2974.975 4        29.185    25078981.722 5 102694674.97505     -2974.913 5        34.514
S21         5.000    38449792.428 7 202054775.61507      -536.829 7        42.197
E13         6.000    23236960.011 8 122111398.15008      -711.832 8        48.397                                                                    23236959.914 8  91187291.18308      -531.576 8        50.661    23236959.475 8  93566059.55408      -545.450 8        51.200
G23         7.000    21001116.178 8 110361734.42908       442.125 8        48.099                                    21001112.671 6  85996193.92906       344.512 6        39.294    21001112.813 7  85996192.93407       344.470 7        46.960
E15         8.000    25796733.606 7 135563072.11407     -2900.803 7        42.798                                                                    25796733.779 7 101232335.67707     -2166.220 7        45.515    25796733.506 7 103873155.19807     -2222.752 7        46.720
E05         9.000    27031694.802 5 142052516.53105      -839.029 5        35.105                                                                    27031696.303 6 106078185.08906      -626.645 6        40.825    27031695.670 6 108845443.72606      -643.115 6        41.652
G07        10.000    25237323.169 6 132623057.76906       257.370 6        40.136                                    25237319.048 5 103342632.74805       200.544 5        31.064    25237320.017 5 103342636.74105       200.798 5        35.324
G26        11.000    21929377.339 7 115240032.93107     -3324.669 7        46.597                                    21929376.769 7  89797611.61807     -2590.652 7        45.676    21929376.960 7  89797631.62007     -2590.631 7        43.877
S27        12.000    39202195.711 5 206008928.31905      -507.172 5        35.467
R20        13.000    23736682.701 5 126930723.67805      2764.828 5        35.829                                                                    23736686.059 6  98723955.23206      2150.411 6        38.108
S36        14.000    38220151.397 7 200848782.03507      -535.662 7        43.805
G27        15.000    21017499.731 7 110447988.54307      1549.013 7        47.900                                    21017497.406 8  86063526.12308      1207.025 8        49.354    21017497.757 7  86063440.12307      1207.017 7        44.989
S45        17.000    63432366.632 6 333339365.64716      -587.267 6        37.157
G16        19.000    20626277.387 8 108392085.36108     -1375.196 8        48.730                                    20626272.641 6  84461486.07406     -1071.582 6        39.976
E21        20.000    23891138.698 8 125549160.79308     -1529.832 8        48.062                                                                    23891138.176 8  93754461.67308     -1142.415 8        50.114    23891137.721 8  96200204.80608     -1172.247 8        50.985
E26        21.000    25400017.399 7 133478331.19007      1642.437 7        43.797                                                                    25400015.976 7  99675571.32107      1226.579 7        46.652    25400015.655 8 102275779.50808      1258.526 8        48.021
I06        22.000    38691752.192 7 151834960.31507      -350.003 7        42.051
S28        23.000    40920174.452 5 215036966.08405      -530.352 5        34.176
G08        24.000    23621117.008 6 124129817.11306      2692.117 6        40.706                                    23621115.470 5  96724531.76905      2097.757 5        33.742    23621116.727 6  96724532.77806      2097.637 6        37.879
S23        25.000    38175128.030 7 200611621.33907      -536.805 7        44.644
C13        26.000                                                                                                                                    37930568.639 7 197514626.93007     -1166.660 7        44.018    37930570.110 7 152730949.99307      -902.169 7        45.299    37930568.369 7 160496900.90907      -948.025 7        42.946
G18        27.000    21698361.860 7 114026011.61207     -2787.527 7        46.832                                    21698357.666 6  88851610.69706     -2172.101 6        36.446    21698357.821 7  88851601.70307     -2172.177 7        45.543
I02        29.000    39539235.646 6 155160554.51106     -1055.007 6        40.651
C14        30.000                                                                                                                                    24475348.462 6 127449585.09606      2034.700 6        41.175    24475346.001 8  98552096.85708      1573.214 8        48.122    24475343.848 7 103563212.57107      1653.280 7        44.712
R02        31.000    22254526.447 7 118754460.92607     -1208.477 7        46.689                                                                    22254526.921 7  92364601.71507      -939.910 7        42.536
E03        32.000    28097352.533 6 147652593.17306      1195.684 6        36.352                                                                    28097352.833 6 110260067.04206       892.795 6        39.655    28097352.588 6 113136409.83006       916.106 6        41.051
R17        33.000    23579936.413 6 126181364.48806     -3932.423 6        41.883                                                                    23579936.645 6  98141226.73306     -3058.463 6        39.510
R03        34.000    22006493.897 8 117802508.48308      2289.582 8        48.115                                                                    22006492.828 7  91624194.02507      1780.898 7        43.714
R10        35.000    22218667.227 6 118438048.60906      2315.306 6        41.187
R18        36.000    20141319.426 8 107516138.77308     -2473.087 8        49.787                                                                    20141319.591 7  83623869.75207     -1923.577 7        47.562
E27        37.000    26548752.321 6 139514858.90906     -3565.810 6        41.692                                                                    26548753.234 7 104183322.26207     -2662.707 7        44.898    26548752.228 7 106901128.63807     -2732.249 7        44.874
R16        38.000    21727274.728 8 116063304.18408     -4602.251 8        49.075                                                                    21727274.596 7  90271510.29207     -3579.544 7        44.906
G13        39.000    24871608.339 6 130701174.61206         0.462 6        36.136                                    24871605.922 2 101845058.08902         0.314 2        13.697
R09        40.000    20247596.814 8 108121110.21608      -931.973 8        50.640                                                                    20247595.813 8  84094221.69908      -724.892 8        48.586
C34        41.000                                                                                                                                    25902284.989 6 134880308.39106     -3315.858 6        40.694                                                                    25902286.019 6 109601432.96506     -2694.397 6        40.539
S44        42.000    40492313.557 6 212788734.97306      -508.811 6        37.478
C38        43.000                                                                                                                                    39607341.062 6 206245973.09506     -1668.994 6        41.194                                                                    39607338.458 6 167591810.02206     -1356.116 6        40.992
C05        44.000                                                                                                                                    39287205.444 6 204578810.43706      -465.541 6        38.871    39287200.076 7 158193334.36907      -360.004 7        42.584    39287203.080 6 166237142.17106      -378.159 6        40.639
C08        45.000                                                                                                                                    38237754.214 6 199114212.83506     -1439.335 6        40.029    38237748.198 7 153967815.40907     -1113.117 7        45.415    38237747.515 7 161796659.64707     -1169.501 7        42.019
C21        46.000                                                                                                                                    25623340.992 6 133427464.07806     -1917.066 6        41.321                                                                    25623336.567 7 108420718.48907     -1557.556 7        42.645
R19        47.000    19730050.915 7 105542832.97407       178.545 7        42.612                                                                    19730049.246 7  82089037.52407       138.770 7        45.452
C43        48.000                                                                                                                                    22364659.593 8 116458976.56708     -2094.320 8        49.449                                                                    22364658.249 8  94632584.38808     -1701.713 8        49.323
C42        50.000                                                                                                                                    24103242.194 7 125511947.26207       745.919 7        45.785                                                                    24103250.544 7 101988785.04407       606.244 7        47.038
S48        51.000    77190902.989 6 405641116.20406      -575.215 6        37.796
C37        53.000                                                                                                                                    23861955.730 7 124255489.25507     -1772.147 7        46.355                                                                    23861958.675 7 100967786.53407     -1439.915 7        47.533
C60        54.000                                                                                                                                    40492316.516 6 210854311.28506      -504.184 6        39.937                                                                    40492300.178 6 171336367.70406      -409.797 6        39.498
C27        55.000                                                                                                                                    25815591.750 6 134428557.77206      2243.190 6        41.502                                                                    25815590.583 6 109234214.58906      1823.107 6        39.715
C23        56.000                                                                                                                                    25338107.572 7 131942505.92307     -3718.359 7        43.050                                                                    25338100.367 7 107214199.51907     -3021.442 7        43.663
C02        57.000                                                                                                                                    40622314.476 5 211531093.08005      -460.765 5        33.796    40622309.782 6 163569251.08806      -356.487 6        40.534    40622312.291 6 171886341.99406      -374.676 6        36.147
I03        58.000   111271469.098 6 360867890.47906      1041.862 6        40.415
C11        59.000                                                                                                                                    23899285.182 7 124450154.25907     -2856.937 7        44.796    23899280.917 8  96232905.01308     -2209.232 8        48.518    23899279.480 7 101126054.54407     -2321.433 7        45.497
C28        60.000                                                                                                                                    22357980.067 8 116424185.61108      1044.532 8        49.284                                                                    22357978.965 8  94604323.50608       848.865 8        48.171
> 2025 01 01 19 15 15.0000000  0 55
G10         1.000    22691101.057 7 119242628.49107      2590.984 7        46.832                                    22691099.992 7  92916392.52107      2018.952 7        44.600    22691099.743 7  92916369.52407      2018.962 7        42.343
G15         2.000    23860958.040 6 125390204.89406       614.710 6        39.339                                    23860954.284 5  97706645.77105       478.998 5        32.533    23860954.322 6  97706648.75806       478.943 6        36.571
C33         3.000                                                                                                                                    25671987.724 6 133680784.17606      2742.002 6        41.836                                                                    25672000.346 7 108626641.83507      2228.155 7        42.853
G29         4.000    25082616.363 6 131810380.39906     -3818.287 6        38.375                                    25082613.243 4 102709547.08304     -2975.286 4        29.204    25082613.805 5 102709550.07305     -2975.314 5        34.748
S21         5.000    38450305.614 7 202057459.51007      -536.972 7        42.313
E13         6.000    23237637.731 8 122114961.06008      -713.481 8        48.477                                                                    23237637.939 8  91189951.79108      -532.791 8        50.643    23237637.497 8  93568789.57108      -546.709 8        51.304
G23         7.000    21000696.917 7 110359531.95307       438.740 7        47.779                                    21000693.537 6  85994477.71606       341.876 6        39.123    21000693.510 7  85994476.72307       341.834 7        46.992
E15         8.000    25799493.747 7 135577577.07007     -2901.299 7        42.861                                                                    25799494.025 7 101243167.28907     -2166.642 7        45.579    25799493.697 7 103884269.38107     -2223.161 7        46.906
E05         9.000    27032494.122 5 142056718.37005      -841.544 5        35.024                                                                    27032495.820 6 106081322.89706      -628.494 6        40.725    27032495.084 6 108848663.37406      -644.889 6        41.487
G07        10.000    25237080.109 6 132621776.30406       254.794 6        40.274                                    25237075.022 5 103341634.20405       198.539 5        30.974    25237076.124 5 103341638.20105       198.545 5        35.376
G26        11.000    21932541.548 7 115256660.88307     -3326.664 7        47.228                                    21932541.045 7  89810568.45407     -2592.205 7        45.592    21932541.071 7  89810588.45607     -2592.207 7        44.038
S27        12.000    39202684.169 5 206011466.19905      -507.757 5        35.271
R20        13.000    23734098.360 5 126916900.49105      2764.268 5        35.152                                                                    23734100.787 6  98713203.90106      2149.875 6        38.450
S36        14.000    38220660.961 7 200851460.22907      -535.859 7        43.761
G27        15.000    21016026.555 7 110440247.79107      1547.148 7        47.700                                    21016024.396 8  86057494.37208      1205.570 8        49.318    21016024.982 7  86057408.37707      1205.567 7        45.005
S45        17.000    63432873.737 6 333342302.14306      -587.443 6        37.440
G16        19.000    20627587.683 8 108398969.46208     -1378.679 8        48.706                                    20627582.652 6  84466850.30506     -1074.294 6        39.880
E21        20.000    23892595.318 8 125556815.34308     -1532.230 8        48.162                                                                    23892594.799 8  93760177.72908     -1144.145 8        50.251    23892594.376 8  96206069.97608     -1174.006 8        51.108
E26        21.000    25398455.277 7 133470121.22607      1641.310 7        44.251                                                                    25398453.689 7  99669440.50107      1225.650 7        46.623    25398453.307 8 102269488.75608      1257.619 8        48.097
I06        22.000    38692197.757 6 151836710.29106      -350.172 6        41.995
S28        23.000    40920682.415 5 215039617.41405      -530.445 5        33.766
G08        24.000    23618555.985 6 124116357.98006      2691.423 6        40.272                                    23618554.299 5  96714044.12605      2097.212 5        33.683    23618555.164 6  96714045.11706      2097.351 6        38.141
S23        25.000    38175639.324 7 200614305.41407      -536.932 7        44.453
C13        26.000                                                                                                                                    37931689.208 7 197520461.55607     -1167.372 7        44.063    37931690.673 7 152735461.69707      -902.695 7        45.151    37931688.830 7 160501642.01207      -948.478 7        42.715
G18        27.000    21701014.668 7 114039952.99707     -2789.146 7        47.004                                    21701010.626 6  88862474.11006     -2173.361 6        36.246    21701010.922 7  88862465.11707     -2173.425 7        45.726
I02        29.000    39540580.000 6 155165829.55506     -1055.144 6        40.644
C14        30.000                                                                                                                                    24473395.524 6 127439416.26906      2032.843 6        41.247    24473392.904 8  98544233.68108      1571.883 8        48.047    24473391.230 7 103554949.56407      1651.920 7        44.659
R02        31.000    22255661.646 7 118760514.02307     -1213.036 7        46.956                                                                    22255661.437 7  92369309.67607      -943.483 7        42.971
E03        32.000    28096215.823 6 147646619.26106      1193.866 6        36.722                                                                    28096216.146 6 110255605.98406       891.468 6        39.709    28096215.688 6 113131832.40006       914.688 6        41.282
R17        33.000    23583610.510 6 126201026.10006     -3932.582 6        41.452                                                                    23583610.481 6  98156519.10506     -3058.596 6        38.976
R03        34.000    22004357.011 8 117791067.45608      2286.502 8        48.234                                                                    22004355.242 7  91615295.42707      1778.340 7        42.844
R10        35.000    22216496.996 6 118426480.64206      2311.715 6        39.910
R18        36.000    20143636.776 8 107528508.02808     -2474.768 8        50.005                                                                    20143636.772 7  83633490.27907     -1924.825 7        47.708
E27        37.000    26552145.284 6 139532689.67706     -3566.721 6        41.108                                                                    26552146.220 7 104196637.43407     -2663.426 7        44.742    26552145.580 7 106914791.15807     -2732.905 7        44.972
R16        38.000    21731582.624 8 116086319.98308     -4604.277 8        48.765                                                                    21731583.606 7  90289411.46107     -3581.149 7        44.713
G13        39.000    24871610.060 6 130701180.87206        -2.951 6        36.699                                    24871607.081 2 101845062.98602        -2.301 2        13.636
R09        40.000    20248471.693 8 108125781.30208      -936.727 8        50.459                                                                    20248470.360 8  84097854.76208      -728.569 8        48.326
C34        41.000                                                                                                                                    25905469.047 6 134896888.21106     -3316.107 6        40.298                                                                    25905470.022 6 109614905.43006     -2694.679 6        40.622
S44        42.000    40492798.250 6 212791279.52706      -509.160 6        37.527
C38        43.000                                                                                                                                    39608943.546 6 206254318.49706     -1669.375 6        41.366                                                                    39608941.100 6 167598591.32506     -1356.385 6        40.646
C05        44.000                                                                                                                                    39287652.772 6 204581137.88106      -465.766 6        38.871    39287646.996 7 158195134.08607      -360.112 7        42.489    39287650.099 6 166239033.39306      -378.342 6        40.622
C08        45.000                                                                                                                                    38239136.582 6 199121410.77606     -1440.131 6        40.184    38239130.569 7 153973381.30207     -1113.622 7        44.909    38239129.930 6 161802508.55506     -1170.190 6        41.814
C21        46.000                                                                                                                                    25625183.218 6 133437055.67806     -1919.876 6        41.604                                                                    25625178.491 7 108428512.43907     -1559.847 7        42.684
R19        47.000    19729884.065 7 105541945.74807       176.218 7        42.519                                                                    19729883.462 7  82088347.46207       137.056 7        45.877
C43        48.000                                                                                                                                    22366670.917 8 116469451.02808     -2095.586 8        49.714                                                                    22366669.744 8  94641095.75108     -1702.811 8        49.129
C42        50.000                                                                                                                                    24102527.228 7 125508224.07007       743.203 7        45.645                                                                    24102535.522 7 101985759.64607       603.967 7        46.926
S48        51.000    77191423.665 6 405643991.41206      -575.112 6        38.087
C37        53.000                                                                                                                                    23863658.710 7 124264356.04707     -1774.777 7        46.314                                                                    23863661.496 7 100974991.52007     -1442.098 7        47.461
C60        54.000                                                                                                                                    40492800.296 6 210856832.71806      -504.533 6        39.934                                                                    40492784.446 6 171338416.55506      -409.813 6        39.399
C27        55.000                                                                                                                                    25813437.951 6 134417342.15206      2242.847 6        41.828                                                                    25813436.919 6 109225101.00206      1822.512 6        39.736
C23        56.000                                                                                                                                    25341678.208 7 131961099.24407     -3719.106 7        43.754                                                                    25341671.586 7 107229308.09907     -3021.924 7        43.879
C02        57.000                                                                                                                                    40622757.403 5 211533398.18005      -461.355 5        34.233    40622752.531 6 163571033.52606      -356.491 6        40.374    40622754.883 6 171888215.06306      -374.759 6        36.064
I03        58.000   111270141.401 6 360862680.28206      1042.103 6        40.331
C11        59.000                                                                                                                                    23902028.495 7 124464440.18807     -2857.687 7        44.596    23902024.342 8  96243951.78808     -2209.703 8        48.480    23902022.961 7 101137663.02107     -2321.959 7        45.407
C28        60.000                                                                                                                                    22356977.691 8 116418965.62108      1043.312 8        49.318                                                                    22356976.604 8  94600081.83808       847.797 8        48.087
> 2025 01 01 19 15 20.0000000  0 55
G10         1.000    22688636.629 7 119229676.80607      2589.456 7        46.132                                    22688635.426 7  92906300.30207      2017.757 7        44.623    22688635.162 7  92906277.31207      2017.661 7        42.161
G15         2.000    23860374.162 6 125387138.09006       611.600 6        39.670                                    23860370.598 5  97704256.05205       476.572 5        32.467    23860369.944 6  97704259.05706       476.550 6        36.711
C33         3.000                                                                                                                                    25669354.871 7 133667074.67707      2741.522 7        42.009                                                                    25669367.528 7 108615501.75707      2227.773 7        43.037
G29         4.000    25086249.166 6 131829472.35706     -3818.889 6        38.772                                    25086246.190 4 102724423.91904     -2975.752 4        29.403    25086247.135 5 102724426.91805     -2975.854 5        34.657
S21         5.000    38450814.113 7 202060142.95307      -536.590 7        42.330
E13         6.000    23238317.260 8 122118531.65108      -715.068 8        48.372                                                                    23238317.394 8  91192618.14808      -534.007 8        50.763    23238316.930 8  93571525.47808      -547.929 8        51.209
G23         7.000    21000281.125 7 110357345.65807       435.404 7        47.577                                    21000277.520 6  85992774.11306       339.277 6        39.267    21000277.731 7  85992773.11907       339.288 7        47.155
E15         8.000    25802254.291 7 135592084.44307     -2901.812 7        42.925                                                                    25802254.679 7 101254000.72107     -2167.030 7        45.759    25802254.246 7 103895385.42207     -2223.563 7        46.752
E05         9.000    27033296.082 5 142060931.71705      -843.881 5        34.957                                                                    27033297.715 6 106084469.22606      -630.310 6        40.610    27033296.992 6 108851891.77906      -646.741 6        41.385
G07        10.000    25236838.069 6 132620508.06406       252.124 6        39.835                                    25236833.582 5 103340645.97905       196.458 5        31.268    25236834.585 5 103340649.97605       196.540 5        35.314
G26        11.000    21935707.992 7 115273298.82907     -3328.693 7        47.210                                    21935707.200 7  89823533.08607     -2593.787 7        45.658    21935707.042 7  89823553.08507     -2593.898 7        43.638
S27        12.000    39203162.172 5 206014003.54505      -507.671 5        35.467
R20        13.000    23731512.909 5 126903080.49805      2763.491 5        34.957                                                                    23731516.300 6  98702455.04106      2149.236 6        38.739
S36        14.000    38221171.670 7 200854137.76707      -535.563 7        44.053
G27        15.000    21014555.149 7 110432515.87307      1545.362 7        47.556                                    21014553.058 8  86051469.50508      1204.177 8        49.387    21014553.669 7  86051383.50607      1204.183 7        45.070
S45        17.000    63433386.287 6 333345238.63006      -587.355 6        37.490
