     3.04           OBSERVATION DATA    M                   RINEX VERSION / TYPE
ssrcrin-15.6.1x                         20250101 181500 UTC PGM / RUN BY / DATE 
(00000000023479385599111004) Septentrio proprietary         COMMENT             
rref                                                        MARKER NAME         
01                                                          MARKER NUMBER       
geodetic                                                    MARKER TYPE         
NFB                 CLIMERS@TUW                             OBSERVER / AGENCY   
3297213             SEPT ASTERX SB3 PROB4.14.4              REC # / TYPE / VERS 
Unknown             Unknown                                 ANT # / TYPE        
  4127831.9689  1207192.9296  4695248.0035                  APPROX POSITION XYZ 
        0.0000        0.0000        0.0000                  ANTENNA: DELTA H/E/N
G   23 X1  C1C L1C D1C S1C C1W S1W C2W L2W D2W S2W C2L L2L  SYS / # / OBS TYPES 
       D2L S2L C5Q L5Q D5Q S5Q C1L L1L D1L S1L              SYS / # / OBS TYPES 
E   21 X1  C1C L1C D1C S1C C6C L6C D6C S6C C5Q L5Q D5Q S5Q  SYS / # / OBS TYPES 
       C7Q L7Q D7Q S7Q C8Q L8Q D8Q S8Q                      SYS / # / OBS TYPES 
S    9 X1  C1C L1C D1C S1C C5I L5I D5I S5I                  SYS / # / OBS TYPES 
R   17 X1  C1C L1C D1C S1C C2P L2P D2P S2P C2C L2C D2C S2C  SYS / # / OBS TYPES 
       C3Q L3Q D3Q S3Q                                      SYS / # / OBS TYPES 
C   25 X1  C1P L1P D1P S1P C5P L5P D5P S5P C2I L2I D2I S2I  SYS / # / OBS TYPES 
       C7I L7I D7I S7I C6I L6I D6I S6I C7D L7D D7D S7D      SYS / # / OBS TYPES 
J   17 X1  C1C L1C D1C S1C C2L L2L D2L S2L C5Q L5Q D5Q S5Q  SYS / # / OBS TYPES 
       C1L L1L D1L S1L                                      SYS / # / OBS TYPES 
I    5 X1  C5A L5A D5A S5A                                  SYS / # / OBS TYPES 
SEPTENTRIO RECEIVERS OUTPUT ALIGNED CARRIER PHASES.         COMMENT             
NO FURTHER PHASE SHIFT APPLIED IN THE RINEX ENCODER.        COMMENT             
G L1C                                                       SYS / PHASE SHIFT   
G L2W                                                       SYS / PHASE SHIFT   
G L2L  0.00000                                              SYS / PHASE SHIFT   
G L5Q  0.00000                                              SYS / PHASE SHIFT   
G L1L  0.00000                                              SYS / PHASE SHIFT   
E L1C  0.00000                                              SYS / PHASE SHIFT   
E L6C  0.00000                                              SYS / PHASE SHIFT   
E L5Q  0.00000                                              SYS / PHASE SHIFT   
E L7Q  0.00000                                              SYS / PHASE SHIFT   
E L8Q  0.00000                                              SYS / PHASE SHIFT   
S L1C                                                       SYS / PHASE SHIFT   
S L5I                                                       SYS / PHASE SHIFT   
R L1C                                                       SYS / PHASE SHIFT   
R L2P  0.00000                                              SYS / PHASE SHIFT   
R L2C                                                       SYS / PHASE SHIFT   
R L3Q  0.00000                                              SYS / PHASE SHIFT   
C L1P  0.00000                                              SYS / PHASE SHIFT   
C L5P  0.00000                                              SYS / PHASE SHIFT   
C L2I                                                       SYS / PHASE SHIFT   
C L7I                                                       SYS / PHASE SHIFT   
C L6I                                                       SYS / PHASE SHIFT   
C L7D                                                       SYS / PHASE SHIFT   
J L1C                                                       SYS / PHASE SHIFT   
J L2L  0.00000                                              SYS / PHASE SHIFT   
J L5Q  0.00000                                              SYS / PHASE SHIFT   
J L1L  0.00000                                              SYS / PHASE SHIFT   
I L5A                                                       SYS / PHASE SHIFT   
  2025     1     1    18    15    0.0000000     GPS         TIME OF FIRST OBS   
 C1C    0.000 C2C    0.000 C2P    0.000                     GLONASS COD/PHS/BIS 
DBHZ                                                        SIGNAL STRENGTH UNIT
    18                                                      LEAP SECONDS        
 24 R01  1 R02 -4 R03  5 R04  6 R05  1 R06 -4 R07  5 R08  6 GLONASS SLOT / FRQ #
    R09 -2 R10 -7 R11  0 R12 -1 R13 -2 R14 -7 R15  0 R16 -1 GLONASS SLOT / FRQ #
    R17  4 R18 -3 R19  3 R20  2 R21  4 R22 -3 R23  3 R24  2 GLONASS SLOT / FRQ #
                                                            END OF HEADER       
> 2025 01 01 18 15  0.0000000  0 53
G10         1.000    25021306.932 6 131487871.26806      3096.885 6        38.541                                    25021309.431 4 102458122.27504      2413.136 4        29.754    25021309.685 5 102458099.31605      2413.199 5        34.381
G15         2.000    25199266.800 6 132423044.00306      2170.631 6        36.900                                    25199264.028 4 103186774.60604      1691.387 4        26.204    25199264.377 5 103186777.60905      1691.011 5        33.778
G05         3.000    23889198.400 6 125538721.85706     -3155.406 6        40.281                                    23889194.598 5  97822437.97005     -2458.759 5        33.383    23889194.799 6  97822436.97006     -2458.666 6        36.567
G29         4.000    22904673.944 7 120365236.57907     -3330.934 7        43.699                                    22904670.104 6  93791258.08606     -2595.530 6        40.584    22904670.597 6  93791261.07706     -2595.488 6        39.772
S21         5.000    38376954.294 7 201672015.08607      -550.919 7        42.391
E13         6.000    23461758.787 8 123292720.66708       527.357 8        48.220                                                                    23461758.881 8  92069446.80408       393.811 8        50.555    23461758.498 8  94471228.02208       404.089 8        51.369
G23         7.000    22321780.025 7 117301858.12207      2360.807 7        44.870                                    22321777.199 5  91404079.23505      1839.587 5        33.144    22321777.704 7  91404078.24207      1839.515 7        43.452
E15         8.000    24287176.278 7 127630300.08707     -2268.436 7        45.505                                                                    24287176.618 8  95308513.39308     -1693.892 8        49.076    24287176.312 8  97794798.31408     -1738.123 8        50.172
G26        11.000    20553206.040 8 108008211.13708     -1426.577 8        49.679                                    20553204.549 8  84162428.08208     -1111.618 8        50.957    20553204.929 7  84162448.08407     -1111.618 7        45.445
S27        12.000    39147835.703 5 205723290.23905      -526.558 5        35.181
R15        13.000    22640445.691 7 120983955.77007     -5026.474 7        47.265                                                                    22640445.620 6  94098769.88806     -3909.432 6        41.630
S36        14.000    38148022.677 7 200469725.33007      -549.701 7        44.080
G27        15.000    22739035.181 7 119494711.84907      2479.365 7        42.815                                    22739032.831 6  93112919.52106      1931.972 6        39.901    22739033.194 6  93112833.52806      1932.137 6        39.219
S45        17.000    63359896.543 6 332959394.68806      -604.441 6        37.127
G31        18.000    24156471.608 6 126943386.60306     -3824.107 6        41.626                                    24156468.750 5  98917072.47105     -2979.820 5        35.629    24156468.703 6  98917051.46006     -2979.643 6        37.792
G16        19.000    20804232.470 7 109327245.18207       961.206 7        47.384                                    20804227.476 6  85190182.36406       748.990 6        38.544
E21        20.000    23684447.276 8 124462992.36308        25.656 8        48.059                                                                    23684446.509 8  92943362.70808        19.131 8        50.887    23684445.988 8  95367946.63808        19.644 8        51.539
E26        21.000    27068212.081 6 142244720.67206      2292.782 6        39.973                                                                    27068213.004 6 106221891.38206      1712.184 6        41.993    27068212.377 7 108992874.26107      1756.763 7        42.775
I06        22.000    38652982.199 6 151682820.41406      -388.491 6        41.468
S28        23.000    40851269.798 5 214674852.68705      -545.981 5        34.133
E34        24.000    28569563.693 5 150134375.30905     -3459.363 5        35.200                                                                    28569564.957 6 112113517.20506     -2583.378 6        38.030    28569564.591 6 115038197.68906     -2650.507 6        38.426
S23        25.000    38101835.896 7 200226463.63107      -551.954 7        44.783
C13        26.000                                                                                                                                    37597183.156 7 195778599.19607      -627.463 7        45.035    37597184.054 7 151388543.42607      -485.172 7        45.454    37597182.389 7 159086236.34307      -509.729 7        43.742
G18        27.000    20544896.938 8 107964513.50808     -1314.867 8        48.765                                    20544892.750 7  84128365.56407     -1024.573 7        42.618    20544892.919 8  84128356.56208     -1024.536 8        49.334
I02        29.000    38884510.751 6 152591276.54706     -1016.640 6        40.248
G28        30.000    25581412.122 5 134431203.86505     -3968.134 5        31.849                                    25581421.877 1 104751630.97401     -3092.026 1         8.571    25581423.515 5 104751627.89105     -3091.809 5        31.260
R02        31.000    22778419.332 7 121550053.46807      1730.670 7        45.407                                                                    22778419.655 6  94538951.61806      1346.170 6        41.125
C12        32.000                                                                                                                                    26863971.579 5 139888011.52405     -3424.575 5        34.348    26863967.994 7 108170410.92107     -2648.158 7        42.009    26863966.968 6 113670559.98406     -2782.475 6        39.240
R17        33.000    21288401.798 8 113918905.99008     -3645.545 8        48.896                                                                    21288400.838 7  88603761.17207     -2835.428 7        45.199
R18        36.000    19226569.364 8 102633141.76608      -995.595 8        51.387                                                                    19226569.714 8  79825983.38508      -774.362 8        48.136
E27        37.000    24654792.843 7 129562044.82207     -2731.910 7        46.454                                                                    24654792.706 8  96751029.38708     -2040.035 8        48.816    24654792.404 8  99274949.46408     -2093.234 8        49.711
R16        38.000    19613120.334 8 104769886.16508     -2259.143 8        52.517                                                                    19613119.843 7  81487744.52607     -1757.107 7        47.719
C22        39.000                                                                                                                                    26690022.891 6 138981933.15406     -2308.623 6        38.634                                                                    26690018.779 6 112934180.56406     -1875.829 6        39.610
R09        40.000    20998760.588 8 112132281.09308      2113.013 8        48.797                                                                    20998759.438 7  87214020.75607      1643.547 7        46.940
C34        41.000                                                                                                                                    23967829.675 7 124807114.18107     -3088.972 7        45.887                                                                    23967829.198 7 101416142.54807     -2509.886 7        44.953
S44        42.000    40445365.294 6 212542006.73006      -503.630 6        37.202
C38        43.000                                                                                                                                    38862419.436 7 202366979.25407     -1304.988 7        42.692                                                                    38862417.111 7 164439811.05807     -1060.396 7        42.859
C05        44.000                                                                                                                                    39260541.154 6 204439963.70506      -479.534 6        37.614    39260538.151 7 158085968.45907      -370.886 7        43.308    39260539.443 6 166124317.16906      -389.759 6        40.057
C08        45.000                                                                                                                                    37713537.272 7 196384479.09407      -897.898 7        42.427    37713530.420 7 151857012.96407      -694.364 7        46.001    37713529.946 7 159578528.06907      -729.627 7        42.770
C21        46.000                                                                                                                                    25285918.964 7 131670425.22007        91.517 7        42.299                                                                    25285914.002 7 106992981.84107        74.558 7        44.117
R19        47.000    20694717.055 6 110703142.86106      1788.950 6        40.462                                                                    20694716.045 7  86102610.63807      1391.396 7        44.307
C43        48.000                                                                                                                                    21531319.456 8 112119557.09308     -1133.431 8        50.887                                                                    21531318.039 8  91106450.93408      -920.887 8        50.065
C42        50.000                                                                                                                                    25464028.688 6 132597897.48906      2134.515 6        41.569                                                                    25464037.267 7 107746696.00507      1734.642 7        43.824
S48        51.000    77111336.802 6 405224375.84606      -590.499 6        37.902
R01        52.000    23049859.143 6 123214729.53906     -1606.007 6        40.360                                                                    23049859.511 5  95833668.28405     -1249.127 5        34.290
C37        53.000                                                                                                                                    23614258.470 7 122965669.50007       214.720 7        46.806                                                                    23614261.581 7  99919703.05907       174.575 7        47.904
C60        54.000                                                                                                                                    40445366.294 6 210609825.98706      -499.000 6        40.072                                                                    40445350.743 6 171137702.34906      -405.395 6        40.594
C25        55.000                                                                                                                                    25956643.351 6 135163194.36706     -4025.276 6        41.099                                                                    25956645.054 6 109831234.11206     -3270.720 6        40.856
C23        56.000                                                                                                                                    23335146.169 8 121512580.76908     -2745.972 8        48.777                                                                    23335138.045 8  98739035.58808     -2231.213 8        48.690
C02        57.000                                                                                                                                    40603195.789 5 211431531.16705      -462.558 5        33.742    40603190.229 6 163492262.22506      -357.647 6        39.294    40603193.546 5 171805438.76905      -375.943 5        35.071
I03        58.000   112531484.247 6 365812452.80806      1041.901 6        40.377
C11        59.000                                                                                                                                    22402315.207 7 116655049.72007     -2273.067 7        47.240    22402311.868 8  90205236.74608     -1757.626 8        51.219    22402310.566 8  94791894.43108     -1846.891 8        48.565
C28        60.000                                                                                                                                    23656884.860 7 123187913.93107      1808.220 7        46.478                                                                    23656883.782 7 100100405.35707      1469.392 7        45.583
> 2025 01 01 18 15  5.0000000  0 53
G10         1.000    25018360.074 6 131472385.26206      3097.390 6        38.763                                    25018362.399 5 102446055.37005      2413.529 5        30.075    25018363.613 5 102446032.38405      2413.634 5        34.552
G15         2.000    25197201.870 6 132412192.82506      2169.362 6        36.594                                    25197199.202 4 103178319.14604      1690.410 4        26.647    25197199.354 5 103178322.14505      1690.491 5        33.168
G05         3.000    23892202.294 6 125554504.06506     -3157.686 6        40.386                                    23892197.879 5  97834735.80105     -2460.540 5        33.425    23892197.783 6  97834734.80406     -2460.486 6        36.726
G29         4.000    22907843.722 7 120381892.72707     -3331.588 7        44.241                                    22907839.698 6  93804236.90606     -2596.046 6        40.677    22907840.118 6  93804239.90706     -2595.994 6        39.661
S21         5.000    38377476.646 7 201674768.33307      -550.517 7        42.428
E13         6.000    23461257.539 8 123290087.45608       525.799 8        48.143                                                                    23461257.751 8  92067480.44808       392.700 8        50.416    23461257.415 8  94469210.37008       402.919 8        51.276
G23         7.000    22319534.852 7 117290058.12707      2359.183 7        44.486                                    22319531.666 5  91394884.44405      1838.320 5        33.108    22319531.780 7  91394883.45607      1838.363 7        43.319
E15         8.000    24289335.311 7 127641644.46607     -2269.444 7        45.403                                                                    24289335.308 8  95316984.84708     -1694.694 8        48.927    24289335.088 8  97803490.76408     -1738.971 8        50.075
G26        11.000    20554564.710 8 108015350.94008     -1429.450 8        49.844                                    20554563.212 8  84167991.56608     -1113.857 8        50.958    20554563.480 7  84168011.57207     -1113.871 7        45.238
S27        12.000    39148338.049 5 205725921.38505      -526.002 5        35.081
R15        13.000    22645148.389 7 121009090.04207     -5027.312 7        46.565                                                                    22645148.784 6  94118318.75606     -3910.143 6        41.716
S36        14.000    38148544.882 7 200472472.45807      -549.367 7        44.004
G27        15.000    22736676.418 7 119482316.22407      2478.925 7        42.834                                    22736674.001 6  93103260.60206      1931.626 6        39.982    22736674.017 6  93103174.62106      1931.527 6        39.742
S45        17.000    63360422.116 6 332962416.54506      -604.431 6        36.870
G31        18.000    24160110.594 7 126962508.23107     -3824.542 7        42.099                                    24160107.515 5  98931972.41905     -2980.157 5        35.571    24160107.592 6  98931951.42206     -2980.280 6        37.388
G16        19.000    20803318.862 7 109322445.69307       958.546 7        47.313                                    20803314.179 6  85186442.50706       746.918 6        38.604
E21        20.000    23684423.741 7 124462868.31607        23.836 7        47.764                                                                    23684422.980 8  92943270.06908        17.786 8        50.793    23684422.453 8  95367851.58208        18.296 8        51.396
E26        21.000    27066030.511 6 142233257.49506      2292.348 6        39.018                                                                    27066031.713 6 106213331.23406      1711.873 6        41.874    27066031.099 7 108984090.81807      1756.398 7        42.595
I06        22.000    38653477.179 6 151684762.21606      -388.267 6        41.661
S28        23.000    40851791.297 5 214677581.04205      -545.786 5        34.390
E34        24.000    28572854.881 5 150151670.89605     -3459.133 5        34.467                                                                    28572856.205 6 112126432.70206     -2583.048 6        36.983    28572855.757 6 115051450.11806     -2650.264 6        37.743
S23        25.000    38102360.869 7 200229222.54607      -551.648 7        44.816
C13        26.000                                                                                                                                    37597785.831 7 195781737.53207      -628.168 7        45.266    37597786.760 7 151390970.19307      -485.747 7        45.535    37597785.100 7 159088786.51407      -510.529 7        43.858
G18        27.000    20546149.061 8 107971093.31908     -1317.155 8        48.875                                    20546144.858 7  84133492.68507     -1026.356 7        42.624    20546144.981 8  84133483.68608     -1026.393 8        49.427
I02        29.000    38885806.159 6 152596358.99506     -1016.541 6        40.355
G28        30.000    25585187.367 5 134451042.41505     -3967.268 5        31.434                                    25585197.304 1 104767089.33601     -3091.305 1         9.333    25585198.834 5 104767086.22805     -3091.364 5        31.140
R02        31.000    22776798.836 7 121541407.14007      1727.740 7        45.493                                                                    22776798.987 6  94532226.70606      1343.769 6        41.139
C12        32.000                                                                                                                                    26867259.446 5 139905133.23705     -3423.934 5        34.443    26867255.764 7 108183650.56007     -2647.866 7        42.144    26867254.840 6 113684472.83806     -2782.604 6        39.453
R17        33.000    21291808.381 8 113937135.22608     -3646.192 8        48.732                                                                    21291807.398 7  88617939.46407     -2835.975 7        45.111
R18        36.000    19227502.927 8 102638125.61208      -997.939 8        51.146                                                                    19227502.890 7  79829859.70307      -776.188 7        47.857
E27        37.000    24657392.639 7 129575707.21707     -2733.188 7        46.275                                                                    24657392.607 8  96761231.82208     -2041.021 8        48.632    24657392.250 8  99285418.05108     -2094.248 8        49.504
R16        38.000    19615236.731 8 104781191.88808     -2263.271 8        52.781                                                                    19615236.477 7  81496537.85507     -1760.272 7        47.799
C22        39.000                                                                                                                                    26692240.384 6 138993480.82006     -2310.563 6        38.348                                                                    26692236.562 6 112943564.01506     -1877.665 6        38.676
R09        40.000    20996783.691 8 112121723.21908      2109.992 8        48.763                                                                    20996782.572 7  87205809.09207      1641.124 7        46.985
C34        41.000                                                                                                                                    23970795.906 7 124822559.24707     -3089.229 7        45.740                                                                    23970795.331 7 101428692.94407     -2510.391 7        44.957
S44        42.000    40445841.370 6 212544523.85206      -503.490 6        37.119
C38        43.000                                                                                                                                    38863672.655 7 202373505.33007     -1305.596 7        42.607                                                                    38863670.345 7 164445114.02607     -1060.916 7        42.821
C05        44.000                                                                                                                                    39261001.213 6 204442361.23406      -479.300 6        37.527    39260998.532 7 158087822.38607      -370.808 7        43.456    39260999.904 6 166126265.36206      -389.705 6        40.107
C08        45.000                                                                                                                                    37714399.568 7 196388970.57607      -898.609 7        42.480    37714392.887 7 151860486.06907      -694.864 7        46.100    37714392.590 7 159582177.76307      -730.409 7        42.893
C21        46.000                                                                                                                                    25285831.975 7 131669973.22207        89.084 7        42.171                                                                    25285827.224 7 106992614.57907        72.299 7        44.405
R19        47.000    20693046.095 6 110694202.62306      1787.220 6        40.474                                                                    20693044.845 7  86095657.14207      1389.933 7        44.205
C43        48.000                                                                                                                                    21532408.471 8 112125227.26708     -1134.758 8        51.094                                                                    21532406.947 8  91111058.43608      -922.196 8        50.048
C42        50.000                                                                                                                                    25461979.892 6 132587226.91306      2133.569 6        41.974                                                                    25461988.075 7 107738025.30707      1733.666 7        43.657
S48        51.000    77111870.633 6 405225726.99116      -590.214 6        37.822
R01        52.000    23051361.360 6 123222769.59506     -1609.963 6        40.055                                                                    23051364.353 5  95839921.66705     -1252.134 5        34.548
C37        53.000                                                                                                                                    23614053.609 7 122964601.72407       212.347 7        46.845                                                                    23614056.488 7  99918835.42107       172.321 7        47.998
C60        54.000                                                                                                                                    40445845.178 6 210612320.22106      -498.727 6        40.200                                                                    40445829.717 6 171139729.13506      -405.481 6        40.753
C25        55.000                                                                                                                                    25960508.281 6 135183319.49706     -4024.980 6        41.275                                                                    25960509.907 6 109847587.38106     -3270.665 6        40.889
C23        56.000                                                                                                                                    23337783.714 8 121526315.01708     -2747.795 8        48.895                                                                    23337775.582 8  98750195.80008     -2232.968 8        48.677
C02        57.000                                                                                                                                    40603639.683 5 211433842.95205      -462.260 5        33.880    40603634.534 6 163494049.85206      -357.488 6        39.228    40603637.355 5 171807317.27905      -375.778 5        35.081
I03        58.000   112530156.318 6 365807242.30206      1042.239 6        40.565
C11        59.000                                                                                                                                    22404498.292 7 116666416.72907     -2273.950 7        47.565    22404494.713 8  90214026.44708     -1758.295 8        51.144    22404493.465 8  94801131.07608     -1847.892 8        48.610
C28        60.000                                                                                                                                    23655148.480 7 123178874.54307      1807.513 7        46.427                                                                    23655147.868 7 100093060.13107      1468.614 7        45.571
> 2025 01 01 18 15 10.0000000  0 53
G10         1.000    25015412.963 6 131456898.67606      3097.388 6        39.006                                    25015415.269 5 102433988.01205      2413.532 5        30.264    25015416.095 5 102433965.03805      2413.716 5        34.457
G15         2.000    25195137.473 6 132401347.60106      2168.509 6        36.197                                    25195135.477 4 103169868.33104      1689.750 4        26.599    25195136.077 5 103169871.33505      1689.601 5        33.838
G05         3.000    23895207.168 6 125570298.76006     -3160.214 6        40.372                                    23895203.413 5  97847043.35705     -2462.502 5        33.479    23895203.595 6  97847042.35206     -2462.553 6        36.352
G29         4.000    22911014.200 7 120398553.70607     -3332.583 7        44.349                                    22911010.105 6  93817219.48406     -2596.816 6        40.625    22911010.684 6  93817222.49106     -2596.890 6        39.931
S21         5.000    38378002.406 7 201677521.58007      -550.697 7        42.415
E13         6.000    23460758.273 8 123287463.65308       523.906 8        48.187                                                                    23460758.455 8  92065521.12308       391.185 8        50.253    23460758.147 8  94467199.93108       401.408 8        51.100
G23         7.000    22317291.236 7 117278267.78007      2357.179 7        45.081                                    22317288.092 5  91385697.17405      1836.763 5        33.078    22317288.147 7  91385696.18107      1836.776 7        43.283
E15         8.000    24291495.280 7 127652995.68807     -2270.900 7        45.327                                                                    24291495.444 8  95325461.40308     -1695.802 8        48.802    24291495.208 8  97812188.44208     -1740.014 8        49.977
G26        11.000    20555926.422 8 108022506.31708     -1432.566 8        49.824                                    20555924.843 8  84173567.18608     -1116.286 8        50.901    20555925.031 7  84173587.18607     -1116.267 7        45.365
S27        12.000    39148835.204 5 205728552.52205      -526.320 5        35.552
R15        13.000    22649851.581 7 121034229.68407     -5028.331 7        45.055                                                                    22649853.763 6  94137871.79706     -3911.016 6        41.962
S36        14.000    38149069.153 7 200475220.29007      -549.698 7        44.126
G27        15.000    22734318.401 7 119469925.21107      2477.811 7        42.959                                    22734316.070 6  93093605.28506      1930.763 6        39.967    22734317.041 6  93093519.28306      1930.712 6        39.700
S45        17.000    63360944.687 6 332965438.62306      -604.288 6        37.036
G31        18.000    24163749.921 7 126981633.39307     -3825.324 7        42.783                                    24163746.865 5  98946875.12605     -2980.767 5        35.533    24163747.487 6  98946854.12406     -2980.565 6        37.728
G16        19.000    20802408.617 7 109317660.80807       955.588 7        47.267                                    20802403.649 6  85182714.03106       744.615 6        38.501
E21        20.000    23684401.934 7 124462754.41007        21.768 7        47.778                                                                    23684401.285 8  92943185.01208        16.301 8        50.553    23684400.831 8  95367764.30608        16.754 8        51.229
E26        21.000    27063850.361 6 142221798.02506      2291.604 6        39.700                                                                    27063850.974 6 106204773.85206      1711.206 6        41.502    27063850.556 7 108975310.19807      1755.821 7        42.610
I06        22.000    38653971.943 6 151686703.94606      -388.181 6        41.595
S28        23.000    40852305.762 5 214680309.63305      -545.753 5        34.319
E34        24.000    28576146.153 5 150168966.23005     -3459.072 5        34.667                                                                    28576147.408 6 112139348.04806     -2582.834 6        37.236    28576147.006 6 115064702.42106     -2650.435 6        37.864
S23        25.000    38102886.910 7 200231981.50207      -551.831 7        44.885
C13        26.000                                                                                                                                    37598389.299 7 195784880.51807      -629.041 7        45.354    37598390.082 7 151393400.54407      -486.348 7        45.409    37598388.681 7 159091340.42907      -511.162 7        43.699
G18        27.000    20547403.615 8 107977686.18808     -1319.842 8        48.802                                    20547399.462 7  84138629.99007     -1028.448 7        42.552    20547399.631 8  84138620.99308     -1028.466 8        49.367
I02        29.000    38887101.270 6 152601442.03906     -1016.578 6        40.408
G28        30.000    25588962.006 5 134470878.19705     -3967.030 5        30.974                                    25588972.136 1 104782545.56301     -3091.121 1         8.000    25588974.075 5 104782542.37305     -3091.130 5        30.981
R02        31.000    22775182.174 7 121532777.45107      1724.259 7        46.044                                                                    22775182.410 6  94525514.72006      1341.146 6        41.201
C12        32.000                                                                                                                                    26870547.785 5 139922254.44305     -3424.201 5        34.933    26870543.250 6 108196889.75706     -2647.679 6        41.807    26870542.783 6 113698385.19006     -2782.384 6        39.655
R17        33.000    21295215.838 8 113955369.32708     -3647.264 8        48.613                                                                    21295215.360 7  88632121.55007     -2836.694 7        45.177
R18        36.000    19228439.038 8 102643122.58008     -1000.693 8        51.232                                                                    19228438.888 7  79833746.22007      -778.261 7        47.949
E27        37.000    24659994.098 7 129589377.37407     -2734.826 7        46.410                                                                    24659993.965 8  96771440.05308     -2042.188 8        48.500    24659993.531 8  99295892.58308     -2095.488 8        49.391
R16        38.000    19617357.266 8 104792519.25508     -2267.638 8        52.619                                                                    19617356.808 7  81505348.03007     -1763.647 7        47.547
C22        39.000                                                                                                                                    26694460.066 6 139005040.10706     -2313.079 6        38.646                                                                    26694456.047 6 112952956.87606     -1879.614 6        38.366
R09        40.000    20994809.481 8 112111182.52908      2106.529 8        48.624                                                                    20994808.589 7  87197610.77807      1638.411 7        46.591
C34        41.000                                                                                                                                    23973762.359 7 124838007.17107     -3089.794 7        45.371                                                                    23973762.019 7 101441245.62807     -2510.813 7        44.865
S44        42.000    40446321.162 6 212547041.27706      -503.537 6        37.198
C38        43.000                                                                                                                                    38864926.665 7 202380035.06707     -1306.154 7        42.753                                                                    38864924.396 7 164450419.96007     -1061.444 7        42.811
C05        44.000                                                                                                                                    39261462.085 6 204444758.93006      -479.344 6        37.724    39261458.787 7 158089676.43007      -370.716 7        43.285    39261460.213 6 166128213.67506      -389.669 6        39.907
C08        45.000                                                                                                                                    37715262.866 7 196393466.99807      -899.832 7        42.646    37715256.675 7 151863962.98907      -695.722 7        45.944    37715256.039 7 159585831.45807      -731.082 7        42.627
C21        46.000                                                                                                                                    25285747.993 6 131669535.09106        86.348 6        41.647                                                                    25285743.114 7 106992258.55107        69.960 7        44.298
R19        47.000    20691376.776 6 110685273.56006      1784.740 6        40.877                                                                    20691375.385 7  86088712.29707      1388.154 7        43.900
C43        48.000                                                                                                                                    21533499.061 8 112130905.30408     -1136.360 8        51.254                                                                    21533497.304 8  91115672.29308      -923.429 8        49.920
C42        50.000                                                                                                                                    25459931.668 7 132576562.26807      2132.358 7        42.184                                                                    25459939.994 7 107729359.42007      1732.549 7        43.348
S48        51.000    77112403.512 6 405228678.39406      -590.109 6        38.042
R01        52.000    23052869.822 6 123230830.67506     -1614.181 6        40.105                                                                    23052871.146 5  95846191.36605     -1255.459 5        34.433
C37        53.000                                                                                                                                    23613851.382 7 122963547.89507       209.400 7        47.099                                                                    23613854.076 7  99917979.07607       170.117 7        47.912
C60        54.000                                                                                                                                    40446324.218 6 210614814.77406      -498.910 6        40.191                                                                    40446308.717 6 171141756.13806      -405.298 6        40.534
C25        55.000                                                                                                                                    25964372.893 6 135203444.31106     -4024.797 6        41.247                                                                    25964374.844 6 109863940.39606     -3270.550 6        40.670
C23        56.000                                                                                                                                    23340423.300 8 121540059.85608     -2749.985 8        48.550                                                                    23340415.203 8  98761364.58808     -2234.656 8        48.569
C02        57.000                                                                                                                                    40604083.407 5 211436155.01105      -462.661 5        34.067    40604078.235 6 163495837.66506      -357.588 6        39.225    40604081.244 5 171809196.00205      -375.651 5        35.062
I03        58.000   112528828.736 6 365802031.98306      1042.108 6        40.579
C11        59.000                                                                                                                                    22406682.653 7 116677789.29507     -2275.089 7        47.518    22406678.352 8  90222820.43908     -1759.205 8        50.920    22406677.398 8  94810372.20008     -1848.684 8        48.500
C28        60.000                                                                                                                                    23653413.665 7 123169840.14407      1806.489 7        46.515                                                                    23653412.930 7 100085718.93007      1467.889 7        45.511
> 2025 01 01 18 15 15.0000000  0 53
G10         1.000    25012465.794 6 131441410.62206      3097.904 6        39.114                                    25012467.906 5 102421919.51105      2413.930 5        30.445    25012468.324 5 102421896.54105      2413.869 5        34.738
G15         2.000    25193075.121 5 132390507.52605      2167.703 5        35.176                                    25193072.780 4 103161421.51804      1689.113 4        26.407    25193074.085 5 103161424.52005      1689.147 5        34.457
G05         3.000    23898214.856 6 125586104.95606     -3162.136 6        40.398                                    23898211.097 5  97859359.85905     -2463.999 5        33.641    23898211.063 6  97859358.85506     -2464.125 6        36.200
G29         4.000    22914185.454 7 120415218.61807     -3333.117 7        43.291                                    22914181.201 6  93830205.13206     -2597.233 6        40.498    22914181.993 6  93830208.12706     -2597.247 6        40.210
S21         5.000    38378525.635 7 201680274.10407      -550.280 7        42.377
E13         6.000    23460260.645 8 123284848.36208       522.471 8        48.135                                                                    23460260.776 8  92063568.15208       390.100 8        50.246    23460260.443 8  94465196.01508       400.235 8        51.150
G23         7.000    22315049.537 7 117266486.17907      2355.582 7        44.853                                    22315046.047 5  91376516.70905      1835.512 5        33.186    22315046.275 7  91376515.72107      1835.524 7        42.844
E15         8.000    24293656.386 7 127664352.84907     -2271.817 7        45.324                                                                    24293656.649 8  95333942.40708     -1696.499 8        48.801    24293656.437 8  97820890.69708     -1740.731 8        49.871
G26        11.000    20557290.443 8 108029676.39108     -1435.271 8        49.706                                    20557289.269 8  84179154.25308     -1118.393 8        50.935    20557289.410 7  84179174.25407     -1118.397 7        45.255
S27        12.000    39149333.719 5 205731183.40805      -525.927 5        35.276
R15        13.000    22654557.504 7 121059373.79507     -5029.073 7        45.615                                                                    22654559.004 7  94157428.30007     -3911.439 7        42.102
S36        14.000    38149591.040 7 200477968.10707      -549.342 7        43.983
G27        15.000    22731960.916 7 119457537.87307      2477.343 7        42.700                                    22731958.836 6  93083952.81806      1930.394 6        39.973    22731959.208 6  93083866.81706      1930.422 6        39.294
S45        17.000    63361469.540 6 332966859.92216      -603.900 6        37.119
G31        18.000    24167390.075 7 127000761.21207     -3825.594 7        42.929                                    24167386.784 5  98961779.90005     -2980.981 5        35.690    24167387.006 6  98961758.89906     -2980.969 6        38.015
G16        19.000    20801500.562 7 109312889.65507       953.075 7        47.435                                    20801495.722 6  85178996.25406       742.654 6        38.568
E21        20.000    23684381.976 7 124462649.78207        20.178 7        47.645                                                                    23684381.417 8  92943106.88508        15.068 8        50.606    23684380.925 8  95367684.14008        15.470 8        51.326
E26        21.000    27061670.181 6 142210341.33206      2291.178 6        39.649                                                                    27061670.527 6 106196218.56606      1711.055 6        41.397    27061670.478 7 108966531.72107      1755.567 7        42.836
I06        22.000    38654466.913 6 151688644.93206      -388.037 6        41.440
S28        23.000    40852828.114 5 214683037.25805      -545.010 5        34.257
E34        24.000    28579437.148 5 150186260.43405     -3458.599 5        34.667                                                                    28579438.196 6 112152262.58506     -2582.685 6        37.297    28579437.759 6 115077953.84306     -2650.087 6        37.898
S23        25.000    38103411.074 7 200234739.96807      -551.460 7        44.784
C13        26.000                                                                                                                                    37598993.698 7 195788027.33607      -629.524 7        45.391    37598994.418 7 151395833.87007      -486.785 7        45.491    37598992.995 7 159093897.49007      -511.592 7        43.771
G18        27.000    20548660.242 8 107984291.19008     -1322.045 8        48.870                                    20548656.345 7  84143776.74707     -1030.165 7        42.535    20548656.499 8  84143767.74708     -1030.136 8        49.625
I02        29.000    38888396.747 6 152606525.05106     -1016.410 6        40.424
G28        30.000    25592736.813 5 134490710.21905     -3965.975 5        31.600                                    25592746.306 1 104797998.70001     -3090.287 1         7.000    25592749.080 5 104797995.57305     -3089.900 5        31.117
R02        31.000    22773568.087 7 121524163.46807      1721.449 7        45.845                                                                    22773568.150 6  94518814.95306      1338.866 6        41.895
C12        32.000                                                                                                                                    26873833.968 5 139939374.22305     -3423.624 5        34.843    26873830.573 6 108210127.90406     -2647.383 6        41.859    26873830.566 6 113712296.45806     -2781.961 6        39.501
R17        33.000    21298624.301 8 113973607.17508     -3647.763 8        48.743                                                                    21298623.103 7  88646306.56107     -2837.234 7        45.428
R18        36.000    19229378.006 8 102648131.69508     -1002.810 8        51.355                                                                    19229377.435 7  79837642.20007      -779.964 7        47.805
E27        37.000    24662596.573 7 129603054.39307     -2735.867 7        46.294                                                                    24662596.619 8  96781653.41108     -2043.062 8        48.489    24662596.241 8  99306372.37508     -2096.315 8        49.393
R16        38.000    19619481.670 8 104803867.33108     -2271.476 8        53.159                                                                    19619481.169 7  81514174.31907     -1766.748 7        47.280
C22        39.000                                                                                                                                    26696682.357 6 139016610.05706     -2314.773 6        38.033                                                                    26696677.786 6 112962358.39806     -1880.923 6        37.391
R09        40.000    20992838.929 8 112100658.16408      2103.469 8        49.025                                                                    20992837.509 7  87189425.15107      1636.030 7        47.001
C34        41.000                                                                                                                                    23976729.449 7 124853457.09307     -3090.017 7        45.291                                                                    23976728.971 7 101453799.95507     -2510.836 7        45.031
S44        42.000    40446800.935 6 212549558.10606      -503.287 6        37.138
C38        43.000                                                                                                                                    38866181.111 7 202386567.58107     -1306.586 7        42.969                                                                    38866178.945 7 164455728.16107     -1061.734 7        42.863
C05        44.000                                                                                                                                    39261922.828 6 204447155.89806      -479.236 6        37.622    39261919.073 7 158091529.91907      -370.442 7        43.426    39261920.719 6 166130161.41506      -389.370 6        40.069
C08        45.000                                                                                                                                    37716127.154 7 196397967.31807      -900.170 7        42.491    37716121.076 7 151867442.93207      -696.123 7        46.268    37716120.274 7 159589488.35807      -731.488 7        42.660
C21        46.000                                                                                                                                    25285666.770 7 131669109.95307        83.920 7        42.021                                                                    25285661.469 7 106991913.09207        68.188 7        44.307
R19        47.000    20689710.036 6 110676354.70606      1782.935 6        40.794                                                                    20689708.325 7  86081775.40907      1386.768 7        44.011
C43        48.000                                                                                                                                    21534590.787 8 112136590.31308     -1137.452 8        51.270                                                                    21534589.097 8  91120291.82908      -924.287 8        49.886
C42        50.000                                                                                                                                    25457883.898 6 132565902.71306      2131.600 6        41.888                                                                    25457893.001 7 107720697.66407      1732.028 7        43.240
S48        51.000    77112937.383 6 405231629.15506      -589.922 6        38.042
R01        52.000    23054382.642 6 123238912.07006     -1618.017 6        40.486                                                                    23054383.403 5  95852476.95505     -1258.557 5        34.957
C37        53.000                                                                                                                                    23613651.534 7 122962507.12107       207.117 7        47.267                                                                    23613654.250 7  99917133.37607       168.213 7        47.884
C60        54.000                                                                                                                                    40446803.335 6 210617308.72006      -498.492 6        40.210                                                                    40446787.704 6 171143782.69706      -405.078 6        40.636
C25        55.000                                                                                                                                    25968237.525 6 135223567.94306     -4024.356 6        41.175                                                                    25968239.400 6 109880292.44606     -3270.192 6        41.056
C23        56.000                                                                                                                                    23343064.645 8 121553814.38808     -2751.675 8        48.498                                                                    23343056.638 8  98772541.27308     -2236.020 8        48.546
C02        57.000                                                                                                                                    40604527.050 5 211438466.44205      -462.307 5        33.659    40604522.258 6 163497625.01606      -357.337 6        39.324    40604525.357 5 171811074.24005      -375.844 5        35.062
I03        58.000   112527500.551 6 365796821.16006      1042.379 6        40.298
C11        59.000                                                                                                                                    22408867.353 7 116689166.59407     -2275.722 7        47.423    22408863.368 8  90231618.09708     -1759.739 8        51.258    22408862.348 8  94819617.20408     -1849.219 8        48.519
C28        60.000                                                                                                                                    23651679.648 7 123160809.84407      1805.834 7        46.417                                                                    23651678.707 7 100078381.07807      1467.443 7        45.487
> 2025 01 01 18 15 20.0000000  0 53
G10         1.000    25009518.035 6 131425921.71806      3097.906 6        39.285                                    25009520.436 5 102409850.33705      2413.926 5        30.755    25009521.179 5 102409827.36505      2413.974 5        34.829
G15         2.000    25191013.695 5 132379673.18105      2166.337 5        35.629                                    25191011.112 4 103152979.18504      1688.046 4        26.635    25191011.948 5 103152982.18405      1687.624 5        34.519
G05         3.000    23901225.338 6 125601923.20406     -3164.959 6        40.398                                    23901221.197 5  97871685.73505     -2466.205 5        33.862    23901221.549 6  97871684.74906     -2466.161 6        36.737
G29         4.000    22917357.303 7 120431888.13407     -3334.409 7        42.997                                    22917353.186 6  93843194.36606     -2598.239 6        40.381    22917353.620 6  93843197.36006     -2598.221 6        39.964
S21         5.000    38379049.284 7 201683026.38007      -550.456 7        42.364
E13         6.000    23459764.780 8 123282242.20608       520.308 8        48.452                                                                    23459764.813 8  92061622.00008       388.530 8        50.292    23459764.499 8  94463199.09308       398.619 8        51.063
G23         7.000    22312809.103 7 117254713.98207      2353.494 7        45.394                                    22312805.818 5  91367343.57605      1833.886 5        33.443    22312806.058 7  91367342.58207      1833.815 7        42.845
E15         8.000    24295819.089 7 127675716.57507     -2273.394 7        45.664                                                                    24295819.065 8  95342428.31608     -1697.694 8        48.870    24295818.852 8  97829597.97408     -1741.971 8        49.900
G26        11.000    20558657.875 8 108036861.77608     -1438.601 8        49.605                                    20558656.615 8  84184753.25308     -1120.989 8        50.998    20558657.062 7  84184773.25007     -1120.998 7        45.515
S27        12.000    39149837.031 5 205733813.82005      -526.144 5        35.567
R15        13.000    22659264.900 7 121084523.08807     -5030.350 7        46.357                                                                    22659265.708 6  94176988.84406     -3912.408 6        41.912
S36        14.000    38150114.842 7 200480715.99007      -549.471 7        44.041
G27        15.000    22729604.508 7 119445154.89607      2476.211 7        43.422                                    22729602.420 6  93074303.76406      1929.512 6        40.040    22729602.512 6  93074217.78606      1929.433 6        39.501
S45        17.000    63361991.633 6 332969881.08106      -604.262 6        37.361
G31        18.000    24171029.971 6 127019892.27806     -3826.598 6        41.683                                    24171027.351 5  98976687.21105     -2981.767 5        35.624    24171027.598 6  98976666.22006     -2981.879 6        37.444
G16        19.000    20800595.771 7 109308132.86907       949.913 7        47.891                                    20800590.509 6  85175289.67806       740.189 6        38.652
E21        20.000    23684363.731 8 124462555.06808        17.981 8        48.066                                                                    23684363.377 8  92943036.16408        13.367 8        50.604    23684362.830 8  95367611.57508        13.724 8        51.214
E26        21.000    27059490.519 6 142198888.07106      2290.259 6        39.640                                                                    27059491.126 6 106187665.83606      1710.143 6        41.540    27059490.947 7 108957755.87307      1754.920 7        43.014
I06        22.000    38654960.884 6 151690585.65706      -388.102 6        41.364
S28        23.000    40853343.509 5 214685764.89505      -545.709 5        34.043
E34        24.000    28582728.257 5 150203554.10205     -3458.640 5        35.086                                                                    28582729.088 6 112165176.68606     -2582.908 6        37.535    28582728.413 6 115091204.82306     -2650.052 6        38.009
S23        25.000    38103936.069 7 200237498.45207      -551.681 7        44.712
C13        26.000                                                                                                                                    37599598.566 7 195791178.55307      -630.715 7        45.350    37599599.615 7 151398270.60107      -487.749 7        45.526    37599598.097 7 159096458.10007      -512.489 7        43.583
