     3.04           OBSERVATION DATA    M                   RINEX VERSION / TYPE
ssrcrin-15.6.1x                         20250101 053000 UTC PGM / RUN BY / DATE 
(00000000023479385599111004) Septentrio proprietary         COMMENT             
rref                                                        MARKER NAME         
01                                                          MARKER NUMBER       
geodetic                                                    MARKER TYPE         
NFB                 CLIMERS@TUW                             OBSERVER / AGENCY   
3297213             SEPT ASTERX SB3 PROB4.14.4              REC # / TYPE / VERS 
Unknown             Unknown                                 ANT # / TYPE        
  4127831.7626  1207192.8708  4695247.5994                  APPROX POSITION XYZ 
        0.0000        0.0000        0.0000                  ANTENNA: DELTA H/E/N
G   23 X1  C1C L1C D1C S1C C1W S1W C2W L2W D2W S2W C2L L2L  SYS / # / OBS TYPES 
       D2L S2L C5Q L5Q D5Q S5Q C1L L1L D1L S1L              SYS / # / OBS TYPES 
E   21 X1  C1C L1C D1C S1C C6C L6C D6C S6C C5Q L5Q D5Q S5Q  SYS / # / OBS TYPES 
       C7Q L7Q D7Q S7Q C8Q L8Q D8Q S8Q                      SYS / # / OBS TYPES 
S    9 X1  C1C L1C D1C S1C C5I L5I D5I S5I                  SYS / # / OBS TYPES 
R   17 X1  C1C L1C D1C S1C C2P L2P D2P S2P C2C L2C D2C S2C  SYS / # / OBS TYPES 
       C3Q L3Q D3Q S3Q                                      SYS / # / OBS TYPES 
C   25 X1  C1P L1P D1P S1P C5P L5P D5P S5P C2I L2I D2I S2I  SYS / # / OBS TYPES 
       C7I L7I D7I S7I C6I L6I D6I S6I C7D L7D D7D S7D      SYS / # / OBS TYPES 
J   17 X1  C1C L1C D1C S1C C2L L2L D2L S2L C5Q L5Q D5Q S5Q  SYS / # / OBS TYPES 
       C1L L1L D1L S1L                                      SYS / # / OBS TYPES 
I    5 X1  C5A L5A D5A S5A                                  SYS / # / OBS TYPES 
SEPTENTRIO RECEIVERS OUTPUT ALIGNED CARRIER PHASES.         COMMENT             
NO FURTHER PHASE SHIFT APPLIED IN THE RINEX ENCODER.        COMMENT             
G L1C                                                       SYS / PHASE SHIFT   
G L2W                                                       SYS / PHASE SHIFT   
G L2L  0.00000                                              SYS / PHASE SHIFT   
G L5Q  0.00000                                              SYS / PHASE SHIFT   
G L1L  0.00000                                              SYS / PHASE SHIFT   
E L1C  0.00000                                              SYS / PHASE SHIFT   
E L6C  0.00000                                              SYS / PHASE SHIFT   
E L5Q  0.00000                                              SYS / PHASE SHIFT   
E L7Q  0.00000                                              SYS / PHASE SHIFT   
E L8Q  0.00000                                              SYS / PHASE SHIFT   
S L1C                                                       SYS / PHASE SHIFT   
S L5I                                                       SYS / PHASE SHIFT   
R L1C                                                       SYS / PHASE SHIFT   
R L2P  0.00000                                              SYS / PHASE SHIFT   
R L2C                                                       SYS / PHASE SHIFT   
R L3Q  0.00000                                              SYS / PHASE SHIFT   
C L1P  0.00000                                              SYS / PHASE SHIFT   
C L5P  0.00000                                              SYS / PHASE SHIFT   
C L2I                                                       SYS / PHASE SHIFT   
C L7I                                                       SYS / PHASE SHIFT   
C L6I                                                       SYS / PHASE SHIFT   
C L7D                                                       SYS / PHASE SHIFT   
J L1C                                                       SYS / PHASE SHIFT   
J L2L  0.00000                                              SYS / PHASE SHIFT   
J L5Q  0.00000                                              SYS / PHASE SHIFT   
J L1L  0.00000                                              SYS / PHASE SHIFT   
I L5A                                                       SYS / PHASE SHIFT   
  2025     1     1     5    30    0.0000000     GPS         TIME OF FIRST OBS   
 C1C    0.000 C2C    0.000 C2P    0.000                     GLONASS COD/PHS/BIS 
DBHZ                                                        SIGNAL STRENGTH UNIT
    18                                                      LEAP SECONDS        
 24 R01  1 R02 -4 R03  5 R04  6 R05  1 R06 -4 R07  5 R08  6 GLONASS SLOT / FRQ #
    R09 -2 R10 -7 R11  0 R12 -1 R13 -2 R14 -7 R15  0 R16 -1 GLONASS SLOT / FRQ #
    R17  4 R18 -3 R19  3 R20  2 R21  4 R22 -3 R23  3 R24  2 GLONASS SLOT / FRQ #
                                                            END OF HEADER       
> 2025 01 01 05 30  0.0000000  0 55
G16         1.000    24069469.347 6 126485935.10306     -2107.759 6        39.465                                    24069465.508 3  98560452.83503     -1642.399 3        21.024
R01         2.000    24311918.338 6 129961126.40406      3128.342 6        38.315                                                                    24311919.237 5 101080944.07405      2433.010 5        31.162
G09         3.000    21258204.534 7 111712659.86607     -2442.833 7        47.437                                    21258202.611 8  87048835.71708     -1903.504 8        49.039    21258202.882 7  87048836.71207     -1903.425 7        44.977
E34         4.000    25585566.388 7 134453062.39607     -2852.718 7        44.910                                                                    25585567.062 7 100403266.73607     -2130.299 7        47.014    25585566.738 7 103022481.93907     -2185.871 7        47.834
S21         5.000    38595536.746 7 202820738.48007      -403.452 7        43.448
E05         6.000    21993105.645 8 115574596.66808      -658.410 8        48.901                                                                    21993105.334 8  86305735.71308      -491.648 8        51.210    21993104.777 8  88557181.66308      -504.495 8        51.223
E15         7.000    25550992.589 7 134271394.91707      -215.563 7        43.731                                                                    25550993.014 7 100267624.41907      -160.938 7        47.057    25550992.607 7 102883299.25007      -165.114 7        47.744
R10         8.000    21008480.244 7 111987028.65607      3009.753 7        46.250
E31         9.000    26406429.410 6 138766736.06206      -439.544 6        41.969                                                                    26406430.352 7 103624535.33507      -328.275 7        44.373    26406429.998 7 106327781.99207      -336.748 7        45.154
G04        10.000    23453081.045 6 123246788.77606     -3336.674 6        40.825                                    23453079.281 4  96036461.38904     -2599.999 4        26.443    23453079.076 6  96036456.37806     -2600.124 6        41.592
E09        11.000    26355920.147 7 138501329.65907     -2574.973 7        43.096                                                                    26355921.156 7 103426329.68007     -1922.827 7        45.443    26355920.367 7 106124407.67607     -1973.017 7        46.216
S27        12.000    39236073.090 6 206186902.66606      -419.652 6        37.527
G06        13.000    23425015.469 7 123099303.21707     -3623.151 7        42.910                                    23425014.722 6  95921536.42706     -2823.232 6        40.067    23425015.773 6  95921547.43206     -2823.321 6        40.915
S36        14.000    38363601.366 7 201602593.86807      -403.763 7        44.998
G20        15.000    21519015.389 7 113083199.76707      1636.485 7        47.400                                    21519010.276 6  88116761.55306      1275.181 6        36.578
E36        16.000    28602874.834 5 150309110.86405     -3682.532 5        30.792                                                                    28602877.825 5 112243822.33205     -2749.925 5        30.498    28602877.172 5 115171918.10005     -2822.074 5        31.547
S45        17.000    63548129.991 6 333949131.19606      -444.245 6        36.979
E13        18.000    28496226.052 6 149748681.27606      2062.554 6        37.282                                                                    28496229.031 6 111825299.21706      1540.308 6        40.272    28496228.356 6 114742482.25506      1580.488 6        41.659
E24        19.000    26570366.192 7 139628207.03407      1943.323 7        42.971                                                                    26570365.619 7 104267828.94407      1451.232 7        45.952    26570364.793 7 106987855.77307      1489.086 7        45.804
R23        20.000    22531984.450 7 120530917.49307     -3650.280 7        45.204
G30        21.000    21778289.249 8 114445707.18808      2014.339 8        48.955                                    21778287.251 8  89178481.39008      1569.615 8        48.251    21778287.730 7  89178485.38207      1569.659 7        43.219
I06        22.000    38114186.980 7 149568481.40407      -297.296 7        43.507
S28        23.000    41024392.359 5 215584573.28905      -404.461 5        35.152
S23        25.000    38301222.312 7 201274259.24107      -400.176 7        45.123
E06        26.000    28317562.805 6 148809786.17706     -2875.221 6        36.594                                                                    28317568.196 6 111124168.81006     -2147.105 6        40.105    28317567.839 6 114023061.21106     -2203.161 6        41.030
C34        27.000                                                                                                                                    25904085.532 6 134889370.59406     -1448.302 6        40.923                                                                    25904084.825 6 109608668.00706     -1176.702 6        40.493
G13        28.000    25235818.944 5 132615122.88305      2968.079 5        35.305                                    25235814.588 1 103336438.02801      2312.761 1        10.667
R09        29.000    20101143.304 8 107338993.31808      -454.349 8        50.212                                                                    20101142.012 8  83485887.78108      -353.422 8        48.926
C22        30.000                                                                                                                                    21706924.577 8 113033683.49308       249.734 8        52.049                                                                    21706918.149 8  91849114.40808       203.071 8        50.026
I01        31.000   341585154.831 7  37312687.58807     -2905.192 7        42.377
E03        32.000    25303983.330 7 132973347.92007      1469.347 7        44.733                                                                    25303982.889 7  99298298.84007      1097.224 7        47.631    25303982.460 8 101888683.04608      1125.839 8        48.370
G05        33.000    24090301.011 6 126595410.40606      3116.325 6        41.621                                    24090296.785 5  98645772.80205      2428.309 5        35.643    24090296.945 6  98645775.79906      2428.400 6        38.688
R24        34.000    22581592.385 7 120753949.30207        90.659 7        44.289                                                                    22581592.883 7  93919741.81507        70.567 7        43.268
C36        35.000                                                                                                                                    22558096.702 8 117465939.16408      1269.807 8        50.773                                                                    22558101.162 8  95450720.78708      1031.951 8        50.096
G11        36.000    22531924.670 7 118406090.86207     -1749.529 7        46.377                                    22531920.840 5  92264485.99305     -1363.271 5        34.700    22531920.958 7  92264485.99307     -1363.246 7        45.065
I09        38.000    38461361.399 7 150930622.86007      -777.525 7        42.855
R08        39.000    20183670.942 8 108082656.99208      1396.362 8        51.078                                                                    20183667.967 7  84064291.01307      1086.063 7        47.026
R22        40.000    24670255.553 6 131691503.55606     -4618.483 6        39.273                                                                    24670254.064 5 102426732.62805     -3592.269 5        34.486
S44        42.000    40972632.281 6 215312765.10706      -462.894 6        37.747
C09        43.000                                                                                                                                    39493982.974 6 205655551.45606     -1181.517 6        39.949    39493979.678 7 159025908.10707      -913.545 7        44.327    39493977.326 6 167111961.95106      -960.096 6        40.467
C05        44.000                                                                                                                                    39377494.390 6 205048968.60906      -457.441 6        38.805    39377490.403 7 158556889.73707      -353.783 7        43.156    39377492.420 6 166619183.46206      -371.616 6        40.520
R06        45.000    23430303.819 5 125028592.69405     -3730.465 5        34.510
C44        46.000                                                                                                                                    26393442.001 6 137437598.65506     -3080.419 6        40.737                                                                    26393440.946 6 111679307.67806     -2503.037 6        38.348
C39        47.000                                                                                                                                    41688117.003 3                     -1533.900 3        20.119                                                                    41688113.383 3                     -1247.174 3        21.881
C06        49.000                                                                                                                                    40161915.778 6 209133644.57306     -1459.562 6        36.820    40161910.668 6 161715380.61906     -1128.825 6        40.644    40161910.192 6 169938194.07606     -1186.035 6        37.860
C16        50.000                                                                                                                                    40735722.230 6 212121605.91106     -1431.162 6        38.366    40735723.493 6 164025887.09706     -1106.843 6        39.183    40735721.062 5 172366176.47705     -1162.928 5        34.824
S48        51.000    77327633.401 6 406359085.62706      -389.168 6        38.450
C19        52.000                                                                                                                                    23550118.485 8 122631695.84308     -2484.257 8        49.091                                                                    23550114.119 8  99648299.09708     -2018.576 8        48.846
C12        53.000                                                                                                                                    25870082.167 6 134712300.95406     -2484.879 6        40.124    25870078.684 7 104168076.80607     -1921.323 7        43.651    25870077.646 6 109464755.42806     -2019.086 6        41.180
C60        54.000                                                                                                                                    40972632.020 6 213355395.26306      -458.520 6        39.709                                                                    40972619.627 6 173368692.92206      -372.453 6        39.547
R16        55.000    23018870.707 7 122962689.25507     -4049.770 7        43.657                                                                    23018870.683 6  95637667.25506     -3149.908 6        41.328
C02        57.000                                                                                                                                    40936308.923 5 213166082.42405      -482.425 5        35.038    40936306.815 6 164833513.16106      -373.067 6        40.276    40936308.755 5 173214892.40405      -391.941 5        35.881
I03        58.000   128254821.781 6 427514151.18706       901.973 6        41.244
R07        59.000    20053749.760 8 107349317.54108     -1777.986 8        51.376                                                                    20053748.651 8  83493915.35008     -1382.795 8        48.008
G07        60.000    20923511.637 8 109953826.43308      -261.875 8        50.046                                    20923506.852 8  85678301.26008      -204.058 8        50.755    20923507.044 7  85678302.26207      -204.043 7        46.665
> 2025 01 01 05 30  5.0000000  0 55
G16         1.000    24071476.850 6 126496481.39006     -2110.713 6        39.330                                    24071472.367 3  98568670.72703     -1644.698 3        20.381
R01         2.000    24308992.750 6 129945483.72106      3128.877 6        38.126                                                                    24308992.691 5 101068777.47605      2433.587 5        31.645
G09         3.000    21260529.753 7 111724877.02707     -2444.025 7        47.827                                    21260527.479 8  87058355.57808     -1904.433 8        49.063    21260527.468 7  87058356.57307     -1904.437 7        44.852
E34         4.000    25588281.790 7 134467329.54607     -2854.105 7        45.303                                                                    25588281.972 7 100413920.76707     -2131.349 7        47.146    25588281.752 7 103033413.89507     -2186.829 7        47.802
S21         5.000    38595919.714 7 202822755.31207      -403.146 7        43.513
E05         6.000    21993732.537 8 115577890.80408      -659.267 8        49.024                                                                    21993732.176 8  86308195.61908      -492.286 8        51.226    21993731.624 8  88559705.73408      -505.077 8        51.240
E15         7.000    25551198.669 7 134272478.62507      -217.823 7        43.991                                                                    25551199.241 7 100268433.67407      -162.700 7        47.182    25551198.844 7 102884129.61807      -166.939 7        47.664
R10         8.000    21005658.574 7 111971987.02407      3007.009 7        46.044
E31         9.000    26406848.845 7 138768939.44807      -441.724 7        42.123                                                                    26406849.566 7 103626180.71507      -329.926 7        44.447    26406849.296 7 106329470.29207      -338.488 7        45.237
G04        10.000    23456256.141 6 123263473.08806     -3337.124 6        41.442                                    23456254.263 4  96049462.12304     -2600.351 4        26.742    23456253.883 6  96049457.10806     -2600.240 6        41.483
E09        11.000    26358370.726 7 138514205.14307     -2575.231 7        42.870                                                                    26358371.385 7 103435944.46607     -1922.985 7        45.570    26358370.666 7 106134273.27207     -1973.171 7        45.977
S27        12.000    39236470.635 6 206189002.32006      -419.941 6        37.357
G06        13.000    23428463.687 7 123117422.24107     -3624.370 7        42.322                                    23428462.710 6  95935655.14706     -2824.182 6        40.141    23428463.760 6  95935666.13406     -2824.181 6        41.423
S36        14.000    38363985.993 7 201604612.83107      -403.673 7        44.796
G20        15.000    21517458.918 7 113075022.99107      1634.204 7        47.633                                    21517454.236 6  88110390.04206      1273.405 6        36.556
E36        16.000    28606378.676 5 150327523.52805     -3682.221 5        31.079                                                                    28606381.448 5 112257572.04005     -2749.767 5        30.023    28606381.290 5 115186026.46905     -2821.762 5        31.162
S45        17.000    63548512.990 6 333949753.43616      -444.280 6        37.025
E13        18.000    28494264.588 6 149738371.14006      2061.340 6        37.664                                                                    28494266.941 6 111817600.15806      1539.386 6        40.026    28494266.371 6 114734582.34206      1579.487 6        41.683
E24        19.000    26568517.685 7 139618493.21107      1942.228 7        42.997                                                                    26568517.113 7 104260575.11607      1450.361 7        45.961    26568516.339 7 106980412.70707      1488.228 7        45.910
R23        20.000    22535397.505 7 120549174.98807     -3652.628 7        45.237
G30        21.000    21776373.358 8 114435639.69908      2012.623 8        48.687                                    21776371.519 8  89170636.59408      1568.277 8        48.257    21776372.076 7  89170640.60207      1568.226 7        43.594
I06        22.000    38114565.232 7 149569967.20607      -297.048 7        43.405
S28        23.000    41024776.726 5 215586595.33905      -404.076 5        34.833
S23        25.000    38301602.324 7 201276259.27707      -399.828 7        44.990
E06        26.000    28320298.777 6 148824162.00306     -2875.058 6        36.938                                                                    28320303.880 6 111134903.93106     -2147.002 6        40.157    28320303.480 6 114034076.37606     -2203.052 6        41.111
C34        27.000                                                                                                                                    25905477.375 6 134896617.40506     -1450.445 6        41.647                                                                    25905476.347 6 109614556.62806     -1178.600 6        40.396
G13        28.000    25232995.448 6 132600282.47906      2968.105 6        36.132                                    25232990.544 1 103324874.10501      2312.787 1        10.667
R09        29.000    20101570.876 8 107341275.94708      -458.637 8        50.378                                                                    20101569.403 8  83487663.15208      -356.718 8        48.492
C22        30.000                                                                                                                                    21706685.493 8 113032438.60308       248.220 8        52.101                                                                    21706679.090 8  91848102.81208       201.740 8        49.920
I01        31.000   341588856.275 7  37327213.58307     -2905.208 7        42.190
E03        32.000    25302585.604 7 132966002.68507      1468.777 7        45.055                                                                    25302585.246 7  99292813.76307      1096.824 7        47.720    25302584.719 8 101883054.87908      1125.437 8        48.267
G05        33.000    24087336.198 6 126579830.09106      3115.716 6        41.933                                    24087331.925 5  98633632.30505      2427.829 5        35.567    24087332.669 6  98633635.31106      2428.000 6        38.432
R24        34.000    22581510.968 7 120753506.43607        86.474 7        46.263                                                                    22581509.924 7  93919397.36307        67.364 7        43.405
C36        35.000                                                                                                                                    22556878.390 8 117459595.64508      1267.587 8        50.782                                                                    22556882.942 8  95445566.13708      1030.072 8        50.013
G11        36.000    22533590.388 7 118414845.61707     -1752.360 7        46.231                                    22533586.824 5  92271307.87705     -1365.472 5        34.710    22533587.052 7  92271307.88107     -1365.475 7        45.150
I09        38.000    38462351.824 7 150934509.94807      -777.479 7        42.732
R08        39.000    20182367.444 8 108075679.14908      1394.891 8        50.828                                                                    20182364.868 7  84058863.81307      1084.896 7        46.942
R22        40.000    24674581.351 6 131714594.88806     -4617.781 6        40.255                                                                    24674580.536 5 102444692.55005     -3591.557 5        35.324
S44        42.000    40973074.534 6 215315078.03706      -462.372 6        37.652
C09        43.000                                                                                                                                    39495117.326 6 205661458.96006     -1181.365 6        40.072    39495114.108 7 159030476.15807      -913.393 7        44.334    39495111.742 6 167116762.26106      -959.972 6        40.439
C05        44.000                                                                                                                                    39377933.561 6 205051255.81706      -457.433 6        38.556    39377929.946 7 158558658.31607      -353.579 7        43.196    39377931.537 6 166621041.96806      -371.616 6        40.377
R06        45.000    23433799.782 5 125047247.07405     -3731.427 5        34.362
C44        46.000                                                                                                                                    26396400.115 6 137453001.61706     -3080.875 6        39.712                                                                    26396399.253 6 111691823.80306     -2503.315 6        38.498
C39        47.000                                                                                                                                    41689587.152 3                     -1537.489 3        22.095                                                                    41689585.812 3                     -1247.363 3        22.667
C06        49.000                                                                                                                                    40163317.059 6 209140942.75906     -1459.544 6        36.594    40163311.989 6 161721024.01806     -1128.545 6        40.725    40163311.517 6 169944124.40806     -1186.082 6        37.777
C16        50.000                                                                                                                                    40737097.310 6 212128762.02506     -1431.137 6        38.583    40737097.750 6 164031420.62006     -1106.634 6        39.291    40737095.137 5 172371991.33505     -1162.765 5        34.771
S48        51.000    77328007.814 6 406361031.53506      -389.193 6        38.222
C19        52.000                                                                                                                                    23552504.730 8 122644119.89108     -2485.405 8        48.940                                                                    23552500.013 8  99658394.62608     -2019.504 8        48.759
C12        53.000                                                                                                                                    25872468.864 6 134724729.01606     -2486.316 6        39.814    25872465.716 7 104177686.96207     -1922.598 7        43.829    25872464.429 6 109474854.20106     -2020.241 6        40.965
C60        54.000                                                                                                                                    40973072.287 6 213357687.17806      -458.313 6        39.649                                                                    40973059.786 6 173370555.24106      -372.353 6        39.640
R16        55.000    23022661.734 7 122982943.31507     -4051.889 7        43.084                                                                    23022662.394 6  95653420.36506     -3151.423 6        41.945
C02        57.000                                                                                                                                    40936771.763 5 213168494.40705      -482.445 5        34.943    40936770.070 6 164835378.21306      -372.944 6        40.319    40936771.934 5 173216852.29905      -391.936 5        35.910
I03        58.000   128253672.379 6 427509640.80606       902.171 6        41.161
R07        59.000    20055411.388 8 107358212.60608     -1779.906 8        51.013                                                                    20055409.932 7  83500833.73307     -1384.381 7        47.480
G07        60.000    20923761.941 8 109955141.44708      -264.118 8        50.331                                    20923757.097 8  85679325.94608      -205.804 8        50.710    20923757.176 7  85679326.94707      -205.843 7        46.546
> 2025 01 01 05 30 10.0000000  0 55
G16         1.000    24073487.237 6 126507043.66106     -2114.000 6        39.691                                    24073482.317 3  98576901.07503     -1647.281 3        20.476
R01         2.000    24306065.012 6 129929839.90006      3128.910 6        38.880                                                                    24306064.415 5 101056610.08405      2433.714 5        32.503
G09         3.000    21262855.896 7 111737101.54307     -2445.525 7        47.623                                    21262853.747 8  87067881.16908     -1905.603 8        49.007    21262853.940 7  87067882.16907     -1905.571 7        44.865
E34         4.000    25590998.041 7 134481604.71707     -2855.785 7        45.296                                                                    25590998.440 7 100424580.79007     -2132.596 7        47.289    25590998.258 7 103044352.01307     -2188.218 7        47.963
S21         5.000    38596303.146 7 202824772.18807      -403.251 7        43.481
E05         6.000    21994360.574 8 115581190.33908      -660.388 8        49.054                                                                    21994360.085 8  86310659.55808      -493.171 8        51.381    21994359.503 8  88562233.95508      -506.039 8        51.339
E15         7.000    25551407.519 7 134273575.21207      -220.572 7        44.095                                                                    25551407.958 7 100269252.56307      -164.693 7        47.340    25551407.520 7 102884969.86607      -168.983 7        47.766
R10         8.000    21002839.736 7 111956960.38907      3003.860 7        46.409
E31         9.000    26407270.495 6 138771155.16506      -444.253 6        41.976                                                                    26407271.226 7 103627835.31107      -331.805 7        44.625    26407270.846 7 106331168.05507      -340.399 7        45.442
G04        10.000    23459431.490 6 123280160.47306     -3337.796 6        41.762                                    23459429.852 4  96062465.25904     -2600.882 4        26.934    23459429.812 6  96062460.23206     -2600.782 6        41.368
E09        11.000    26360821.579 7 138527082.57807     -2575.617 7        42.938                                                                    26360821.801 7 103445560.72807     -1923.438 7        45.609    26360821.153 7 106144140.39607     -1973.537 7        46.096
S27        12.000    39236870.841 6 206191101.86606      -420.075 6        37.285
G06        13.000    23431912.447 7 123135547.80707     -3625.671 7        43.107                                    23431911.981 6  95949778.95506     -2825.196 6        40.091    23431912.534 6  95949789.95506     -2825.293 6        41.235
S36        14.000    38364371.294 7 201606631.86107      -403.865 7        44.770
G20        15.000    21515905.495 7 113066858.27807      1631.782 7        47.876                                    21515900.562 6  88104027.92606      1271.520 6        36.454
E36        16.000    28609882.263 5 150345934.43305     -3681.636 5        31.034                                                                    28609884.731 5 112271320.38505     -2749.532 5        30.332    28609884.410 5 115200133.49205     -2821.187 5        30.921
S45        17.000    63548890.350 6 333951975.82906      -444.603 6        36.813
E13        18.000    28492303.853 6 149728067.96006      2060.006 6        37.456                                                                    28492306.195 6 111809906.19306      1538.219 6        40.396    28492305.781 7 114726687.67107      1578.481 7        42.193
E24        19.000    26566670.546 7 139608786.53707      1940.687 7        43.151                                                                    26566669.877 7 104253326.62507      1449.226 7        45.983    26566669.243 7 106972975.12907      1486.960 7        46.158
R23        20.000    22538812.715 7 120567445.61507     -3655.418 7        45.163
G30        21.000    21774459.579 8 114425582.28908      2010.547 8        48.338                                    21774457.691 8  89162799.65008      1566.657 8        48.155    21774457.837 7  89162803.65107      1566.727 7        43.244
I06        22.000    38114944.109 7 149571453.21207      -297.186 7        43.323
S28        23.000    41025167.729 5 215588617.34305      -404.358 5        34.833
S23        25.000    38301982.810 7 201278259.24707      -399.880 7        44.993
E06        26.000    28323034.672 6 148838537.99506     -2875.320 6        37.077                                                                    28323039.536 6 111145639.16106     -2146.938 6        40.248    28323039.187 6 114045091.66106     -2203.049 6        41.166
C34        27.000                                                                                                                                    25906870.946 6 134903876.10406     -1452.856 6        41.080                                                                    25906870.443 6 109620454.93306     -1180.657 6        40.346
G13        28.000    25230170.772 6 132585443.15106      2967.748 6        36.314                                    25230166.692 2 103313310.96102      2312.515 2        12.242
R09        29.000    20102002.432 8 107343581.25108      -463.220 8        50.498                                                                    20102001.344 8  83489456.17508      -360.282 8        48.736
C22        30.000                                                                                                                                    21706448.274 8 113031202.14908       246.528 8        52.257                                                                    21706441.599 8  91847098.12608       200.193 8        49.839
I01        31.000   341592558.393 7  37341740.29307     -2905.439 7        42.180
E03        32.000    25301188.139 7 132958660.88907      1468.043 7        45.231                                                                    25301188.053 7  99287331.24907      1096.310 7        47.854    25301187.599 8 101877429.34708      1124.912 8        48.469
G05        33.000    24084372.381 7 126564254.11007      3114.752 7        42.345                                    24084367.910 5  98621495.18405      2427.079 5        35.624    24084368.700 6  98621498.17706      2427.136 6        38.510
R24        34.000    22581432.328 7 120753085.65907        81.985 7        46.653                                                                    22581430.853 7  93919070.08807        63.740 7        42.677
C36        35.000                                                                                                                                    22555662.347 8 117453264.33508      1265.115 8        50.609                                                                    22555667.082 8  95440421.45808      1027.943 8        49.905
G11        36.000    22535259.204 7 118423615.60307     -1755.464 7        46.386                                    22535255.700 5  92278141.62805     -1367.896 5        34.662    22535255.856 7  92278141.61807     -1367.848 7        45.077
I09        38.000    38463342.705 7 150938397.60207      -777.490 7        42.612
R08        39.000    20181066.233 8 108068709.77708      1393.063 8        50.924                                                                    20181063.992 7  84053443.18507      1083.552 7        47.286
R22        40.000    24678906.677 6 131737683.87606     -4617.454 6        41.085                                                                    24678907.538 6 102462650.66306     -3591.424 6        36.643
S44        42.000    40973511.778 6 215317390.87506      -462.203 6        37.667
C09        43.000                                                                                                                                    39496252.098 6 205667366.95906     -1181.578 6        40.303    39496248.788 7 159035044.60207      -913.670 7        44.521    39496246.341 6 167121563.01106      -960.215 6        40.482
C05        44.000                                                                                                                                    39378372.603 6 205053543.04506      -457.504 6        38.682    39378369.032 7 158560426.94507      -353.687 7        43.323    39378371.049 6 166622900.54406      -371.692 6        40.298
R06        45.000    23437296.759 5 125065905.81405     -3732.296 5        34.400
C44        46.000                                                                                                                                    26399358.453 6 137468407.14106     -3081.348 6        39.925                                                                    26399357.676 6 111704342.08406     -2503.834 6        38.129
C39        47.000                                                                                                                                    41691062.743 3                     -1534.054 3        22.552                                                                    41691058.443 3                     -1248.125 3        22.838
C06        49.000                                                                                                                                    40164718.623 6 209148240.84106     -1459.475 6        36.567    40164713.661 6 161726667.35306     -1128.614 6        40.949    40164713.094 6 169950054.72206     -1186.050 6        37.905
C16        50.000                                                                                                                                    40738471.573 6 212135917.73906     -1430.948 6        38.529    40738472.269 6 164036953.87206     -1106.624 6        39.538    40738469.347 5 172377805.98305     -1162.994 5        34.905
S48        51.000    77328384.240 6 406362977.35406      -389.080 6        38.411
C19        52.000                                                                                                                                    23554891.916 8 122656550.54708     -2486.724 8        48.432                                                                    23554887.243 8  99668495.56808     -2020.774 8        48.625
C12        53.000                                                                                                                                    25874855.941 6 134737165.74506     -2488.164 6        39.420    25874853.527 7 104187303.83107     -1923.982 7        43.627    25874852.725 6 109484960.11406     -2021.905 6        40.908
C60        54.000                                                                                                                                    40973512.452 6 213359978.98206      -458.220 6        39.673                                                                    40973499.968 6 173372417.53906      -372.504 6        39.363
R16        55.000    23026455.917 7 123003209.04707     -4054.215 7        43.627                                                                    23026455.996 6  95669182.60706     -3153.333 6        41.943
C02        57.000                                                                                                                                    40937235.117 5 213170906.33705      -482.422 5        35.024    40937233.357 6 164837243.24506      -373.007 6        40.348    40937235.163 5 173218812.18605      -391.853 5        35.886
I03        58.000   128252522.658 6 427505130.45606       902.079 6        40.992
R07        59.000    20057074.862 8 107367118.44108     -1782.181 8        51.233                                                                    20057073.250 7  83507760.49307     -1386.115 7        47.094
G07        60.000    20924014.603 8 109956468.78908      -266.650 8        50.307                                    20924009.686 8  85680360.23908      -207.781 8        50.683    20924009.737 7  85680361.24607      -207.728 7        46.455
> 2025 01 01 05 30 15.0000000  0 55
G16         1.000    24075499.980 6 126517622.23306     -2117.473 6        39.354                                    24075495.504 3  98585144.10303     -1649.960 3        20.690
R01         2.000    24303138.439 6 129914195.37906      3128.648 6        37.319                                                                    24303138.294 5 101044442.08105      2433.455 5        31.849
G09         3.000    21265183.189 7 111749333.71207     -2447.381 7        47.350                                    21265181.468 8  87077412.72408     -1907.048 8        48.987    21265181.729 7  87077413.71807     -1906.949 7        44.944
E34         4.000    25593715.926 7 134495888.23007     -2857.720 7        45.360                                                                    25593716.474 7 100435247.03507     -2133.935 7        47.154    25593716.350 8 103055296.51208     -2189.617 8        48.056
S21         5.000    38596686.467 7 202826789.28207      -403.509 7        43.520
E05         6.000    21994989.432 8 115584495.59208      -661.706 8        49.255                                                                    21994989.017 8  86313127.76508      -494.143 8        51.329    21994988.472 8  88564766.55108      -507.062 8        51.373
E15         7.000    25551618.700 7 134274685.03007      -223.416 7        44.319                                                                    25551619.028 7 100270081.31807      -166.819 7        47.174    25551618.629 7 102885820.24707      -171.209 7        47.836
R10         8.000    21000023.666 7 111941948.79207      3000.760 7        46.110
E31         9.000    26407694.520 6 138773383.54306      -446.972 6        41.907                                                                    26407695.363 7 103629499.35307      -333.794 7        44.602    26407694.829 7 106332875.51207      -342.549 7        45.433
G04        10.000    23462607.794 6 123296851.23806     -3338.606 6        41.821                                    23462605.934 4  96075471.02004     -2601.505 4        27.054    23462606.098 6  96075466.00606     -2601.432 6        40.925
E09        11.000    26363272.638 7 138539962.32307     -2576.330 7        43.139                                                                    26363272.676 7 103455178.69507     -1923.883 7        45.422    26363272.272 7 106154009.27507     -1974.075 7        46.157
S27        12.000    39237269.888 6 206193201.41606      -420.142 6        37.388
G06        13.000    23435363.201 7 123153680.25207     -3627.272 7        43.134                                    23435362.481 6  95963908.12906     -2826.443 6        40.072    23435362.967 6  95963919.13406     -2826.420 6        41.347
S36        14.000    38364755.528 7 201608651.25207      -403.855 7        44.873
G20        15.000    21514354.308 7 113058705.93907      1629.154 7        47.742                                    21514349.226 6  88097675.45506      1269.472 6        36.484
E36        16.000    28613385.284 5 150364343.91805     -3682.120 5        30.506                                                                    28613388.175 4 112285067.71004     -2749.135 4        29.592    28613387.791 5 115214239.41305     -2821.410 5        30.823
S45        17.000    63549271.542 6 333954198.53906      -444.479 6        37.074
E13        18.000    28490344.921 6 149717772.18106      2058.186 6        37.875                                                                    28490347.021 6 111802217.77306      1536.994 6        40.274    28490346.825 7 114718798.68407      1577.260 7        42.083
E24        19.000    26564824.706 7 139599087.28307      1938.981 7        42.916                                                                    26564823.972 7 104246083.67907      1447.883 7        45.678    26564823.578 7 106965543.22807      1485.734 7        46.363
R23        20.000    22542232.024 7 120585729.64507     -3658.248 7        45.273
G30        21.000    21772547.779 8 114415535.31408      2008.230 8        48.664                                    21772545.835 8  89154970.83908      1564.856 8        48.167    21772546.081 7  89154974.84407      1564.852 7        43.608
I06        22.000    38115322.939 7 149572939.62707      -297.376 7        43.079
S28        23.000    41025552.119 5 215590639.94505      -404.770 5        35.048
S23        25.000    38302363.591 7 201280259.62407      -400.272 7        45.059
E06        26.000    28325770.391 6 148852914.47306     -2875.711 6        37.285                                                                    28325775.320 6 111156374.77006     -2147.279 6        40.193    28325774.911 6 114056107.34206     -2203.167 6        41.159
C34        27.000                                                                                                                                    25908266.754 6 134911146.99006     -1455.503 6        41.290                                                                    25908266.708 6 109626363.10506     -1182.845 6        40.057
G13        28.000    25227346.494 6 132570605.25506      2967.342 6        36.136                                    25227343.224 1 103301748.96701      2312.201 1        11.333
R09        29.000    20102438.822 8 107345909.88408      -468.094 8        50.370                                                                    20102437.427 8  83491267.32908      -364.065 8        48.487
C22        30.000                                                                                                                                    21706212.448 8 113029974.48408       244.562 8        52.237                                                                    21706205.883 8  91846100.52208       198.647 8        49.522
I01        31.000   341596260.204 7  37356267.96307     -2905.824 7        42.167
E03        32.000    25299791.701 7 132951322.85207      1467.193 7        45.199                                                                    25299791.665 7  99281851.55407      1095.586 7        47.828    25299791.166 8 101871806.70008      1124.197 8        48.467
G05        33.000    24081409.081 7 126548682.74307      3113.788 7        42.138                                    24081404.798 5  98609361.64805      2426.323 5        35.624    24081405.215 6  98609364.66906      2426.235 6        38.189
R24        34.000    22581357.469 7 120752687.11307        77.395 7        45.878                                                                    22581356.709 7  93918760.12207        60.160 7        43.153
C36        35.000                                                                                                                                    22554448.958 8 117446945.58708      1262.399 8        50.699                                                                    22554453.572 8  95435286.93408      1025.731 8        49.555
G11        36.000    22536931.204 7 118432401.15907     -1758.759 7        46.262                                    22536927.559 5  92284987.51205     -1370.467 5        34.767    22536927.880 7  92284987.51307     -1370.442 7        45.118
I09        38.000    38464333.478 7 150942286.10007      -777.957 7        42.440
R08        39.000    20179766.627 8 108061749.19808      1391.178 8        51.036                                                                    20179763.748 7  84048029.40507      1082.021 7        47.022
R22        40.000    24683231.838 6 131760770.87106     -4617.561 6        40.923                                                                    24683231.586 6 102480607.18206     -3591.371 6        36.265
S44        42.000    40973949.559 6 215319703.97706      -462.623 6        37.732
C09        43.000                                                                                                                                    39497386.811 6 205673275.77906     -1181.871 6        40.253    39497383.350 7 159039613.67007      -913.931 7        44.761    39497381.085 6 167126364.39906      -960.577 6        40.021
C05        44.000                                                                                                                                    39378812.329 6 205055830.63706      -457.617 6        38.751    39378808.244 7 158562195.85707      -353.880 7        43.331    39378810.377 6 166624759.38906      -371.872 6        40.067
R06        45.000    23440794.915 5 125084569.12505     -3733.220 5        34.619
C44        46.000                                                                                                                                    26402317.191 6 137483815.58906     -3082.127 6        40.260                                                                    26402316.466 6 111716862.68806     -2504.661 6        38.102
C39        47.000                                                                                                                                    41692533.880 3                     -1533.500 3        22.514                                                                    41692531.422 3                     -1246.157 3        23.924
C06        49.000                                                                                                                                    40166119.784 6 209155539.13506     -1459.674 6        36.431    40166115.115 6 161732310.82006     -1128.799 6        41.144    40166114.663 6 169955985.12806     -1186.094 6        37.406
C16        50.000                                                                                                                                    40739845.596 6 212143073.43306     -1431.226 6        38.529    40739846.406 6 164042487.09406     -1106.609 6        39.520    40739843.722 5 172383620.54805     -1162.794 5        34.395
S48        51.000    77328758.255 6 406364923.46906      -389.040 6        38.384
C19        52.000                                                                                                                                    23557280.241 8 122668988.12608     -2488.310 8        48.386                                                                    23557275.744 8  99678602.09308     -2022.049 8        48.263
C12        53.000                                                                                                                                    25877247.043 6 134749611.44906     -2490.160 6        39.336    25877243.825 7 104196927.62707     -1925.596 7        43.723    25877242.862 6 109495073.23506     -2023.534 6        40.627
C60        54.000                                                                                                                                    40973952.486 6 213362271.05906      -458.521 6        39.787                                                                    40973940.177 6 173374279.98106      -372.888 6        38.955
R16        55.000    23030252.798 7 123023486.82107     -4056.922 7        43.856                                                                    23030252.261 6  95684954.17906     -3155.283 6        41.499
C02        57.000                                                                                                                                    40937698.153 5 213173318.63305      -482.668 5        35.233    40937696.206 6 164839108.54106      -373.142 6        40.348    40937698.535 5 173220772.30205      -391.882 5        35.510
I03        58.000   128251373.948 6 427500620.35206       901.931 6        40.942
R07        59.000    20058740.580 8 107376035.41508     -1784.583 8        51.049                                                                    20058739.453 7  83514695.91707     -1388.045 7        47.311
G07        60.000    20924269.295 8 109957808.80808      -269.377 8        50.538                                    20924264.675 8  85681404.41008      -209.904 8        50.675    20924264.812 7  85681405.41507      -209.924 7        46.141
> 2025 01 01 05 30 20.0000000  0 55
G16         1.000    24077515.799 6 126528217.36506     -2120.727 6        39.339                                    24077511.844 3  98593400.05403     -1652.512 3        21.238
R01         2.000    24300211.908 6 129898550.37606      3129.131 6        39.093                                                                    24300212.241 5 101032273.76105      2433.541 5        30.891
G09         3.000    21267512.378 7 111761573.78107     -2448.700 7        47.442                                    21267510.678 8  87086950.42908     -1908.078 8        49.014    21267510.948 7  87086951.43507     -1908.159 7        45.097
E34         4.000    25596435.660 7 134510180.30807     -2859.270 7        45.290                                                                    25596436.195 7 100445919.69107     -2135.133 7        47.252    25596436.002 8 103066247.58308     -2190.852 8        48.148
S21         5.000    38597071.541 7 202828806.86007      -403.471 7        43.596
E05         6.000    21995619.607 8 115587806.81908      -662.715 8        49.117                                                                    21995619.126 8  86315600.42908      -494.883 8        51.349    21995618.593 8  88567303.72308      -507.814 8        51.481
E15         7.000    25551832.549 7 134275808.32207      -225.934 7        44.394                                                                    25551832.851 7 100270920.13507      -168.737 7        47.212    25551832.382 7 102886680.94707      -173.149 7        47.974
R10         8.000    20997210.204 7 111926952.74107      2997.657 7        46.308
E31         9.000    26408121.158 7 138775624.84507      -449.457 7        42.085                                                                    26408121.906 7 103631173.04407      -335.616 7        44.591    26408121.483 7 106334592.86607      -344.436 7        45.594
G04        10.000    23465784.436 7 123313545.64907     -3339.194 7        42.694                                    23465782.892 4  96088479.62804     -2601.965 4        27.305    23465782.824 6  96088474.61006     -2601.868 6        40.610
E09        11.000    26365723.803 7 138552844.61207     -2576.704 7        43.458                                                                    26365724.137 7 103464798.57507     -1924.189 7        45.527    26365723.799 7 106163880.10807     -1974.411 7        46.296
S27        12.000    39237671.610 6 206195301.85606      -420.194 6        37.240
G06        13.000    23438815.111 7 123171819.79507     -3628.613 7        43.750                                    23438814.332 6  95978042.83006     -2827.490 6        40.095    23438815.030 6  95978053.83106     -2827.433 6        41.511
S36        14.000    38365138.437 7 201610671.60207      -404.159 7        45.150
G20        15.000    21512805.296 7 113050566.27407      1626.738 7        47.946                                    21512800.305 6  88091332.86106      1267.587 6        36.612
E36        16.000    28616888.689 5 150382752.18105     -3681.444 5        30.566                                                                    28616890.900 4 112298814.09604     -2749.000 4        28.957    28616890.999 5 115228344.44805     -2820.998 5        30.913
S45        17.000    63549653.973 6 333956421.78106      -444.562 6        37.217
E13        18.000    28488386.651 6 149707484.10806      2056.751 6        37.422                                                                    28488389.162 6 111794535.09406      1535.937 6        40.505    28488388.969 7 114710915.60607      1575.909 7        42.284
E24        19.000    26562980.532 7 139589395.77107      1937.559 7        43.060                                                                    26562979.780 7 104238846.50707      1446.910 7        45.758    26562979.417 7 106958117.27507      1484.648 7        46.600
R23        20.000    22545651.787 7 120604027.17407     -3660.819 7        45.079
G30        21.000    21770637.921 8 114405499.02208      2006.265 8        48.827                                    21770635.996 8  89147150.35608      1563.324 8        48.246    21770636.528 7  89147154.36607      1563.221 7        43.441
I06        22.000    38115701.769 7 149574426.68307      -297.399 7        43.045
S28        23.000    41025934.675 5 215592663.37805      -404.524 5        35.224
S23        25.000    38302745.516 7 201282260.69307      -400.206 7        45.314
E06        26.000    28328506.074 6 148867291.71506     -2875.610 6        37.323                                                                    28328511.280 6 111167110.94506     -2147.176 6        40.310    28328510.811 6 114067123.59606     -2203.282 6        41.027
C34        27.000                                                                                                                                    25909665.708 6 134918430.31006     -1457.936 6        41.454                                                                    25909665.507 6 109632281.42906     -1184.827 6        40.384
G13        28.000    25224524.049 6 132555769.11106      2967.123 6        36.707                                    25224520.083 1 103290188.36001      2312.030 1        11.630
R09        29.000    20102878.924 8 107348261.68108      -472.692 8        50.403                                                                    20102878.009 8  83493096.50908      -367.642 8        49.005
C22        30.000                                                                                                                                    21705978.378 8 113028755.83808       242.898 8        52.282                                                                    21705971.868 8  91845110.29508       197.360 8        49.726
I01        31.000   341599962.575 7  37370796.77807     -2905.809 7        42.254
E03        32.000    25298396.067 7 132943988.85507      1466.501 7        45.124                                                                    25298396.056 7  99276374.86007      1095.144 7        47.825    25298395.536 8 101866187.13908      1123.616 8        48.602
G05        33.000    24078446.918 7 126533116.25407      3112.902 7        42.470                                    24078442.630 5  98597231.92705      2425.642 5        35.771    24078443.089 6  98597234.91206      2425.755 6        37.739
R24        34.000    22581286.750 7 120752311.14307        72.899 7        45.488                                                                    22581286.628 7  93918467.68907        56.751 7        43.141
