     3.04           OBSERVATION DATA    M                   RINEX VERSION / TYPE
ssrcrin-15.6.1x                         20250101 031500 UTC PGM / RUN BY / DATE 
(00000000023479385599111004) Septentrio proprietary         COMMENT             
rref                                                        MARKER NAME         
01                                                          MARKER NUMBER       
geodetic                                                    MARKER TYPE         
NFB                 CLIMERS@TUW                             OBSERVER / AGENCY   
3297213             SEPT ASTERX SB3 PROB4.14.4              REC # / TYPE / VERS 
Unknown             Unknown                                 ANT # / TYPE        
  4127831.7290  1207193.2485  4695247.3416                  APPROX POSITION XYZ 
        0.0000        0.0000        0.0000                  ANTENNA: DELTA H/E/N
G   23 X1  C1C L1C D1C S1C C1W S1W C2W L2W D2W S2W C2L L2L  SYS / # / OBS TYPES 
       D2L S2L C5Q L5Q D5Q S5Q C1L L1L D1L S1L              SYS / # / OBS TYPES 
E   21 X1  C1C L1C D1C S1C C6C L6C D6C S6C C5Q L5Q D5Q S5Q  SYS / # / OBS TYPES 
       C7Q L7Q D7Q S7Q C8Q L8Q D8Q S8Q                      SYS / # / OBS TYPES 
S    9 X1  C1C L1C D1C S1C C5I L5I D5I S5I                  SYS / # / OBS TYPES 
R   17 X1  C1C L1C D1C S1C C2P L2P D2P S2P C2C L2C D2C S2C  SYS / # / OBS TYPES 
       C3Q L3Q D3Q S3Q                                      SYS / # / OBS TYPES 
C   25 X1  C1P L1P D1P S1P C5P L5P D5P S5P C2I L2I D2I S2I  SYS / # / OBS TYPES 
       C7I L7I D7I S7I C6I L6I D6I S6I C7D L7D D7D S7D      SYS / # / OBS TYPES 
J   17 X1  C1C L1C D1C S1C C2L L2L D2L S2L C5Q L5Q D5Q S5Q  SYS / # / OBS TYPES 
       C1L L1L D1L S1L                                      SYS / # / OBS TYPES 
I    5 X1  C5A L5A D5A S5A                                  SYS / # / OBS TYPES 
SEPTENTRIO RECEIVERS OUTPUT ALIGNED CARRIER PHASES.         COMMENT             
NO FURTHER PHASE SHIFT APPLIED IN THE RINEX ENCODER.        COMMENT             
G L1C                                                       SYS / PHASE SHIFT   
G L2W                                                       SYS / PHASE SHIFT   
G L2L  0.00000                                              SYS / PHASE SHIFT   
G L5Q  0.00000                                              SYS / PHASE SHIFT   
G L1L  0.00000                                              SYS / PHASE SHIFT   
E L1C  0.00000                                              SYS / PHASE SHIFT   
E L6C  0.00000                                              SYS / PHASE SHIFT   
E L5Q  0.00000                                              SYS / PHASE SHIFT   
E L7Q  0.00000                                              SYS / PHASE SHIFT   
E L8Q  0.00000                                              SYS / PHASE SHIFT   
S L1C                                                       SYS / PHASE SHIFT   
S L5I                                                       SYS / PHASE SHIFT   
R L1C                                                       SYS / PHASE SHIFT   
R L2P  0.00000                                              SYS / PHASE SHIFT   
R L2C                                                       SYS / PHASE SHIFT   
R L3Q  0.00000                                              SYS / PHASE SHIFT   
C L1P  0.00000                                              SYS / PHASE SHIFT   
C L5P  0.00000                                              SYS / PHASE SHIFT   
C L2I                                                       SYS / PHASE SHIFT   
C L7I                                                       SYS / PHASE SHIFT   
C L6I                                                       SYS / PHASE SHIFT   
C L7D                                                       SYS / PHASE SHIFT   
J L1C                                                       SYS / PHASE SHIFT   
J L2L  0.00000                                              SYS / PHASE SHIFT   
J L5Q  0.00000                                              SYS / PHASE SHIFT   
J L1L  0.00000                                              SYS / PHASE SHIFT   
I L5A                                                       SYS / PHASE SHIFT   
  2025     1     1     3    15    0.0000000     GPS         TIME OF FIRST OBS   
 C1C    0.000 C2C    0.000 C2P    0.000                     GLONASS COD/PHS/BIS 
DBHZ                                                        SIGNAL STRENGTH UNIT
    18                                                      LEAP SECONDS        
 24 R01  1 R02 -4 R03  5 R04  6 R05  1 R06 -4 R07  5 R08  6 GLONASS SLOT / FRQ #
    R09 -2 R10 -7 R11  0 R12 -1 R13 -2 R14 -7 R15  0 R16 -1 GLONASS SLOT / FRQ #
    R17  4 R18 -3 R19  3 R20  2 R21  4 R22 -3 R23  3 R24  2 GLONASS SLOT / FRQ #
                                                            END OF HEADER       
> 2025 01 01 03 15  0.0000000  0 53
G31         2.000    23736258.646 6 124734898.30006     -3281.196 6        41.240                                    23736254.174 5  97196013.32405     -2556.774 5        34.938    23736253.604 6  97196012.33906     -2556.823 6        38.081
G09         3.000    20426710.038 8 107343131.88208       824.726 8        50.446                                    20426707.344 8  83644010.26608       642.642 8        52.436    20426707.358 7  83644011.26707       642.587 7        44.987
E34         4.000    24545135.581 7 128985571.42707       845.859 7        46.678                                                                    24545135.385 8  96320403.11408       631.629 8        49.089    24545135.268 8  98833108.48008       648.143 8        50.287
S21         5.000    38603400.425 7 202862046.48007      -375.650 7        43.494
E05         6.000    23093715.652 7 121358335.99807      1372.750 7        46.604                                                                    23093715.603 8  90624760.43508      1025.022 8        49.567    23093715.127 8  92988876.75508      1051.766 8        50.110
E15         7.000    28444222.272 6 149475385.67806      2578.397 6        37.716                                                                    28444224.918 6 111621244.20406      1925.475 6        40.262    28444224.118 6 114533101.54106      1975.607 6        41.082
E04         8.000    26883155.012 6 141271957.80606     -2941.098 6        39.988                                                                    26883153.109 7 105495298.33807     -2196.400 7        43.628    26883153.261 7 108247341.52007     -2253.699 7        44.688
G04        10.000    20307542.143 8 106716900.57208     -1061.403 8        48.896                                    20307538.939 6  83156036.25006      -827.068 6        41.943    20307538.851 8  83156031.24908      -827.055 8        48.935
E09        11.000    23810752.800 8 125126399.37108     -1235.995 8        48.448                                                                    23810751.692 8  93438562.56408      -922.983 8        50.806    23810751.376 8  95876089.46308      -947.051 8        51.627
S27        12.000    39231647.051 6 206163705.58406      -374.400 6        36.004
G06        13.000    21616338.502 7 113594656.17207       991.363 7        47.376                                    21616336.834 8  88515321.83108       772.491 8        48.389    21616337.527 7  88515332.84007       772.396 7        45.058
S36        14.000    38370887.991 7 201640874.92707      -375.700 7        44.873
E21        15.000    29073473.700 4 152782153.90104     -1112.267 4        29.782                                                                    29073475.587 6 114090612.50106      -830.675 6        36.616    29073474.472 6 117066883.70006      -852.126 6        37.093
E36        16.000    24229221.621 8 127325443.04808     -2112.755 8        48.069                                                                    24229221.940 8  95080704.13408     -1577.761 8        49.768    24229221.638 8  97561065.17808     -1618.863 8        50.665
S45        17.000    63562315.583 6 334023197.89306      -415.324 6        37.796
G03        18.000    21531597.994 7 113149362.50507     -2724.347 7        46.656                                    21531596.145 7  88168352.67107     -2122.871 7        46.793    21531596.585 7  88168361.66807     -2122.889 7        43.046
R21        19.000    21763516.211 8 116461000.97108     -4410.584 8        49.132                                                                    21763514.712 7  90580785.87807     -3430.401 7        43.477
R23        20.000    22513502.240 7 120432057.60207      2908.755 7        43.708
R05        21.000    24080288.244 6 128722979.02206     -3814.542 6        41.526                                                                    24080287.663 6 100117876.02106     -2967.002 6        38.943
I06        22.000    38190974.118 7 149869812.24607      -219.444 7        43.312
S28        23.000    41034940.339 5 215640067.96705      -370.973 5        34.948
S23        25.000    38315008.199 7 201346746.63807      -371.121 7        44.596
E06        26.000    24780749.408 7 130223779.20707     -2263.248 7        45.401                                                                    24780749.213 8  97245029.51908     -1690.140 8        48.212    24780749.087 8  99781854.86708     -1734.205 8        49.050
R15        27.000    22491534.660 7 120187957.79907     -1291.615 7        46.571                                                                    22491534.964 7  93479537.00707     -1004.625 7        43.636
G26        28.000    24527482.742 6 128892801.80306       798.844 6        38.162                                    24527481.615 5 100435952.44705       622.470 5        30.068    24527481.624 5 100435953.45205       622.345 5        35.781
C22        30.000                                                                                                                                    24331284.774 7 126699406.81007      2064.158 7        46.331                                                                    24331278.637 7 102953632.26107      1677.311 7        45.415
I01        31.000   336442127.814 7  17130360.91707     -2676.644 7        42.809
G19        33.000    23613818.424 6 124091476.79906     -2940.053 6        41.447                                    23613812.999 4  96694676.22004     -2290.951 4        27.054
G17        34.000    24963349.569 6 131183320.70006     -3283.130 6        39.012                                    24963346.807 4 102220774.45404     -2558.281 4        29.621    24963347.394 5 102220774.43605     -2558.107 5        33.754
E11        35.000    27483760.433 6 144428189.16706     -3583.985 6        36.306                                                                    27483756.950 6 107852233.57806     -2676.319 6        38.994    27483757.073 6 110665763.10306     -2746.300 6        40.534
G11        36.000    24382515.710 6 128131010.25306      2857.965 6        39.177                                    24382512.424 4  99842344.27504      2226.976 4        24.887    24382512.959 6  99842344.27606      2227.128 6        40.150
C35        37.000                                                                                                                                    23819495.859 7 124034378.32307     -2293.046 7        47.039                                                                    23819494.885 7 100788090.80907     -1863.371 7        46.819
I09        38.000    37678699.721 7 147859305.08807      -570.601 7        43.189
C29        39.000                                                                                                                                    26322011.454 6 137065591.90406     -3751.102 6        40.949                                                                    26322010.263 6 111377009.13106     -3048.072 6        40.331
R22        40.000    20283482.318 8 108274644.56508      -448.940 8        51.768                                                                    20283480.781 8  84213627.94708      -349.287 8        48.198
S44        42.000    40872295.461 6 214785546.34206      -452.520 6        38.781
C09        43.000                                                                                                                                    38643094.475 7 201224758.18207      -536.618 7        42.713    38643090.259 7 155599739.09807      -414.972 7        46.328    38643088.608 7 163511580.57807      -436.201 7        42.645
C05        44.000                                                                                                                                    39312361.683 6 204709815.37906      -405.678 6        38.934    39312356.324 7 158294638.17507      -313.673 7        43.354    39312357.746 6 166343596.23006      -329.530 6        39.682
R06        45.000    19851721.540 6 105932650.63806     -1499.392 6        41.697
C44        46.000                                                                                                                                    24299677.073 7 126534833.74707       263.164 7        44.719                                                                    24299675.698 7 102819921.74207       213.632 7        44.318
C39        47.000                                                                                                                                    39897512.933 6 207756832.19006     -1402.533 6        41.392                                                                    39897509.251 6 168819433.33406     -1139.674 6        41.316
C20        48.000                                                                                                                                    23701571.119 8 123420345.03008     -2469.853 8        49.072                                                                    23701565.473 8 100289131.49908     -2007.021 8        48.027
C06        49.000                                                                                                                                    38714802.808 6 201598165.43306     -1016.742 6        40.644    38714797.178 7 155888473.72407      -786.298 7        43.410    38714797.212 6 163815002.87006      -826.147 6        41.430
C16        50.000                                                                                                                                    39263434.362 6 204455028.19606     -1080.890 6        41.726    39263434.099 7 158097606.68907      -835.766 7        42.650    39263431.913 6 166136457.13606      -878.263 6        38.694
S48        51.000    77347864.904 6 406464579.68506      -366.056 6        37.936
C19        52.000                                                                                                                                    22074495.402 8 114947752.51608      -170.989 8        51.332                                                                    22074490.273 8  93404468.53608      -138.995 8        50.140
C60        54.000                                                                                                                                    40872295.303 6 212832969.89006      -448.564 6        39.787                                                                    40872280.830 6 172944190.52306      -364.465 6        40.484
R16        55.000    22115324.816 8 118136105.24008      2332.596 8        48.760                                                                    22115325.194 7  91883656.27207      1814.297 7        44.674
C37        56.000                                                                                                                                    24877105.080 7 129541633.09507      -421.867 7        45.040                                                                    24877108.035 7 105263207.44707      -342.898 7        45.248
C02        57.000                                                                                                                                    40818024.137 5 212550206.54705      -446.915 5        34.686    40818017.959 6 164357294.98506      -345.751 6        39.426    40818021.205 5 172714455.72505      -363.514 5        35.614
I03        58.000   130762931.511 6 437356578.51106       944.753 6        40.918
R07        59.000    20501240.288 8 109744771.34508      1472.717 8        51.541                                                                    20501238.768 7  85357046.74207      1145.481 7        47.413
G07        60.000    23986391.191 7 126049354.00307      2943.031 7        42.241                                    23986387.618 6  98220267.28406      2293.269 6        36.594    23986388.398 6  98220268.29606      2293.315 6        39.045
> 2025 01 01 03 15  5.0000000  0 53
G31         2.000    23739381.851 6 124751310.24006     -3283.514 6        41.425                                    23739377.178 5  97208801.84605     -2558.588 5        34.705    23739377.382 6  97208800.85106     -2558.427 6        37.887
G09         3.000    20425926.358 8 107339014.09908       822.456 8        50.296                                    20425923.759 8  83640801.60408       640.872 8        52.360    20425924.053 7  83640802.60907       640.832 7        45.281
E34         4.000    24544332.031 7 128981347.43707       843.801 7        46.790                                                                    24544331.586 8  96317248.84308       630.111 8        49.262    24544331.443 8  98829871.91908       646.605 8        50.307
S21         5.000    38603758.830 7 202863924.12107      -375.409 7        43.369
E05         6.000    23092410.085 7 121351475.88707      1371.502 7        46.654                                                                    23092410.129 8  90619637.62308      1024.177 8        49.755    23092409.711 8  92983620.30808      1050.873 8        50.164
E15         7.000    28441769.152 6 149462494.75906      2577.994 6        37.093                                                                    28441771.871 6 111611617.86306      1925.150 6        39.183    28441771.236 6 114523224.08606      1975.365 6        40.276
E04         8.000    26885953.506 6 141286664.92706     -2941.548 6        40.122                                                                    26885951.726 7 105506280.93407     -2196.626 7        43.693    26885951.889 7 108258610.61507     -2253.849 7        44.718
G04        10.000    20308553.135 8 106722213.48808     -1063.674 8        48.728                                    20308549.937 6  83160176.18506      -828.837 6        41.847    20308549.772 8  83160171.18408      -828.819 8        48.916
E09        11.000    23811929.261 8 125132583.05408     -1237.305 8        48.689                                                                    23811928.412 8  93443180.25608      -924.039 8        50.937    23811928.048 8  95880827.61208      -948.114 8        51.744
S27        12.000    39232006.467 6 206165577.62506      -374.287 6        36.008
G06        13.000    21615396.791 7 113589707.38507       988.396 7        47.237                                    21615395.102 8  88511465.63108       770.178 8        48.360    21615395.949 7  88511476.63307       770.152 7        45.398
S36        14.000    38371242.121 7 201642753.30707      -375.614 7        44.600
E21        15.000    29074533.883 5 152787720.83605     -1114.546 5        31.215                                                                    29074534.870 6 114094769.60006      -832.282 6        36.340    29074534.023 6 117071149.26706      -854.025 6        37.217
E36        16.000    24231232.700 8 127336012.17008     -2114.778 8        48.122                                                                    24231233.142 8  95088596.66008     -1579.171 8        49.912    24231232.830 8  97569163.59608     -1620.355 8        50.690
S45        17.000    63562671.743 6 334025274.41306      -415.352 6        37.414
G03        18.000    21534190.754 7 113162988.72407     -2725.943 7        46.581                                    21534189.060 7  88178970.49807     -2124.107 7        46.722    21534189.519 7  88178979.49707     -2124.129 7        43.213
R21        19.000    21767638.979 8 116483059.70308     -4412.732 8        49.207                                                                    21767637.869 7  90597942.65907     -3432.085 7        43.962
R23        20.000    22510784.717 7 120417521.09707      2905.944 7        44.131
R05        21.000    24083856.308 6 128742051.66506     -3814.348 6        40.818                                                                    24083855.726 6 100132710.29506     -2966.850 6        39.246
I06        22.000    38191253.452 7 149870909.61507      -219.438 7        43.300
S28        23.000    41035292.506 5 215641923.13905      -371.093 5        35.162
S23        25.000    38315363.657 7 201348602.60307      -371.154 7        44.796
E06        26.000    24782903.729 7 130235098.26907     -2264.181 7        45.714                                                                    24782903.168 8  97253482.06608     -1690.773 8        48.355    24782903.050 8  99790527.92108     -1734.920 8        49.235
R15        27.000    22492745.986 7 120194427.02907     -1295.896 7        47.066                                                                    22492745.063 7  93484568.62807     -1008.043 7        43.137
G26        28.000    24526723.888 6 128888814.30506       796.390 6        37.811                                    24526722.714 4 100432845.31304       620.566 4        29.782    24526722.944 6 100432846.32206       620.466 6        36.219
C22        30.000                                                                                                                                    24329303.122 7 126689087.69807      2063.649 7        46.074                                                                    24329296.988 7 102945247.14607      1676.792 7        45.570
I01        31.000   336445538.055 7  17143744.07007     -2676.615 7        42.914
G19        33.000    23616616.943 6 124106181.89506     -2941.815 6        41.993                                    23616611.274 4  96706134.72104     -2292.315 4        26.970
G17        34.000    24966473.788 6 131199737.43306     -3283.342 6        38.730                                    24966470.763 4 102233566.71704     -2558.447 4        29.166    24966470.012 5 102233566.72005     -2558.459 5        33.317
E11        35.000    27487170.944 6 144446111.03206     -3584.518 6        36.450                                                                    27487167.434 6 107865616.79806     -2676.777 6        39.066    27487167.564 6 110679495.42106     -2746.444 6        40.720
G11        36.000    24379797.279 6 128116723.83006      2856.663 6        40.641                                    24379793.977 4  99831212.01004      2225.974 4        24.752    24379793.941 6  99831212.00506      2225.928 6        39.862
C35        37.000                                                                                                                                    23821699.023 7 124045849.31907     -2295.155 7        47.309                                                                    23821697.679 7 100797411.94507     -1865.149 7        46.938
I09        38.000    37679426.788 7 147862158.18207      -570.659 7        43.208
C29        39.000                                                                                                                                    26325612.708 6 137084346.58806     -3750.791 6        40.579                                                                    26325611.913 6 111392248.85706     -3047.938 6        40.420
R22        40.000    20283905.485 8 108276901.36508      -453.682 8        52.329                                                                    20283903.578 8  84215383.24108      -352.885 8        48.250
S44        42.000    40872724.021 6 214787809.27506      -452.451 6        38.667
C09        43.000                                                                                                                                    38643609.981 7 201227443.34207      -537.258 7        42.711    38643606.105 7 155601815.44507      -415.452 7        46.307    38643604.428 7 163513762.48607      -436.548 7        42.476
C05        44.000                                                                                                                                    39312751.291 6 204711843.63106      -405.447 6        38.622    39312745.704 7 158296206.56007      -313.589 7        43.357    39312747.067 6 166345244.37406      -329.580 6        39.778
R06        45.000    19853127.640 6 105940153.50306     -1501.420 6        41.902
C44        46.000                                                                                                                                    24299426.227 7 126533525.77007       260.235 7        44.942                                                                    24299424.462 7 102818858.89207       211.414 7        44.351
C39        47.000                                                                                                                                    39898860.187 6 207763845.68006     -1402.826 6        41.180                                                                    39898856.152 6 168825132.37506     -1140.020 6        41.316
C20        48.000                                                                                                                                    23703943.079 8 123432696.61008     -2470.729 8        48.717                                                                    23703937.560 8 100299168.16708     -2007.703 8        48.099
C06        49.000                                                                                                                                    38715779.142 6 201603250.61006     -1017.115 6        40.338    38715773.893 7 155892405.91107      -786.633 7        43.554    38715773.689 6 163819135.00406      -826.609 6        41.325
C16        50.000                                                                                                                                    39264472.580 6 204460433.89906     -1081.272 6        41.535    39264472.532 7 158101786.71707      -836.121 7        42.766    39264469.918 6 166140849.69606      -878.599 6        38.841
S48        51.000    77348206.388 6 406466409.86606      -366.160 6        37.614
C19        52.000                                                                                                                                    22074660.350 8 114948611.27708      -172.347 8        51.131                                                                    22074655.197 8  93405166.35808      -140.218 8        50.118
C60        54.000                                                                                                                                    40872726.086 6 212835212.24506      -448.389 6        39.733                                                                    40872711.402 6 172946012.61806      -364.246 6        40.679
R16        55.000    22113142.278 8 118124450.58408      2329.440 8        48.329                                                                    22113143.084 7  91874591.56007      1811.747 7        44.609
C37        56.000                                                                                                                                    24877511.386 7 129543750.11707      -424.695 7        44.740                                                                    24877514.533 7 105264927.70207      -345.213 7        45.312
C02        57.000                                                                                                                                    40818454.240 5 212552442.82505      -447.223 5        34.619    40818447.333 6 164359024.20806      -345.813 6        39.643    40818450.780 5 172716272.88305      -363.765 5        35.705
I03        58.000   130761727.786 6 437351854.80906       944.784 6        40.999
R07        59.000    20499865.575 8 109737412.55508      1470.941 8        51.024                                                                    20499863.940 7  85351323.24807      1144.019 7        47.565
G07        60.000    23983591.522 7 126034640.66407      2942.370 7        42.688                                    23983587.921 6  98208802.36406      2292.754 6        36.473    23983588.631 6  98208803.36806      2292.833 6        39.276
> 2025 01 01 03 15 10.0000000  0 53
G31         2.000    23742506.950 6 124767732.93206     -3285.794 6        41.549                                    23742502.216 5  97221598.75505     -2560.355 5        34.786    23742502.520 6  97221597.75506     -2560.405 6        38.441
G09         3.000    20425145.039 8 107334907.38908       820.090 8        50.347                                    20425142.272 8  83637601.57408       639.029 8        52.309    20425142.535 7  83637602.57807       639.034 7        44.980
E34         4.000    24543529.955 7 128977133.36507       841.614 7        47.034                                                                    24543529.646 8  96314101.97008       628.515 8        49.257    24543529.540 8  98826642.95408       644.975 8        50.322
S21         5.000    38604110.751 7 202865801.17407      -375.505 7        43.541
E05         6.000    23091106.001 7 121344621.83307      1370.038 7        46.647                                                                    23091105.862 8  90614519.33708      1023.067 8        49.753    23091105.429 8  92978368.49908      1049.807 8        50.124
E15         7.000    28439316.733 6 149449605.89206      2577.405 6        38.372                                                                    28439319.291 6 111601993.09206      1924.811 6        40.465    28439318.699 6 114513348.22006      1974.948 6        41.430
E04         8.000    26888752.286 6 141301372.95406     -2941.942 6        40.102                                                                    26888750.599 7 105517264.20607     -2196.817 7        43.464    26888750.462 7 108269880.40307     -2254.058 7        44.621
G04        10.000    20309566.261 8 106727537.41308     -1066.028 8        48.419                                    20309563.037 6  83164324.69806      -830.671 6        41.707    20309562.965 8  83164319.70008      -830.684 8        48.812
E09        11.000    23813107.413 8 125138773.29208     -1238.811 8        49.016                                                                    23813106.380 8  93447802.83108      -925.125 8        51.040    23813106.019 8  95885570.77808      -949.214 8        51.683
S27        12.000    39232362.251 6 206167449.65106      -374.252 6        36.253
G06        13.000    21614457.569 7 113584773.22507       985.238 7        47.182                                    21614456.141 8  88507620.83408       767.718 8        48.315    21614456.781 7  88507631.83307       767.724 7        44.898
S36        14.000    38371604.493 7 201644630.78307      -375.549 7        44.739
E21        15.000    29075595.183 5 152793298.56905     -1116.874 5        31.638                                                                    29075596.035 5 114098934.78105      -833.960 5        35.876    29075595.712 6 117075423.10006      -855.523 6        37.021
E36        16.000    24233245.703 8 127346590.91908     -2116.817 8        48.330                                                                    24233246.235 8  95096496.37308     -1580.708 8        49.874    24233245.894 8  97577269.39308     -1621.962 8        50.713
S45        17.000    63563023.861 6 334027350.57006      -415.385 6        37.981
G03        18.000    21536785.373 7 113176622.52007     -2727.606 7        46.952                                    21536783.428 7  88189594.23207     -2125.408 7        46.663    21536784.207 7  88189603.24107     -2125.371 7        43.166
R21        19.000    21771763.319 8 116505128.62908     -4414.932 8        49.746                                                                    21771761.470 7  90615107.38207     -3433.880 7        43.769
R23        20.000    22508070.842 7 120402998.85107      2902.916 7        44.373
R05        21.000    24087424.270 6 128761123.33506     -3814.403 6        41.230                                                                    24087423.928 6 100147543.81206     -2966.839 6        38.709
I06        22.000    38191533.141 7 149872006.75307      -219.444 7        43.363
S28        23.000    41035643.730 5 215643777.88905      -371.196 5        34.790
S23        25.000    38315717.988 7 201350458.28007      -371.214 7        44.790
E06        26.000    24785058.629 7 130246421.47607     -2265.192 7        45.988                                                                    24785057.885 8  97261937.70708     -1691.469 8        48.315    24785057.767 8  99799204.14108     -1735.676 8        49.161
R15        27.000    22493960.358 7 120200917.31407     -1300.387 7        47.090                                                                    22493959.411 7  93489616.62707     -1011.421 7        42.360
G26        28.000    24525967.765 6 128884839.92106       793.516 6        38.084                                    24525966.366 4 100429748.39604       618.313 4        29.981    24525966.671 5 100429749.41905       618.221 5        35.548
C22        30.000                                                                                                                                    24327322.068 7 126678771.45707      2062.814 7        46.251                                                                    24327315.833 7 102936864.36307      1676.280 7        45.445
I01        31.000   336448948.083 7  17157127.39807     -2676.737 7        42.942
G19        33.000    23619416.596 6 124120896.07206     -2943.880 6        41.583                                    23619411.274 4  96717600.32304     -2293.932 4        26.742
G17        34.000    24969598.066 6 131216154.89506     -3283.712 6        39.144                                    24969594.921 4 102246359.53104     -2558.740 4        29.204    24969595.475 5 102246359.52805     -2558.876 5        34.205
E11        35.000    27490581.430 6 144464034.67406     -3584.904 6        36.715                                                                    27490577.996 6 107879001.33706     -2677.091 6        39.096    27490578.287 6 110693229.13306     -2746.989 6        40.641
G11        36.000    24377080.467 6 128102443.97206      2855.069 6        39.823                                    24377076.680 4  99820084.84604      2224.729 4        24.632    24377076.716 6  99820084.83106      2225.058 6        39.781
C35        37.000                                                                                                                                    23823904.355 7 124057330.74507     -2297.504 7        47.348                                                                    23823902.529 7 100806741.54707     -1866.814 7        46.803
I09        38.000    37680153.851 7 147865011.47907      -570.704 7        43.009
C29        39.000                                                                                                                                    26329214.039 6 137103099.53406     -3750.423 6        40.689                                                                    26329213.289 6 111407487.16606     -3047.479 6        40.558
R22        40.000    20284333.073 8 108279180.89008      -458.339 8        52.108                                                                    20284331.040 8  84217156.20508      -356.482 8        48.266
S44        42.000    40873155.819 6 214790071.69106      -452.642 6        38.985
C09        43.000                                                                                                                                    38644126.289 7 201230131.29707      -538.062 7        42.828    38644122.155 7 155603893.94207      -416.082 7        46.330    38644120.545 7 163515946.68007      -437.114 7        42.493
C05        44.000                                                                                                                                    39313140.385 6 204713871.46906      -405.609 6        38.730    39313135.240 7 158297774.61607      -313.659 7        43.327    39313136.604 6 166346892.16706      -329.544 6        39.655
R06        45.000    19854535.785 6 105947665.71606     -1503.509 6        41.747
C44        46.000                                                                                                                                    24299177.695 7 126532231.20507       257.469 7        44.853                                                                    24299175.891 7 102817806.98307       209.170 7        44.296
C39        47.000                                                                                                                                    39900207.118 6 207770860.54006     -1403.207 6        41.294                                                                    39900203.380 6 168830832.52506     -1140.143 6        41.156
C20        48.000                                                                                                                                    23706315.903 8 123445051.84208     -2471.536 8        48.918                                                                    23706310.250 7 100309207.81507     -2008.287 7        47.965
C06        49.000                                                                                                                                    38716756.056 6 201608338.18406     -1017.778 6        40.417    38716750.874 7 155896339.93907      -787.122 7        43.649    38716750.662 6 163823269.07806      -827.142 6        41.309
C16        50.000                                                                                                                                    39265511.386 6 204465841.68506     -1081.943 6        41.819    39265510.806 7 158105968.36907      -836.570 7        42.686    39265508.441 6 166145243.99406      -879.114 6        38.775
S48        51.000    77348562.360 6 406468239.52206      -366.098 6        37.656
C19        52.000                                                                                                                                    22074826.614 8 114949476.77408      -173.918 8        51.327                                                                    22074821.441 8  93405869.65308      -141.298 8        50.092
C60        54.000                                                                                                                                    40873156.582 6 212837454.07706      -448.477 6        39.760                                                                    40873141.997 6 172947834.32806      -364.354 6        40.517
R16        55.000    22110964.237 8 118112811.35408      2326.138 8        48.648                                                                    22110963.557 7  91865538.81907      1809.271 7        44.053
C37        56.000                                                                                                                                    24877920.822 7 129545880.61107      -427.576 7        45.046                                                                    24877923.648 7 105266658.92007      -347.419 7        45.225
C02        57.000                                                                                                                                    40818882.845 5 212554678.61605      -447.204 5        34.952    40818876.466 6 164360753.05906      -345.862 6        39.532    40818880.221 5 172718089.66205      -363.598 5        35.605
I03        58.000   130760524.426 6 437347130.84106       944.637 6        40.925
R07        59.000    20498492.276 8 109730062.41308      1469.027 8        50.916                                                                    20498490.811 7  85345606.47107      1142.580 7        47.694
G07        60.000    23980792.362 7 126019930.35907      2941.481 7        42.705                                    23980788.704 6  98197339.80306      2292.059 6        36.495    23980788.511 6  98197340.78506      2292.228 6        38.592
> 2025 01 01 03 15 15.0000000  0 53
G31         2.000    23745634.329 6 124784166.90806     -3288.158 6        41.876                                    23745629.468 5  97234404.44405     -2562.202 5        34.738    23745629.783 6  97234403.45106     -2562.300 6        38.952
G09         3.000    20424365.705 8 107330812.28208       817.652 8        50.325                                    20424362.997 8  83634410.58408       637.130 8        52.216    20424363.411 7  83634411.58007       637.068 7        45.159
E34         4.000    24542729.784 7 128972929.75207       839.448 7        47.001                                                                    24542729.714 8  96310962.91508       626.812 8        49.201    24542729.598 8  98823422.01008       643.208 8        50.325
S21         5.000    38604473.588 7 202867678.17507      -375.539 7        43.293
E05         6.000    23089802.905 7 121337774.35407      1368.553 7        46.769                                                                    23089802.794 8  90609405.97208      1021.980 8        49.689    23089802.408 8  92973121.73808      1048.683 8        50.129
E15         7.000    28436864.195 6 149436719.50506      2576.887 6        37.856                                                                    28436866.888 6 111592370.14706      1924.120 6        40.157    28436866.332 6 114503474.24706      1974.420 6        41.325
E04         8.000    26891551.680 6 141316082.39706     -2942.358 6        40.012                                                                    26891549.944 7 105528248.53207     -2197.218 7        43.464    26891549.521 7 108281151.28407     -2254.559 7        44.597
G04        10.000    20310581.583 8 106732872.89108     -1068.454 8        48.412                                    20310578.350 6  83168482.21306      -832.560 6        41.604    20310578.374 8  83168477.21508      -832.586 8        48.936
E09        11.000    23814286.833 8 125144970.62608     -1240.426 8        48.928                                                                    23814285.704 8  93452430.71208      -926.319 8        50.963    23814285.313 8  95890319.38508      -950.454 8        51.706
S27        12.000    39232712.580 5 206169321.29405      -374.680 5        35.481
G06        13.000    21613521.713 7 113579854.26507       982.062 7        47.082                                    21613520.092 8  88503787.87908       765.243 8        48.222    21613520.918 7  88503798.88407       765.181 7        45.114
S36        14.000    38371958.489 7 201646507.98607      -375.697 7        44.733
E21        15.000    29076659.129 5 152798887.57705     -1118.724 5        32.245                                                                    29076659.455 5 114103108.45905      -835.840 5        35.452    29076659.176 6 117079705.64306      -857.490 6        36.839
E36        16.000    24235260.883 8 127357179.84708     -2119.015 8        48.104                                                                    24235261.242 8  95104403.68908     -1582.428 8        49.870    24235260.885 8  97585382.98408     -1623.701 8        50.728
S45        17.000    63563377.164 6 334027826.76216      -415.313 6        37.573
G03        18.000    21539380.983 7 113190264.47207     -2729.462 7        46.910                                    21539379.379 7  88200224.32107     -2126.852 7        46.571    21539380.162 7  88200233.32507     -2126.898 7        43.503
R21        19.000    21775889.074 8 116527208.39408     -4417.254 8        49.169                                                                    21775887.523 7  90632280.51407     -3435.604 7        43.448
R23        20.000    22505358.755 7 120388491.43807      2899.810 7        44.473
R05        21.000    24090991.457 6 128780194.57706     -3814.441 6        41.356                                                                    24090991.631 6 100162377.00706     -2966.907 6        38.988
I06        22.000    38191812.846 7 149873104.08307      -219.634 7        43.208
S28        23.000    41036000.682 5 215645632.46105      -371.179 5        34.876
S23        25.000    38316071.774 7 201352313.90007      -371.466 7        44.817
E06        26.000    24787213.718 7 130257749.37007     -2266.270 7        45.944                                                                    24787213.505 8  97270396.85408     -1692.386 8        48.336    24787213.353 8  99807883.95908     -1736.550 8        49.153
R15        27.000    22495178.851 7 120207429.12707     -1304.821 7        46.665                                                                    22495178.412 7  93494681.35307     -1014.853 7        42.125
G26        28.000    24525214.051 6 128880879.17906       790.517 6        38.931                                    24525212.643 5 100426662.11105       615.995 5        30.340    24525212.650 5 100426663.11105       616.135 5        35.790
C22        30.000                                                                                                                                    24325341.254 7 126668458.61807      2061.995 7        45.747                                                                    24325335.355 7 102928484.32807      1675.672 7        45.413
I01        31.000   336452358.714 7  17170511.33507     -2677.068 7        42.828
G19        33.000    23622218.251 7 124135619.87807     -2945.901 7        42.152                                    23622213.005 4  96729073.40204     -2295.510 4        26.503
G17        34.000    24972722.065 6 131232573.46106     -3284.082 6        39.012                                    24972719.444 4 102259153.22004     -2559.024 4        29.374    24972720.568 5 102259153.19705     -2558.922 5        34.695
E11        35.000    27493992.709 6 144481960.67306     -3585.604 6        37.040                                                                    27493989.322 6 107892387.62906     -2677.591 6        38.934    27493989.567 6 110706964.61806     -2747.406 6        40.846
G11        36.000    24374364.425 6 128088171.20806      2853.553 6        39.802                                    24374360.549 4  99808963.20904      2223.548 4        24.917    24374360.616 6  99808963.21906      2223.526 6        40.470
C35        37.000                                                                                                                                    23826110.847 7 124068823.15707     -2299.809 7        46.711                                                                    23826109.551 7 100816080.05207     -1868.680 7        46.797
I09        38.000    37680881.020 7 147867865.40307      -570.989 7        43.012
C29        39.000                                                                                                                                    26332815.291 6 137121851.31206     -3750.397 6        40.477                                                                    26332814.328 6 111422724.51006     -3047.546 6        40.555
R22        40.000    20284763.684 8 108281483.71308      -463.174 8        52.027                                                                    20284762.230 8  84218947.29608      -360.189 8        48.498
S44        42.000    40873585.994 6 214792334.12206      -452.692 6        38.940
C09        43.000                                                                                                                                    38644643.061 7 201232822.60507      -538.822 7        42.832    38644639.010 7 155605975.03407      -416.607 7        46.399    38644637.417 7 163518133.58607      -437.711 7        42.404
C05        44.000                                                                                                                                    39313529.702 6 204715899.49006      -405.952 6        38.628    39313524.692 7 158299342.79507      -313.734 7        43.181    39313526.163 6 166348540.08606      -329.835 6        39.625
R06        45.000    19855945.311 6 105955187.82306     -1505.664 6        41.485
C44        46.000                                                                                                                                    24298931.569 7 126530950.63907       254.470 7        44.668                                                                    24298929.947 7 102816766.39807       206.835 7        44.339
C39        47.000                                                                                                                                    39901554.531 6 207777877.31706     -1403.846 6        40.937                                                                    39901550.922 6 168836534.20706     -1140.462 6        41.068
C20        48.000                                                                                                                                    23708689.391 8 123457411.29708     -2472.523 8        48.787                                                                    23708683.724 7 100319250.86907     -2009.052 7        47.854
C06        49.000                                                                                                                                    38717734.188 6 201613428.70406     -1018.629 6        40.503    38717728.588 7 155900276.25307      -787.756 7        43.697    38717728.305 6 163827405.52406      -827.561 6        41.299
C16        50.000                                                                                                                                    39266550.274 6 204471252.12306     -1082.604 6        41.857    39266549.856 7 158110152.06607      -837.152 7        42.813    39266547.374 6 166149640.40606      -879.547 6        38.538
S48        51.000    77348907.798 6 406470069.22206      -365.942 6        37.527
C19        52.000                                                                                                                                    22074994.221 8 114950349.54008      -175.502 8        51.247                                                                    22074989.064 8  93406578.83808      -142.562 8        50.036
C60        54.000                                                                                                                                    40873587.110 6 212839695.93906      -448.484 6        39.727                                                                    40873572.574 6 172949656.02706      -364.474 6        40.536
R16        55.000    22108787.785 8 118101188.07508      2322.880 8        48.349                                                                    22108788.303 7  91856498.49107      1806.562 7        44.080
C37        56.000                                                                                                                                    24878332.769 7 129548025.12807      -430.523 7        45.088                                                                    24878335.459 7 105268401.51207      -349.803 7        45.269
C02        57.000                                                                                                                                    40819312.299 5 212556914.54905      -447.726 5        34.657    40819305.813 6 164362482.03306      -345.929 6        39.387    40819309.515 5 172719906.52005      -363.831 5        35.662
I03        58.000   130759320.469 6 437342407.03106       944.480 6        40.992
R07        59.000    20497121.103 8 109722721.35608      1467.050 8        50.782                                                                    20497119.338 7  85339896.77507      1141.015 7        47.633
G07        60.000    23977993.598 7 126005223.65007      2940.726 7        42.698                                    23977990.049 6  98185880.03306      2291.469 6        36.318    23977989.998 6  98185881.03206      2291.577 6        39.009
> 2025 01 01 03 15 20.0000000  0 53
G31         2.000    23748763.502 6 124800612.49906     -3290.284 6        41.752                                    23748758.973 5  97247219.18805     -2563.856 5        34.843    23748758.910 6  97247218.19306     -2563.810 6        38.913
G09         3.000    20423588.880 8 107326729.09108       815.405 8        50.397                                    20423585.990 8  83631228.88208       635.381 8        52.245    20423586.369 7  83631229.88207       635.471 7        45.276
E34         4.000    24541931.912 7 128968736.92007       837.463 7        47.282                                                                    24541931.831 8  96307831.90908       625.353 8        49.126    24541931.756 8  98820209.32708       641.646 8        50.336
S21         5.000    38604833.669 7 202869555.38007      -375.524 7        42.997
E05         6.000    23088501.330 7 121330933.79607      1367.368 7        46.805                                                                    23088501.060 8  90604297.76208      1021.055 8        49.538    23088500.668 8  92967880.27208      1047.654 8        50.146
E15         7.000    28434412.482 6 149423835.97306      2576.186 6        37.282                                                                    28434415.208 6 111582749.33706      1923.930 6        39.838    28434414.815 6 114493602.45806      1974.081 6        41.025
E04         8.000    26894351.289 6 141330793.55006     -2942.528 6        39.985                                                                    26894349.383 7 105539234.13807     -2197.292 7        43.312    26894348.941 7 108292423.47107     -2254.651 7        44.521
G04        10.000    20311599.030 8 106738220.22908     -1070.705 8        48.514                                    20311595.903 6  83172648.97306      -834.314 6        41.611    20311596.067 8  83172643.96608      -834.284 8        49.162
E09        11.000    23815467.397 8 125151175.36608     -1241.749 8        48.804                                                                    23815466.479 8  93457064.11908      -927.318 8        50.742    23815466.048 8  95895073.66508      -951.465 8        51.600
S27        12.000    39233074.992 5 206171193.37805      -374.675 5        35.852
G06        13.000    21612588.410 7 113574950.81307       979.061 7        47.063                                    21612586.990 8  88499967.01108       762.904 8        48.284    21612587.601 7  88499978.01407       762.940 7        45.129
S36        14.000    38372314.703 7 201648385.59507      -375.831 7        44.540
E21        15.000    29077724.740 5 152804488.43405     -1121.387 5        32.245                                                                    29077725.204 5 114107290.88105      -837.600 5        34.710    29077724.791 6 117083997.17806      -859.183 6        36.537
E36        16.000    24237277.880 8 127367779.25708     -2121.010 8        48.213                                                                    24237278.246 8  95112318.83108     -1583.881 8        49.665    24237277.875 8  97593504.61008     -1625.226 8        50.668
S45        17.000    63563725.874 6 334029903.31806      -415.614 6        37.467
G03        18.000    21541978.614 7 113203914.86807     -2731.050 7        46.827                                    21541976.990 7  88210860.98907     -2128.092 7        46.603    21541977.791 7  88210869.99407     -2128.132 7        43.909
R21        19.000    21780017.348 8 116549299.22408     -4419.323 8        49.054                                                                    21780015.649 7  90649462.28707     -3437.207 7        42.864
R23        20.000    22502648.911 7 120373999.06507      2896.926 7        43.898
R05        21.000    24094560.042 6 128799265.67806     -3814.336 6        41.614                                                                    24094559.720 6 100177210.06006     -2966.594 6        39.670
I06        22.000    38192092.661 7 149874201.82907      -219.577 7        43.327
S28        23.000    41036349.276 5 215647487.36705      -371.093 5        34.619
S23        25.000    38316425.766 7 201354169.75307      -371.339 7        44.697
E06        26.000    24789370.287 7 130269082.25907     -2267.088 7        45.859                                                                    24789370.040 8  97278859.72808     -1693.042 8        48.082    24789369.881 8  99816567.60408     -1737.155 8        49.146
R15        27.000    22496401.590 7 120213963.04707     -1308.987 7        47.023                                                                    22496401.380 7  93499763.30407     -1018.165 7        42.171
G26        28.000    24524462.896 6 128876932.37906       788.031 6        38.787                                    24524461.522 5 100423586.69105       614.054 5        30.740    24524462.205 5 100423587.69205       614.074 5        35.805
C22        30.000                                                                                                                                    24323361.498 7 126658149.49107      2061.340 7        46.047                                                                    24323355.624 7 102920107.33907      1674.943 7        45.573
I01        31.000   336455769.643 7  17183896.08107     -2677.079 7        42.899
G19        33.000    23625022.401 6 124150353.60306     -2947.868 6        41.788                                    23625016.623 4  96740554.23104     -2297.044 4        26.539
G17        34.000    24975846.863 6 131248993.56506     -3284.180 6        38.784                                    24975844.308 4 102271948.08704     -2559.106 4        29.621    24975844.540 5 102271948.10705     -2559.154 5        35.805
E11        35.000    27497404.400 6 144499889.27906     -3586.139 6        36.760                                                                    27497401.178 6 107905775.87306     -2677.928 6        38.685    27497401.262 6 110720702.12506     -2747.848 6        40.646
G11        36.000    24371649.629 6 128073905.90006      2852.252 6        40.193                                    24371645.827 4  99797847.38704      2222.535 4        25.143    24371645.981 6  99797847.38506      2222.655 6        40.036
C35        37.000                                                                                                                                    23828319.619 7 124080326.82507     -2301.944 7        46.540                                                                    23828318.708 7 100825427.74107     -1870.635 7        46.816
I09        38.000    37681608.579 7 147870720.18407      -571.172 7        43.054
C29        39.000                                                                                                                                    26336416.114 6 137140602.19206     -3750.183 6        40.296                                                                    26336415.210 6 111437961.12806     -3047.346 6        40.696
