     3.04           OBSERVATION DATA    M                   RINEX VERSION / TYPE
ssrcrin-15.6.1x                         20250101 124500 UTC PGM / RUN BY / DATE 
(00000000023479385599111004) Septentrio proprietary         COMMENT             
rref                                                        MARKER NAME         
01                                                          MARKER NUMBER       
geodetic                                                    MARKER TYPE         
NFB                 CLIMERS@TUW                             OBSERVER / AGENCY   
3297213             SEPT ASTERX SB3 PROB4.14.4              REC # / TYPE / VERS 
Unknown             Unknown                                 ANT # / TYPE        
  4127831.7905  1207193.7559  4695247.8126                  APPROX POSITION XYZ 
        0.0000        0.0000        0.0000                  ANTENNA: DELTA H/E/N
G   23 X1  C1C L1C D1C S1C C1W S1W C2W L2W D2W S2W C2L L2L  SYS / # / OBS TYPES 
       D2L S2L C5Q L5Q D5Q S5Q C1L L1L D1L S1L              SYS / # / OBS TYPES 
E   21 X1  C1C L1C D1C S1C C6C L6C D6C S6C C5Q L5Q D5Q S5Q  SYS / # / OBS TYPES 
       C7Q L7Q D7Q S7Q C8Q L8Q D8Q S8Q                      SYS / # / OBS TYPES 
S    9 X1  C1C L1C D1C S1C C5I L5I D5I S5I                  SYS / # / OBS TYPES 
R   17 X1  C1C L1C D1C S1C C2P L2P D2P S2P C2C L2C D2C S2C  SYS / # / OBS TYPES 
       C3Q L3Q D3Q S3Q                                      SYS / # / OBS TYPES 
C   25 X1  C1P L1P D1P S1P C5P L5P D5P S5P C2I L2I D2I S2I  SYS / # / OBS TYPES 
       C7I L7I D7I S7I C6I L6I D6I S6I C7D L7D D7D S7D      SYS / # / OBS TYPES 
J   17 X1  C1C L1C D1C S1C C2L L2L D2L S2L C5Q L5Q D5Q S5Q  SYS / # / OBS TYPES 
       C1L L1L D1L S1L                                      SYS / # / OBS TYPES 
I    5 X1  C5A L5A D5A S5A                                  SYS / # / OBS TYPES 
SEPTENTRIO RECEIVERS OUTPUT ALIGNED CARRIER PHASES.         COMMENT             
NO FURTHER PHASE SHIFT APPLIED IN THE RINEX ENCODER.        COMMENT             
G L1C                                                       SYS / PHASE SHIFT   
G L2W                                                       SYS / PHASE SHIFT   
G L2L  0.00000                                              SYS / PHASE SHIFT   
G L5Q  0.00000                                              SYS / PHASE SHIFT   
G L1L  0.00000                                              SYS / PHASE SHIFT   
E L1C  0.00000                                              SYS / PHASE SHIFT   
E L6C  0.00000                                              SYS / PHASE SHIFT   
E L5Q  0.00000                                              SYS / PHASE SHIFT   
E L7Q  0.00000                                              SYS / PHASE SHIFT   
E L8Q  0.00000                                              SYS / PHASE SHIFT   
S L1C                                                       SYS / PHASE SHIFT   
S L5I                                                       SYS / PHASE SHIFT   
R L1C                                                       SYS / PHASE SHIFT   
R L2P  0.00000                                              SYS / PHASE SHIFT   
R L2C                                                       SYS / PHASE SHIFT   
R L3Q  0.00000                                              SYS / PHASE SHIFT   
C L1P  0.00000                                              SYS / PHASE SHIFT   
C L5P  0.00000                                              SYS / PHASE SHIFT   
C L2I                                                       SYS / PHASE SHIFT   
C L7I                                                       SYS / PHASE SHIFT   
C L6I                                                       SYS / PHASE SHIFT   
C L7D                                                       SYS / PHASE SHIFT   
J L1C                                                       SYS / PHASE SHIFT   
J L2L  0.00000                                              SYS / PHASE SHIFT   
J L5Q  0.00000                                              SYS / PHASE SHIFT   
J L1L  0.00000                                              SYS / PHASE SHIFT   
I L5A                                                       SYS / PHASE SHIFT   
  2025     1     1    12    45    0.0000000     GPS         TIME OF FIRST OBS   
 C1C    0.000 C2C    0.000 C2P    0.000                     GLONASS COD/PHS/BIS 
DBHZ                                                        SIGNAL STRENGTH UNIT
    18                                                      LEAP SECONDS        
 24 R01  1 R02 -4 R03  5 R04  6 R05  1 R06 -4 R07  5 R08  6 GLONASS SLOT / FRQ #
    R09 -2 R10 -7 R11  0 R12 -1 R13 -2 R14 -7 R15  0 R16 -1 GLONASS SLOT / FRQ #
    R17  4 R18 -3 R19  3 R20  2 R21  4 R22 -3 R23  3 R24  2 GLONASS SLOT / FRQ #
                                                            END OF HEADER       
> 2025 01 01 12 45  0.0000000  0 57
G19         1.000    22349976.860 7 117450044.87707     -3092.803 7        43.926                                    22349979.701 5  91519595.26205     -2409.975 5        32.317
G25         2.000    21745120.005 7 114271440.23407      2065.481 7        44.620                                    21745128.023 7  89042748.49707      1609.459 7        43.141    21745128.765 7  89042758.50107      1609.496 7        42.370
G24         3.000    20904462.729 8 109853693.45808     -2691.497 8        49.825                                    20904467.066 8  85600309.76008     -2097.268 8        50.785    20904467.178 7  85600306.76507     -2097.306 7        44.953
G29         4.000    25418082.784 6 133572961.46906      3255.726 6        38.943                                    25418099.064 4 104082909.28304      2536.917 4        29.687    25418099.938 5 104082912.29905      2537.150 5        34.681
S21         5.000    38525214.991 7 202450980.24407      -598.174 7        43.253
G06         6.000    23292462.052 7 122402813.93507       782.045 7        42.527                                    23292470.629 6  95378901.99306       609.378 6        39.228    23292471.837 6  95378893.01006       609.342 6        40.751
G17         7.000    25381431.817 6 133380409.74406     -4022.857 6        39.051                                    25381438.763 4 103932856.91004     -3134.716 4        28.531    25381438.370 5 103932852.95505     -3134.871 5        34.443
G11         9.000    24331386.611 7 127862382.90107      2336.336 7        42.188                                    24331396.621 4  99633104.51504      1820.506 4        26.731    24331396.551 6  99633104.54706      1820.540 6        41.278
E30        10.000    23857029.709 8 125369674.46108        73.575 8        48.838                                                                    23857037.053 8  93620318.00108        54.940 8        51.021    23857035.917 8  96062576.13508        56.393 8        51.553
C26        11.000                                                                                                                                    23460291.014 7 122163858.59807     -2745.497 7        47.741                                                                    23460296.659 7  99268148.85807     -2230.956 7        46.975
S27        12.000    39305556.360 6 206551920.80506      -619.180 6        36.858
G15        13.000    25749212.980 3                     -4349.283 3        22.743                                                                                                    25749231.866 3                     -3390.625 3        19.493
S36        14.000    38297232.865 7 201253664.45407      -598.576 7        44.950
G12        15.000    20277657.949 8 106559950.28108      -169.962 8        50.916                                    20277659.092 8  83033801.53908      -132.439 8        51.476    20277659.406 7  83033801.54207      -132.414 7        46.575
E29        16.000    26578373.679 6 139670186.17806      1186.560 6        41.192                                                                    26578388.965 7 104299162.00907       886.084 7        44.572    26578387.126 7 107020009.13207       909.084 7        45.047
S45        17.000    63490607.003 6 333647028.92906      -661.773 6        36.454
R03        18.000    22541703.438 7 120667337.51907     -4524.557 7        46.513                                                                    22541715.944 7  93852345.96807     -3519.084 7        42.815
C35        19.000                                                                                                                                    23171193.809 8 120658614.85008     -1184.570 8        48.344                                                                    23171198.715 7  98045082.61307      -962.580 7        47.340
E11        20.000    27542104.896 5 144734785.33205     -1429.699 5        35.181                                                                    27542115.876 6 108081242.05206     -1067.556 6        37.350    27542114.031 6 110900742.71206     -1095.673 6        36.658
R14        21.000    21008676.316 8 111988110.30108      1898.921 8        50.779                                                                    21008685.614 7  87101927.39207      1476.908 7        46.373
I06        22.000    38536675.560 7 151226203.19407      -554.097 7        42.190
S28        23.000    40994069.616 5 215425054.12805      -606.410 5        35.510
E34        24.000    27791309.602 6 146044364.32306      2434.666 6        38.850                                                                    27791329.970 6 109059211.59206      1817.939 6        40.834    27791328.058 7 111904223.48107      1865.357 7        42.705
S23        25.000    38236104.461 7 200931889.18907      -603.029 7        45.676
E08        26.000    26490808.693 6 139209952.58906     -3666.517 6        41.855                                                                    26490821.436 7 103955427.42707     -2738.009 7        45.073    26490819.591 7 106667312.18007     -2809.395 7        45.797
C07        27.000                                                                                                                                    40253565.113 6 209610780.27506     -1527.496 6        38.279    40253571.072 6 162084339.53306     -1180.982 6        39.456    40253566.797 6 170325908.10806     -1241.276 6        38.360
R24        28.000    23519293.940 7 125768295.55007      3925.405 7        44.512                                                                    23519310.585 6  97819895.86606      3053.071 6        40.265
I02        29.000    37070402.727 7 145472199.50807      -597.500 7        42.622
E07        31.000    24623018.188 7 129394744.43507     -1607.565 7        46.766                                                                    24623028.238 8  96625937.81808     -1200.456 8        49.661    24623026.847 8  99146613.07508     -1231.776 8        50.274
C12        32.000                                                                                                                                    24524167.519 7 127703869.18407      2628.831 7        42.184    24524175.465 8  98748814.41408      2032.787 8        48.424    24524171.481 7 103769910.31107      2136.166 7        45.124
E10        33.000    29030984.133 5 152559012.60305     -2538.736 5        31.441                                                                    29030988.582 6 113924056.64906     -1895.915 6        36.764    29030987.967 6 116895971.47706     -1945.194 6        38.204
R23        34.000    20680893.057 8 110628958.28508      1454.962 8        48.286
C24        35.000                                                                                                                                    21422000.551 8 111550018.80708      -246.992 8        51.495                                                                    21422001.858 8  90643550.35008      -200.731 8        49.713
R05        36.000    22950268.820 7 122682252.38507      1858.244 7        44.950                                                                    22950283.270 7  95419541.42307      1445.408 7        42.447
E27        37.000    27000431.690 6 141888236.15506      1741.880 6        41.156                                                                    27000448.792 7 105955586.14007      1300.802 7        43.009    27000446.642 7 108719632.85207      1334.624 7        43.674
R04        38.000    21284736.613 8 113978695.19708     -1645.068 8        49.800                                                                    21284743.976 7  88650080.01307     -1279.469 7        44.758
C33        39.000                                                                                                                                    25658414.323 7 133609967.40807     -3219.968 7        43.524                                                                    25658437.912 7 108569090.16207     -2616.415 7        42.736
E25        40.000    28958195.863 5 152176192.30305     -3136.937 5        31.774                                                                    28958212.125 5 113638022.83405     -2343.103 5        34.038    28958210.226 5 116602490.36205     -2403.692 5        35.671
C34        41.000                                                                                                                                    26142711.035 6 136131962.08106      2929.556 6        39.829                                                                    26142727.493 6 110618439.58106      2380.424 6        40.186
S44        42.000    40869700.476 6 214771687.05706      -526.950 6        37.747
R22        43.000    21584071.661 8 115217360.04608     -2279.071 8        48.562                                                                    21584078.929 7  89613586.91607     -1772.590 7        45.332
C05        44.000                                                                                                                                    39551421.647 6 205954461.34306      -598.999 6        38.492    39551428.043 7 159257026.10107      -463.113 7        42.518    39551427.090 6 167354931.93006      -486.720 6        39.661
C40        45.000                                                                                                                                    40775122.305 6 212326671.89806     -1800.684 6        39.312                                                                    40775130.586 6 172532809.45506     -1463.295 6        38.544
G32        46.000    23338661.322 7 122645385.82607      1036.065 7        45.141                                    23338671.552 6  95567832.15606       807.318 6        41.063    23338672.139 6  95567834.18106       807.188 6        40.553
E36        47.000    26590170.527 6 139732363.56306       964.827 6        41.058                                                                    26590183.411 7 104345705.75607       720.435 7        44.330    26590181.863 7 107067751.31307       739.162 7        45.085
C41        48.000                                                                                                                                    25490709.450 7 132736783.28607     -1043.255 7        43.094                                                                    25490726.755 7 107859575.84807      -847.673 7        43.829
C10        49.000                                                                                                                                    39285346.928 6 204569081.38506     -1281.367 6        39.456    39285354.663 7 158185795.94007      -990.932 7        43.026    39285350.170 6 166229130.70306     -1041.405 6        39.844
C44        50.000                                                                                                                                    22882594.660 8 119155680.54008      1586.245 8        48.493                                                                    22882598.950 7  96823775.95707      1288.944 7        47.399
S48        51.000    77233676.670 6 405866955.18706      -608.184 6        38.471
E02        53.000    24498168.917 7 128738795.28107     -2292.248 7        46.465                                                                    24498176.437 8  96136179.87008     -1711.739 8        49.104    24498175.017 8  98644062.95108     -1756.403 8        49.748
C60        54.000                                                                                                                                    40869703.533 6 212819234.44406      -522.173 6        39.210                                                                    40869699.805 6 172932979.92306      -424.444 6        39.793
C25        55.000                                                                                                                                    24301571.699 7 126544672.83307      2023.594 7        45.100                                                                    24301579.836 7 102827952.33207      1644.408 7        44.767
R12        56.000    22582267.817 7 120630411.06107     -3660.548 7        46.481                                                                    22582279.266 7  93823665.08907     -2847.129 7        43.065
C02        57.000                                                                                                                                    41042077.437 5 213716659.85005      -553.658 5        32.425    41042086.901 5 165259205.53605      -427.813 5        35.895    41042087.263 5 173662242.23605      -449.835 5        32.994
I03        58.000   119847336.685 5 394521107.07105       903.660 5        32.419
C14        59.000                                                                                                                                    26460338.934 6 137785657.69806     -3703.784 6        38.544    26460352.131 7 106544531.58507     -2863.972 7        43.509    26460346.200 6 111962063.27506     -3009.648 6        40.327
R13        60.000    19778358.249 7 105615399.78107     -1612.372 7        46.754
> 2025 01 01 12 45  5.0000000  0 57
G19         1.000    22352920.341 7 117465513.88407     -3095.049 7        44.086                                    22352923.410 5  91531649.02905     -2411.726 5        32.305
G25         2.000    21743155.392 7 114261115.46307      2064.062 7        44.910                                    21743163.259 7  89034703.24107      1608.356 7        43.107    21743164.167 7  89034713.25907      1608.407 7        42.631
G24         3.000    20907024.476 8 109867156.21608     -2693.846 8        49.541                                    20907028.957 8  85610800.21508     -2099.102 8        50.712    20907029.370 7  85610797.22107     -2099.173 7        45.059
G29         4.000    25414984.870 6 133556682.13506      3255.684 6        38.955                                    25415001.222 4 104070224.14004      2536.885 4        29.934    25415001.096 5 104070227.17305      2536.747 5        34.790
S21         5.000    38525783.567 7 202453969.98107      -597.939 7        43.380
G06         6.000    23291719.676 7 122398910.09007       779.250 7        42.792                                    23291727.740 6  95375860.06806       607.203 6        39.258    23291729.209 6  95375851.08706       607.177 6        40.601
G17         7.000    25385259.500 6 133400524.35206     -4023.262 6        39.033                                    25385266.342 4 103948530.71804     -3135.032 4        28.654    25385266.300 5 103948526.75505     -3134.980 5        34.714
G11         9.000    24329164.126 6 127850703.12506      2335.379 6        41.144                                    24329174.037 4  99624003.45604      1819.759 4        26.790    24329174.192 6  99624003.49206      1819.712 6        41.311
E30        10.000    23856960.102 8 125369308.35708        72.512 8        48.588                                                                    23856967.407 8  93620044.61808        54.132 8        51.052    23856966.253 8  96062295.61708        55.557 8        51.641
C26        11.000                                                                                                                                    23462928.120 7 122177588.09507     -2746.526 7        47.968                                                                    23462933.172 7  99279305.21507     -2231.934 7        46.886
S27        12.000    39306145.965 6 206555014.86206      -618.830 6        36.896
G15        13.000    25753355.012 3                     -4348.877 3        23.790                                                                                                    25753371.838 3                     -3387.497 3        20.071
S36        14.000    38297802.854 7 201256657.30607      -598.627 7        45.088
G12        15.000    20277820.667 8 106560804.79308      -172.157 8        50.756                                    20277821.707 8  83034467.39708      -134.149 8        51.424    20277822.024 7  83034467.39907      -134.148 7        46.463
E29        16.000    26577245.437 6 139664257.54206      1184.573 6        41.135                                                                    26577260.716 7 104294734.82707       884.661 7        44.664    26577258.862 7 107015466.44807       907.665 7        45.103
S45        17.000    63491182.877 6 333648636.17316      -661.628 6        36.552
R03        18.000    22545929.507 7 120689963.04007     -4526.121 7        46.715                                                                    22545941.383 7  93869943.53507     -3520.385 7        42.000
C35        19.000                                                                                                                                    23172332.378 8 120664543.97908     -1187.353 8        48.124                                                                    23172337.339 7  98049900.51907      -964.901 7        47.352
E11        20.000    27543466.795 5 144741939.73305     -1432.080 5        34.586                                                                    27543477.579 6 108086584.68006     -1069.436 6        37.531    27543475.409 6 110906224.73206     -1097.695 6        36.541
R14        21.000    21006895.206 8 111978617.65708      1897.752 8        50.495                                                                    21006904.531 7  87094544.24907      1475.975 7        46.135
I06        22.000    38537381.051 7 151228973.11807      -554.017 7        42.059
S28        23.000    40994645.543 5 215428085.52305      -606.496 5        35.786
E34        24.000    27788993.171 6 146032191.19606      2434.300 6        38.979                                                                    27789013.449 6 109050121.36306      1818.034 6        40.777    27789011.498 7 111894896.10407      1865.353 7        42.923
S23        25.000    38236678.425 7 200934903.50107      -603.021 7        45.922
E08        26.000    26494297.401 6 139228286.00606     -3667.224 6        41.738                                                                    26494310.325 7 103969117.91207     -2738.459 7        45.117    26494308.382 7 106681359.82207     -2809.887 7        45.833
C07        27.000                                                                                                                                    40255031.297 6 209618416.29006     -1527.211 6        37.913    40255037.567 6 162090244.21606     -1181.017 6        39.754    40255033.280 6 170332113.02906     -1241.155 6        38.321
R24        28.000    23515623.574 7 125748668.24807      3925.237 7        44.307                                                                    23515640.985 6  97804630.28206      3052.941 6        40.272
I02        29.000    37071164.022 7 145475186.54907      -597.586 7        42.391
E07        31.000    24624548.695 7 129402787.21307     -1609.869 7        46.402                                                                    24624558.672 8  96631943.77608     -1202.164 8        49.741    24624557.358 8  99152775.71408     -1233.556 8        50.374
C12        32.000                                                                                                                                    24521644.264 7 127690726.46807      2627.891 7        42.419    24521651.556 8  98738651.65908      2032.068 8        48.334    24521647.778 7 103759230.79907      2135.198 7        45.279
E10        33.000    29033400.036 5 152571709.61105     -2540.354 5        30.868                                                                    29033404.685 6 113933538.40606     -1896.982 6        36.529    29033403.973 6 116905700.56606     -1946.589 6        38.156
R23        34.000    20679535.729 8 110621692.93208      1450.827 8        48.381
C24        35.000                                                                                                                                    21422238.223 8 111551256.79508      -248.495 8        51.300                                                                    21422239.609 8  90644556.32908      -202.080 8        49.754
R05        36.000    22948532.411 7 122672969.25407      1854.649 7        45.622                                                                    22948546.430 7  95412321.23707      1442.587 7        43.082
E27        37.000    26998774.339 6 141879527.16906      1741.499 6        40.932                                                                    26998791.518 7 105949082.71007      1300.407 7        43.164    26998789.308 7 108712959.76707      1334.275 7        43.805
R04        38.000    21286273.743 8 113986930.70208     -1649.450 8        49.368                                                                    21286281.596 7  88656485.41107     -1282.947 7        45.065
C33        39.000                                                                                                                                    25661506.430 7 133626069.58307     -3221.176 7        43.115                                                                    25661530.079 7 108582174.48907     -2617.548 7        42.591
E25        40.000    28961180.798 5 152191877.15505     -3136.939 5        30.951                                                                    28961196.439 5 113649735.56905     -2342.423 5        35.505    28961195.241 5 116614508.65605     -2403.548 5        35.929
C34        41.000                                                                                                                                    26139898.241 6 136117313.39706      2929.790 6        39.736                                                                    26139914.252 6 110606536.42806      2380.432 6        40.167
S44        42.000    40870200.466 6 214774321.20506      -527.077 6        37.924
R22        43.000    21586208.979 8 115228764.64108     -2283.191 8        48.337                                                                    21586215.401 7  89622457.13907     -1775.735 7        45.357
C05        44.000                                                                                                                                    39551995.660 6 205957455.09006      -598.927 6        38.423    39552002.929 7 159259341.05007      -463.027 7        42.540    39552001.989 6 167357364.61406      -486.758 6        39.775
C40        45.000                                                                                                                                    40776851.511 6 212335674.43706     -1800.572 6        39.231                                                                    40776859.323 6 172540124.78606     -1463.211 6        38.276
G32        46.000    23337677.234 7 122640211.92407      1033.194 7        45.318                                    23337686.968 6  95563800.56906       805.081 6        41.035    23337687.592 6  95563802.59306       804.909 6        40.858
E36        47.000    26589253.255 6 139727544.01406       962.725 6        40.977                                                                    26589266.127 7 104342106.78007       718.912 7        44.372    26589264.646 7 107064058.44007       737.723 7        45.147
C41        48.000                                                                                                                                    25491712.413 7 132742005.56707     -1045.955 7        42.927                                                                    25491729.573 7 107863819.38907      -850.065 7        43.843
C10        49.000                                                                                                                                    39286577.758 6 204575487.85906     -1281.428 6        39.468    39286584.935 7 158190749.84107      -990.837 7        43.132    39286580.410 6 166234336.50906     -1041.539 6        39.844
C44        50.000                                                                                                                                    22881072.469 8 119147753.83408      1584.160 8        48.536                                                                    22881076.827 7  96817334.89507      1287.138 7        47.432
S48        51.000    77234243.198 6 405869995.20806      -608.090 6        38.709
E02        53.000    24500350.037 7 128750257.31807     -2292.895 7        46.329                                                                    24500357.613 8  96144739.17708     -1712.223 8        49.198    24500356.186 8  98652845.54508     -1756.884 8        49.803
C60        54.000                                                                                                                                    40870204.569 6 212821844.64906      -522.182 6        38.982                                                                    40870201.128 6 172935100.94806      -424.464 6        39.781
C25        55.000                                                                                                                                    24299629.057 7 126534555.03207      2023.167 7        45.223                                                                    24299636.806 7 102819730.83407      1643.983 7        44.650
R12        56.000    22585693.969 7 120648714.71707     -3661.293 7        46.186                                                                    22585705.463 7  93837901.26707     -2847.739 7        43.115
C02        57.000                                                                                                                                    41042608.867 5 213719426.88205      -553.427 5        32.305    41042618.358 5 165261345.20905      -428.128 5        35.995    41042618.787 5 173664490.71505      -449.850 5        32.868
I03        58.000   119846185.810 5 394516587.95405       903.973 5        31.894
C14        59.000                                                                                                                                    26463894.970 6 137804175.45506     -3703.820 6        38.258    26463908.656 7 106558850.64007     -2863.959 7        43.754    26463902.539 6 111977110.45506     -3009.767 6        40.584
R13        60.000    19779868.670 7 105623465.94807     -1614.351 7        46.665
> 2025 01 01 12 45 10.0000000  0 57
G19         1.000    22355866.642 7 117480994.50407     -3097.309 7        44.838                                    22355869.235 5  91543711.84205     -2413.487 5        32.347
G25         2.000    21741192.405 7 114250798.16407      2062.826 7        45.038                                    21741199.940 7  89026663.80907      1607.392 7        43.202    21741200.743 7  89026673.82607      1607.288 7        42.250
G24         3.000    20909588.686 8 109880631.66908     -2696.256 8        49.609                                    20909593.272 8  85621300.56208     -2100.977 8        50.776    20909593.818 7  85621297.55507     -2100.925 7        44.950
G29         4.000    25411887.169 6 133540403.82806      3255.547 6        39.210                                    25411903.541 5 104057539.79205      2536.778 5        30.045    25411903.561 5 104057542.81805      2536.817 5        34.667
S21         5.000    38526353.502 7 202456959.92807      -597.973 7        43.225
G06         6.000    23290979.387 7 122395021.12607       776.463 7        42.411                                    23290987.718 6  95372829.73206       605.030 6        39.435    23290988.616 6  95372820.74706       605.007 6        40.663
G17         7.000    25389087.187 6 133420641.53706     -4023.673 6        38.934                                    25389094.538 4 103964206.55104     -3135.350 4        28.938    25389094.270 5 103964202.59305     -3135.328 5        34.857
G11         9.000    24326942.822 6 127839029.20006      2334.484 6        41.425                                    24326952.575 4  99614906.95804      1819.068 4        26.826    24326952.327 6  99614907.00306      1818.775 6        41.094
E30        10.000    23856891.705 8 125368948.47008        71.469 8        48.522                                                                    23856898.881 8  93619775.87808        53.354 8        51.064    23856897.744 8  96062019.86708        54.729 8        51.586
C26        11.000                                                                                                                                    23465565.723 7 122191323.55407     -2747.582 7        47.650                                                                    23465570.871 7  99290466.36207     -2232.683 7        46.971
S27        12.000    39306733.782 6 206558109.20706      -618.803 6        36.631
G15        13.000    25757491.952 3                     -4347.796 3        22.762
S36        14.000    38298371.175 7 201259650.99807      -598.760 7        44.932
G12        15.000    20277985.462 8 106561671.05208      -174.346 8        50.671                                    20277986.558 8  83035142.40508      -135.854 8        51.502    20277986.960 7  83035142.40007      -135.858 7        46.306
E29        16.000    26576119.057 6 139658338.63906      1182.811 6        40.942                                                                    26576134.344 7 104290314.93707       883.229 7        44.643    26576132.373 7 107010931.23807       906.368 7        45.114
S45        17.000    63491758.835 6 333651943.74106      -661.504 6        36.673
R03        18.000    22550158.065 7 120712597.06407     -4527.555 7        45.707                                                                    22550169.201 7  93887547.70807     -3521.429 7        42.057
C35        19.000                                                                                                                                    23173473.794 8 120670487.55908     -1190.066 8        48.210                                                                    23173478.776 7  98054730.15107      -967.013 7        47.397
E11        20.000    27544830.740 5 144749106.63605     -1434.472 5        34.781                                                                    27544841.313 6 108091936.61906     -1071.217 6        37.066    27544839.144 6 110911716.27006     -1099.227 6        36.922
R14        21.000    21005115.713 8 111969131.41908      1896.696 8        50.611                                                                    21005124.939 7  87087166.09107      1475.234 7        45.631
I06        22.000    38538086.956 7 151231743.22707      -553.975 7        42.019
S28        23.000    40995226.363 5 215431117.38205      -606.356 5        35.224
E34        24.000    27786677.106 6 146020019.38306      2434.366 6        38.982                                                                    27786697.106 6 109041032.15506      1817.673 6        40.887    27786695.190 7 111885569.76507      1865.162 7        43.050
S23        25.000    38237252.953 7 200937918.04907      -602.885 7        45.624
E08        26.000    26497786.799 6 139246623.34606     -3667.749 6        41.757                                                                    26497799.905 7 103982811.34507     -2738.956 7        45.093    26497797.768 7 106695410.47407     -2810.442 7        45.776
C07        27.000                                                                                                                                    40256497.705 6 209626052.89206     -1527.309 6        37.985    40256504.138 6 162096149.31606     -1180.860 6        39.622    40256499.961 6 170338318.37206     -1241.072 6        38.321
R24        28.000    23511953.115 7 125729043.02507      3924.883 7        44.161                                                                    23511970.177 6  97789366.32306      3052.668 6        40.570
I02        29.000    37071925.484 7 145478174.55207      -597.699 7        42.449
E07        31.000    24626081.335 7 129410841.95507     -1612.062 7        46.595                                                                    24626091.438 8  96637958.67608     -1203.822 8        49.779    24626090.133 8  99158947.52408     -1235.182 8        50.370
C12        32.000                                                                                                                                    24519121.430 7 127677589.27607      2627.011 7        42.275    24519128.501 8  98728493.18408      2031.293 8        48.085    24519124.851 7 103748555.75907      2134.613 7        45.240
E10        33.000    29035817.534 5 152584415.93505     -2541.771 5        30.657                                                                    29035822.553 6 113943027.00706     -1898.591 6        36.635    29035822.036 6 116915436.69206     -1948.126 6        38.282
R23        34.000    20678180.559 7 110614448.77807      1446.802 7        47.906
C24        35.000                                                                                                                                    21422477.506 8 111552503.13808      -250.051 8        51.208                                                                    21422478.959 8  90645569.06408      -203.159 8        49.764
R05        36.000    22946799.001 7 122663704.68407      1851.294 7        45.202                                                                    22946813.075 7  95405115.49907      1439.892 7        42.658
E27        37.000    26997117.645 6 141870821.04806      1741.002 6        40.994                                                                    26997134.694 7 105942581.41807      1300.089 7        43.202    26997132.597 7 108706288.87407      1334.001 7        43.659
R04        38.000    21287815.400 8 113995188.70908     -1653.783 8        49.582                                                                    21287824.208 7  88662908.29207     -1286.383 7        45.059
C33        39.000                                                                                                                                    25664600.255 7 133642178.39007     -3222.321 7        43.335                                                                    25664623.719 7 108595264.15407     -2618.329 7        42.542
E25        40.000    28964164.665 5 152207561.48705     -3136.769 5        33.042                                                                    28964181.327 5 113661447.94605     -2342.578 5        35.619    28964179.427 5 116626526.61805     -2403.559 5        34.643
C34        41.000                                                                                                                                    26137084.963 6 136102664.70306      2929.823 6        39.577                                                                    26137101.055 6 110594633.20606      2380.663 6        40.343
S44        42.000    40870704.132 6 214776955.57906      -526.934 6        37.543
R22        43.000    21588348.761 8 115240190.47808     -2287.173 8        48.283                                                                    21588356.259 7  89631343.91107     -1779.003 7        45.810
C05        44.000                                                                                                                                    39552570.639 6 205960449.00906      -598.690 6        38.330    39552577.778 7 159261656.14507      -462.917 7        42.364    39552576.879 6 167359797.40006      -486.462 6        39.748
C40        45.000                                                                                                                                    40778580.605 6 212344677.29406     -1800.555 6        39.099                                                                    40778588.157 6 172547440.35306     -1463.235 6        38.318
G32        46.000    23336694.967 7 122635052.69907      1030.415 7        45.403                                    23336705.165 6  95559780.41706       802.917 6        41.116    23336705.756 6  95559782.43906       802.910 6        40.327
E36        47.000    26588338.028 6 139722735.25406       960.790 6        40.563                                                                    26588351.086 7 104338515.85507       717.384 7        44.408    26588349.600 7 107060373.83707       736.140 7        45.129
C41        48.000                                                                                                                                    25492717.718 7 132747241.90107     -1048.575 7        42.544                                                                    25492735.211 7 107868074.29907      -851.991 7        43.928
C10        49.000                                                                                                                                    39287808.441 6 204581895.39606     -1281.514 6        39.252    39287815.369 7 158195704.56207      -991.019 7        43.041    39287810.816 6 166239543.12406     -1041.359 6        39.757
C44        50.000                                                                                                                                    22879552.352 8 119139838.20708      1582.042 8        48.570                                                                    22879556.618 7  96810902.79607      1285.562 7        47.456
S48        51.000    77234815.601 6 405873035.54006      -607.893 6        38.456
E02        53.000    24502531.868 7 128761723.36107     -2293.525 7        46.247                                                                    24502539.567 8  96153301.47808     -1712.646 8        49.236    24502538.171 8  98661631.21308     -1757.412 8        49.870
C60        54.000                                                                                                                                    40870705.883 6 212824455.08606      -522.125 6        38.961                                                                    40870702.383 6 172937222.11506      -424.113 6        39.922
C25        55.000                                                                                                                                    24297686.227 7 126524440.01607      2022.834 7        45.109                                                                    24297694.313 7 102811511.56307      1643.679 7        44.685
R12        56.000    22589121.945 7 120667022.88707     -3662.093 7        46.457                                                                    22589132.357 7  93852140.92507     -2848.359 7        42.627
C02        57.000                                                                                                                                    41043140.369 5 213722194.14505      -553.318 5        32.539    41043149.457 5 165263485.01805      -428.006 5        35.667    41043149.604 5 173666739.32105      -449.499 5        33.180
I03        58.000   119845034.129 5 394512068.86105       903.845 5        31.902
C14        59.000                                                                                                                                    26467451.167 6 137822694.02406     -3703.768 6        38.372    26467465.190 7 106573170.31707     -2863.824 7        44.259    26467459.012 6 111992158.23606     -3009.592 6        40.756
R13        60.000    19781381.407 7 105631542.78807     -1616.312 7        46.795
> 2025 01 01 12 45 15.0000000  0 57
G19         1.000    22358814.759 7 117496486.22007     -3099.428 7        45.329                                    22358817.129 5  91555783.30105     -2415.139 5        32.162
G25         2.000    21739230.300 7 114240487.81207      2061.436 7        45.324                                    21739237.939 7  89018629.79307      1606.312 7        43.045    21739238.656 7  89018639.80407      1606.338 7        42.131
G24         3.000    20912155.364 8 109894119.23608     -2698.598 8        49.733                                    20912159.898 8  85631810.34608     -2102.802 8        50.593    20912160.284 7  85631807.34207     -2102.828 7        44.823
G29         4.000    25408789.236 6 133524125.95506      3255.766 6        39.291                                    25408806.004 5 104044855.78405      2536.954 5        30.053    25408805.940 5 104044858.82105      2536.678 5        34.762
S21         5.000    38526920.705 7 202459949.54207      -597.764 7        43.158
G06         6.000    23290241.601 7 122391146.50907       773.579 7        42.385                                    23290250.540 6  95369810.58606       602.781 6        39.306    23290251.828 6  95369801.60606       602.732 6        41.673
G17         7.000    25392915.356 6 133440760.64906     -4023.902 6        38.751                                    25392922.985 4 103979883.87404     -3135.522 4        28.645    25392922.562 5 103979879.91705     -3135.715 5        34.657
G11         9.000    24324722.548 7 127827360.64307      2333.276 7        42.292                                    24324732.061 4  99605814.64404      1818.129 4        26.958    24324732.190 6  99605814.65806      1818.152 6        40.923
E30        10.000    23856824.312 8 125368594.29008        70.377 8        48.748                                                                    23856831.500 8  93619511.39808        52.495 8        51.086    23856830.351 8  96061748.48208        53.891 8        51.553
C26        11.000                                                                                                                                    23468204.364 8 122205064.37108     -2748.596 8        48.006                                                                    23468209.712 7  99301631.91807     -2233.533 7        46.861
S27        12.000    39307320.804 6 206561203.52406      -618.690 6        36.681
G15        13.000    25761626.785 3                     -4347.721 3        23.695                                                                                                    25761648.435 3                     -3386.640 3        19.582
S36        14.000    38298940.663 7 201262644.41807      -598.608 7        44.843
G12        15.000    20278152.425 8 106562548.51108      -176.499 8        50.780                                    20278153.528 8  83035826.14508      -137.530 8        51.309    20278153.884 7  83035826.14707      -137.579 7        46.220
E29        16.000    26574994.260 6 139652428.93406      1181.050 6        41.364                                                                    26575009.747 7 104285901.86607       882.146 7        44.721    26575007.763 7 107006403.05607       905.050 7        45.175
S45        17.000    63492332.884 6 333655250.93606      -661.219 6        36.484
R03        18.000    22554387.800 7 120735239.29307     -4529.132 7        45.702                                                                    22554399.681 6  93905158.28906     -3522.694 6        41.261
C35        19.000                                                                                                                                    23174617.798 8 120676445.05808     -1192.783 8        48.320                                                                    23174622.857 7  98059571.12007      -969.360 7        47.341
E11        20.000    27546196.571 5 144756285.48205     -1436.925 5        34.986                                                                    27546207.363 6 108097297.46506     -1072.922 6        37.002    27546205.358 6 110917216.96606     -1101.050 6        36.866
R14        21.000    21003336.784 8 111959650.81708      1895.639 8        50.468                                                                    21003346.209 7  87079792.30107      1474.383 7        45.083
I06        22.000    38538792.870 7 151234513.08407      -553.869 7        42.123
S28        23.000    40995804.110 5 215434148.91905      -606.004 5        35.424
E34        24.000    27784360.761 6 146007848.38306      2434.176 6        39.162                                                                    27784381.069 6 109031943.50406      1817.766 6        40.939    27784379.106 7 111876244.02007      1865.165 7        43.244
S23        25.000    38237826.863 7 200940932.32907      -602.714 7        45.538
E08        26.000    26501276.851 7 139264964.05107     -3668.402 7        42.216                                                                    26501289.972 7 103996507.28207     -2739.432 7        44.871    26501287.617 7 106709463.69907     -2810.823 7        45.598
C07        27.000                                                                                                                                    40257964.423 6 209633689.48206     -1527.257 6        37.864    40257971.007 6 162102054.41906     -1180.997 6        39.619    40257966.307 6 170344523.75006     -1241.088 6        38.237
R24        28.000    23508283.254 7 125709419.50907      3924.635 7        43.996                                                                    23508300.760 6  97774103.68806      3052.604 6        40.532
I02        29.000    37072687.126 7 145481163.36307      -597.595 7        42.491
E07        31.000    24627616.448 7 129418908.10607     -1614.334 7        46.721                                                                    24627626.361 8  96643982.08508     -1205.416 8        49.736    24627625.077 8  99165128.06608     -1236.919 8        50.319
C12        32.000                                                                                                                                    24516598.558 6 127664457.10706      2626.049 6        41.943    24516606.583 7  98718338.57607      2030.557 7        47.634    24516602.736 7 103737884.82407      2133.829 7        45.130
E10        33.000    29038237.380 5 152597131.37605     -2543.851 5        30.498                                                                    29038242.227 6 113952522.41206     -1899.589 6        36.586    29038241.532 6 116925179.79206     -1949.400 6        37.671
R23        34.000    20676830.339 8 110607225.08908      1442.805 8        48.357
C24        35.000                                                                                                                                    21422718.326 8 111553757.30408      -251.468 8        51.405                                                                    21422719.798 8  90646588.19708      -204.398 8        49.725
R05        36.000    22945069.152 7 122654457.96607      1847.761 7        45.306                                                                    22945082.898 6  95397923.61206      1437.089 6        41.428
E27        37.000    26995461.607 6 141862117.21806      1740.659 6        41.704                                                                    26995478.421 7 105936081.84207      1299.883 7        43.209    26995476.231 7 108699619.74107      1333.660 7        43.697
R04        38.000    21289361.941 8 114003468.72708     -1658.073 8        49.146                                                                    21289369.858 7  88669348.29707     -1289.672 7        44.685
C33        39.000                                                                                                                                    25667695.052 7 133658293.26707     -3223.477 7        44.302                                                                    25667718.447 7 108608358.82007     -2619.430 7        42.548
E25        40.000    28967149.557 5 152223244.83705     -3136.621 5        31.668                                                                    28967165.909 6 113673159.52506     -2341.960 6        36.095    28967163.350 5 116638543.70405     -2403.234 5        35.419
C34        41.000                                                                                                                                    26134271.371 6 136088015.40606      2930.207 6        39.736                                                                    26134287.704 6 110582729.54506      2380.955 6        40.381
S44        42.000    40871206.554 6 214779589.64006      -526.753 6        37.633
R22        43.000    21590492.714 7 115251637.00607     -2291.314 7        47.609                                                                    21590500.522 7  89640246.76207     -1782.141 7        44.912
C05        44.000                                                                                                                                    39553145.824 6 205963442.55906      -598.503 6        38.547    39553152.882 7 159263970.95707      -462.877 7        42.294    39553151.898 6 167362229.92306      -486.507 6        39.703
C40        45.000                                                                                                                                    40780309.746 6 212353679.91706     -1800.313 6        39.111                                                                    40780316.893 6 172554755.76806     -1463.220 6        38.204
G32        46.000    23335715.956 7 122629907.59807      1027.710 7        45.387                                    23335726.072 6  95555771.26906       800.810 6        40.992    23335726.101 6  95555773.28606       800.696 6        39.748
E36        47.000    26587424.830 6 139717936.71506       958.790 6        40.603                                                                    26587437.880 7 104334932.56407       715.912 7        44.506    26587436.335 7 107056697.06507       734.699 7        45.205
C41        48.000                                                                                                                                    25493725.839 7 132752491.69907     -1051.197 7        42.910                                                                    25493743.370 7 107872340.21207      -854.325 7        43.862
C10        49.000                                                                                                                                    39289039.257 6 204588303.37006     -1281.607 6        39.769    39289046.079 7 158200659.61707      -990.991 7        42.790    39289041.462 6 166244750.14706     -1041.473 6        39.559
C44        50.000                                                                                                                                    22878033.840 8 119131933.11408      1580.094 8        48.702                                                                    22878038.421 7  96804479.30007      1283.863 7        47.341
S48        51.000    77235385.487 6 405876075.64106      -608.038 6        38.324
E02        53.000    24504714.518 7 128773192.81507     -2294.126 7        46.449                                                                    24504722.121 8  96161866.33408     -1713.183 8        49.193    24504720.746 8  98670419.49508     -1757.901 8        49.762
C60        54.000                                                                                                                                    40871207.165 6 212827065.19606      -522.007 6        39.045                                                                    40871203.581 6 172939343.08706      -424.197 6        39.802
C25        55.000                                                                                                                                    24295744.374 7 126514327.27007      2022.396 7        45.315                                                                    24295752.129 7 102803294.16907      1643.225 7        44.612
R12        56.000    22592550.115 7 120685334.87807     -3662.734 7        46.186                                                                    22592560.336 7  93866383.56307     -2848.865 7        42.125
C02        57.000                                                                                                                                    41043671.700 5 213724960.99005      -553.280 5        32.443    41043680.543 6 165265624.51006      -427.727 6        36.023    41043681.437 5 173668987.63505      -449.846 5        32.689
I03        58.000   119843881.471 5 394507549.37105       904.028 5        31.977
C14        59.000                                                                                                                                    26471007.071 6 137841212.83906     -3703.604 6        38.468    26471021.971 7 106587490.20507     -2863.935 7        44.220    26471015.081 6 112007206.27206     -3009.609 6        40.465
R13        60.000    19782895.374 7 105639629.79107     -1618.304 7        46.589
> 2025 01 01 12 45 20.0000000  0 57
G19         1.000    22361764.658 7 117511989.57207     -3101.718 7        45.350                                    22361767.256 5  91567863.83005     -2416.923 5        32.216
G25         2.000    21737269.590 7 114230184.95207      2059.855 7        45.427                                    21737277.361 7  89010601.61907      1605.080 7        42.984    21737278.068 7  89010611.62507      1605.287 7        42.222
G24         3.000    20914724.471 8 109907619.49808     -2701.273 8        49.866                                    20914728.935 8  85642330.02408     -2104.888 8        50.543    20914729.426 7  85642327.02507     -2104.839 7        45.123
G29         4.000    25405692.026 6 133507849.14206      3255.585 6        39.489                                    25405708.605 5 104032172.60205      2536.811 5        30.023    25405708.781 5 104032175.62805      2536.604 5        34.876
S21         5.000    38527488.292 7 202462939.50007      -597.790 7        43.143
G06         6.000    23289507.290 7 122387286.81207       770.649 7        42.495                                    23289516.250 6  95366803.05706       600.497 6        39.318    23289517.439 6  95366794.08506       600.406 6        41.816
G17         7.000    25396744.525 6 133460882.31106     -4024.396 6        38.210                                    25396751.946 4 103995563.16904     -3135.920 4        28.474    25396751.680 5 103995559.21705     -3136.011 5        35.152
G11         9.000    24322503.161 7 127815697.96407      2332.053 7        42.332                                    24322512.701 4  99596726.91304      1817.172 4        27.198    24322513.144 6  99596726.92906      1817.144 6        41.311
