     3.04           OBSERVATION DATA    M                   RINEX VERSION / TYPE
ssrcrin-15.6.1x                         20250101 141500 UTC PGM / RUN BY / DATE 
(00000000023479385599111004) Septentrio proprietary         COMMENT             
rref                                                        MARKER NAME         
01                                                          MARKER NUMBER       
geodetic                                                    MARKER TYPE         
NFB                 CLIMERS@TUW                             OBSERVER / AGENCY   
3297213             SEPT ASTERX SB3 PROB4.14.4              REC # / TYPE / VERS 
Unknown             Unknown                                 ANT # / TYPE        
  4127831.7746  1207194.5355  4695247.1696                  APPROX POSITION XYZ 
        0.0000        0.0000        0.0000                  ANTENNA: DELTA H/E/N
G   23 X1  C1C L1C D1C S1C C1W S1W C2W L2W D2W S2W C2L L2L  SYS / # / OBS TYPES 
       D2L S2L C5Q L5Q D5Q S5Q C1L L1L D1L S1L              SYS / # / OBS TYPES 
E   21 X1  C1C L1C D1C S1C C6C L6C D6C S6C C5Q L5Q D5Q S5Q  SYS / # / OBS TYPES 
       C7Q L7Q D7Q S7Q C8Q L8Q D8Q S8Q                      SYS / # / OBS TYPES 
S    9 X1  C1C L1C D1C S1C C5I L5I D5I S5I                  SYS / # / OBS TYPES 
R   17 X1  C1C L1C D1C S1C C2P L2P D2P S2P C2C L2C D2C S2C  SYS / # / OBS TYPES 
       C3Q L3Q D3Q S3Q                                      SYS / # / OBS TYPES 
C   25 X1  C1P L1P D1P S1P C5P L5P D5P S5P C2I L2I D2I S2I  SYS / # / OBS TYPES 
       C7I L7I D7I S7I C6I L6I D6I S6I C7D L7D D7D S7D      SYS / # / OBS TYPES 
J   17 X1  C1C L1C D1C S1C C2L L2L D2L S2L C5Q L5Q D5Q S5Q  SYS / # / OBS TYPES 
       C1L L1L D1L S1L                                      SYS / # / OBS TYPES 
I    5 X1  C5A L5A D5A S5A                                  SYS / # / OBS TYPES 
SEPTENTRIO RECEIVERS OUTPUT ALIGNED CARRIER PHASES.         COMMENT             
NO FURTHER PHASE SHIFT APPLIED IN THE RINEX ENCODER.        COMMENT             
G L1C                                                       SYS / PHASE SHIFT   
G L2W                                                       SYS / PHASE SHIFT   
G L2L  0.00000                                              SYS / PHASE SHIFT   
G L5Q  0.00000                                              SYS / PHASE SHIFT   
G L1L  0.00000                                              SYS / PHASE SHIFT   
E L1C  0.00000                                              SYS / PHASE SHIFT   
E L6C  0.00000                                              SYS / PHASE SHIFT   
E L5Q  0.00000                                              SYS / PHASE SHIFT   
E L7Q  0.00000                                              SYS / PHASE SHIFT   
E L8Q  0.00000                                              SYS / PHASE SHIFT   
S L1C                                                       SYS / PHASE SHIFT   
S L5I                                                       SYS / PHASE SHIFT   
R L1C                                                       SYS / PHASE SHIFT   
R L2P  0.00000                                              SYS / PHASE SHIFT   
R L2C                                                       SYS / PHASE SHIFT   
R L3Q  0.00000                                              SYS / PHASE SHIFT   
C L1P  0.00000                                              SYS / PHASE SHIFT   
C L5P  0.00000                                              SYS / PHASE SHIFT   
C L2I                                                       SYS / PHASE SHIFT   
C L7I                                                       SYS / PHASE SHIFT   
C L6I                                                       SYS / PHASE SHIFT   
C L7D                                                       SYS / PHASE SHIFT   
J L1C                                                       SYS / PHASE SHIFT   
J L2L  0.00000                                              SYS / PHASE SHIFT   
J L5Q  0.00000                                              SYS / PHASE SHIFT   
J L1L  0.00000                                              SYS / PHASE SHIFT   
I L5A                                                       SYS / PHASE SHIFT   
  2025     1     1    14    15    0.0000000     GPS         TIME OF FIRST OBS   
 C1C    0.000 C2C    0.000 C2P    0.000                     GLONASS COD/PHS/BIS 
DBHZ                                                        SIGNAL STRENGTH UNIT
    18                                                      LEAP SECONDS        
 24 R01  1 R02 -4 R03  5 R04  6 R05  1 R06 -4 R07  5 R08  6 GLONASS SLOT / FRQ #
    R09 -2 R10 -7 R11  0 R12 -1 R13 -2 R14 -7 R15  0 R16 -1 GLONASS SLOT / FRQ #
    R17  4 R18 -3 R19  3 R20  2 R21  4 R22 -3 R23  3 R24  2 GLONASS SLOT / FRQ #
                                                            END OF HEADER       
> 2025 01 01 14 15  0.0000000  0 57
G25         2.000    19996305.611 8 105081417.62308        26.320 8        49.766                                    19996309.728 8  81881707.02408        20.508 8        50.220    19996310.449 7  81881717.03207        20.557 7        44.540
G24         3.000    24154256.701 6 126931377.22806     -4452.412 6        40.269                                    24154267.056 5  98907570.81305     -3469.406 5        35.500    24154267.649 6  98907567.78906     -3469.209 6        38.387
G29         4.000    21932571.079 7 115256670.19507      2027.095 7        47.968                                    21932575.110 7  89810524.06707      1579.553 7        46.166    21932575.328 7  89810527.07807      1579.611 7        42.434
S21         5.000    38554705.351 7 202605944.29107      -625.242 7        43.166
G06         6.000    23697837.751 6 124533107.46306     -2707.378 6        41.263                                    23697845.227 6  97038878.88706     -2109.648 6        36.552    23697845.188 6  97038869.90506     -2109.769 6        39.946
E19         7.000    27303627.270 5 143481416.98505       861.143 5        34.352                                                                    27303644.207 6 107145196.85406       643.109 6        37.803    27303642.008 6 109940292.94206       659.767 6        38.378
E15         8.000    27341559.023 6 143680954.42606      2628.416 6        39.105                                                                    27341577.130 7 107294322.09407      1962.779 7        44.090    27341574.814 7 110093288.38107      2014.019 7        44.039
G11         9.000    22484620.987 7 118157663.57507      -323.954 7        46.130                                    22484624.584 5  92071010.35405      -252.436 5        34.105    22484624.834 7  92071010.36107      -252.408 7        43.568
E30        10.000    23824032.910 8 125196287.24408     -1154.451 8        48.106                                                                    23824039.256 8  93490844.08808      -862.115 8        50.620    23824038.356 8  95929724.22508      -884.600 8        51.697
C26        11.000                                                                                                                                    26262544.911 6 136755824.84106     -3706.325 6        41.309                                                                    26262554.673 6 111125295.56406     -3011.629 6        41.187
S27        12.000    39350387.162 6 206787498.04306      -633.827 6        36.786
R15        13.000    21873690.070 7 116886488.48007      2653.378 7        47.741                                                                    21873701.046 7  90911809.25307      2063.732 7        42.910
S36        14.000    38327052.395 7 201410349.22507      -625.594 7        44.919
G12        15.000    21069631.053 8 110721796.20408     -2442.451 8        48.541                                    21069632.275 8  86276798.29908     -1903.207 8        48.248    21069632.822 7  86276798.29607     -1903.241 7        44.372
E29        16.000    26007791.773 7 136671782.03007     -1329.995 7        42.819                                                                    26007805.172 7 102060101.12607      -993.189 7        45.476    26007803.453 7 104722537.12007     -1019.123 7        45.947
S45        17.000    63527454.403 6 333840333.56706      -689.689 6        36.457
G31        18.000    24878287.382 6 130736261.70306      2975.341 6        39.432                                    24878302.895 4 101872485.51804      2318.437 4        29.905    24878303.203 5 101872464.54405      2318.324 5        34.410
C35        19.000                                                                                                                                    25161518.417 7 131022745.16207     -3500.543 7        43.198                                                                    25161523.510 7 106466785.03207     -2844.435 7        42.455
R14        21.000    19393381.566 8 103377743.19208      -165.617 8        52.250                                                                    19393387.457 8  80404990.70608      -128.819 8        48.602
I06        22.000    38701543.801 6 151873183.48606      -553.448 6        41.151
S28        23.000    41030345.605 5 215615707.43405      -630.100 5        34.805
E34        24.000    25204623.205 7 132451385.61407      1076.013 7        45.460                                                                    25204632.566 8  98908655.39508       803.497 8        48.496    25204630.930 8 101488864.94908       824.520 8        48.648
S23        25.000    38270683.268 7 201113605.01907      -630.201 7        45.445
C13        26.000                                                                                                                                    41245179.912 6 214774479.93306      1615.772 6        37.905    41245193.735 6 166077312.50806      1249.731 6        38.255    41245188.918 6 174521904.58906      1312.906 6        36.227
C07        27.000                                                                                                                                    41241154.932 5 214753503.40005     -1505.130 5        35.400    41241155.967 6 166061040.66806     -1163.911 6        39.114    41241153.111 6 174504809.06606     -1222.916 6        36.242
R24        28.000    19909282.894 8 106464132.77508      1341.165 8        52.092                                                                    19909288.603 7  82805594.36807      1043.139 7        46.989
I02        29.000    37407726.354 6 146795930.66006      -757.220 6        41.938
G28        30.000    22842225.544 7 120036746.32907      2161.510 7        44.634                                    22842232.797 5  93535186.58405      1684.281 5        31.434    22842232.974 7  93535183.61307      1684.321 7        43.090
E07        31.000    26762489.613 6 140637644.78306     -3438.168 6        41.004                                                                    26762507.327 7 105021580.61707     -2567.416 7        44.187    26762505.260 7 107761276.08007     -2634.381 7        44.629
C12        32.000                                                                                                                                    22188292.667 8 115540443.93908       415.015 8        48.246    22188295.275 8  89343303.95308       320.950 8        52.342    22188293.362 8  93886148.21508       337.364 8        49.830
R17        33.000    23188314.187 7 124085457.33107      3921.843 7        44.671                                                                    23188328.580 6  96511012.88106      3050.436 6        41.015
R23        34.000    21104974.246 7 112897516.29807     -3345.714 7        47.315
C24        35.000                                                                                                                                    22069962.184 8 114924121.65208     -2199.102 8        50.782                                                                    22069963.716 8  93385284.54008     -1786.839 8        49.819
R05        36.000    22776821.613 7 121755057.13207     -2693.825 7        45.339                                                                    22776837.848 7  94698383.59307     -2095.212 7        42.226
E27        37.000    24936212.278 7 131040780.23007      1077.604 7        45.527                                                                    24936222.311 8  97855240.29808       804.672 8        48.758    24936220.740 8 100407970.48608       825.752 8        49.191
R04        38.000    24189510.194 7 129533452.87607     -4565.298 7        42.908                                                                    24189528.958 6 100748180.53706     -3550.708 6        38.312
R06        39.000    23927739.942 5 127682951.19905      1085.207 5        33.222
C32        40.000                                                                                                                                    26841894.928 6 139772599.51106     -1434.485 6        40.238                                                                    26841911.420 6 113576677.51706     -1165.467 6        40.846
C34        41.000                                                                                                                                    22858097.700 8 119028318.28808      1896.194 8        49.299                                                                    22858103.483 7  96720370.45407      1540.875 7        47.781
S44        42.000    40819464.341 6 214507756.25306      -543.429 6        36.805
C38        43.000                                                                                                                                    40664351.151 6 211749943.83406      1274.312 6        39.333                                                                    40664356.697 6 172064203.99906      1035.538 6        39.871
C05        44.000                                                                                                                                    39573100.829 6 206067381.97606      -598.535 6        36.862    39573109.667 7 159344347.89407      -462.890 7        43.439    39573108.665 6 167446692.71306      -486.309 6        39.997
C08        45.000                                                                                                                                    41029373.770 6 213650728.42206      1697.769 6        36.329    41029378.904 6 165208324.91306      1312.703 6        40.117    41029375.568 6 173608731.94606      1379.465 6        36.030
G32        46.000    23415552.592 7 123049435.86007     -2294.829 7        45.291                                    23415564.509 6  95882671.72906     -1788.170 6        40.763    23415565.387 6  95882673.71706     -1788.220 6        40.427
E36        47.000    26347493.604 6 138457127.29906     -1712.649 6        41.499                                                                    26347503.866 7 103393430.29907     -1278.882 7        44.701    26347502.646 7 106090632.55707     -1312.270 7        45.243
C41        48.000                                                                                                                                    27254684.912 6 141922147.81506     -3155.985 6        36.692                                                                    27254707.802 6 115323412.34906     -2564.517 6        38.318
C10        49.000                                                                                                                                    40064726.894 6 208627527.31606     -1345.034 6        37.285    40064734.343 6 161324046.47606     -1040.182 6        41.268    40064730.008 6 169526952.59806     -1092.806 6        38.631
C44        50.000                                                                                                                                    22081728.101 8 114985388.50108     -1285.333 8        49.905                                                                    22081730.995 8  93435078.32108     -1044.321 8        49.184
S48        51.000    77266423.507 6 406038207.60006      -647.476 6        38.186
E02        53.000    26592677.669 6 139745469.58406     -2891.203 6        41.230                                                                    26592688.414 7 104355436.81307     -2159.054 7        44.421    26592686.642 7 107077736.79207     -2215.384 7        44.758
C60        54.000                                                                                                                                    40819470.546 6 212557703.43406      -538.361 6        39.616                                                                    40819465.115 6 172720473.97606      -437.682 6        40.315
C25        55.000                                                                                                                                    22084497.225 8 114999874.82008       884.067 8        50.672                                                                    22084500.555 8  93446877.49908       718.501 8        49.409
C23        56.000                                                                                                                                    26510855.906 6 138048993.69806      2440.583 6        39.384                                                                    26510865.365 6 112176153.68806      1983.242 6        41.154
C02        57.000                                                                                                                                    41015093.739 5 213576202.32105      -551.117 5        32.982    41015100.189 6 165150609.01606      -426.275 6        38.237    41015100.609 5 173548120.36305      -448.175 5        35.205
I03        58.000   117984906.704 5 387212591.75805       931.591 5        33.826
C11        59.000                                                                                                                                    24787797.060 6 129076666.67106      2727.241 6        41.843    24787809.047 7  99810362.24707      2108.861 7        46.436    24787804.324 7 104885430.11007      2216.184 7        44.253
R13        60.000    21906997.736 7 116982167.83707     -3707.067 7        42.131
> 2025 01 01 14 15  5.0000000  0 57
G25         2.000    19996281.454 8 105081291.06708        23.906 8        49.886                                    19996285.644 8  81881608.42208        18.624 8        50.071    19996286.662 7  81881618.42607        18.633 7        44.972
G24         3.000    24158492.748 6 126953639.92806     -4452.906 6        40.405                                    24158503.395 5  98924918.33905     -3469.791 5        35.490    24158504.097 6  98924915.34006     -3469.830 6        38.357
G29         4.000    21930643.228 8 115246538.80808      2025.184 8        48.035                                    21930647.147 7  89802629.50107      1578.058 7        46.056    21930647.594 7  89802632.51507      1577.988 7        42.557
S21         5.000    38555300.443 7 202609070.39207      -625.193 7        43.191
G06         6.000    23700414.748 6 124546650.84006     -2710.231 6        40.875                                    23700422.353 6  97049432.17806     -2111.874 6        36.446    23700422.724 6  97049423.17506     -2111.761 6        40.324
E19         7.000    27302808.832 5 143477115.93005       859.197 5        34.281                                                                    27302825.994 6 107141985.02606       641.282 6        37.501    27302823.589 6 109936997.32606       658.093 6        38.120
E15         8.000    27339057.909 6 143667812.24406      2628.250 6        39.517                                                                    27339076.202 7 107284508.18307      1962.638 7        44.023    27339073.925 7 110083218.45207      2013.839 7        43.964
G11         9.000    22484931.098 7 118159290.92307      -327.243 7        46.442                                    22484934.347 5  92072278.43305      -255.001 5        34.062    22484934.589 7  92072278.43407      -255.031 7        43.998
E30        10.000    23825131.727 8 125202061.54708     -1155.534 8        48.207                                                                    23825138.087 8  93495156.06508      -862.954 8        50.729    23825137.171 8  95934148.68908      -885.427 8        51.768
C26        11.000                                                                                                                                    26266103.750 6 136774357.18806     -3706.853 6        41.280                                                                    26266113.631 6 111140354.58606     -3012.136 6        41.406
S27        12.000    39350992.566 6 206790666.20206      -633.800 6        36.556
R15        13.000    21871206.892 7 116873222.82907      2652.589 7        47.732                                                                    21871218.906 7  90901491.58607      2063.148 7        43.308
S36        14.000    38327647.738 7 201413476.82607      -625.913 7        44.847
G12        15.000    21071955.918 8 110734012.32208     -2444.239 8        48.991                                    21071956.924 8  86286317.34808     -1904.602 8        48.108    21071957.402 7  86286317.34207     -1904.536 7        44.537
E29        16.000    26009058.019 7 136678437.16707     -1332.351 7        42.863                                                                    26009071.552 7 102065070.85607      -995.011 7        45.479    26009069.796 7 104727636.49607     -1020.864 7        46.023
S45        17.000    63528057.625 6 333843781.89206      -689.692 6        36.344
G31        18.000    24875456.832 6 130721386.24706      2974.627 6        39.078                                    24875472.045 4 101860894.29804      2317.889 4        29.867    24875473.050 5 101860873.30405      2317.976 5        35.238
C35        19.000                                                                                                                                    25164880.476 7 131040250.51707     -3501.812 7        43.200                                                                    25164884.938 7 106481009.60507     -2845.596 7        42.472
R14        21.000    19393537.972 8 103378577.10308      -168.251 8        52.430                                                                    19393544.039 8  80405639.30708      -130.862 8        48.755
I06        22.000    38702248.770 6 151875950.24206      -553.403 6        41.347
S28        23.000    41030946.578 5 215618857.00705      -630.004 5        34.748
E34        24.000    25203600.241 7 132446010.21707      1073.901 7        45.354                                                                    25203609.577 8  98904641.33008       801.880 8        48.482    25203607.930 8 101484746.16608       822.851 8        48.748
S23        25.000    38271281.267 7 201116755.32807      -630.193 7        45.434
C13        26.000                                                                                                                                    41243628.055 6 214766400.25606      1615.658 6        37.981    41243642.235 6 166071064.84406      1249.405 6        38.225    41243637.298 6 174515339.22506      1312.984 6        36.098
C07        27.000                                                                                                                                    41242599.470 5 214761028.01305     -1505.096 5        35.271    41242601.180 6 166066859.22606     -1163.727 6        39.234    41242597.884 6 174510923.47406     -1222.950 6        36.181
R24        28.000    19908031.086 8 106457436.66308      1337.084 8        52.207                                                                    19908036.313 7  82800386.28607      1039.941 7        46.964
I02        29.000    37408691.230 7 146799716.83207      -757.348 7        42.068
G28        30.000    22840169.335 7 120025942.73307      2159.593 7        44.373                                    22840176.821 5  93526768.26405      1682.785 5        31.109    22840177.102 7  93526765.30207      1682.782 7        42.973
E07        31.000    26765761.707 6 140654836.55206     -3438.973 6        41.502                                                                    26765778.958 7 105034418.57407     -2567.998 7        44.212    26765776.672 7 107774448.93907     -2635.014 7        44.618
C12        32.000                                                                                                                                    22187895.118 8 115538374.64908       412.318 8        48.179    22187898.049 8  89341703.86108       318.905 8        52.477    22187895.939 8  93884466.76008       335.145 8        49.907
R17        33.000    23184650.155 7 124065849.44707      3921.142 7        44.372                                                                    23184663.883 6  96495762.41506      3049.740 6        41.404
R23        34.000    21108102.932 7 112914252.45507     -3349.105 7        46.990
C24        35.000                                                                                                                                    22072074.433 8 114935120.72508     -2200.926 8        50.846                                                                    22072076.011 8  93394222.17808     -1788.302 8        49.947
R05        36.000    22779343.521 7 121768534.22207     -2697.316 7        46.140                                                                    22779358.706 6  94708865.74706     -2097.862 6        40.818
E27        37.000    24935187.023 7 131035393.32807      1076.873 7        45.610                                                                    24935197.190 8  97851217.62608       804.113 8        48.811    24935195.618 8 100403842.87308       825.164 8        49.264
R04        38.000    24193772.706 7 129556279.96207     -4565.755 7        42.618                                                                    24193791.568 6 100765934.90406     -3551.198 6        38.321
R06        39.000    23926723.301 5 127677533.78805      1081.410 5        32.719
C32        40.000                                                                                                                                    26843273.970 6 139779777.60906     -1436.999 6        40.513                                                                    26843289.863 6 113582510.25906     -1167.643 6        41.039
C34        41.000                                                                                                                                    22856277.510 8 119018841.23508      1894.338 8        49.398                                                                    22856283.526 7  96712669.59107      1539.375 7        47.855
S44        42.000    40819979.781 6 214510472.90606      -543.658 6        36.843
C38        43.000                                                                                                                                    40663127.431 6 211743573.27806      1273.651 6        39.571                                                                    40663133.247 6 172059027.41906      1034.828 6        40.026
C05        44.000                                                                                                                                    39573675.589 6 206070373.91806      -598.595 6        37.043    39573684.324 7 159346661.44607      -462.814 7        43.395    39573683.277 6 167449123.91906      -486.412 6        40.133
C08        45.000                                                                                                                                    41027743.310 6 213642240.41106      1697.302 6        36.646    41027749.129 6 165201761.46706      1312.468 6        40.329    41027745.348 6 173601834.76606      1379.203 6        36.045
G32        46.000    23417737.604 7 123060915.71107     -2297.398 7        45.005                                    23417749.093 6  95891617.03706     -1790.177 6        40.579    23417749.512 6  95891619.03306     -1790.203 6        40.477
E36        47.000    26349124.404 6 138465695.70706     -1715.120 6        41.597                                                                    26349134.411 7 103399828.80907     -1280.708 7        44.737    26349133.158 7 106097197.97707     -1314.106 7        45.359
C41        48.000                                                                                                                                    27257715.554 6 141937929.41306     -3156.999 6        37.497                                                                    27257738.294 6 115336236.16406     -2565.204 6        38.330
C10        49.000                                                                                                                                    40066018.628 6 208634251.74406     -1344.976 6        37.285    40066025.545 6 161329246.25006     -1040.022 6        41.485    40066021.406 6 169532416.76106     -1093.002 6        38.787
C44        50.000                                                                                                                                    22082963.316 8 114991820.88908     -1287.926 8        49.849                                                                    22082966.287 8  93440305.17208     -1046.554 8        49.365
S48        51.000    77267024.220 6 406041444.17906      -647.359 6        37.879
E02        53.000    26595428.784 6 139759926.76606     -2891.677 6        41.442                                                                    26595439.523 7 104366232.75607     -2159.497 7        44.462    26595437.763 7 107088814.36307     -2215.737 7        44.880
C60        54.000                                                                                                                                    40819987.550 6 212560395.35206      -538.535 6        39.423                                                                    40819981.980 6 172722661.38506      -437.423 6        40.296
C25        55.000                                                                                                                                    22083648.907 8 114995458.06408       882.364 8        50.631                                                                    22083652.407 8  93443288.53308       717.035 8        49.571
C23        56.000                                                                                                                                    26508513.353 6 138036790.17906      2440.390 6        40.174                                                                    26508521.744 6 112166237.36206      1983.180 6        41.261
C02        57.000                                                                                                                                    41015623.081 5 213578958.08405      -551.251 5        33.132    41015629.138 6 165152739.99506      -426.469 6        38.159    41015629.821 5 173550359.65205      -447.669 5        35.229
I03        58.000   117983719.085 5 387207934.42805       931.416 5        33.892
C11        59.000                                                                                                                                    24785179.916 7 129063032.20807      2726.299 7        42.637    24785190.525 7  99799819.28507      2108.167 7        46.514    24785185.888 7 104874351.05007      2215.306 7        44.310
R13        60.000    21910469.496 7 117000706.66507     -3708.685 7        42.296
> 2025 01 01 14 15 10.0000000  0 57
G25         2.000    19996259.445 8 105081175.85808        21.624 8        50.049                                    19996263.711 8  81881518.65908        16.848 8        50.225    19996264.552 7  81881528.66907        16.851 7        44.936
G24         3.000    24162730.555 6 126975905.74606     -4453.687 6        40.603                                    24162740.364 5  98942268.29005     -3470.400 5        35.890    24162741.472 6  98942265.27906     -3470.468 6        38.664
G29         4.000    21928717.031 8 115236417.47808      2023.116 8        48.199                                    21928721.112 7  89794742.77907      1576.448 7        46.183    21928721.601 7  89794745.78607      1576.469 7        42.518
S21         5.000    38555895.415 7 202612196.75107      -625.538 7        43.359
G06         6.000    23702994.228 6 124560208.21006     -2713.156 6        41.051                                    23703002.157 6  97059996.36906     -2114.151 6        36.552    23703001.828 6  97059987.37806     -2114.086 6        40.372
E19         7.000    27301992.715 5 143472825.64305       856.640 5        33.090                                                                    27302009.321 6 107138781.22206       639.782 6        36.964    27302007.111 6 109933709.93606       656.759 6        38.024
E15         8.000    27336557.261 6 143654671.51106      2627.811 6        39.592                                                                    27336575.460 7 107274695.36307      1962.334 7        44.026    27336573.196 7 110073149.63407      2013.454 7        44.015
G11         9.000    22485243.785 7 118160935.13907      -330.745 7        46.287                                    22485247.284 5  92073559.65005      -257.723 5        34.210    22485247.992 7  92073559.66107      -257.750 7        44.718
E30        10.000    23826231.778 8 125207841.39608     -1156.721 8        48.129                                                                    23826237.917 8  93499472.18108      -863.833 8        50.751    23826237.059 8  95938577.40108      -886.303 8        51.768
C26        11.000                                                                                                                                    26269663.526 6 136792892.34306     -3707.465 6        40.937                                                                    26269673.281 6 111155415.89006     -3012.722 6        41.514
S27        12.000    39351597.920 6 206793835.17006      -634.001 6        36.711
R15        13.000    21868725.293 7 116859961.16507      2651.645 7        47.622                                                                    21868737.335 7  90891177.02007      2062.393 7        43.803
S36        14.000    38328242.141 7 201416604.35807      -625.728 7        45.067
G12        15.000    21074282.302 8 110746237.52308     -2446.114 8        48.747                                    21074283.322 8  86295843.47208     -1906.061 8        48.236    21074283.749 7  86295843.46907     -1906.070 7        44.612
E29        16.000    26010327.169 7 136685104.25307     -1334.827 7        42.518                                                                    26010340.362 7 102070049.52107      -996.755 7        45.509    26010338.636 7 104732745.04707     -1022.874 7        45.907
S45        17.000    63528658.079 6 333845630.33816      -689.901 6        36.367
G31        18.000    24872626.812 6 130706514.77006      2973.736 6        38.841                                    24872642.282 5 101849306.18305      2317.186 5        30.241    24872643.410 6 101849285.23006      2317.030 6        36.155
C35        19.000                                                                                                                                    25168243.155 7 131057761.95007     -3503.047 7        42.817                                                                    25168247.863 7 106495239.09907     -2846.596 7        42.597
R14        21.000    19393696.924 8 103379424.64008      -171.088 8        52.269                                                                    19393702.756 8  80406298.50308      -133.055 8        48.427
I06        22.000    38702954.070 6 151878717.01106      -553.622 6        41.294
S28        23.000    41031542.207 5 215622006.60705      -629.986 5        35.186
E34        24.000    25202579.165 7 132440645.78207      1071.621 7        45.199                                                                    25202588.687 8  98900635.43808       800.202 8        48.488    25202587.023 8 101480635.77208       821.072 8        48.690
S23        25.000    38271881.954 7 201119905.74807      -630.269 7        45.476
C13        26.000                                                                                                                                    41242076.562 6 214758321.89606      1615.319 6        37.887    41242090.469 6 166064818.18606      1248.941 6        38.135    41242085.758 6 174508774.89706      1313.010 6        36.098
C07        27.000                                                                                                                                    41244044.198 5 214768552.21905     -1505.269 5        35.419    41244045.776 6 166072677.47806     -1163.904 6        39.321    41244042.639 6 174517037.55706     -1223.245 6        36.231
R24        28.000    19906782.551 8 106450761.05508      1332.805 8        52.409                                                                    19906788.165 7  82795194.17607      1036.603 7        47.368
I02        29.000    37409656.657 7 146803503.71107      -757.553 7        42.110
G28        30.000    22838114.956 7 120015148.72007      2157.669 7        44.078                                    22838122.772 5  93518357.40905      1681.287 5        31.321    22838122.994 7  93518354.44107      1681.229 7        43.439
E07        31.000    26769033.436 6 140672032.43506     -3439.950 6        41.080                                                                    26769051.264 7 105047259.60607     -2568.710 7        44.307    26769048.857 7 107787624.96407     -2635.693 7        44.497
C12        32.000                                                                                                                                    22187500.340 8 115536319.03808       409.502 8        48.052    22187503.576 8  89340114.34208       316.684 8        52.558    22187501.189 8  93882796.40808       332.840 8        50.041
R17        33.000    23180986.198 7 124046245.76707      3920.165 7        44.590                                                                    23181000.750 6  96480515.20106      3049.050 6        41.952
R23        34.000    21111234.969 7 112931006.18007     -3352.658 7        47.368
C24        35.000                                                                                                                                    22074188.356 8 114946129.08208     -2202.814 8        50.941                                                                    22074190.054 8  93403167.37008     -1789.967 8        49.997
R05        36.000    22781869.295 7 121782029.64207     -2701.157 7        45.860                                                                    22781883.848 6  94719362.12906     -2100.712 6        41.428
E27        37.000    24934162.668 7 131030010.09607      1076.043 7        45.494                                                                    24934172.772 8  97847197.69808       803.544 8        48.796    24934171.185 8 100399718.08108       824.517 8        49.256
R04        38.000    24198035.667 7 129579109.70807     -4566.563 7        42.565                                                                    24198054.608 6 100783691.30606     -3551.606 6        38.072
R06        39.000    23925711.009 5 127672135.50505      1077.338 5        33.731
C32        40.000                                                                                                                                    26844654.445 6 139786968.74406     -1439.604 6        40.789                                                                    26844670.800 6 113588353.66606     -1169.778 6        41.199
C34        41.000                                                                                                                                    22854459.183 8 119009373.68308      1892.362 8        49.293                                                                    22854465.296 7  96704976.44007      1537.674 7        47.964
S44        42.000    40820498.028 6 214513189.69006      -543.672 6        36.820
C38        43.000                                                                                                                                    40661904.614 6 211737205.94706      1273.036 6        39.670                                                                    40661910.367 6 172053853.45106      1034.268 6        40.043
C05        44.000                                                                                                                                    39574250.277 6 206073365.91706      -598.626 6        36.991    39574258.726 7 159348975.05407      -462.850 7        43.424    39574257.840 6 167451555.14506      -486.481 6        40.215
C08        45.000                                                                                                                                    41026114.711 6 213633754.34806      1696.860 6        36.529    41026119.301 6 165195199.53006      1312.178 6        40.453    41026115.738 5 173594939.14805      1378.697 5        35.976
G32        46.000    23419924.473 7 123072408.55607     -2300.055 7        44.879                                    23419936.128 6  95900572.46906     -1792.246 6        40.658    23419936.586 6  95900574.45206     -1792.112 6        40.474
E36        47.000    26350757.302 6 138474276.21506     -1717.469 6        41.478                                                                    26350767.162 7 103406236.35807     -1282.576 7        44.838    26350765.880 7 106103772.68607     -1316.044 7        45.309
C41        48.000                                                                                                                                    27260746.672 6 141953715.24706     -3157.742 6        37.259                                                                    27260769.881 6 115349063.44006     -2566.018 6        38.165
C10        49.000                                                                                                                                    40067310.303 6 208640976.23006     -1345.237 6        37.614    40067316.786 6 161334446.06206     -1040.127 6        41.719    40067312.942 6 169537880.97006     -1093.006 6        38.784
C44        50.000                                                                                                                                    22084201.300 8 114998266.64008     -1290.787 8        49.961                                                                    22084204.077 8  93445542.86008     -1048.904 8        49.403
S48        51.000    77267622.515 6 406044681.02206      -647.483 6        37.985
E02        53.000    26598180.345 6 139774386.13606     -2892.342 6        41.170                                                                    26598191.126 7 104377030.31907     -2159.796 7        44.503    26598189.392 7 107099893.61507     -2216.293 7        44.960
C60        54.000                                                                                                                                    40820504.434 6 212563087.45506      -538.658 6        39.574                                                                    40820498.864 6 172724848.94406      -437.566 6        40.589
C25        55.000                                                                                                                                    22082802.536 8 114991049.80208       880.578 8        50.752                                                                    22082805.847 8  93439706.46908       715.535 8        49.640
C23        56.000                                                                                                                                    26506170.298 6 138024587.29406      2440.292 6        40.594                                                                    26506178.279 6 112156321.55806      1982.904 6        41.261
C02        57.000                                                                                                                                    41016151.381 5 213581713.94205      -551.553 5        33.114    41016158.010 6 165154871.02906      -426.604 6        38.333    41016159.025 5 173552599.03905      -448.130 5        35.114
I03        58.000   117982532.384 5 387203277.08305       931.393 5        34.205
C11        59.000                                                                                                                                    24782563.292 7 129049402.31707      2725.284 7        42.838    24782573.132 7  99789279.86107      2107.343 7        46.770    24782568.461 7 104863275.69307      2214.419 7        44.429
R13        60.000    21913942.942 7 117019253.83207     -3710.399 7        42.813
> 2025 01 01 14 15 15.0000000  0 57
G25         2.000    19996239.878 8 105081072.36308        19.503 8        49.923                                    19996244.000 8  81881438.02608        15.195 8        50.223    19996244.718 7  81881448.03907        15.163 7        44.853
G24         3.000    24166967.633 6 126998175.02706     -4454.256 6        41.023                                    24166978.103 6  98959620.94206     -3470.839 6        36.110    24166979.680 6  98959617.94006     -3470.968 6        38.426
G29         4.000    21926792.960 8 115226306.52408      2021.164 8        48.132                                    21926797.031 7  89786864.14007      1574.927 7        46.179    21926797.225 7  89786867.15207      1574.802 7        42.353
S21         5.000    38556489.899 7 202615323.75907      -625.415 7        42.885
G06         6.000    23705577.483 6 124573779.99406     -2715.792 6        41.838                                    23705584.707 6  97070571.81806     -2116.211 6        36.601    23705584.653 6  97070562.83506     -2116.356 6        39.814
E19         7.000    27301178.410 5 143468546.37405       854.659 5        33.617                                                                    27301195.206 6 107135585.63506       638.346 6        37.554    27301192.836 6 109930431.01306       654.777 6        38.099
E15         8.000    27334057.002 6 143641532.60306      2627.617 6        39.814                                                                    27334075.087 7 107264883.90807      1962.068 7        43.987    27334072.860 7 110063082.21507      2013.260 7        44.051
G11         9.000    22485559.831 7 118162596.59007      -334.100 7        46.392                                    22485563.504 5  92074854.30105      -260.340 5        34.176    22485563.627 7  92074854.30607      -260.374 7        44.260
E30        10.000    23827332.659 8 125213627.18508     -1157.804 8        48.216                                                                    23827338.922 8  93503792.73408      -864.609 8        50.833    23827338.014 8  95943010.66408      -887.208 8        51.666
C26        11.000                                                                                                                                    26273223.677 6 136811430.64506     -3708.049 6        40.698                                                                    26273233.430 6 111170479.75206     -3013.102 6        41.740
S27        12.000    39352197.722 6 206797004.58906      -634.064 6        36.495
R15        13.000    21866244.605 7 116846703.72607      2650.960 7        47.900                                                                    21866256.475 7  90880865.75207      2061.854 7        44.740
S36        14.000    38328835.807 7 201419732.72607      -625.893 7        44.823
G12        15.000    21076610.152 8 110758472.14508     -2447.911 8        48.788                                    21076611.512 8  86305376.93808     -1907.461 8        48.220    21076612.075 7  86305376.93807     -1907.498 7        44.451
E29        16.000    26011598.092 7 136691783.67407     -1337.145 7        43.016                                                                    26011611.410 7 102075037.39007      -998.610 7        45.717    26011609.696 7 104737863.03107     -1024.595 7        45.928
S45        17.000    63529259.405 6 333849079.44606      -689.901 6        36.348
G31        18.000    24869797.985 6 130691647.60406      2972.949 6        38.670                                    24869813.220 5 101837721.44905      2316.576 5        30.430    24869813.741 5 101837700.47105      2316.678 5        35.095
C35        19.000                                                                                                                                    25171607.029 7 131075279.81407     -3504.297 7        42.337                                                                    25171612.232 7 106509473.82007     -2847.624 7        42.863
R14        21.000    19393858.630 8 103380286.05908      -173.745 8        52.328                                                                    19393864.444 8  80406968.51008      -135.144 8        48.490
I06        22.000    38703659.277 6 151881484.04806      -553.452 6        41.268
S28        23.000    41032142.773 5 215625156.90905      -630.119 5        34.838
E34        24.000    25201560.726 7 132435292.64807      1069.543 7        45.177                                                                    25201569.944 8  98896637.99708       798.588 8        48.628    25201568.326 8 101476534.05208       819.361 8        48.511
S23        25.000    38272481.232 7 201123056.74407      -630.245 7        45.591
C13        26.000                                                                                                                                    41240525.241 6 214750245.15506      1615.172 6        37.531    41240539.528 6 166058572.78306      1248.948 6        38.375    41240534.743 6 174502211.95406      1312.374 6        36.166
C07        27.000                                                                                                                                    41245489.536 5 214776076.49505     -1504.719 5        35.186    41245490.866 6 166078495.78106     -1163.641 6        39.216    41245487.314 6 174523151.70906     -1222.992 6        36.234
R24        28.000    19905538.517 8 106444106.70208      1328.719 8        52.389                                                                    19905543.329 7  82790018.57707      1033.448 7        46.703
I02        29.000    37410621.712 7 146807291.38107      -757.525 7        42.089
G28        30.000    22836063.201 7 120004364.70307      2155.718 7        44.615                                    22836070.530 5  93509954.33805      1679.762 5        31.434    22836070.777 7  93509951.36307      1679.795 7        43.228
E07        31.000    26772305.989 6 140689232.80506     -3440.571 6        40.584                                                                    26772324.414 7 105060103.98907     -2569.223 7        44.482    26772322.126 7 107800804.42407     -2636.300 7        44.385
C12        32.000                                                                                                                                    22187108.348 7 115534277.44907       406.890 7        47.883    22187111.389 8  89338535.66908       314.572 8        52.605    22187109.130 8  93881137.47008       330.617 8        50.116
R17        33.000    23177324.156 7 124026646.70707      3919.346 7        44.805                                                                    23177338.102 6  96465271.59306      3048.334 6        41.857
R23        34.000    21114370.966 7 112947777.67307     -3356.061 7        47.255
C24        35.000                                                                                                                                    22076304.340 8 114957147.08708     -2204.564 8        50.846                                                                    22076305.975 8  93412120.40908     -1791.476 8        50.112
R05        36.000    22784396.708 7 121795543.32107     -2704.566 7        46.177                                                                    22784411.658 6  94729872.73606     -2103.554 6        41.833
E27        37.000    24933138.815 7 131024630.91407      1075.409 7        45.666                                                                    24933149.131 8  97843180.80408       803.001 8        48.953    24933147.553 8 100395596.39808       823.943 8        49.143
R04        38.000    24202300.540 7 129601942.48107     -4566.921 7        43.073                                                                    24202318.760 6 100801450.08806     -3552.133 6        37.036
R06        39.000    23924703.412 5 127666756.88805      1073.695 5        32.808
C32        40.000                                                                                                                                    26846038.321 6 139794172.88206     -1442.119 6        39.937                                                                    26846054.058 6 113594207.54106     -1172.088 6        40.608
C34        41.000                                                                                                                                    22852642.663 8 118999915.99908      1890.524 8        48.939                                                                    22852649.111 8  96697291.31708      1536.174 8        48.132
S44        42.000    40821016.955 6 214515907.02406      -543.662 6        36.953
C38        43.000                                                                                                                                    40660682.267 6 211730842.23006      1272.325 6        39.547                                                                    40660688.336 6 172048682.41806      1033.780 6        40.093
C05        44.000                                                                                                                                    39574824.984 6 206076358.34606      -598.537 6        36.873    39574833.531 7 159351289.01107      -462.927 7        43.422    39574832.560 6 167453986.76606      -486.445 6        40.191
C08        45.000                                                                                                                                    41024486.107 6 213625270.61206      1696.527 6        36.673    41024489.702 6 165188639.39406      1311.840 6        40.489    41024486.530 5 173588045.44405      1378.801 5        35.771
G32        46.000    23422114.254 7 123083914.72107     -2302.649 7        45.058                                    23422125.667 6  95909538.28206     -1794.268 6        40.589    23422126.157 6  95909540.26606     -1794.248 6        40.501
E36        47.000    26352392.066 6 138482869.22306     -1719.909 6        41.602                                                                    26352402.346 7 103412653.24007     -1284.392 7        45.026    26352401.000 7 106110356.95107     -1317.880 7        45.139
C41        48.000                                                                                                                                    27263778.623 6 141969505.72606     -3158.608 6        37.176                                                                    27263802.295 6 115361894.48406     -2566.649 6        37.898
C10        49.000                                                                                                                                    40068601.506 6 208647701.05106     -1344.817 6        37.584    40068607.952 6 161339646.17306     -1040.033 6        41.685    40068603.951 6 169543345.47906     -1092.985 6        39.069
C44        50.000                                                                                                                                    22085441.682 8 115004726.07808     -1293.286 8        49.786                                                                    22085444.538 8  93450791.68408     -1050.972 8        49.535
S48        51.000    77268224.480 6 406047918.40006      -647.482 6        37.955
E02        53.000    26600932.428 6 139788848.07906     -2892.677 6        40.984                                                                    26600943.193 7 104387829.80907     -2160.125 7        44.742    26600941.561 7 107110974.81907     -2216.476 7        45.091
C60        54.000                                                                                                                                    40821021.788 6 212565780.10406      -538.697 6        39.240                                                                    40821015.936 6 172727036.96406      -437.701 6        40.605
C25        55.000                                                                                                                                    22081957.740 8 114986650.42808       878.945 8        50.597                                                                    22081960.972 8  93436131.63408       714.143 8        49.707
C23        56.000                                                                                                                                    26503826.165 6 138012385.48706      2440.190 6        40.360                                                                    26503835.018 6 112146406.63806      1982.810 6        41.518
C02        57.000                                                                                                                                    41016680.387 5 213584470.22005      -551.603 5        32.856    41016687.490 6 165157002.39006      -426.567 6        38.438    41016688.505 5 173554838.76505      -448.053 5        35.138
I03        58.000   117981345.973 5 387198619.93505       931.409 5        33.826
C11        59.000                                                                                                                                    24779946.149 7 129035777.37707      2724.465 7        42.646    24779956.783 7  99778744.26407      2106.669 7        46.794    24779951.852 7 104852204.37107      2213.811 7        44.516
R13        60.000    21917417.320 7 117037809.57307     -3712.094 7        42.172
> 2025 01 01 14 15 20.0000000  0 57
G25         2.000    19996222.438 8 105080979.95308        17.231 8        50.064                                    19996226.408 8  81881366.03208        13.423 8        50.336    19996226.999 7  81881376.04007        13.341 7        44.921
G24         3.000    24171205.988 6 127020447.10406     -4454.933 6        41.099                                    24171216.414 6  98976975.76506     -3471.366 6        36.480    24171217.350 6  98976972.76206     -3471.381 6        38.604
G29         4.000    21924870.639 7 115216205.34307      2019.077 7        47.796                                    21924874.810 7  89778993.11307      1573.300 7        46.302    21924875.322 7  89778996.12207      1573.341 7        42.500
S21         5.000    38557085.233 7 202618450.74107      -625.532 7        43.270
G06         6.000    23708162.466 6 124587365.45606     -2718.564 6        41.023                                    23708169.824 6  97081157.92506     -2118.363 6        36.733    23708170.092 6  97081148.92906     -2118.453 6        40.119
