     3.04           OBSERVATION DATA    M                   RINEX VERSION / TYPE
ssrcrin-15.6.1x                         20250101 151500 UTC PGM / RUN BY / DATE 
(00000000023479385599111004) Septentrio proprietary         COMMENT             
rref                                                        MARKER NAME         
01                                                          MARKER NUMBER       
geodetic                                                    MARKER TYPE         
NFB                 CLIMERS@TUW                             OBSERVER / AGENCY   
3297213             SEPT ASTERX SB3 PROB4.14.4              REC # / TYPE / VERS 
Unknown             Unknown                                 ANT # / TYPE        
  4127831.8593  1207193.9764  4695248.1563                  APPROX POSITION XYZ 
        0.0000        0.0000        0.0000                  ANTENNA: DELTA H/E/N
G   23 X1  C1C L1C D1C S1C C1W S1W C2W L2W D2W S2W C2L L2L  SYS / # / OBS TYPES 
       D2L S2L C5Q L5Q D5Q S5Q C1L L1L D1L S1L              SYS / # / OBS TYPES 
E   21 X1  C1C L1C D1C S1C C6C L6C D6C S6C C5Q L5Q D5Q S5Q  SYS / # / OBS TYPES 
       C7Q L7Q D7Q S7Q C8Q L8Q D8Q S8Q                      SYS / # / OBS TYPES 
S    9 X1  C1C L1C D1C S1C C5I L5I D5I S5I                  SYS / # / OBS TYPES 
R   17 X1  C1C L1C D1C S1C C2P L2P D2P S2P C2C L2C D2C S2C  SYS / # / OBS TYPES 
       C3Q L3Q D3Q S3Q                                      SYS / # / OBS TYPES 
C   25 X1  C1P L1P D1P S1P C5P L5P D5P S5P C2I L2I D2I S2I  SYS / # / OBS TYPES 
       C7I L7I D7I S7I C6I L6I D6I S6I C7D L7D D7D S7D      SYS / # / OBS TYPES 
J   17 X1  C1C L1C D1C S1C C2L L2L D2L S2L C5Q L5Q D5Q S5Q  SYS / # / OBS TYPES 
       C1L L1L D1L S1L                                      SYS / # / OBS TYPES 
I    5 X1  C5A L5A D5A S5A                                  SYS / # / OBS TYPES 
SEPTENTRIO RECEIVERS OUTPUT ALIGNED CARRIER PHASES.         COMMENT             
NO FURTHER PHASE SHIFT APPLIED IN THE RINEX ENCODER.        COMMENT             
G L1C                                                       SYS / PHASE SHIFT   
G L2W                                                       SYS / PHASE SHIFT   
G L2L  0.00000                                              SYS / PHASE SHIFT   
G L5Q  0.00000                                              SYS / PHASE SHIFT   
G L1L  0.00000                                              SYS / PHASE SHIFT   
E L1C  0.00000                                              SYS / PHASE SHIFT   
E L6C  0.00000                                              SYS / PHASE SHIFT   
E L5Q  0.00000                                              SYS / PHASE SHIFT   
E L7Q  0.00000                                              SYS / PHASE SHIFT   
E L8Q  0.00000                                              SYS / PHASE SHIFT   
S L1C                                                       SYS / PHASE SHIFT   
S L5I                                                       SYS / PHASE SHIFT   
R L1C                                                       SYS / PHASE SHIFT   
R L2P  0.00000                                              SYS / PHASE SHIFT   
R L2C                                                       SYS / PHASE SHIFT   
R L3Q  0.00000                                              SYS / PHASE SHIFT   
C L1P  0.00000                                              SYS / PHASE SHIFT   
C L5P  0.00000                                              SYS / PHASE SHIFT   
C L2I                                                       SYS / PHASE SHIFT   
C L7I                                                       SYS / PHASE SHIFT   
C L6I                                                       SYS / PHASE SHIFT   
C L7D                                                       SYS / PHASE SHIFT   
J L1C                                                       SYS / PHASE SHIFT   
J L2L  0.00000                                              SYS / PHASE SHIFT   
J L5Q  0.00000                                              SYS / PHASE SHIFT   
J L1L  0.00000                                              SYS / PHASE SHIFT   
I L5A                                                       SYS / PHASE SHIFT   
  2025     1     1    15    15    0.0000000     GPS         TIME OF FIRST OBS   
 C1C    0.000 C2C    0.000 C2P    0.000                     GLONASS COD/PHS/BIS 
DBHZ                                                        SIGNAL STRENGTH UNIT
    18                                                      LEAP SECONDS        
 24 R01  1 R02 -4 R03  5 R04  6 R05  1 R06 -4 R07  5 R08  6 GLONASS SLOT / FRQ #
    R09 -2 R10 -7 R11  0 R12 -1 R13 -2 R14 -7 R15  0 R16 -1 GLONASS SLOT / FRQ #
    R17  4 R18 -3 R19  3 R20  2 R21  4 R22 -3 R23  3 R24  2 GLONASS SLOT / FRQ #
                                                            END OF HEADER       
> 2025 01 01 15 15  0.0000000  0 58
G20         1.000    24015284.428 6 126201274.53406      1011.923 6        39.754                                    24015285.524 3  98338704.36803       788.500 3        22.629
G25         2.000    19951832.402 8 104847744.05408     -1656.939 8        49.504                                    19951834.527 8  81699632.51608     -1291.123 8        50.524    19951835.060 7  81699642.51707     -1291.033 7        44.966
G05         3.000    25224102.054 5 132553556.09005      2437.498 5        34.629                                    25224107.623 3 103288508.12703      1899.344 3        23.238    25224108.115 5                      1899.294 5        32.874
G29         4.000    20486166.311 8 107655830.07608       396.026 8        49.728                                    20486166.346 8  83887808.48308       308.585 8        51.896    20486166.962 7  83887811.48707       308.586 7        46.120
S21         5.000    38384887.941 7 201713551.36107      -623.328 7        43.058
G06         6.000    25501989.858 5 134014092.63605     -4092.670 5        35.971                                    25501990.702 4 104426685.09604     -3189.095 4        27.940    25501991.466 5 104426676.10705     -3188.942 5        35.448
E19         7.000    26680249.862 5 140205623.74805      -824.695 5        35.795                                                                    26680260.293 6 104699011.43706      -615.790 6        37.879    26680258.595 6 107430291.23106      -631.907 6        38.021
E15         8.000    25110564.685 7 131957125.67207      1988.502 7        45.199                                                                    25110573.198 8  98539552.25208      1484.866 8        48.475    25110571.815 8 101110128.89908      1523.565 8        48.516
G11         9.000    22918501.534 7 120437770.69107     -2613.747 7        44.381                                    22918501.750 5  93847730.10905     -2036.699 5        31.879    22918501.994 7  93847730.12107     -2036.633 7        42.910
E30        10.000    24282952.209 8 127607947.36808     -1933.232 8        48.002                                                                    24282956.555 8  95291766.38708     -1443.693 8        50.561    24282955.504 8  97777626.25608     -1481.354 8        50.643
G26        11.000    24331630.634 6 127863651.69806      2763.748 6        38.787                                    24331649.471 5  99634119.85005      2153.537 5        30.241    24331648.771 5  99634139.90105      2153.502 5        35.690
S27        12.000    39183278.432 6 205909323.99506      -622.526 6        36.635
R15        13.000    19791156.841 8 105758185.00908      1552.884 8        52.725                                                                    19791160.180 7  82256493.55907      1207.800 7        47.631
S36        14.000    38157215.282 7 200517887.09407      -623.251 7        44.752
G12        15.000    22538991.964 7 118443342.20407     -3525.334 7        45.273                                    22538992.519 7  92293588.60507     -2747.012 7        42.277    22538993.119 6  92293588.60706     -2747.006 6        41.328
E29        16.000    26842508.347 6 141058205.52106     -2739.932 6        40.629                                                                    26842525.089 7 105335664.64107     -2046.002 7        42.955    26842523.108 7 108083551.57607     -2099.366 7        43.414
S45        17.000    63361851.354 6 332968924.07006      -686.203 6        36.242
G31        18.000    22563545.966 7 118572425.17507      1831.434 7        45.103                                    22563548.568 6  92394224.56906      1427.084 6        40.749    22563549.443 6  92394203.60106      1426.960 6        41.139
E21        20.000    27634638.516 6 145221092.32806      1885.755 6        38.874                                                                    27634659.464 6 108444454.09206      1408.083 6        40.539    27634656.920 6 111273424.46106      1444.988 6        40.858
R14        21.000    19612176.214 8 104544066.07508     -2304.573 8        52.480                                                                    19612180.026 7  81312136.98807     -1792.456 7        47.785
I06        22.000    38601227.120 6 151479564.58506      -529.453 6        41.866
S28        23.000    40862807.801 5 214735379.32105      -625.137 5        34.543
E34        24.000    24454290.402 7 128508413.37807      -677.916 7        46.484                                                                    24454295.432 8  95964243.93808      -506.248 8        49.267    24454294.576 8  98467640.91108      -519.497 8        49.579
S23        25.000    38103986.407 7 200237660.06707      -627.575 7        45.166
C13        26.000                                                                                                                                    39619615.918 6 206309826.43406      1307.392 6        40.667    39619623.458 6 159531928.10906      1011.090 6        41.878    39619620.511 6 167643698.39806      1062.520 6        40.148
G18        27.000    24641199.710 6 129490465.27606      3181.245 6        39.132                                    24641212.275 4 100901767.51704      2478.870 4        24.316    24641212.497 6 100901758.57406      2478.731 6        40.670
R24        28.000    19456339.364 8 104042080.19308     -1760.796 8        52.269                                                                    19456342.169 7  80921786.35207     -1369.496 7        47.174
I02        29.000    37541313.982 7 147320190.92407      -836.066 7        42.142
G28        30.000    21357009.394 7 112231974.08307       261.830 7        46.802                                    21357011.205 6  87453568.81106       204.020 6        37.395    21357011.365 7  87453565.82507       204.001 7        46.520
E07        31.000    28603935.257 5 150314343.84805     -3525.291 5        35.895                                                                    28603964.536 6 112247639.45306     -2632.567 6        38.003    28603961.111 6 115175846.35006     -2701.147 6        38.571
C12        32.000                                                                                                                                    21974293.040 8 114426130.12908     -1487.889 8        48.126    21974293.548 8  88481655.62208     -1150.540 8        52.032    21974292.003 8  92980684.86208     -1208.969 8        49.379
R17        33.000    20338468.628 8 108835515.55308      2502.977 8        52.189                                                                    20338472.752 7  84649987.34307      1946.754 7        46.305
R23        34.000    23384096.366 6 125089376.40806     -4882.717 6        40.195
C24        35.000                                                                                                                                    23416634.541 7 121936593.47707     -3367.926 7        46.377                                                                    23416636.702 7  99083491.21607     -2736.695 7        47.020
R18        36.000    24268468.104 6 129546727.55906      3884.144 6        37.319                                                                    24268491.139 5 100758669.96005      3021.021 5        32.102
E27        37.000    23793284.723 8 125034723.19708       476.978 8        48.425                                                                    23793289.750 8  93370217.75308       356.150 8        51.133    23793288.769 8  95805945.03008       365.387 8        51.198
R16        38.000    23939476.572 7 127880386.22407      3365.753 7        45.475                                                                    23939482.816 6  99462548.40206      2617.842 6        39.880
R06        39.000    23590365.104 5 125882687.57905     -1865.590 5        34.324
R07        40.000    24046691.103 7 128723816.26507      1085.406 7        42.263                                                                    24046690.734 6 100118530.27006       844.399 6        38.733
C34        41.000                                                                                                                                    21478674.225 8 111845363.51908       296.244 8        50.954                                                                    21478677.282 8  90883644.60608       240.771 8        49.330
S44        42.000    40593294.170 6 213319296.24306      -541.785 6        36.427
C38        43.000                                                                                                                                    39366517.993 7 204991872.71507       712.592 7        42.263                                                                    39366518.455 6 166572736.29806       579.077 6        41.654
C05        44.000                                                                                                                                    39382813.524 6 205076546.97206      -579.885 6        37.936    39382817.260 7 158578184.51707      -448.411 7        43.198    39382816.848 6 166641568.67306      -471.118 6        40.072
C08        45.000                                                                                                                                    39383021.876 6 205077834.66706      1283.465 6        37.577    39383023.371 7 158579241.73507       992.455 7        43.274    39383021.112 6 166642571.28006      1043.111 6        40.255
G32        46.000    24875679.910 6 130722322.09106     -3481.332 6        40.315                                    24875699.210 5 101861510.98405     -2712.717 5        30.815    24875699.644 5 101861512.96405     -2712.783 5        34.486
E36        47.000    27441358.359 6 144205529.12906     -3104.069 6        38.844                                                                    27441360.813 7 107686098.89707     -2318.025 7        42.146    27441360.393 6 110495280.22006     -2378.542 6        41.740
C43        48.000                                                                                                                                    24223042.918 7 126135886.08707      2429.846 7        44.521                                                                    24223049.760 7 102495829.05907      1974.465 7        44.479
C10        49.000                                                                                                                                    40384243.091 6 210291389.75206     -1306.655 6        36.170    40384245.074 6 162610666.49306     -1010.542 6        39.108    40384242.217 6 170878990.03406     -1061.929 6        36.922
C44        50.000                                                                                                                                    22954511.268 8 119530228.21308     -2843.309 8        48.051                                                                    22954512.844 7  97128138.69907     -2310.289 7        46.542
S48        51.000    77100684.865 6 405167073.35606      -652.317 6        38.222
E02        53.000    28065280.949 6 147484068.61206     -3139.552 6        37.240                                                                    28065290.363 6 110134265.69406     -2344.501 6        41.085    28065288.926 6 113007317.15306     -2405.695 6        41.116
C60        54.000                                                                                                                                    40593301.677 6 211380048.16806      -536.543 6        39.520                                                                    40593292.091 6 171763546.53706      -436.037 6        39.429
C25        55.000                                                                                                                                    21358373.531 8 111218804.05708      -600.383 8        51.474                                                                    21358374.622 8  90374457.32708      -487.825 8        49.484
C23        56.000                                                                                                                                    24318976.247 7 126635523.31807      2056.309 7        45.523                                                                    24318974.395 7 102901820.84407      1670.925 7        46.461
C02        57.000                                                                                                                                    40792994.498 5 212419748.20505      -536.082 5        33.048    40792995.533 6 164256385.00106      -414.244 6        38.595    40792997.576 5 172608422.46505      -435.059 5        35.481
I03        58.000   116519698.304 6 381462911.74006       959.347 6        38.817
C11        59.000                                                                                                                                    22619066.472 8 117783622.13408      1692.416 8        48.487    22619069.364 8  91077893.26008      1308.663 8        51.139    22619066.377 8  95708930.03608      1375.171 8        48.358
R13        60.000    24138302.401 3                     -4575.944 3        20.048
> 2025 01 01 15 15  5.0000000  0 57
G20         1.000    24014322.593 6 126196220.72906      1009.687 6        39.916                                    24014323.548 3  98334766.42703       786.736 3        22.362
G25         2.000    19953410.267 8 104856034.77208     -1659.180 8        49.503                                    19953412.187 8  81706092.81908     -1292.869 8        50.420    19953412.702 7  81706102.82707     -1292.881 7        44.770
G05         3.000    25221783.494 5 132541370.41005      2437.085 5        35.157                                    25221788.922 3 103279012.81603      1899.023 3        23.352    25221788.032 5                      1898.798 5        32.599
G29         4.000    20485790.619 8 107653856.15308       393.745 8        50.017                                    20485790.707 8  83886270.38208       306.811 8        51.800    20485791.023 7  83886273.38907       306.837 7        45.744
S21         5.000    38385480.583 7 201716668.32207      -623.232 7        43.575
G06         6.000    25505883.808 6 134034557.30706     -4093.096 6        36.023                                    25505885.065 4 104442631.58604     -3189.412 4        27.844    25505885.536 5 104442622.57305     -3189.667 5        34.810
E19         7.000    26681035.562 5 140209753.30005      -826.972 5        35.629                                                                    26681045.959 6 104702095.20306      -617.546 6        37.781    26681044.391 6 107433455.41506      -633.610 6        38.087
E15         8.000    25108673.622 7 131947187.51507      1987.072 7        45.616                                                                    25108681.879 8  98532130.93708      1483.752 8        48.371    25108680.553 8 101102513.97108      1522.535 8        48.547
G11         9.000    22920989.706 7 120450846.51807     -2616.420 7        44.709                                    22920989.922 5  93857919.10405     -2038.775 5        31.864    22920990.344 7  93857919.12407     -2038.809 7        43.041
E30        10.000    24284792.297 7 127617616.62107     -1934.401 7        47.794                                                                    24284796.580 8  95298986.92408     -1444.489 8        50.424    24284795.523 8  97785035.15708     -1482.076 8        50.705
G26        11.000    24329001.238 6 127849834.25806      2763.426 6        39.156                                    24329019.929 5  99623353.18105      2153.288 5        30.181    24329019.523 5  99623373.25905      2153.234 5        35.652
S27        12.000    39183873.587 6 205912437.22306      -622.325 6        36.488
R15        13.000    19789704.955 8 105750426.76508      1550.577 8        52.503                                                                    19789708.685 7  82250459.37507      1205.989 7        47.644
S36        14.000    38157807.321 7 200521003.78307      -623.056 7        45.029
G12        15.000    22542346.931 7 118460972.12607     -3526.463 7        45.913                                    22542347.287 7  92307326.18707     -2747.890 7        42.436    22542347.657 6  92307326.18006     -2748.003 6        40.989
E29        16.000    26845115.821 6 141071908.43706     -2741.176 6        40.856                                                                    26845132.632 7 105345897.30307     -2047.027 7        42.792    26845130.891 7 108094051.18207     -2100.383 7        43.397
S45        17.000    63362448.405 6 332972355.27106      -686.268 6        36.321
G31        18.000    22561804.034 7 118563274.80207      1829.036 7        45.242                                    22561807.282 6  92387094.44406      1425.216 6        40.717    22561807.468 6  92387073.46806      1425.158 6        40.687
E21        20.000    27632843.726 6 145211664.30706      1885.696 6        38.501                                                                    27632865.368 6 108437413.80706      1408.090 6        40.536    27632862.760 6 111266200.50406      1444.874 6        40.877
R14        21.000    19614339.771 8 104555596.84008     -2307.489 8        52.900                                                                    19614343.168 7  81321105.35907     -1794.768 7        47.320
I06        22.000    38601901.594 6 151482211.95906      -529.321 6        41.595
S28        23.000    40863401.230 5 214738505.21105      -625.255 5        34.776
E34        24.000    24454936.600 7 128511809.43507      -680.327 7        46.683                                                                    24454941.649 8  95966779.96508      -508.082 8        49.144    24454940.845 8  98470243.08708      -521.299 8        49.642
S23        25.000    38104583.887 7 200240797.46707      -627.392 7        45.162
C13        26.000                                                                                                                                    39618360.252 6 206303290.28506      1307.023 6        40.810    39618368.333 6 159526873.99606      1010.634 6        41.874    39618365.240 6 167638387.28106      1062.049 6        40.184
G18        27.000    24638173.475 6 129474560.58306      3181.017 6        39.315                                    24638185.599 4 100889374.36804      2478.683 4        24.165    24638185.707 6 100889365.41506      2478.690 6        40.400
R24        28.000    19457987.786 8 104050894.63308     -1764.663 8        51.967                                                                    19457990.769 7  80928642.02207     -1372.553 7        46.880
I02        29.000    37542379.082 6 147324371.79406      -836.119 6        41.995
G28        30.000    21356762.103 7 112230673.36907       258.706 7        46.888                                    21356763.669 6  87452555.27206       201.587 6        37.304    21356763.908 7  87452552.28407       201.546 7        46.552
E07        31.000    28607289.123 5 150331969.32405     -3524.617 5        35.943                                                                    28607318.625 6 112260801.25906     -2632.094 6        38.192    28607315.370 6 115189351.51706     -2700.693 6        38.877
C12        32.000                                                                                                                                    21975722.713 8 114433575.56008     -1490.098 8        48.184    21975723.577 8  88487412.89908     -1152.284 8        52.187    21975721.816 8  92986734.88408     -1210.917 8        49.447
R17        33.000    20336131.355 8 108823008.43508      2500.049 8        51.536                                                                    20336135.728 7  84640259.63507      1944.424 7        46.675
R23        34.000    23388660.672 6 125113792.51206     -4883.581 6        40.493
C24        35.000                                                                                                                                    23419869.408 7 121953436.84207     -3369.192 7        46.312                                                                    23419871.073 7  99097177.81407     -2737.844 7        46.921
R18        36.000    24264829.962 6 129527307.83006      3883.928 6        37.474                                                                    24264851.785 5 100743565.89305      3020.908 5        32.419
E27        37.000    23792831.336 8 125032341.36208       476.028 8        48.349                                                                    23792836.469 8  93368439.12708       355.410 8        50.982    23792835.486 8  95804119.99408       364.740 8        51.259
R16        38.000    23936326.096 7 127863557.03307      3366.141 7        45.180                                                                    23936332.546 6  99449459.05206      2618.082 6        41.039
R06        39.000    23592114.394 5 125892026.23305     -1869.717 5        33.844
R07        40.000    24045679.661 7 128718399.46107      1081.679 7        42.045                                                                    24045679.470 6 100114317.18606       841.346 6        39.213
C34        41.000                                                                                                                                    21478391.050 8 111843888.60708       293.866 8        50.991                                                                    21478393.961 8  90882446.12208       238.718 8        49.323
S44        42.000    40593814.788 6 213322004.48606      -541.472 6        36.529
C38        43.000                                                                                                                                    39365833.754 7 204988312.59507       711.711 7        42.487                                                                    39365834.641 6 166569843.43406       578.223 6        41.642
C05        44.000                                                                                                                                    39383370.711 6 205079446.23006      -579.586 6        37.890    39383374.107 7 158580426.44407      -448.326 7        43.283    39383373.471 6 166643924.58306      -471.098 6        40.031
C08        45.000                                                                                                                                    39381790.366 6 205071418.87806      1282.898 6        37.894    39381791.257 7 158574280.70307       992.021 7        43.010    39381789.006 6 166637357.97906      1042.367 6        40.017
G32        46.000    24878992.815 6 130739730.16806     -3481.812 6        40.796                                    24879011.850 5 101875075.67405     -2713.081 5        30.875    24879012.154 5 101875077.65005     -2713.117 5        34.609
E36        47.000    27444312.890 6 144221053.66206     -3105.742 6        38.559                                                                    27444314.934 7 107697691.95007     -2319.108 7        42.053    27444314.374 6 110507175.68106     -2379.618 6        41.719
C43        48.000                                                                                                                                    24220709.743 7 126123740.11607      2428.810 7        44.272                                                                    24220717.154 7 102485959.51007      1973.490 7        44.494
C10        49.000                                                                                                                                    40385498.209 6 210297923.81606     -1306.715 6        36.208    40385500.311 6 162615719.04306     -1010.289 6        38.850    40385496.955 6 170884299.48906     -1062.003 6        36.994
C44        50.000                                                                                                                                    22957242.074 8 119544448.82308     -2844.782 8        48.205                                                                    22957243.734 7  97139694.13307     -2311.697 7        46.458
S48        51.000    77101284.094 6 405170336.00906      -652.572 6        38.381
E02        53.000    28068268.860 6 147499767.23406     -3139.626 6        37.758                                                                    28068277.913 6 110145988.70806     -2344.689 6        40.839    28068276.416 6 113019345.98206     -2405.742 6        41.411
C60        54.000                                                                                                                                    40593816.991 6 211382731.79106      -536.599 6        39.628                                                                    40593807.522 6 171765727.20906      -435.997 6        39.529
C25        55.000                                                                                                                                    21358951.202 8 111221811.99508      -602.671 8        51.673                                                                    21358952.289 8  90376901.51908      -489.781 8        49.465
C23        56.000                                                                                                                                    24317002.332 7 126625244.76507      2055.340 7        45.660                                                                    24317000.419 7 102893468.71807      1670.021 7        46.379
C02        57.000                                                                                                                                    40793508.225 5 212422426.48805      -535.558 5        32.970    40793509.948 6 164258456.07206      -414.194 6        38.447    40793511.871 5 172610598.82505      -435.114 5        35.519
I03        58.000   116518476.047 6 381458115.08106       959.565 6        38.544
C11        59.000                                                                                                                                    22617442.627 8 117775165.10908      1690.583 8        48.542    22617445.345 8  91071353.78008      1307.224 8        51.000    22617442.227 8  95702058.01408      1373.681 8        48.388
> 2025 01 01 15 15 10.0000000  0 57
G20         1.000    24013362.841 6 126191177.72606      1007.357 6        39.889                                    24013363.527 3  98330836.92403       784.937 3        22.381
G25         2.000    19954989.749 8 104864336.42108     -1661.586 8        49.698                                    19954991.935 8  81712561.64008     -1294.743 8        50.450    19954992.488 7  81712571.64807     -1294.801 7        45.151
G05         3.000    25219465.437 5 132529186.27405      2436.479 5        35.710                                    25219470.497 3 103269518.69503      1898.550 3        23.733    25219470.622 5                      1898.605 5        33.018
G29         4.000    20485417.461 8 107651893.49708       391.207 8        50.097                                    20485417.215 8  83884741.05608       304.833 8        51.844    20485417.614 7  83884744.06507       304.883 7        45.878
S21         5.000    38386073.359 7 201719784.38807      -623.313 7        43.225
G06         6.000    25509779.936 5 134055026.18305     -4094.313 5        35.681                                    25509780.202 4 104458581.25904     -3190.362 4        27.066    25509780.913 5 104458572.24705     -3190.522 5        34.686
E19         7.000    26681823.920 5 140213894.06705      -829.370 5        35.890                                                                    26681833.980 6 104705187.30906      -619.397 6        37.966    26681832.425 6 107436628.20806      -635.390 6        38.075
E15         8.000    25106783.701 7 131937256.03107      1985.475 7        45.810                                                                    25106791.818 8  98524714.59108      1482.614 8        48.242    25106790.672 8 101094904.15808      1521.318 8        48.398
G11         9.000    22923480.524 7 120463935.16407     -2619.259 7        44.512                                    22923480.589 5  93868118.09105     -2040.987 5        31.902    22923481.392 7  93868118.10707     -2040.940 7        43.765
E30        10.000    24286633.114 7 127627290.49407     -1935.406 7        47.751                                                                    24286637.466 8  95306210.92508     -1445.287 8        50.413    24286636.421 8  97792447.61008     -1482.998 8        50.640
G26        11.000    24326371.830 6 127836017.52006      2763.167 6        39.201                                    24326390.508 5  99612587.07705      2153.074 5        30.302    24326390.530 6  99612607.14606      2153.076 6        36.287
S27        12.000    39184458.587 6 205915549.41606      -622.399 6        36.915
R15        13.000    19788254.890 8 105742679.74908      1548.111 8        52.491                                                                    19788258.667 7  82244433.93807      1204.062 7        47.397
S36        14.000    38158400.285 7 200524119.12607      -622.973 7        44.892
G12        15.000    22545702.343 7 118478607.26707     -3527.696 7        46.141                                    22545703.056 7  92321067.84107     -2748.852 7        42.516    22545703.820 6  92321067.83306     -2748.776 6        41.368
E29        16.000    26847725.023 6 141085617.67906     -2742.726 6        41.001                                                                    26847741.456 7 105356134.67207     -2047.975 7        42.900    26847739.644 7 108104555.62107     -2101.508 7        43.346
S45        17.000    63363047.339 6 332975785.42506      -686.097 6        36.250
G31        18.000    22560065.209 7 118554135.77807      1826.504 7        44.826                                    22560068.130 6  92379973.16206      1423.241 6        40.701    22560068.602 6  92379952.18206      1423.244 6        40.994
E21        20.000    27631049.707 6 145202235.61906      1885.572 6        38.577                                                                    27631071.011 6 108430373.03006      1408.065 6        40.331    27631068.370 6 111258976.03806      1444.749 6        40.889
R14        21.000    19616505.567 8 104567142.21508     -2310.633 8        52.515                                                                    19616509.310 7  81330085.10307     -1797.182 7        47.560
I06        22.000    38602576.030 6 151484858.52006      -529.274 6        41.557
S28        23.000    40863997.620 5 214741630.25105      -625.132 5        34.533
E34        24.000    24455585.026 7 128515217.34907      -682.948 7        46.613                                                                    24455590.093 8  95969324.83308      -509.970 8        49.099    24455589.305 8  98472854.34908      -523.317 8        49.511
S23        25.000    38105181.340 7 200243933.87407      -627.393 7        45.320
C13        26.000                                                                                                                                    39617105.251 6 206296756.38506      1306.412 6        40.858    39617113.300 6 159521821.61206      1010.323 6        41.890    39617110.355 6 167633078.00206      1061.608 6        40.033
G18        27.000    24635146.869 6 129458656.21206      3180.635 6        39.724                                    24635159.079 4 100876981.47804      2478.393 4        24.195    24635159.098 6 100876972.51106      2478.419 6        40.474
R24        28.000    19459639.564 8 104059728.36408     -1768.790 8        51.895                                                                    19459642.408 7  80935512.71107     -1375.747 7        46.746
I02        29.000    37543444.296 7 147328552.48507      -836.113 7        42.076
G28        30.000    21356517.483 7 112229388.06207       255.356 7        47.088                                    21356519.071 6  87451553.74606       198.977 6        37.391    21356519.220 7  87451550.75107       198.995 7        46.653
E07        31.000    28610642.455 5 150349591.36905     -3524.016 5        35.976                                                                    28610672.141 6 112273960.50706     -2631.790 6        38.264    28610669.028 6 115202854.04806     -2700.372 6        38.826
C12        32.000                                                                                                                                    21977154.672 8 114441032.14408     -1492.613 8        48.269    21977155.672 8  88493178.80208     -1154.178 8        52.319    21977153.761 8  92992793.97308     -1212.870 8        49.381
R17        33.000    20333796.046 8 108810515.53808      2496.959 8        51.164                                                                    20333801.157 7  84630542.95807      1942.098 7        46.374
R23        34.000    23393226.065 6 125138211.90406     -4884.429 6        40.744
C24        35.000                                                                                                                                    23423105.004 7 121970286.06107     -3370.562 7        46.136                                                                    23423106.724 7  99110869.18407     -2738.859 7        46.741
R18        36.000    24261190.940 6 129507888.72606      3883.561 6        38.123                                                                    24261214.982 5 100728462.33105      3020.505 5        32.731
E27        37.000    23792378.850 8 125029963.72608       474.927 8        48.286                                                                    23792384.019 8  93366663.63208       354.674 8        50.964    23792382.966 8  95802298.18908       363.887 8        51.135
R16        38.000    23933175.318 7 127846725.99807      3366.129 7        45.910                                                                    23933181.656 6  99436368.25106      2618.119 6        41.206
R06        39.000    23593867.121 5 125901383.29205     -1873.502 5        33.611
R07        40.000    24044669.893 6 128713000.17306      1078.088 6        41.709                                                                    24044669.894 6 100110117.80706       838.272 6        39.745
C34        41.000                                                                                                                                    21478109.988 8 111842424.99008       291.452 8        51.218                                                                    21478112.862 8  90881256.84108       236.780 8        49.266
S44        42.000    40594327.844 6 213324711.89106      -541.699 6        36.665
C38        43.000                                                                                                                                    39365150.727 7 204984756.28007       710.726 7        42.351                                                                    39365151.650 6 166566953.67806       577.434 6        41.635
C05        44.000                                                                                                                                    39383927.065 6 205082344.53606      -579.713 6        38.075    39383930.546 7 158582667.60807      -448.279 7        43.247    39383930.054 6 166646279.71406      -471.107 6        40.029
C08        45.000                                                                                                                                    39380559.629 6 205065006.23006      1281.986 6        38.045    39380559.630 7 158569322.07507       991.384 7        43.058    39380557.516 6 166632147.21806      1041.666 6        39.913
G32        46.000    24882306.545 6 130757140.62806     -3482.430 6        40.899                                    24882325.036 5 101888642.21805     -2713.576 5        30.966    24882326.080 5 101888644.20905     -2713.658 5        35.210
E36        47.000    27447268.149 6 144236584.24006     -3106.770 6        38.559                                                                    27447270.234 7 107709289.53207     -2320.109 7        42.070    27447269.581 6 110519075.80506     -2380.656 6        41.423
C43        48.000                                                                                                                                    24218378.497 7 126111598.84907      2427.564 7        44.820                                                                    24218385.482 7 102476093.79407      1972.626 7        44.494
C10        49.000                                                                                                                                    40386753.070 6 210304456.79606     -1306.731 6        36.042    40386754.709 6 162620770.76906     -1010.363 6        39.054    40386751.681 6 170889608.07506     -1061.769 6        37.017
C44        50.000                                                                                                                                    22959974.564 8 119558676.61108     -2846.412 8        48.138                                                                    22959975.961 7  97151255.41207     -2312.911 7        46.439
S48        51.000    77101883.510 6 405173597.99506      -652.398 6        38.387
E02        53.000    28071256.138 6 147515466.44106     -3139.937 6        38.129                                                                    28071265.290 6 110157712.14806     -2344.791 6        40.715    28071263.795 6 113031375.24806     -2406.037 6        41.063
C60        54.000                                                                                                                                    40594332.055 6 211385414.59006      -536.805 6        39.754                                                                    40594322.621 6 171767907.22006      -436.093 6        39.345
C25        55.000                                                                                                                                    21359531.015 8 111224830.99908      -605.016 8        51.713                                                                    21359532.032 8  90379354.72508      -491.638 8        49.484
C23        56.000                                                                                                                                    24315029.304 7 126614970.61707      2054.175 7        45.598                                                                    24315027.353 7 102885120.18107      1669.233 7        46.331
C02        57.000                                                                                                                                    40794022.435 5 212425103.85505      -535.481 5        33.395    40794023.800 6 164260526.38806      -414.105 6        38.562    40794025.942 5 172612774.44005      -435.313 5        35.371
I03        58.000   116517253.478 6 381453317.63406       959.490 6        38.559
C11        59.000                                                                                                                                    22615819.322 8 117766716.80408      1688.595 8        48.284    22615822.795 8  91064821.03408      1305.761 8        51.053    22615819.767 8  95695193.10508      1372.156 8        48.380
> 2025 01 01 15 15 15.0000000  0 57
G20         1.000    24012405.499 6 126186146.63706      1004.888 6        39.877                                    24012405.933 3  98326916.68403       783.018 3        22.248
G25         2.000    19956571.828 8 104872650.17808     -1664.068 8        49.807                                    19956573.986 8  81719039.89608     -1296.675 8        50.269    19956574.641 7  81719049.90307     -1296.711 7        44.916
G05         3.000    25217148.181 5 132517004.79605      2436.011 5        35.819                                    25217152.569 4 103260026.65304      1898.191 4        24.030    25217152.404 5                      1898.234 5        32.994
G29         4.000    20485046.236 8 107649943.20608       388.710 8        50.031                                    20485046.070 8  83883221.36508       302.887 8        51.662    20485046.637 7  83883224.37407       302.892 7        45.890
S21         5.000    38386665.021 7 201722900.75807      -623.574 7        43.073
G06         6.000    25513675.848 5 134075500.59505     -4095.326 5        35.924                                    25513676.385 4 104474535.31904     -3191.160 4        26.742    25513676.859 5 104474526.30705     -3191.048 5        35.076
E19         7.000    26682614.005 5 140218047.15505      -832.045 5        35.729                                                                    26682624.326 6 104708288.61806      -621.142 6        37.807    26682622.863 6 107439810.42006      -637.362 6        38.075
E15         8.000    25104895.182 7 131927332.36007      1983.893 7        45.884                                                                    25104903.274 8  98517304.10208      1481.442 8        48.238    25104902.358 8 101087300.34508      1520.084 8        48.349
G11         9.000    22925973.703 7 120477037.74907     -2621.932 7        44.092                                    22925973.912 5  93878327.93405     -2043.068 5        31.638    22925974.052 7  93878327.94807     -2043.007 7        43.427
E30        10.000    24288475.156 7 127636970.14307     -1936.578 7        47.890                                                                    24288479.461 8  95313439.24108     -1446.123 8        50.416    24288478.365 8  97799864.48908     -1483.864 8        50.565
G26        11.000    24323743.110 6 127822202.61506      2762.684 6        39.018                                    24323761.354 5  99601822.39205      2152.712 5        30.189    24323761.574 6  99601842.45406      2152.847 6        36.469
S27        12.000    39185054.167 6 205918661.62806      -622.610 6        37.002
R15        13.000    19786807.462 8 105734945.11908      1545.598 8        52.489                                                                    19786811.658 7  82238418.12907      1202.144 7        47.491
S36        14.000    38158992.193 7 200527233.72907      -622.966 7        44.760
G12        15.000    22549059.384 7 118496248.77407     -3529.043 7        46.160                                    22549060.073 7  92334814.45407     -2749.901 7        42.345    22549060.988 6  92334814.44406     -2750.001 6        41.182
E29        16.000    26850335.150 6 141099334.35206     -2744.229 6        40.570                                                                    26850351.728 7 105366377.61307     -2049.216 7        42.823    26850349.776 7 108115065.76507     -2102.679 7        43.414
S45        17.000    63363648.982 6 332979215.93106      -686.192 6        36.272
G31        18.000    22558328.514 7 118545009.31307      1823.891 7        44.862                                    22558331.356 6  92372861.67106      1421.205 6        40.436    22558332.066 6  92372840.69306      1421.216 6        41.354
E21        20.000    27629255.539 6 145192807.41106      1885.568 6        38.589                                                                    27629276.869 6 108423332.60606      1408.098 6        40.472    27629274.022 6 111251751.94106      1444.768 6        40.953
R14        21.000    19618673.835 8 104578703.13708     -2313.939 8        52.353                                                                    19618678.553 8  81339076.93308     -1799.744 8        48.092
I06        22.000    38603250.320 6 151487505.11006      -529.389 6        41.766
S28        23.000    40864589.680 5 214744756.03805      -625.290 5        34.857
E34        24.000    24456235.948 7 128518638.25607      -685.574 7        46.655                                                                    24456241.112 8  95971879.41908      -511.947 8        49.131    24456240.317 8  98475475.57508      -525.280 8        49.562
S23        25.000    38105778.830 7 200247070.59807      -627.482 7        45.338
C13        26.000                                                                                                                                    39615851.377 6 206290225.97806      1305.540 6        40.610    39615859.195 6 159516771.92706      1009.677 6        41.695    39615856.185 6 167627771.53106      1061.083 6        40.055
G18        27.000    24632119.946 6 129442753.31906      3180.255 6        39.916                                    24632132.636 4 100864589.72904      2478.120 4        24.105    24632132.789 6 100864580.76306      2478.101 6        39.829
R24        28.000    19461295.130 8 104068582.33208     -1772.975 8        51.622                                                                    19461298.243 7  80942399.11907     -1378.950 7        46.905
I02        29.000    37544510.080 7 147332734.19207      -836.500 7        42.193
G28        30.000    21356275.606 7 112228119.31607       252.009 7        47.100                                    21356277.653 6  87450565.11706       196.366 6        37.233    21356277.689 7  87450562.12807       196.381 7        46.687
E07        31.000    28613995.503 6 150367211.12506     -3523.855 6        36.106                                                                    28614025.187 6 112287118.04506     -2631.410 6        37.898    28614021.914 6 115216354.82706     -2700.012 6        38.742
C12        32.000                                                                                                                                    21978589.515 8 114448500.97908     -1495.134 8        48.323    21978589.798 8  88498954.18108     -1156.073 8        52.192    21978588.068 8  92998862.99208     -1214.819 8        49.360
R17        33.000    20331464.110 8 108798038.09908      2493.869 8        50.807                                                                    20331469.517 7  84620838.32807      1939.682 7        46.871
R23        34.000    23397792.292 6 125162635.68606     -4885.252 6        40.634
C24        35.000                                                                                                                                    23426341.958 7 121987142.23207     -3372.054 7        46.672                                                                    23426343.805 7  99124566.19107     -2740.019 7        46.704
R18        36.000    24257553.099 6 129488471.49506      3883.214 6        38.060                                                                    24257576.098 5 100713360.21605      3019.964 5        32.982
E27        37.000    23791927.496 8 125027591.42808       473.838 8        48.392                                                                    23791932.572 8  93364892.13208       353.847 8        50.997    23791931.574 8  95800480.47008       363.065 8        51.117
R16        38.000    23930023.941 7 127829894.29107      3366.186 7        45.245                                                                    23930030.286 6  99423276.92606      2618.338 6        40.353
R06        39.000    23595625.199 5 125910760.13205     -1877.485 5        34.248
R07        40.000    24043665.059 6 128707619.45406      1074.195 6        41.709                                                                    24043666.282 6 100105932.85306       835.482 6        39.132
C34        41.000                                                                                                                                    21477831.462 8 111840973.81908       288.868 8        51.299                                                                    21477834.212 8  90880077.64208       234.833 8        49.257
S44        42.000    40594841.115 6 213327419.58006      -541.826 6        36.699
C38        43.000                                                                                                                                    39364468.666 7 204981204.90207       709.635 7        42.457                                                                    39364469.541 6 166564067.90806       576.740 6        41.483
C05        44.000                                                                                                                                    39384483.639 6 205085243.02906      -579.735 6        37.958    39384487.250 7 158584908.91607      -448.281 7        43.143    39384486.691 6 166648634.97406      -471.030 6        40.095
C08        45.000                                                                                                                                    39379329.140 6 205058597.76206      1280.964 6        38.255    39379328.881 7 158564366.69007       990.635 7        42.817    39379326.598 6 166626939.82306      1041.181 6        40.174
G32        46.000    24885619.685 6 130774554.66306     -3483.252 6        39.513                                    24885638.974 5 101902211.54605     -2714.213 5        30.513    24885639.648 5 101902213.51305     -2714.237 5        34.500
E36        47.000    27450224.435 6 144252122.05706     -3108.374 6        38.498                                                                    27450226.873 6 107720892.50206     -2321.222 6        41.940    27450226.003 6 110530981.46106     -2381.719 6        41.244
C43        48.000                                                                                                                                    24216048.064 7 126099463.39007      2426.426 7        44.808                                                                    24216054.904 7 102466232.78307      1971.714 7        44.384
C10        49.000                                                                                                                                    40388007.067 5 210310989.82205     -1306.545 5        35.867    40388009.331 6 162625822.54506     -1010.430 6        38.949    40388006.125 6 170894916.69006     -1061.523 6        36.756
C44        50.000                                                                                                                                    22962708.278 7 119572912.71107     -2848.142 7        47.825                                                                    22962709.825 7  97162823.41007     -2314.312 7        46.441
S48        51.000    77102485.096 6 405176860.33106      -652.703 6        38.285
E02        53.000    28074243.600 6 147531167.37406     -3140.329 6        38.066                                                                    28074253.079 6 110169436.88706     -2345.224 6        40.546    28074251.528 6 113043405.84706     -2406.279 6        41.268
C60        54.000                                                                                                                                    40594847.347 6 211388097.66506      -536.695 6        39.489                                                                    40594837.989 6 171770087.43706      -436.086 6        39.664
C25        55.000                                                                                                                                    21360113.098 8 111227862.21008      -607.498 8        51.562                                                                    21360114.133 8  90381817.82708      -493.590 8        49.425
C23        56.000                                                                                                                                    24313057.172 7 126604702.01607      2053.107 7        45.518                                                                    24313055.335 7 102876776.13207      1668.328 7        46.436
C02        57.000                                                                                                                                    40794536.497 5 212427781.46105      -535.600 5        33.120    40794537.961 6 164262596.87206      -414.197 6        38.495    40794540.089 5 172614950.19005      -435.398 5        35.471
I03        58.000   116516031.434 6 381448520.24906       959.194 6        38.796
C11        59.000                                                                                                                                    22614198.520 8 117758278.39008      1686.617 8        48.367    22614202.163 8  91058295.94308      1304.179 8        50.799    22614199.247 8  95688336.21008      1370.578 8        48.326
> 2025 01 01 15 15 20.0000000  0 57
G20         1.000    24011450.109 6 126181127.20606      1002.643 6        39.844                                    24011450.826 3  98323005.52803       781.266 3        22.381
G25         2.000    19958156.182 8 104880975.70908     -1666.270 8        49.590                                    19958158.273 8  81725527.32708     -1298.391 8        50.428    19958159.046 7  81725537.33007     -1298.429 7        45.242
G05         3.000    25214829.989 6 132504825.71706      2435.563 6        36.068                                    25214835.043 4 103250536.46204      1897.841 4        24.331    25214834.502 5                      1897.800 5        32.952
G29         4.000    20484677.254 8 107648005.03008       386.413 8        50.023                                    20484677.233 8  83881711.11408       301.096 8        51.738    20484677.902 7  83881714.12207       301.162 7        46.134
S21         5.000    38387258.433 7 201726017.21807      -623.221 7        43.297
G06         6.000    25517573.057 6 134095979.91606     -4096.392 6        36.166                                    25517573.457 4 104490493.14504     -3191.981 4        26.335    25517574.084 5 104490484.12305     -3192.137 5        34.819
E19         7.000    26683406.615 5 140222212.27205      -834.357 5        35.933                                                                    26683416.823 6 104711398.90906      -623.014 6        37.860    26683415.468 6 107443001.84006      -639.177 6        38.090
E15         8.000    25103008.168 7 131917416.23307      1982.423 7        46.007                                                                    25103016.378 8  98509899.22408      1480.440 8        48.229    25103015.380 8 101079702.29408      1519.049 8        48.476
G11         9.000    22928469.515 7 120490153.98907     -2624.688 7        44.175                                    22928469.829 5  93888548.42105     -2045.214 5        31.804    22928469.747 7  93888548.43607     -2045.167 7        43.118
