     3.04           OBSERVATION DATA    M                   RINEX VERSION / TYPE
ssrcrin-15.6.1x                         20250101 111500 UTC PGM / RUN BY / DATE 
(00000000023479385599111004) Septentrio proprietary         COMMENT             
rref                                                        MARKER NAME         
01                                                          MARKER NUMBER       
geodetic                                                    MARKER TYPE         
NFB                 CLIMERS@TUW                             OBSERVER / AGENCY   
3297213             SEPT ASTERX SB3 PROB4.14.4              REC # / TYPE / VERS 
Unknown             Unknown                                 ANT # / TYPE        
  4127832.4276  1207193.3330  4695247.5230                  APPROX POSITION XYZ 
        0.0000        0.0000        0.0000                  ANTENNA: DELTA H/E/N
G   23 X1  C1C L1C D1C S1C C1W S1W C2W L2W D2W S2W C2L L2L  SYS / # / OBS TYPES 
       D2L S2L C5Q L5Q D5Q S5Q C1L L1L D1L S1L              SYS / # / OBS TYPES 
E   21 X1  C1C L1C D1C S1C C6C L6C D6C S6C C5Q L5Q D5Q S5Q  SYS / # / OBS TYPES 
       C7Q L7Q D7Q S7Q C8Q L8Q D8Q S8Q                      SYS / # / OBS TYPES 
S    9 X1  C1C L1C D1C S1C C5I L5I D5I S5I                  SYS / # / OBS TYPES 
R   17 X1  C1C L1C D1C S1C C2P L2P D2P S2P C2C L2C D2C S2C  SYS / # / OBS TYPES 
       C3Q L3Q D3Q S3Q                                      SYS / # / OBS TYPES 
C   25 X1  C1P L1P D1P S1P C5P L5P D5P S5P C2I L2I D2I S2I  SYS / # / OBS TYPES 
       C7I L7I D7I S7I C6I L6I D6I S6I C7D L7D D7D S7D      SYS / # / OBS TYPES 
J   17 X1  C1C L1C D1C S1C C2L L2L D2L S2L C5Q L5Q D5Q S5Q  SYS / # / OBS TYPES 
       C1L L1L D1L S1L                                      SYS / # / OBS TYPES 
I    5 X1  C5A L5A D5A S5A                                  SYS / # / OBS TYPES 
SEPTENTRIO RECEIVERS OUTPUT ALIGNED CARRIER PHASES.         COMMENT             
NO FURTHER PHASE SHIFT APPLIED IN THE RINEX ENCODER.        COMMENT             
G L1C                                                       SYS / PHASE SHIFT   
G L2W                                                       SYS / PHASE SHIFT   
G L2L  0.00000                                              SYS / PHASE SHIFT   
G L5Q  0.00000                                              SYS / PHASE SHIFT   
G L1L  0.00000                                              SYS / PHASE SHIFT   
E L1C  0.00000                                              SYS / PHASE SHIFT   
E L6C  0.00000                                              SYS / PHASE SHIFT   
E L5Q  0.00000                                              SYS / PHASE SHIFT   
E L7Q  0.00000                                              SYS / PHASE SHIFT   
E L8Q  0.00000                                              SYS / PHASE SHIFT   
S L1C                                                       SYS / PHASE SHIFT   
S L5I                                                       SYS / PHASE SHIFT   
R L1C                                                       SYS / PHASE SHIFT   
R L2P  0.00000                                              SYS / PHASE SHIFT   
R L2C                                                       SYS / PHASE SHIFT   
R L3Q  0.00000                                              SYS / PHASE SHIFT   
C L1P  0.00000                                              SYS / PHASE SHIFT   
C L5P  0.00000                                              SYS / PHASE SHIFT   
C L2I                                                       SYS / PHASE SHIFT   
C L7I                                                       SYS / PHASE SHIFT   
C L6I                                                       SYS / PHASE SHIFT   
C L7D                                                       SYS / PHASE SHIFT   
J L1C                                                       SYS / PHASE SHIFT   
J L2L  0.00000                                              SYS / PHASE SHIFT   
J L5Q  0.00000                                              SYS / PHASE SHIFT   
J L1L  0.00000                                              SYS / PHASE SHIFT   
I L5A                                                       SYS / PHASE SHIFT   
  2025     1     1    11    15    0.0000000     GPS         TIME OF FIRST OBS   
 C1C    0.000 C2C    0.000 C2P    0.000                     GLONASS COD/PHS/BIS 
DBHZ                                                        SIGNAL STRENGTH UNIT
    18                                                      LEAP SECONDS        
 24 R01  1 R02 -4 R03  5 R04  6 R05  1 R06 -4 R07  5 R08  6 GLONASS SLOT / FRQ #
    R09 -2 R10 -7 R11  0 R12 -1 R13 -2 R14 -7 R15  0 R16 -1 GLONASS SLOT / FRQ #
    R17  4 R18 -3 R19  3 R20  2 R21  4 R22 -3 R23  3 R24  2 GLONASS SLOT / FRQ #
                                                            END OF HEADER       
> 2025 01 01 11 15  0.0000000  0 54
G19         1.000    21390949.827 7 112410360.46107       262.868 7        47.255                                    21390950.440 6  87592577.81206       204.842 6        36.930
G25         2.000    25093108.956 6 131865167.09406      3102.807 6        36.367                                    25093119.499 4 102752129.22804      2417.773 4        26.120    25093120.268 5 102752139.24005      2417.780 5        33.162
G24         3.000    20247457.298 8 106401127.53508       263.309 8        50.177                                    20247461.024 8  82910003.45708       205.176 8        52.230    20247461.177 7  82910000.46507       205.146 7        46.259
R02         4.000    21435434.966 8 114383467.28808     -4385.942 8        49.405                                                                    21435443.142 7  88964903.13107     -3411.308 7        44.856
S21         5.000    38526342.868 7 202456962.30507      -557.045 7        42.809
G17         7.000    22538009.581 7 118438182.13607     -2247.801 7        46.294                                    22538013.804 7  92289575.98907     -1751.530 7        42.445    22538014.450 6  92289571.98006     -1751.482 6        41.273
R21         8.000    22429749.439 7 120026188.47907     -1462.967 7        45.427                                                                    22429760.097 7  93353779.74407     -1137.880 7        43.029
E12         9.000    28880343.074 5 151767281.46005     -1056.602 5        30.928                                                                    28880351.888 6 113332777.40506      -789.072 6        36.280    28880350.192 6 116289271.37006      -809.650 6        36.151
E30        10.000    25228581.924 7 132577215.99007      1442.406 7        45.792                                                                    25228590.193 8  99002569.15408      1077.117 8        48.513    25228588.719 8 101585234.29808      1105.170 8        48.877
C26        11.000                                                                                                                                    21919620.607 8 114141222.09208     -1318.062 8        51.219                                                                    21919623.767 8  92749108.12808     -1071.130 8        49.173
S27        12.000    39280349.622 6 206419391.71206      -587.089 6        36.904
G15        13.000    21944994.501 8 115321614.94908     -3702.091 8        48.152                                    21944997.955 7  89860954.57107     -2884.743 7        44.689    21944998.434 7  89860946.57107     -2884.804 7        42.612
S36        14.000    38297774.540 7 201256536.55907      -558.092 7        44.819
G12        15.000    21956777.466 8 115383762.82008      2190.345 8        48.192                                    21956780.002 7  89909494.65507      1706.762 7        45.547    21956780.801 7  89909494.65007      1706.835 7        42.660
R11        16.000    24420080.666 6 130493319.91706     -4018.427 6        40.629                                                                    24420093.089 6 101494754.31706     -3125.350 6        37.267
S45        17.000    63484740.878 6 333615442.43706      -615.376 6        36.367
R03        18.000    20258301.586 8 108444228.18708      -603.669 8        52.043                                                                    20258305.741 7  84345513.55007      -469.568 7        46.712
C35        19.000                                                                                                                                    24111666.088 7 125555879.66307      1677.237 7        45.491                                                                    24111672.469 7 102024506.65407      1362.848 7        45.222
E11        20.000    28043557.053 5 147369898.08105      1138.792 5        34.671                                                                    28043570.113 6 110049011.14306       850.476 6        36.858    28043567.981 6 112919846.05906       872.963 6        36.938
R14        21.000    24038667.663 7 128139600.25507      2783.205 7        43.689                                                                    24038680.316 6  99664179.33506      2164.811 6        36.718
I06        22.000    38385709.742 6 150633813.21806      -526.662 6        41.271
S28        23.000    40985388.149 5 215379446.77705      -567.527 5        35.000
G14        24.000    24417839.742 6 128316447.35606     -3862.708 6        39.829                                    24417850.650 3  99986801.33103     -3009.904 3        22.533    24417850.158 6  99986803.31006     -3009.776 6        38.658
S23        25.000    38232647.436 7 200913745.32507      -561.236 7        45.187
E08        26.000    24045336.526 8 126359013.72208     -2000.135 8        48.527                                                                    24045341.709 8  94358977.67008     -1493.545 8        49.953    24045340.502 8  96820516.70608     -1532.556 8        50.637
C07        27.000                                                                                                                                    39367844.931 6 204998623.67906     -1268.921 6        39.889    39367850.169 7 158517932.86107      -981.272 7        42.347    39367845.619 6 166578157.41506     -1031.332 6        39.904
G13        28.000    23300297.199 7 122443734.77407     -4294.781 7        43.018                                    23300302.666 4  95410643.13704     -3346.577 4        26.347
I02        29.000    36989906.566 7 145156323.86207      -372.841 7        42.698
G10        30.000    24434228.519 6 128402599.31206      -745.217 6        41.743                                    24434238.844 5 100053943.34205      -580.680 5        34.429    24434238.194 6 100053935.32706      -580.620 6        38.057
E07        31.000    24898979.786 7 130844950.68007       905.420 7        45.115                                                                    24898988.772 8  97708888.92808       676.077 8        48.388    24898987.603 8 100257814.50708       693.815 8        49.288
E03        32.000    27055368.295 6 142176746.50906     -3684.076 6        40.124                                                                    27055382.474 7 106170909.81907     -2750.951 7        43.799    27055380.424 7 108940586.15107     -2822.733 7        43.848
E10        33.000    28269773.239 6 148558663.33606         5.039 6        37.108                                                                    28269790.028 6 110936735.61706         3.794 6        41.097    28269787.878 6 113830725.85906         3.837 6        41.142
G02        34.000    26138499.792 4 137358864.47504     -1971.701 4        29.318                                    26138501.730 1 107032946.46501     -1536.424 1         7.500
C24        35.000                                                                                                                                    22586449.166 8 117613601.28408      1256.396 8        49.884                                                                    22586451.449 8  95570705.92108      1020.807 8        49.033
G23        36.000    24177524.485 6 127053571.45206     -2908.162 6        40.951                                    24177532.971 3  99002722.60503     -2266.089 3        23.714    24177533.371 6  99002723.57106     -2266.002 6        39.495
R04        38.000    22644085.431 7 121257928.24707      2831.796 7        46.447                                                                    22644092.778 7  94311701.48807      2202.500 7        42.523
C33        39.000                                                                                                                                    24066270.236 7 125319365.98907      -684.443 7        46.970                                                                    24066288.427 7 101832320.47107      -556.208 7        46.478
E25        40.000    26326125.146 6 138344615.46506     -3042.448 6        41.702                                                                    26326137.537 7 103309262.58007     -2271.939 7        44.554    26326135.741 7 106004282.52907     -2331.246 7        45.213
S44        42.000    40933443.456 6 215106668.50006      -508.367 6        37.444
R22        43.000    22280894.277 7 118937022.94907      2249.079 7        47.733                                                                    22280903.310 7  92506652.47807      1749.276 7        43.410
C05        44.000                                                                                                                                    39532398.224 6 205855432.30906      -584.162 6        39.195    39532404.513 7 159180457.02007      -451.771 7        42.698    39532403.476 6 167274467.91706      -474.968 6        39.042
C40        45.000                                                                                                                                    39601426.107 6 206214935.64106     -1529.381 6        41.480                                                                    39601433.394 6 167566525.24606     -1242.876 6        40.927
G32        46.000    26209386.204 6 137731244.57706      2956.464 6        37.868                                    26209389.541 4 107323071.93704      2303.754 4        26.527    26209390.032 5 107323073.90005      2304.001 5        32.054
C10        49.000                                                                                                                                    38705275.224 7 201548513.01507      -927.827 7        42.150    38705280.594 7 155850106.49507      -717.496 7        44.396    38705276.541 6 163774675.99206      -753.998 6        41.094
C42        50.000                                                                                                                                    24437329.927 7 127251450.61607     -3379.484 7        45.684                                                                    24437344.818 7 103402234.87007     -2746.099 7        46.063
S48        51.000    77235015.885 6 405872935.36406      -556.657 6        38.093
E02        53.000    23297435.894 8 122428931.55708     -1058.883 8        48.644                                                                    23297440.840 8  91424278.31208      -790.720 8        51.348    23297439.363 8  93809241.10408      -811.388 8        51.166
C60        54.000                                                                                                                                    40933446.199 6 213151170.68906      -503.493 6        40.703                                                                    40933441.103 6 173202708.41906      -409.195 6        38.880
C45        55.000                                                                                                                                    25406331.007 7 132297261.32107     -3258.639 7        42.815                                                                    25406333.006 7 107502298.52007     -2647.899 7        42.542
R12        56.000    20075137.221 8 107237848.79608     -2320.766 8        50.788                                                                    20075143.781 7  83407247.83107     -1805.046 7        47.460
C02        57.000                                                                                                                                    41065945.957 5 213840974.21205      -547.418 5        30.709    41065954.772 6 165355339.20806      -423.946 6        36.132    41065953.904 4                      -445.245 4        29.896
I03        58.000   121671965.168 5 401681365.21105       884.291 5        33.275
C14        59.000                                                                                                                                    23765690.376 7 123754088.68107     -2202.276 7        45.400    23765694.041 8  95694475.42808     -1702.880 8        49.957    23765690.723 7 100560298.71307     -1789.530 7        47.107
R13        60.000    19899797.643 7 106263888.71407       683.425 7        45.916
> 2025 01 01 11 15  5.0000000  0 54
G19         1.000    21390701.414 7 112409054.86307       259.328 7        47.250                                    21390701.970 6  87591560.45706       202.061 6        38.147
G25         2.000    25090156.552 6 131849654.59306      3102.291 6        36.828                                    25090167.540 4 102740041.57504      2417.368 4        26.359    25090169.029 5 102740051.57605      2417.459 5        32.952
G24         3.000    20247208.056 8 106399818.09808       260.468 8        50.152                                    20247211.843 8  82908983.11508       202.964 8        52.237    20247211.892 7  82908980.12107       202.916 7        46.402
R02         4.000    21439545.796 8 114405403.58108     -4388.607 8        49.773                                                                    21439553.875 7  88981964.65707     -3413.408 7        44.901
S21         5.000    38526872.277 7 202459748.76807      -557.436 7        42.754
G17         7.000    22540149.805 7 118449428.25107     -2250.760 7        46.148                                    22540153.891 7  92298339.17507     -1753.834 7        42.400    22540154.287 6  92298335.16706     -1753.719 6        41.375
R21         8.000    22431119.122 7 120033514.79307     -1467.653 7        46.149                                                                    22431128.824 7  93359477.97507     -1141.460 7        42.700
E12         9.000    28881349.318 5 151772571.83105     -1059.372 5        31.411                                                                    28881358.710 6 113336728.07506      -791.161 6        36.389    28881356.855 6 116293325.07106      -811.608 6        36.231
E30        10.000    25227209.938 7 132570007.54707      1440.892 7        45.913                                                                    25227218.503 8  98997186.22608      1076.001 8        48.538    25227216.999 8 101579710.93908      1104.121 8        48.996
C26        11.000                                                                                                                                    21920887.042 8 114147816.55708     -1319.785 8        51.134                                                                    21920890.149 8  92754466.63608     -1072.302 8        49.109
S27        12.000    39280906.325 6 206422326.83706      -587.254 6        36.699
G15        13.000    21948518.356 7 115340130.94807     -3704.366 7        47.353                                    21948521.486 7  89875382.59407     -2886.515 7        44.683    21948521.716 7  89875374.57507     -2886.552 7        42.561
S36        14.000    38298304.709 7 201259327.06407      -558.145 7        44.790
G12        15.000    21954694.229 8 115372816.11308      2188.260 8        48.113                                    21954696.883 7  89900964.75807      1705.138 7        45.547    21954697.490 7  89900964.74407      1705.218 7        42.809
R11        16.000    24423840.744 6 130513411.17906     -4018.285 6        41.099                                                                    24423852.704 6 101510380.91306     -3125.158 6        37.297
S45        17.000    63485273.614 6 333618519.67506      -615.681 6        36.378
R03        18.000    20258867.295 8 108447258.60908      -608.638 8        51.274                                                                    20258871.849 7  84347870.54607      -473.382 7        46.534
C35        19.000                                                                                                                                    24110056.815 7 125547498.65607      1675.089 7        45.124                                                                    24110062.786 7 102017696.39307      1361.197 7        45.175
E11        20.000    28042474.120 5 147364208.17005      1137.028 5        34.790                                                                    28042487.282 6 110044762.21406       848.980 6        36.870    28042485.313 6 112915486.27506       871.301 6        36.968
R14        21.000    24036057.589 7 128125686.22207      2782.312 7        44.995                                                                    24036072.380 6  99653357.27306      2164.057 6        37.943
I06        22.000    38386381.090 6 150636447.22906      -526.895 6        41.335
S28        23.000    40985929.859 5 215382286.19205      -567.937 5        35.124
G14        24.000    24421515.063 6 128335762.16406     -3863.215 6        39.616                                    24421525.867 3 100001851.80203     -3010.297 3        22.190    24421525.830 6 100001853.79906     -3010.333 6        38.315
S23        25.000    38233182.479 7 200916551.84307      -561.480 7        45.059
E08        26.000    24047240.432 8 126369019.67408     -2002.430 8        48.587                                                                    24047245.789 8  94366449.63408     -1495.324 8        50.006    24047244.627 8  96828183.58908     -1534.276 8        50.720
C07        27.000                                                                                                                                    39369063.357 6 205004970.07606     -1269.498 6        39.865    39369068.940 7 158522840.28007      -981.763 7        42.419    39369064.276 6 166583314.32906     -1031.682 6        39.910
G13        28.000    23304384.229 7 122465211.66507     -4295.942 7        43.238                                    23304389.456 4  95427378.33304     -3347.474 4        26.599
I02        29.000    36990381.706 7 145158189.05907      -373.226 7        42.724
G10        30.000    24434939.108 6 128406333.60706      -748.468 6        41.073                                    24434949.537 5 100056853.14305      -583.217 5        34.381    24434949.151 6 100056845.13506      -583.176 6        38.012
E07        31.000    24898119.340 7 130840428.68207       903.290 7        45.195                                                                    24898128.222 8  97705512.11008       674.568 8        48.396    24898127.091 8 100254349.60308       692.095 8        49.292
E03        32.000    27058873.905 6 142195168.20806     -3684.642 6        40.219                                                                    27058887.987 7 106184666.22907     -2751.557 7        43.805    27058886.131 7 108954701.43107     -2823.396 7        44.146
E10        33.000    28269769.966 6 148558644.82106         2.415 6        37.637                                                                    28269786.786 6 110936721.78806         1.776 6        41.099    28269784.430 6 113830711.66706         1.746 6        41.325
G02        34.000    26140378.050 4 137368729.23404     -1974.915 4        27.713                                    26140378.716 1 107040633.34401     -1538.780 1         6.000
C24        35.000                                                                                                                                    22585243.696 8 117607322.72808      1255.011 8        49.652                                                                    22585245.699 8  95565604.05808      1019.900 8        49.009
G23        36.000    24180292.986 6 127068117.52006     -2910.339 6        40.493                                    24180300.995 3  99014057.15503     -2267.778 3        23.848    24180301.675 6  99014058.13306     -2267.728 6        39.796
R04        38.000    22641442.450 7 121243776.79307      2828.740 7        45.716                                                                    22641451.292 7  94300694.79607      2200.151 7        43.103
C33        39.000                                                                                                                                    24066929.197 7 125322795.97407      -687.614 7        46.858                                                                    24066947.081 7 101835107.58307      -558.644 7        46.436
E25        40.000    26329019.993 6 138359828.98306     -3043.141 6        41.976                                                                    26329032.626 7 103320623.28307     -2272.469 7        44.620    26329030.843 7 106015939.59507     -2331.646 7        45.312
S44        42.000    40933926.207 6 215109209.92906      -508.329 6        37.433
R22        43.000    22278789.922 7 118925785.13007      2245.947 7        47.742                                                                    22278796.981 7  92497911.95507      1746.896 7        43.024
C05        44.000                                                                                                                                    39532959.100 6 205858354.01306      -584.319 6        39.006    39532965.872 7 159182716.25507      -451.901 7        42.383    39532964.619 6 167276842.00406      -474.881 6        39.078
C40        45.000                                                                                                                                    39602894.795 6 206222583.81106     -1529.992 6        41.204                                                                    39602902.001 6 167572739.96406     -1243.249 6        41.037
G32        46.000    26206572.706 6 137716463.49106      2955.770 6        37.206                                    26206576.587 4 107311554.10804      2303.225 4        25.504    26206576.981 5 107311556.05205      2303.725 5        31.924
C10        49.000                                                                                                                                    38706166.188 6 201553153.84306      -928.527 6        41.926    38706171.756 7 155853695.06607      -718.002 7        44.211    38706167.780 6 163778447.01406      -754.412 6        41.201
C42        50.000                                                                                                                                    24440575.563 7 127268352.03307     -3381.172 7        45.631                                                                    24440590.588 7 103415968.60907     -2747.424 7        45.929
S48        51.000    77235545.741 6 405875718.74706      -556.778 6        38.117
E02        53.000    23298444.039 8 122434230.20008     -1060.626 8        48.807                                                                    23298449.190 8  91428235.07508      -792.029 8        51.344    23298447.652 8  93813301.08908      -812.723 8        51.240
C60        54.000                                                                                                                                    40933930.132 6 213153689.04606      -503.834 6        40.617                                                                    40933924.727 6 173204754.75506      -409.363 6        38.901
C45        55.000                                                                                                                                    25409460.560 7 132313555.73507     -3259.213 7        43.179                                                                    25409462.203 7 107515539.04407     -2648.234 7        42.464
R12        56.000    20077310.601 8 107249457.49408     -2322.754 8        50.819                                                                    20077316.730 7  83416276.79907     -1806.525 7        47.246
C02        57.000                                                                                                                                    41066472.920 5 213843714.23605      -548.582 5        30.475    41066481.172 6 165357457.91206      -423.777 6        36.019    41066480.393 4                      -445.109 4        29.896
I03        58.000   121670839.070 5 401676944.66805       883.876 5        33.826
C14        59.000                                                                                                                                    23767805.607 7 123765106.32007     -2204.890 7        45.047    23767809.851 8  95702994.93908     -1704.957 8        49.659    23767806.594 7 100569251.40007     -1791.535 7        47.089
R13        60.000    19899158.549 7 106260477.24307       681.066 7        45.834
> 2025 01 01 11 15 10.0000000  0 54
G19         1.000    21390456.064 7 112407766.37407       255.929 7        47.203                                    21390456.791 6  87590556.42206       199.422 6        38.186
G25         2.000    25087205.167 6 131834144.61406      3101.602 6        36.692                                    25087216.104 4 102727955.88404      2416.823 4        26.168    25087216.416 5 102727965.89305      2416.763 5        32.413
G24         3.000    20246961.716 8 106398521.96008       257.870 8        50.184                                    20246965.193 8  82907973.13608       200.937 8        52.349    20246965.673 7  82907970.12807       200.987 7        46.696
R02         4.000    21443659.038 8 114427352.50108     -4391.072 8        49.669                                                                    21443666.864 7  88999035.98607     -3415.201 7        44.676
S21         5.000    38527404.181 7 202462535.98207      -557.439 7        42.627
G17         7.000    22542292.602 7 118460688.63507     -2253.624 7        46.096                                    22542296.697 7  92307113.47907     -1756.069 7        42.533    22542297.398 6  92307109.46406     -1756.081 6        41.671
R21         8.000    22432493.436 7 120040864.05807     -1472.138 7        46.563                                                                    22432502.654 7  93365194.02807     -1144.948 7        42.868
E12         9.000    28882358.891 5 151777875.02305     -1062.201 5        31.132                                                                    28882367.792 6 113340688.25506      -792.954 6        36.397    28882365.732 6 116297388.59206      -813.870 6        36.333
E30        10.000    25225839.780 7 132562805.73307      1439.603 7        45.974                                                                    25225848.008 8  98991808.25008      1075.039 8        48.500    25225846.531 8 101574192.66708      1103.073 8        49.060
C26        11.000                                                                                                                                    21922154.910 8 114154418.83608     -1321.322 8        51.037                                                                    21922158.116 8  92759831.53708     -1073.583 8        49.196
S27        12.000    39281466.195 6 206425262.67106      -587.538 6        36.775
G15        13.000    21952043.440 7 115358657.65407     -3706.446 7        47.276                                    21952047.030 7  89889818.95307     -2888.132 7        44.719    21952047.155 7  89889810.94307     -2888.107 7        42.353
S36        14.000    38298834.766 7 201262117.38007      -558.047 7        44.599
G12        15.000    21952612.895 7 115361878.97307      2186.388 7        47.732                                    21952615.602 7  89892442.31507      1703.680 7        45.685    21952616.260 7  89892442.30707      1703.782 7        43.022
R11        16.000    24427600.442 6 130533502.26806     -4018.356 6        40.667                                                                    24427613.186 6 101526007.34706     -3125.372 6        37.743
S45        17.000    63485812.659 6 333621597.64806      -615.559 6        36.295
R03        18.000    20259437.829 8 108450313.18808      -613.344 8        50.982                                                                    20259442.275 7  84350246.31207      -477.119 7        46.819
C35        19.000                                                                                                                                    24108449.741 7 125539127.77407      1673.171 7        45.248                                                                    24108455.135 7 102010894.40407      1359.573 7        45.108
E11        20.000    28041393.273 5 147358528.18505      1134.947 5        35.200                                                                    28041406.290 6 110040520.63106       847.511 6        36.805    28041404.259 6 112911134.05606       869.710 6        36.673
R14        21.000    24033449.085 7 128111775.10107      2781.950 7        42.885                                                                    24033461.532 6  99642537.51306      2163.697 6        37.936
I06        22.000    38387052.327 6 150639081.76206      -526.992 6        41.354
S28        23.000    40986470.885 5 215385126.24905      -568.041 5        34.924
G14        24.000    24425191.037 6 128355078.82606     -3863.599 6        39.444                                    24425201.586 3 100016903.73103     -3010.592 3        21.929    24425200.926 6 100016905.72206     -3010.469 6        38.135
S23        25.000    38233714.124 7 200919359.10207      -561.586 7        44.904
E08        26.000    24049146.745 8 126379036.71408     -2004.597 8        48.541                                                                    24049152.021 8  94373929.87408     -1496.962 8        49.991    24049150.868 8  96835858.97008     -1535.991 8        50.749
C07        27.000                                                                                                                                    39370282.730 6 205011319.00306     -1270.025 6        39.661    39370288.065 7 158527749.65407      -982.110 7        42.591    39370283.637 6 166588473.34306     -1031.796 6        39.916
G13        28.000    23308471.667 7 122486694.03007     -4297.104 7        43.098                                    23308477.494 4  95444117.79504     -3348.387 4        26.455
I02        29.000    36990857.315 7 145160055.73207      -373.354 7        42.770
G10        30.000    24435652.368 7 128410084.01407      -751.678 7        42.085                                    24435663.271 5 100059775.50005      -585.717 5        34.471    24435663.359 6 100059767.49306      -585.627 6        37.713
E07        31.000    24897260.758 7 130835916.84607       901.349 7        45.579                                                                    24897269.725 8  97702142.88608       673.011 8        48.371    24897268.563 8 100250892.48708       690.561 8        49.335
E03        32.000    27062379.863 6 142213593.30706     -3685.402 6        40.393                                                                    27062394.119 7 106198425.15907     -2752.097 7        43.699    27062392.540 7 108968819.29707     -2823.866 7        44.390
E10        33.000    28269769.188 6 148558638.98706        -0.281 6        37.459                                                                    28269785.654 6 110936717.41306        -0.066 6        41.147    28269783.201 6 113830707.17706        -0.154 6        41.440
G02        34.000    26142256.827 4 137378606.86604     -1977.065 4        28.711                                    26142258.072 1 107048330.19901     -1540.636 1         5.714
C24        35.000                                                                                                                                    22584039.124 8 117601050.42608      1253.763 8        49.415                                                                    22584041.162 8  95560507.31508      1018.834 8        49.078
G23        36.000    24183062.053 6 127082673.59606     -2912.372 6        41.325                                    24183070.852 4  99025399.51004     -2269.380 4        24.000    24183070.901 6  99025400.49606     -2269.342 6        38.958
R04        38.000    22638801.518 7 121229639.78407      2825.883 7        45.485                                                                    22638811.280 7  94289699.33807      2197.983 7        42.663
C33        39.000                                                                                                                                    24067591.033 7 125326241.36007      -690.712 7        46.594                                                                    24067608.754 7 101837907.25007      -561.179 7        46.484
E25        40.000    26331915.588 6 138375045.13006     -3043.589 6        41.721                                                                    26331928.153 7 103331985.95007     -2272.787 7        44.534    26331926.408 7 106027598.69007     -2332.113 7        45.318
S44        42.000    40934410.726 6 215111751.92006      -508.521 6        37.104
R22        43.000    22276687.723 7 118914562.84607      2242.786 7        47.068                                                                    22276695.112 7  92489183.53807      1744.358 7        43.329
C05        44.000                                                                                                                                    39533520.503 6 205861276.23906      -584.521 6        38.961    39533526.671 7 159184975.88607      -452.043 7        42.525    39533525.669 6 167279216.56006      -474.993 6        39.117
C40        45.000                                                                                                                                    39604364.081 6 206230234.87906     -1530.418 6        41.051                                                                    39604371.550 6 167578957.06406     -1243.604 6        40.913
G32        46.000    26203761.061 6 137701685.66106      2955.083 6        36.715                                    26203764.406 4 107300038.82704      2302.682 4        24.286    26203765.933 5 107300040.77105      2302.700 5        32.168
C10        49.000                                                                                                                                    38707057.814 6 201557797.51306      -929.217 6        41.740    38707063.617 7 155857285.82507      -718.420 7        44.238    38707059.675 6 163782220.38106      -754.898 6        41.154
C42        50.000                                                                                                                                    24443823.169 7 127285261.24407     -3382.663 7        45.839                                                                    24443837.781 7 103429708.70907     -2748.585 7        45.896
S48        51.000    77236072.427 6 405878502.87706      -556.910 6        37.909
E02        53.000    23299453.835 8 122439537.06408     -1062.265 8        48.764                                                                    23299458.999 8  91432197.97908      -793.237 8        51.335    23299457.538 8  93817367.37008      -813.938 8        51.260
C60        54.000                                                                                                                                    40934413.505 6 213156207.90506      -503.845 6        40.253                                                                    40934408.467 6 173206801.53406      -409.378 6        39.114
C45        55.000                                                                                                                                    25412590.713 7 132329852.44807     -3259.550 7        42.883                                                                    25412592.086 7 107528781.44607     -2648.569 7        42.732
R12        56.000    20079485.321 8 107261075.33708     -2324.581 8        50.518                                                                    20079491.228 7  83425312.89407     -1807.969 7        47.224
C02        57.000                                                                                                                                    41067000.271 4 213846454.64504      -548.176 4        29.867    41067007.491 5 165359576.99705      -423.883 5        35.881    41067006.645 5                      -445.462 5        30.287
I03        58.000   121669712.667 5 401672524.34905       884.173 5        33.521
C14        59.000                                                                                                                                    23769923.605 7 123776136.96107     -2207.521 7        45.315    23769928.058 8  95711524.50808     -1706.984 8        49.618    23769924.980 7 100578214.70807     -1793.745 7        47.162
R13        60.000    19898521.619 7 106257076.88307       678.880 7        46.243
> 2025 01 01 11 15 15.0000000  0 54
G19         1.000    21390214.285 7 112406494.82507       252.583 7        46.844                                    21390214.818 6  87589565.60106       196.813 6        38.192
G25         2.000    25084253.623 6 131818637.03406      3101.230 6        37.255                                    25084265.097 4 102715872.05804      2416.540 4        26.096    25084266.657 5 102715882.08305      2416.354 5        31.698
G24         3.000    20246717.472 8 106397239.00008       255.208 8        50.088                                    20246721.060 8  82906973.42408       198.864 8        52.360    20246721.214 7  82906970.42307       198.923 7        46.375
R02         4.000    21447774.721 8 114449314.15108     -4393.526 8        49.832                                                                    21447783.111 7  89016117.23407     -3417.207 7        45.314
S21         5.000    38527935.280 7 202465323.93207      -557.704 7        42.603
G17         7.000    22544438.199 7 118471963.13407     -2256.337 7        45.728                                    22544442.164 7  92315898.78307     -1758.181 7        42.493    22544443.051 6  92315894.77306     -1758.152 6        41.507
R21         8.000    22433871.012 7 120048236.06407     -1476.614 7        46.983                                                                    22433879.910 7  93370927.77507     -1148.574 7        42.768
E12         9.000    28883370.117 5 151783190.83905     -1064.514 5        30.875                                                                    28883379.121 6 113344657.88606      -794.898 6        36.510    28883377.529 6 116301461.75606      -815.626 6        36.442
E30        10.000    25224470.501 7 132555610.39907      1438.352 7        45.752                                                                    25224478.765 8  98986435.11708      1074.124 8        48.443    25224477.344 8 101568679.36208      1102.159 8        48.996
C26        11.000                                                                                                                                    21923424.315 8 114161028.81108     -1322.790 8        50.940                                                                    21923427.465 8  92765202.67308     -1074.972 8        49.143
S27        12.000    39282021.848 6 206428198.90606      -587.245 6        36.616
G15        13.000    21955571.130 7 115377194.89807     -3708.504 7        47.163                                    21955574.581 7  89904263.52507     -2889.732 7        44.655    21955574.869 7  89904255.50807     -2889.773 7        42.616
S36        14.000    38299367.510 7 201264908.20907      -558.388 7        44.557
G12        15.000    21950533.171 7 115350951.25707      2184.608 7        46.793                                    21950536.132 7  89883927.21407      1702.289 7        45.672    21950536.811 7  89883927.22007      1702.302 7        43.077
R11        16.000    24431359.546 6 130553593.03206     -4018.214 6        40.386                                                                    24431372.977 6 101541633.54306     -3125.017 6        37.928
S45        17.000    63486348.377 6 333623076.07916      -615.772 6        36.185
R03        18.000    20260013.364 8 108453391.94208      -618.232 8        51.802                                                                    20260017.677 7  84352640.89707      -480.818 7        46.924
C35        19.000                                                                                                                                    24106844.892 7 125530766.90607      1671.153 7        46.042                                                                    24106849.519 7 102004100.53207      1357.839 7        44.927
E11        20.000    28040313.871 5 147352857.89905      1133.270 5        34.586                                                                    28040327.427 6 110036286.34306       846.411 6        36.692    28040325.346 6 112906789.31906       868.416 6        36.352
R14        21.000    24030838.154 7 128097866.95907      2781.267 7        43.585                                                                    24030852.710 6  99631719.99906      2163.286 6        38.102
I06        22.000    38387723.973 6 150641716.71206      -527.061 6        41.268
S28        23.000    40987005.942 5 215387966.71805      -568.336 5        34.719
G14        24.000    24428867.172 6 128374397.22006     -3863.889 6        39.279                                    24428877.666 3 100031957.01503     -3010.826 3        21.643    24428877.566 6 100031959.01106     -3010.796 6        37.682
S23        25.000    38234249.847 7 200922166.88607      -561.582 7        44.811
E08        26.000    24051055.091 8 126389064.71608     -2006.732 8        48.415                                                                    24051060.291 8  94381418.30208     -1498.552 8        49.939    24051059.087 8  96843542.74708     -1537.592 8        50.733
C07        27.000                                                                                                                                    39371502.212 6 205017670.29106     -1270.600 6        39.607    39371507.763 7 158532660.85907      -982.386 7        42.627    39371503.440 6 166593634.28906     -1032.557 6        39.790
G13        28.000    23312560.346 7 122508181.64507     -4298.009 7        42.853                                    23312566.466 4  95460861.33504     -3349.088 4        26.156
I02        29.000    36991333.308 7 145161923.74507      -373.676 7        42.590
G10        30.000    24436369.751 6 128413850.38106      -754.739 6        41.421                                    24436380.018 5 100062710.30005      -588.098 5        34.586    24436379.662 6 100062702.28606      -588.054 6        37.698
E07        31.000    24896404.251 7 130831415.04707       899.362 7        45.282                                                                    24896413.077 8  97698781.14608       671.613 8        48.354    24896411.921 8 100247443.04708       689.162 8        49.303
E03        32.000    27065886.599 6 142232021.64706     -3685.982 6        40.234                                                                    27065900.974 7 106212186.51407     -2752.489 7        43.488    27065899.605 7 108982939.66107     -2824.332 7        44.599
E10        33.000    28269770.646 6 148558645.70306        -2.788 6        37.603                                                                    28269786.924 6 110936722.42706        -1.911 6        41.254    28269784.703 6 113830712.32106        -2.060 6        41.318
G02        34.000    26144138.489 4 137388497.21504     -1979.101 4        28.834                                    26144140.084 1 107056037.14001     -1542.174 1         5.000
C24        35.000                                                                                                                                    22582835.504 8 117594784.25208      1252.577 8        49.174                                                                    22582837.818 8  95555415.52208      1017.745 8        49.023
G23        36.000    24185834.165 6 127097239.54206     -2914.193 6        41.478                                    24185842.722 4  99036749.55504     -2270.792 4        24.090    24185842.340 6  99036750.54606     -2270.813 6        39.501
R04        38.000    22636164.152 7 121215517.07307      2823.124 7        45.573                                                                    22636173.612 7  94278714.98807      2195.756 7        42.044
C33        39.000                                                                                                                                    24068255.142 7 125329702.01607      -693.678 7        46.491                                                                    24068273.453 7 101840719.30507      -563.795 7        46.460
E25        40.000    26334811.268 6 138390263.77106     -3044.005 6        41.681                                                                    26334824.174 7 103343350.48207     -2273.133 7        44.530    26334822.371 7 106039259.69407     -2332.486 7        45.208
S44        42.000    40934894.166 6 215114294.29406      -508.574 6        37.221
R22        43.000    22274587.659 7 118903355.95007      2239.815 7        46.215                                                                    22274595.530 7  92480467.09907      1742.125 7        42.906
C05        44.000                                                                                                                                    39534081.884 6 205864198.87806      -584.606 6        38.697    39534087.945 7 159187235.82907      -451.950 7        42.445    39534086.992 6 167281591.40806      -474.931 6        39.039
C40        45.000                                                                                                                                    39605834.090 6 206237888.69806     -1531.071 6        40.851                                                                    39605841.227 6 167585176.40906     -1244.257 6        40.882
G32        46.000    26200949.846 6 137686910.96006      2954.699 6        36.854                                    26200952.860 4 107288525.94304      2302.396 4        24.842    26200954.433 5 107288527.92705      2302.266 5        33.000
C10        49.000                                                                                                                                    38707949.918 6 201562443.96706      -929.555 6        41.650    38707955.928 7 155860878.74407      -718.754 7        44.275    38707952.035 6 163785996.00106      -755.522 6        41.025
C42        50.000                                                                                                                                    24447072.020 7 127302178.12207     -3384.104 7        45.353                                                                    24447086.487 7 103443455.02007     -2749.956 7        45.822
S48        51.000    77236596.572 6 405881287.53306      -556.713 6        37.815
E02        53.000    23300465.219 8 122444852.02308     -1063.848 8        48.790                                                                    23300470.459 8  91436166.92508      -794.382 8        51.278    23300468.972 8  93821439.85908      -815.140 8        51.155
C60        54.000                                                                                                                                    40934897.442 6 213158727.17306      -503.855 6        40.379                                                                    40934892.310 6 173208848.62006      -409.426 6        38.913
C45        55.000                                                                                                                                    25415720.746 7 132346151.32807     -3260.127 7        42.301                                                                    25415722.286 7 107542025.58907     -2649.110 7        42.700
R12        56.000    20081661.784 8 107272702.23908     -2326.297 8        50.757                                                                    20081668.136 7  83434356.01907     -1809.351 7        47.509
C02        57.000                                                                                                                                    41067525.683 5 213849195.41405      -547.431 5        30.408    41067533.854 6 165361696.33006      -423.809 6        36.053    41067533.018 4                      -445.663 4        29.915
I03        58.000   121668586.367 5 401668104.22505       884.311 5        33.539
C14        59.000                                                                                                                                    23772045.335 7 123787180.52107     -2210.048 7        45.321    23772049.050 8  95720064.06208     -1708.877 8        49.829    23772045.718 7 100587188.47407     -1795.906 7        47.027
R13        60.000    19897887.153 7 106253687.48707       676.801 7        46.343
> 2025 01 01 11 15 20.0000000  0 54
G19         1.000    21389975.539 7 112405240.21407       249.179 7        46.891                                    21389976.105 6  87588587.97106       194.181 6        38.072
G25         2.000    25081302.670 6 131803131.83006      3100.828 6        36.904                                    25081314.268 4 102703790.07504      2416.233 4        25.820    25081315.570 5 102703800.07205      2416.031 5        32.725
G24         3.000    20246475.754 8 106395969.23108       252.513 8        50.095                                    20246479.440 8  82905983.99208       196.764 8        52.237    20246479.487 7  82905980.98807       196.782 7        46.289
R02         4.000    21451892.288 8 114471288.32508     -4396.157 8        49.594                                                                    21451901.024 7  89033208.18807     -3419.152 7        45.226
S21         5.000    38528464.103 7 202468112.41007      -557.859 7        42.736
G17         7.000    22546586.342 7 118483251.73707     -2259.181 7        45.180                                    22546590.318 7  92324695.07707     -1760.395 7        42.373    22546590.693 6  92324691.07406     -1760.369 6        41.897
R21         8.000    22435253.261 7 120055630.65807     -1481.246 7        46.904                                                                    22435262.201 7  93376679.10107     -1152.103 7        42.063
E12         9.000    28884384.222 5 151788519.26805     -1067.354 5        31.019                                                                    28884393.286 6 113348636.90106      -796.632 6        36.457    28884391.491 6 116305544.58406      -817.639 6        36.295
E30        10.000    25223102.520 7 132548421.55207      1437.084 7        45.661                                                                    25223110.817 8  98981066.82108      1073.153 8        48.556    25223109.364 8 101563171.02808      1101.183 8        49.067
C26        11.000                                                                                                                                    21924695.159 8 114167646.45608     -1324.374 8        50.874                                                                    21924698.314 8  92770580.04308     -1076.160 8        49.166
S27        12.000    39282581.364 6 206431135.79006      -587.544 6        37.051
G15        13.000    21959100.783 7 115395742.67607     -3710.713 7        47.241                                    21959104.131 7  89918716.30807     -2891.459 7        44.491    21959104.568 7  89918708.29607     -2891.466 7        42.195
S36        14.000    38299897.286 7 201267699.89707      -558.627 7        44.665
G12        15.000    21948455.885 7 115340033.00907      2182.627 7        46.779                                    21948458.482 7  89875419.49607      1700.747 7        45.535    21948459.019 7  89875419.50407      1700.813 7        43.300
R11        16.000    24435119.422 6 130573683.48706     -4018.102 6        40.684                                                                    24435132.542 6 101557259.51806     -3125.412 6        38.027
S45        17.000    63486883.756 6 333626155.02706      -615.865 6        36.295
R03        18.000    20260593.334 8 108456494.84208      -623.024 8        51.716                                                                    20260597.112 7  84355054.25107      -484.576 7        46.791
C35        19.000                                                                                                                                    24105240.941 7 125522416.03307      1669.081 7        46.285                                                                    24105245.954 7 101997314.78407      1356.275 7        45.058
E11        20.000    28039237.058 5 147347197.39505      1131.189 5        35.357                                                                    28039250.432 6 110032059.34006       844.972 6        36.639    28039248.182 6 112902452.04206       866.620 6        36.431
R14        21.000    24028229.308 7 128083961.59507      2780.701 7        43.141                                                                    24028243.916 6  99620904.70906      2162.634 6        37.225
I06        22.000    38388395.775 6 150644352.06406      -527.236 6        41.280
S28        23.000    40987549.691 5 215390808.00205      -568.424 5        35.138
G14        24.000    24432543.713 6 128393717.30406     -3864.172 6        39.306                                    24432554.118 3 100047011.60503     -3011.048 3        21.690    24432554.053 6 100047013.61306     -3011.165 6        38.003
S23        25.000    38234784.438 7 200924975.14407      -561.710 7        45.079
E08        26.000    24052965.487 8 126399103.64508     -2008.954 8        48.498                                                                    24052970.626 8  94388914.88808     -1500.201 8        50.020    24052969.442 8  96851234.90008     -1539.391 8        50.797
C07        27.000                                                                                                                                    39372722.087 6 205024023.90906     -1271.175 6        39.423    39372727.827 7 158537573.84807      -982.703 7        42.722    39372723.520 6 166598797.10206     -1032.888 6        39.994
G13        28.000    23316650.319 7 122529674.45607     -4299.173 7        43.158                                    23316656.516 4  95477608.94004     -3349.994 4        25.940
I02        29.000    36991809.814 7 145163793.15407      -374.123 7        42.633
G10        30.000    24437088.997 6 128417632.66206      -757.881 6        40.665                                    24437099.856 5 100065657.49505      -590.546 5        34.367    24437100.324 6 100065649.49006      -590.751 6        38.093
