     3.04           OBSERVATION DATA    M                   RINEX VERSION / TYPE
ssrcrin-15.6.1x                         20250101 194500 UTC PGM / RUN BY / DATE 
(00000000023479385599111004) Septentrio proprietary         COMMENT             
rref                                                        MARKER NAME         
01                                                          MARKER NUMBER       
geodetic                                                    MARKER TYPE         
NFB                 CLIMERS@TUW                             OBSERVER / AGENCY   
3297213             SEPT ASTERX SB3 PROB4.14.4              REC # / TYPE / VERS 
Unknown             Unknown                                 ANT # / TYPE        
  4127831.7707  1207193.0998  4695248.0014                  APPROX POSITION XYZ 
        0.0000        0.0000        0.0000                  ANTENNA: DELTA H/E/N
G   23 X1  C1C L1C D1C S1C C1W S1W C2W L2W D2W S2W C2L L2L  SYS / # / OBS TYPES 
       D2L S2L C5Q L5Q D5Q S5Q C1L L1L D1L S1L              SYS / # / OBS TYPES 
E   21 X1  C1C L1C D1C S1C C6C L6C D6C S6C C5Q L5Q D5Q S5Q  SYS / # / OBS TYPES 
       C7Q L7Q D7Q S7Q C8Q L8Q D8Q S8Q                      SYS / # / OBS TYPES 
S    9 X1  C1C L1C D1C S1C C5I L5I D5I S5I                  SYS / # / OBS TYPES 
R   17 X1  C1C L1C D1C S1C C2P L2P D2P S2P C2C L2C D2C S2C  SYS / # / OBS TYPES 
       C3Q L3Q D3Q S3Q                                      SYS / # / OBS TYPES 
C   25 X1  C1P L1P D1P S1P C5P L5P D5P S5P C2I L2I D2I S2I  SYS / # / OBS TYPES 
       C7I L7I D7I S7I C6I L6I D6I S6I C7D L7D D7D S7D      SYS / # / OBS TYPES 
J   17 X1  C1C L1C D1C S1C C2L L2L D2L S2L C5Q L5Q D5Q S5Q  SYS / # / OBS TYPES 
       C1L L1L D1L S1L                                      SYS / # / OBS TYPES 
I    5 X1  C5A L5A D5A S5A                                  SYS / # / OBS TYPES 
SEPTENTRIO RECEIVERS OUTPUT ALIGNED CARRIER PHASES.         COMMENT             
NO FURTHER PHASE SHIFT APPLIED IN THE RINEX ENCODER.        COMMENT             
G L1C                                                       SYS / PHASE SHIFT   
G L2W                                                       SYS / PHASE SHIFT   
G L2L  0.00000                                              SYS / PHASE SHIFT   
G L5Q  0.00000                                              SYS / PHASE SHIFT   
G L1L  0.00000                                              SYS / PHASE SHIFT   
E L1C  0.00000                                              SYS / PHASE SHIFT   
E L6C  0.00000                                              SYS / PHASE SHIFT   
E L5Q  0.00000                                              SYS / PHASE SHIFT   
E L7Q  0.00000                                              SYS / PHASE SHIFT   
E L8Q  0.00000                                              SYS / PHASE SHIFT   
S L1C                                                       SYS / PHASE SHIFT   
S L5I                                                       SYS / PHASE SHIFT   
R L1C                                                       SYS / PHASE SHIFT   
R L2P  0.00000                                              SYS / PHASE SHIFT   
R L2C                                                       SYS / PHASE SHIFT   
R L3Q  0.00000                                              SYS / PHASE SHIFT   
C L1P  0.00000                                              SYS / PHASE SHIFT   
C L5P  0.00000                                              SYS / PHASE SHIFT   
C L2I                                                       SYS / PHASE SHIFT   
C L7I                                                       SYS / PHASE SHIFT   
C L6I                                                       SYS / PHASE SHIFT   
C L7D                                                       SYS / PHASE SHIFT   
J L1C                                                       SYS / PHASE SHIFT   
J L2L  0.00000                                              SYS / PHASE SHIFT   
J L5Q  0.00000                                              SYS / PHASE SHIFT   
J L1L  0.00000                                              SYS / PHASE SHIFT   
I L5A                                                       SYS / PHASE SHIFT   
  2025     1     1    19    45    0.0000000     GPS         TIME OF FIRST OBS   
 C1C    0.000 C2C    0.000 C2P    0.000                     GLONASS COD/PHS/BIS 
DBHZ                                                        SIGNAL STRENGTH UNIT
    18                                                      LEAP SECONDS        
 24 R01  1 R02 -4 R03  5 R04  6 R05  1 R06 -4 R07  5 R08  6 GLONASS SLOT / FRQ #
    R09 -2 R10 -7 R11  0 R12 -1 R13 -2 R14 -7 R15  0 R16 -1 GLONASS SLOT / FRQ #
    R17  4 R18 -3 R19  3 R20  2 R21  4 R22 -3 R23  3 R24  2 GLONASS SLOT / FRQ #
                                                            END OF HEADER       
> 2025 01 01 19 45  0.0000000  0 57
G10         1.000    21622679.962 8 113628043.38808      1890.116 8        49.328                                    21622678.391 8  88541392.62708      1472.818 8        48.913    21622678.036 7  88541369.62507      1472.929 7        43.865
G15         2.000    23546473.263 6 123737577.67506      -552.201 6        40.529                                    23546469.980 5  96418883.78505      -430.284 5        33.413    23546470.892 6  96418886.79106      -430.479 6        37.168
C33         3.000                                                                                                                                    24476549.666 7 127455830.21407      2433.579 7        44.504                                                                    24476562.086 7 103568358.31707      1977.471 7        46.043
E31         4.000    28436706.539 6 149435918.09306      2334.588 6        36.949                                                                    28436708.652 6 111591761.06606      1743.357 6        39.327    28436708.193 6 114502847.98606      1788.793 6        40.927
S21         5.000    38331682.688 6 201434078.20506      -529.829 6        41.976
E13         6.000    23267804.004 7 122273487.62907     -1213.749 7        47.802                                                                    23267804.172 8  91308332.38508      -906.353 8        50.753    23267803.842 8  93690258.31108      -929.981 8        51.391
G23         7.000    20751448.444 7 109049723.10707      -740.001 7        47.015                                    20751444.340 6  84973848.06906      -576.623 6        38.949    20751444.460 7  84973847.06807      -576.596 7        47.644
E15         8.000    26507825.717 6 139299884.19806     -3017.023 6        40.417                                                                    26507826.492 7 104022811.26407     -2252.892 7        44.105    26507825.836 7 106736425.92707     -2311.754 7        44.530
E05         9.000    27156811.606 4 142710004.20104     -1644.249 4        29.678                                                                    27156813.050 6 106569164.71806     -1227.637 6        36.563    27156812.853 6 109349231.70306     -1259.829 6        37.698
G07        10.000    25012805.198 6 131443215.28306      -698.741 6        39.318                                    25012801.321 5 102423276.47405      -544.474 5        30.370    25012800.998 5 102423280.46805      -544.246 5        35.210
G26        11.000    22866914.326 7 120166815.26807     -3889.912 7        42.565                                    22866913.877 6  93636661.35406     -3031.098 6        40.658    22866914.535 6  93636681.34806     -3031.003 6        41.547
S27        12.000    39073888.172 5 205334670.07605      -499.164 5        35.881
R20        13.000    22553542.749 6 120603970.55606      2502.684 6        36.968                                                                    22553544.143 6  93803153.73106      1946.355 6        41.819
S36        14.000    38101680.149 7 200226210.51407      -528.835 7        43.591
G27        15.000    20307202.269 8 106715351.09108       832.628 8        50.194                                    20307199.730 8  83154977.79408       648.802 8        52.360    20307200.147 7  83154891.79407       648.797 7        45.922
S45        17.000    63313719.090 6 332716816.22606      -579.270 6        37.418
E08        18.000    28019580.201 6 147243914.16306      2094.719 6        36.601                                                                    28019580.248 6 109954868.29206      1564.134 6        40.155    28019579.413 6 112823252.39406      1604.958 6        40.644
G16        19.000    20990893.631 8 110308152.99808     -2499.675 8        48.397                                    20990889.073 6  85954524.96306     -1947.799 6        38.300
E21        20.000    24242959.023 7 127397986.93907     -2282.775 7        47.449                                                                    24242958.952 8  95135077.53808     -1704.655 8        49.519    24242958.633 8  97616836.85608     -1749.154 8        50.299
E26        21.000    24607196.859 7 129312036.08407      1248.766 7        46.078                                                                    24607195.201 8  96564378.40608       932.539 8        48.896    24607194.724 8  99083424.87208       956.914 8        49.480
I06        22.000    38547625.612 6 151269380.87106      -332.523 6        40.951
S28        23.000    40799787.824 5 214404330.94105      -522.976 5        33.928
G08        24.000    22444060.491 7 117944345.15307      2429.783 7        43.200                                    22444058.667 6  91904684.33706      1893.337 6        39.601    22444059.176 6  91904685.33906      1893.509 6        40.772
S23        25.000    38056982.852 7 199990773.28507      -529.619 7        44.321
C13        26.000                                                                                                                                    38064882.460 7 198214029.47307     -1348.745 7        43.695    38064883.259 7 153271772.20307     -1042.934 7        44.248    38064881.436 7 161065222.63007     -1095.984 7        42.311
G18        27.000    22427718.019 7 117858802.49907     -3224.285 7        44.549                                    22427713.999 5  91838200.56505     -2512.432 5        33.204    22427714.222 7  91838191.55907     -2512.380 7        44.092
I02        29.000    39722175.097 6 155878444.66806     -1059.481 6        39.907
C14        30.000                                                                                                                                    23593517.964 7 122857668.20907      1308.165 7        45.229    23593514.017 8  95001338.07008      1011.563 8        49.406    23593512.144 7  99831906.09407      1062.901 7        46.576
R02        31.000    22614522.227 7 120675462.62807     -2688.496 7        46.106                                                                    22614521.273 6  93858713.81106     -2091.049 6        40.746
E03        32.000    27501380.375 6 144520741.93606       515.322 6        36.756                                                                    27501380.763 6 107921347.35806       384.766 6        41.008    27501380.623 6 110736680.01206       394.861 6        41.700
G30        33.000    25840314.646 6 135791762.90206       616.822 6        36.370                                    25840314.598 4 105811765.47304       480.627 4        25.489    25840315.030 5 105811773.46905       480.598 5        32.024
R03        34.000    21146710.552 8 113200029.51808       991.898 8        49.624                                                                    21146708.984 7  88044490.11407       771.538 7        44.977
R10        35.000    21360297.736 7 113862466.05107       953.000 7        44.024
R18        36.000    20754741.209 8 110790627.41908     -2949.963 8        48.555                                                                    20754741.751 7  86170693.90707     -2294.403 7        45.941
E27        37.000    27499224.311 6 144509607.45606     -3745.966 6        38.249                                                                    27499226.026 7 107913162.92307     -2797.322 7        42.199    27499225.434 7 110728269.95807     -2870.278 7        43.407
R16        38.000    23058104.853 7 123172339.38607     -5045.290 7        44.849                                                                    23058106.810 7  95800753.94107     -3924.005 7        42.053
G13        39.000    24765086.670 5 130141401.43405     -1140.358 5        35.833                                    24765083.977 2 101408871.89002      -888.590 2        13.636
R09        40.000    20527918.064 8 109618004.26008     -2493.415 8        50.334                                                                    20527917.108 8  85258471.61208     -1939.368 8        48.108
C34        41.000                                                                                                                                    26749526.556 4 139292119.34004     -3351.549 4        28.825                                                                    26749528.369 5 113186390.53605     -2723.034 5        33.222
S44        42.000    40366506.987 6 212127601.59806      -512.527 6        37.554
C38        43.000                                                                                                                                    39897911.902 6 207759050.67406     -1755.625 6        40.648                                                                    39897909.713 6 168821309.10306     -1426.667 6        39.928
C05        44.000                                                                                                                                    39146565.205 6 203846466.25906      -460.581 6        37.656    39146561.626 7 157627039.91007      -356.076 7        43.361    39146563.866 6 165642052.94506      -374.302 6        40.296
C08        45.000                                                                                                                                    38463728.583 6 200290915.22806     -1607.887 6        39.829    38463721.216 7 154877716.21207     -1243.443 7        43.985    38463721.116 6 162752826.64006     -1306.712 6        41.223
C21        46.000                                                                                                                                    26132280.413 6 136077637.34706     -2755.482 6        40.691                                                                    26132275.475 6 110574200.27006     -2239.247 6        40.408
R19        47.000    19498870.788 7 104306175.01707      -579.854 7        42.516                                                                    19498868.847 7  81127192.60207      -450.965 7        45.434
C43        48.000                                                                                                                                    22853006.162 8 119001921.77308     -2482.509 8        48.782                                                                    22853004.569 8  96698935.28308     -2017.323 8        48.170
C42        50.000                                                                                                                                    23714816.791 7 123489317.91907      -248.941 7        46.435                                                                    23714823.993 7 100345234.57407      -202.363 7        47.327
S48        51.000    77075903.673 6 405036662.11106      -566.864 6        37.750
G21        52.000    24416612.619 5 128310189.01805      2678.061 5        34.748                                    24416609.965 2  99981975.15902      2086.847 2        12.242
C37        53.000                                                                                                                                    24316302.270 7 126621385.51107     -2580.436 7        45.544                                                                    24316305.292 7 102890270.09507     -2096.893 7        46.181
C60        54.000                                                                                                                                    40366506.431 6 210199188.24506      -507.818 6        40.207                                                                    40366489.964 6 170804027.33206      -412.674 6        39.604
C27        55.000                                                                                                                                    24762705.282 7 128945918.61707      2130.752 7        43.642                                                                    24762704.290 7 104779123.92407      1731.180 7        42.497
C23        56.000                                                                                                                                    26335851.700 6 137137986.22106     -3784.834 6        40.172                                                                    26335846.039 6 111435945.91606     -3075.679 6        40.908
C02        57.000                                                                                                                                    40481239.448 5 210796483.89605      -462.339 5        34.267    40481233.529 6 163001205.97206      -357.534 6        40.031    40481237.097 6 171289412.94006      -375.870 6        36.042
I03        58.000   110497139.487 6 357829260.38306      1038.431 6        41.201
C11        59.000                                                                                                                                    24615485.925 7 128179590.39007     -3046.040 7        43.064    24615481.731 7  99116739.93207     -2355.390 7        46.482    24615479.938 7 104156525.57807     -2475.284 7        43.638
C28        60.000                                                                                                                                    21773579.588 8 113381058.51908       604.144 8        50.746                                                                    21773578.031 8  92131533.83308       490.754 8        48.595
> 2025 01 01 19 45  5.0000000  0 57
G10         1.000    21620882.756 8 113618599.29308      1887.632 8        49.415                                    21620881.214 8  88534033.59508      1470.882 8        48.868    21620881.308 7  88534010.60007      1470.897 7        43.647
G15         2.000    23547000.976 6 123740348.66106      -555.948 6        40.083                                    23546997.368 5  96421042.98905      -433.205 5        33.138    23546997.776 6  96421045.98406      -433.254 6        37.176
C33         3.000                                                                                                                                    24474213.694 7 127443665.91807      2432.180 7        44.576                                                                    24474225.929 7 103558473.80307      1976.352 7        45.782
E31         4.000    28434485.896 6 149424248.27406      2333.602 6        36.560                                                                    28434487.937 6 111583046.60306      1742.569 6        39.589    28434487.618 6 114493906.16406      1788.207 6        40.586
S21         5.000    38332187.301 7 201436728.56207      -530.108 7        42.171
E13         6.000    23268959.656 7 122279560.01107     -1215.204 7        47.658                                                                    23268959.711 8  91312866.95008      -907.450 8        50.802    23268959.408 8  93694911.17108      -931.098 8        51.427
G23         7.000    20752154.208 7 109053432.00707      -743.500 7        47.015                                    20752150.132 6  84976738.12406      -579.354 6        38.931    20752150.300 7  84976737.12507      -579.323 7        47.288
E15         8.000    26510696.541 6 139314970.42206     -3017.475 6        40.563                                                                    26510697.271 7 104034076.93307     -2253.235 7        44.062    26510696.730 7 106747985.48507     -2312.113 7        44.643
E05         9.000    27158376.827 4 142718231.38904     -1646.622 4        29.583                                                                    27158378.933 6 106575308.38506     -1229.732 6        36.775    27158378.428 6 109355535.63506     -1261.734 6        37.679
G07        10.000    25013471.722 6 131446716.14506      -701.538 6        38.625                                    25013467.490 5 102426004.41105      -546.646 5        30.287    25013466.867 5 102426008.40605      -546.727 5        35.243
G26        11.000    22870616.261 7 120186267.99007     -3891.085 7        43.208                                    22870615.696 6  93651819.31006     -3032.011 6        40.541    22870615.710 7  93651839.30507     -3032.086 7        42.011
S27        12.000    39074360.415 5 205337166.37105      -499.470 5        35.762
R20        13.000    22551203.489 6 120591460.83406      2501.590 6        36.722                                                                    22551205.614 6  93793423.95806      1945.606 6        41.626
S36        14.000    38102184.244 7 200228854.23107      -528.800 7        43.765
G27        15.000    20306410.968 8 106711194.16608       830.201 8        50.124                                    20306408.695 8  83151738.63208       646.909 8        52.351    20306409.090 7  83151652.63607       646.876 7        45.995
S45        17.000    63314216.656 6 332719712.96506      -579.586 6        37.214
E08        18.000    28017588.057 6 147233443.57106      2093.860 6        36.745                                                                    28017587.701 6 109947049.35306      1563.496 6        40.322    28017587.035 6 112815229.49306      1604.268 6        40.930
G16        19.000    20993273.531 8 110320659.52208     -2502.807 8        48.223                                    20993269.009 6  85964270.30406     -1950.239 6        38.261
E21        20.000    24245132.353 7 127409406.60407     -2284.946 7        47.381                                                                    24245132.051 8  95143605.20908     -1706.335 8        49.566    24245131.703 8  97625586.98708     -1750.822 8        50.281
E26        21.000    24606009.492 7 129305795.22607      1247.559 7        45.843                                                                    24606007.536 8  96559718.02908       931.618 8        48.909    24606007.146 8  99078642.92308       955.943 8        49.571
I06        22.000    38548049.226 6 151271044.06806      -332.583 6        40.901
S28        23.000    40800284.049 5 214406946.14205      -523.088 5        34.090
G08        24.000    22441749.144 7 117932199.20507      2428.584 7        42.938                                    22441747.353 6  91895219.97106      1892.405 6        39.586    22441748.007 6  91895220.98306      1892.414 6        40.563
S23        25.000    38057487.027 7 199993421.68807      -529.679 7        44.551
C13        26.000                                                                                                                                    38066177.719 7 198220774.82007     -1349.245 7        43.589    38066178.635 7 153276988.12407     -1043.397 7        44.092    38066176.880 7 161070703.75207     -1096.448 7        42.133
G18        27.000    22430786.337 7 117874926.95007     -3225.374 7        44.388                                    22430782.297 5  91850765.07605     -2513.278 5        33.036    22430782.506 7  91850756.07107     -2513.288 7        43.716
I02        29.000    39723524.875 6 155883742.92606     -1059.604 6        39.655
C14        30.000                                                                                                                                    23592262.629 7 122851133.93207      1305.622 7        45.112    23592259.047 8  94996285.35408      1009.535 8        49.196    23592257.451 7  99826596.43407      1060.919 7        46.660
R02        31.000    22617043.282 7 120688915.26607     -2692.467 7        46.411                                                                    22617042.994 6  93869176.99206     -2094.178 6        41.058
E03        32.000    27500891.548 6 144518171.65506       512.992 6        37.304                                                                    27500891.761 6 107919427.99306       383.067 6        40.863    27500891.602 6 110734710.58106       393.009 6        41.914
G30        33.000    25839729.592 6 135788686.12206       613.913 6        36.185                                    25839729.053 4 105809367.98404       478.377 4        25.925    25839730.549 5 105809375.98405       478.211 5        32.701
R03        34.000    21145785.995 8 113195081.35408       987.540 8        49.500                                                                    21145784.764 7  88040641.57107       767.982 7        45.625
R10        35.000    21359405.512 7 113857712.29307       948.627 7        43.719
R18        36.000    20757505.594 8 110805380.92208     -2951.333 8        48.514                                                                    20757505.966 7  86182168.86007     -2295.402 7        46.692
E27        37.000    27502788.710 6 144528338.90506     -3746.562 6        37.966                                                                    27502790.500 7 107927150.66907     -2797.672 7        42.358    27502789.864 7 110742622.61007     -2870.685 7        43.335
R16        38.000    23062827.777 7 123197567.53907     -5046.055 7        44.840                                                                    23062830.226 6  95820375.82206     -3924.671 6        41.802
G13        39.000    24766173.456 5 130147112.34505     -1143.767 5        35.538                                    24766170.662 2 101413321.96102      -891.227 2        13.273
R09        40.000    20530254.715 8 109630482.54208     -2497.680 8        49.811                                                                    20530253.384 7  85268176.95907     -1942.635 7        47.466
C34        41.000                                                                                                                                    26752745.552 4 139308875.85704     -3351.732 4        28.398                                                                    26752746.097 5 113200006.49105     -2722.879 5        32.970
S44        42.000    40366996.348 6 212130164.82106      -512.706 6        37.595
C38        43.000                                                                                                                                    39899597.894 6 207767830.17106     -1756.116 6        40.501                                                                    39899595.657 6 168828443.13906     -1426.934 6        39.715
C05        44.000                                                                                                                                    39147007.713 6 203848769.33306      -460.726 6        37.664    39147003.842 7 157628820.79607      -356.128 7        43.274    39147006.091 6 165643924.35906      -374.329 6        40.298
C08        45.000                                                                                                                                    38465273.256 6 200298957.04006     -1608.596 6        39.513    38465265.890 7 154883934.62507     -1243.876 7        43.710    38465265.385 6 162759361.23506     -1307.132 6        41.251
C21        46.000                                                                                                                                    26134927.470 6 136091420.46106     -2757.606 6        40.732                                                                    26134922.516 6 110585400.14506     -2240.891 6        40.515
R19        47.000    19499413.528 7 104309080.09307      -582.084 7        42.391                                                                    19499412.429 7  81129452.12407      -452.764 7        45.693
C43        48.000                                                                                                                                    22855390.534 8 119014337.65108     -2483.720 8        48.684                                                                    22855388.902 8  96709024.17108     -2018.188 8        48.091
C42        50.000                                                                                                                                    23715057.356 7 123490570.37407      -252.027 7        46.516                                                                    23715064.493 7 100346252.26507      -204.770 7        47.261
S48        51.000    77076415.513 6 405039497.07606      -566.753 6        37.766
G21        52.000    24414065.214 5 128296801.65105      2676.960 5        34.162                                    24414062.370 2  99971543.49302      2085.946 2        12.485
C37        53.000                                                                                                                                    24318781.204 7 126634292.94407     -2582.528 7        45.565                                                                    24318784.095 7 102900758.40807     -2098.536 7        46.148
C60        54.000                                                                                                                                    40366994.370 6 210201728.18406      -508.067 6        40.393                                                                    40366977.827 6 170806091.21906      -412.879 6        39.580
C27        55.000                                                                                                                                    24760660.390 7 128935267.31807      2130.086 7        43.754                                                                    24760658.932 7 104770468.83407      1730.853 7        42.425
C23        56.000                                                                                                                                    26339485.890 6 137156910.98806     -3785.074 6        40.841                                                                    26339480.543 6 111451323.76306     -3075.461 6        41.080
C02        57.000                                                                                                                                    40481683.927 5 210798796.74505      -462.466 5        34.633    40481677.807 6 163002994.42606      -357.770 6        39.751    40481681.080 6 171291292.29006      -375.620 6        36.034
I03        58.000   110495816.481 6 357824069.02606      1038.103 6        41.082
C11        59.000                                                                                                                                    24618411.270 7 128194822.51907     -3046.747 7        43.160    24618406.926 7  99128518.37507     -2356.012 7        46.494    24618405.307 7 104168902.89507     -2475.691 7        43.678
C28        60.000                                                                                                                                    21773000.218 8 113378041.80208       602.665 8        50.697                                                                    21772998.705 8  92129082.46708       489.688 8        48.541
> 2025 01 01 19 45 10.0000000  0 57
G10         1.000    21619087.819 8 113609166.47508      1885.281 8        49.271                                    21619086.167 8  88526683.35308      1469.051 8        48.894    21619086.289 7  88526660.36507      1469.029 7        43.558
G15         2.000    23547531.649 6 123743136.32406      -559.353 6        39.718                                    23547527.953 5  96423215.19605      -435.858 5        33.036    23547528.906 6  96423218.19906      -435.978 6        37.527
C33         3.000                                                                                                                                    24471879.463 7 127431507.71207      2430.849 7        44.668                                                                    24471890.803 7 103548594.27307      1975.371 7        45.619
E31         4.000    28432265.488 6 149412581.12606      2333.220 6        36.310                                                                    28432267.952 6 111574334.11406      1742.201 6        39.730    28432267.411 6 114484966.41206      1787.513 6        40.584
S21         5.000    38332690.940 7 201439378.53607      -530.153 7        42.036
E13         6.000    23270116.292 7 122285638.37007     -1216.368 7        47.678                                                                    23270116.373 8  91317405.99308      -908.354 8        50.795    23270116.073 8  93699568.62208      -932.064 8        51.432
G23         7.000    20752863.155 7 109057157.03907      -746.753 7        47.127                                    20752859.005 6  84979640.74806      -581.886 6        38.988    20752859.089 7  84979639.75407      -581.858 7        47.461
E15         8.000    26513567.505 6 139330057.21106     -3017.514 6        40.520                                                                    26513568.116 7 104045343.03807     -2253.359 7        44.135    26513567.654 7 106759545.48907     -2312.145 7        44.441
E05         9.000    27159944.578 4 142726468.85604     -1648.476 4        29.886                                                                    27159946.475 6 106581459.65706     -1231.022 6        37.059    27159946.003 6 109361847.38406     -1263.167 6        37.924
G07        10.000    25014140.165 6 131450229.82106      -704.071 6        38.907                                    25014136.020 5 102428742.33105      -548.624 5        30.204    25014136.786 5 102428746.34405      -548.799 5        35.676
G26        11.000    22874318.967 7 120205726.11007     -3892.329 7        43.719                                    22874318.517 6  93666981.47606     -3032.984 6        40.567    22874318.380 6  93667001.46806     -3032.864 6        41.869
S27        12.000    39074837.587 5 205339662.20205      -499.164 5        35.943
R20        13.000    22548863.653 6 120578954.87106      2500.602 6        36.987                                                                    22548866.243 7  93783697.08707      1944.983 7        42.512
S36        14.000    38102687.547 7 200231496.81207      -528.624 7        43.681
G27        15.000    20305622.116 8 106707048.10008       827.940 8        50.382                                    20305619.736 8  83148507.93408       645.147 8        52.413    20305620.241 7  83148421.94007       645.123 7        46.158
S45        17.000    63314724.650 6 332722609.32106      -579.299 6        37.282
E08        18.000    28015595.950 6 147222975.46306      2093.163 6        36.877                                                                    28015595.717 6 109939232.26506      1563.013 6        40.646    28015595.011 6 112807208.46706      1603.987 6        41.147
G16        19.000    20995656.267 8 110333180.15908     -2505.629 8        48.137                                    20995651.610 6  85974026.63806     -1952.436 6        38.273
E21        20.000    24247307.160 7 127420835.80707     -2286.949 7        47.396                                                                    24247306.957 8  95152139.99608     -1707.754 8        49.622    24247306.609 8  97634344.42308     -1752.330 8        50.307
E26        21.000    24604822.728 7 129299559.66307      1246.449 7        45.953                                                                    24604820.958 8  96555061.60908       930.794 8        48.939    24604820.542 8  99073865.03308       955.055 8        49.602
I06        22.000    38548473.077 6 151272706.78006      -332.573 6        40.796
S28        23.000    40800782.304 5 214409560.81905      -523.081 5        33.683
G08        24.000    22439438.185 7 117920057.85907      2427.753 7        42.955                                    22439436.941 6  91885759.17606      1891.755 6        39.634    22439437.487 6  91885760.18106      1891.721 6        40.639
S23        25.000    38057992.191 7 199996069.67907      -529.656 7        44.287
C13        26.000                                                                                                                                    38067473.293 7 198227521.98007     -1349.718 7        43.393    38067474.242 7 153282205.44307     -1043.702 7        44.196    38067472.606 7 161076186.35607     -1096.653 7        42.318
G18        27.000    22433855.530 7 117891055.90907     -3226.398 7        44.292                                    22433851.462 5  91863333.09305     -2514.074 5        33.000    22433851.761 7  91863324.09207     -2514.056 7        43.769
I02        29.000    39724874.665 6 155889040.81606     -1059.632 6        39.598
C14        30.000                                                                                                                                    23591009.836 7 122844611.21307      1303.330 7        44.605    23591006.515 8  94991241.57708      1007.743 8        49.239    23591005.002 7  99821296.19007      1059.111 7        46.771
R02        31.000    22619567.882 7 120702386.23907     -2696.187 7        46.308                                                                    22619567.693 6  93879654.41006     -2096.980 6        40.300
E03        32.000    27500404.242 6 144515611.59706       510.800 6        37.508                                                                    27500404.668 6 107917516.25006       381.496 6        41.113    27500404.336 6 110732748.97006       391.405 6        41.683
G30        33.000    25839145.618 6 135785622.00006       611.438 6        36.147                                    25839145.993 4 105806980.37304       476.448 4        26.431    25839147.262 5 105806988.38205       476.200 5        32.742
R03        34.000    21144865.203 8 113190153.48208       983.391 8        49.083                                                                    21144864.120 7  88036808.78607       764.908 7        45.159
R10        35.000    21358517.657 7 113852979.41007       944.362 7        44.004
R18        36.000    20760269.546 7 110820139.74107     -2952.417 7        47.488                                                                    20760270.480 7  86193647.94907     -2296.320 7        46.821
E27        37.000    27506353.241 6 144547071.27506     -3746.576 6        38.240                                                                    27506355.078 7 107941139.12207     -2797.847 7        42.318    27506354.439 7 110756975.96707     -2870.818 7        43.183
R16        38.000    23067551.519 7 123222798.16507     -5046.430 7        45.049                                                                    23067553.579 7  95839999.62207     -3924.977 7        42.027
G13        39.000    24767263.175 5 130152838.96105     -1147.056 5        35.048                                    24767260.298 2 101417784.27702      -893.810 2        12.848
R09        40.000    20532594.973 8 109642980.44508     -2501.636 8        50.020                                                                    20532594.125 7  85277897.54607     -1945.798 7        47.546
C34        41.000                                                                                                                                    26755963.428 4 139325632.19404     -3350.827 4        28.948                                                                    26755964.100 5 113213622.47705     -2723.189 5        32.473
S44        42.000    40367481.877 6 212132727.75806      -512.590 6        37.758
C38        43.000                                                                                                                                    39901283.873 6 207776610.13906     -1756.164 6        40.451                                                                    39901281.687 6 168835577.60906     -1427.065 6        39.790
C05        44.000                                                                                                                                    39147449.393 6 203851072.02906      -460.769 6        37.384    39147446.224 7 157630601.39107      -356.175 7        43.295    39147448.312 6 165645795.49406      -374.195 6        40.379
C08        45.000                                                                                                                                    38466817.471 6 200307000.31206     -1608.876 6        39.441    38466810.389 7 154890154.19807     -1244.170 7        43.928    38466809.894 6 162765897.06006     -1307.334 6        41.380
C21        46.000                                                                                                                                    26137576.208 6 136105213.45906     -2759.751 6        40.465                                                                    26137571.289 6 110596608.11106     -2242.609 6        40.598
R19        47.000    19499958.006 7 104311995.14007      -584.121 7        42.580                                                                    19499956.916 7  81131719.38007      -454.349 7        45.704
C43        48.000                                                                                                                                    22857775.676 8 119026758.26808     -2484.711 8        48.484                                                                    22857774.166 8  96719116.94508     -2018.959 8        48.119
C42        50.000                                                                                                                                    23715300.201 7 123491837.00007      -254.796 7        46.232                                                                    23715307.782 7 100347281.51707      -207.022 7        47.321
S48        51.000    77076931.820 6 405042331.51606      -567.146 6        37.803
G21        52.000    24411518.181 5 128283417.95205      2676.301 5        33.629                                    24411515.432 2  99961114.65802      2085.390 2        12.485
C37        53.000                                                                                                                                    24321261.600 7 126647209.73007     -2584.406 7        45.543                                                                    24321264.686 7 102911254.36907     -2100.011 7        46.105
C60        54.000                                                                                                                                    40367481.866 6 210204267.82706      -508.102 6        40.150                                                                    40367465.430 6 170808154.89106      -412.710 6        39.504
C27        55.000                                                                                                                                    24758615.456 7 128924617.58907      2129.659 7        43.873                                                                    24758613.698 7 104761815.06507      1730.653 7        42.516
C23        56.000                                                                                                                                    26343120.204 6 137175834.42706     -3784.650 6        41.089                                                                    26343114.776 6 111466700.60506     -3075.314 6        41.406
C02        57.000                                                                                                                                    40482128.487 5 210801109.32105      -462.847 5        34.319    40482121.902 6 163004782.63106      -357.573 6        39.964    40482125.099 6 171293171.46006      -375.995 6        36.087
I03        58.000   110494493.254 6 357818877.47406      1038.250 6        41.077
C11        59.000                                                                                                                                    24621336.738 7 128210056.61607     -3047.229 7        42.641    24621332.409 7  99140298.32907     -2356.188 7        46.452    24621330.915 7 104181281.84707     -2476.009 7        43.581
C28        60.000                                                                                                                                    21772422.141 8 113375031.22508       601.407 8        50.548                                                                    21772420.604 8  92126636.14208       488.757 8        48.467
> 2025 01 01 19 45 15.0000000  0 57
G10         1.000    21617294.905 8 113599745.00708      1883.171 8        49.028                                    21617293.287 8  88519341.95608      1467.403 8        48.963    21617293.371 7  88519318.97107      1467.338 7        43.350
G15         2.000    23548064.622 6 123745940.93306      -562.454 6        38.982                                    23548061.731 5  96425400.60505      -438.276 5        32.856    23548062.142 6  96425403.60306      -438.340 6        37.240
C33         3.000                                                                                                                                    24469545.850 7 127419355.67907      2429.785 7        44.859                                                                    24469557.072 7 103538719.75307      1974.361 7        45.330
E31         4.000    28430046.074 5 149400916.83605      2332.377 5        35.981                                                                    28430048.489 6 111565623.70106      1741.923 6        39.060    28430047.490 6 114476028.76706      1787.122 6        39.787
S21         5.000    38333195.125 7 201442028.20507      -529.920 7        42.127
E13         6.000    23271274.345 7 122291722.82207     -1217.543 7        47.351                                                                    23271274.188 8  91321949.57808      -909.177 8        50.727    23271273.907 8  93704230.73708      -932.910 8        51.307
G23         7.000    20753575.101 7 109060898.27307      -749.815 7        47.244                                    20753570.941 6  84982556.00006      -584.273 6        38.922    20753571.135 7  84982555.00207      -584.302 7        47.590
E15         8.000    26516438.624 6 139345144.68706     -3017.479 6        40.420                                                                    26516439.265 7 104056609.65007     -2253.308 7        44.062    26516438.813 7 106771106.01107     -2312.137 7        44.336
E05         9.000    27161514.028 4 142734716.90004     -1650.666 4        29.488                                                                    27161516.105 6 106587618.91506     -1232.509 6        36.495    27161515.696 6 109368167.32306     -1264.746 6        37.214
G07        10.000    25014811.236 6 131453756.42906      -706.678 6        39.700                                    25014807.067 5 102431490.32505      -550.654 5        30.219    25014807.051 5 102431494.33805      -550.808 5        35.690
G26        11.000    22878022.585 7 120225189.67907     -3893.251 7        43.928                                    22878022.250 6  93682147.89106     -3033.704 6        40.639    22878022.124 6  93682167.90606     -3033.729 6        41.254
S27        12.000    39075314.311 5 205342158.54105      -499.187 5        35.971
R20        13.000    22546526.970 6 120566452.68206      2500.348 6        36.809                                                                    22546529.055 7  93773973.17107      1944.596 7        42.180
S36        14.000    38103188.190 7 200234139.39407      -528.403 7        43.403
G27        15.000    20304835.339 8 106702912.98508       825.895 8        50.281                                    20304832.851 8  83145285.76908       643.552 8        52.400    20304833.115 7  83145199.77307       643.534 7        46.105
S45        17.000    63315225.763 6 332723905.39916      -579.249 6        37.115
E08        18.000    28013604.530 6 147212509.85906      2092.909 6        36.730                                                                    28013604.109 6 109931417.06106      1562.845 6        40.608    28013603.501 6 112799189.41606      1603.535 6        41.061
G16        19.000    20998041.647 8 110345714.97208     -2508.421 8        48.319                                    20998036.912 6  85983794.02606     -1954.615 6        38.318
E21        20.000    24249483.999 7 127432274.60907     -2288.678 7        47.291                                                                    24249483.735 8  95160681.96408     -1709.114 8        49.462    24249483.373 8  97643109.22108     -1753.698 8        50.130
E26        21.000    24603637.239 7 129293329.46107      1245.548 7        45.702                                                                    24603635.364 8  96550409.19608       930.104 8        48.805    24603634.920 8  99069091.24508       954.372 8        49.491
I06        22.000    38548896.760 6 151274369.08606      -332.420 6        40.863
S28        23.000    40801278.730 5 214412175.68205      -523.162 5        33.784
G08        24.000    22437129.132 7 117907921.21007      2426.853 7        43.410                                    22437127.456 6  91876302.05806      1891.054 6        39.712    22437128.228 6  91876303.05506      1890.968 6        40.534
S23        25.000    38058494.148 7 199998717.36407      -529.571 7        44.167
C13        26.000                                                                                                                                    38068769.001 7 198234270.98307     -1349.873 7        43.071    38068770.362 7 153287424.20207     -1043.883 7        44.161    38068768.654 7 161081670.48507     -1096.903 7        42.184
G18        27.000    22436925.745 7 117907189.42907     -3227.148 7        44.823                                    22436921.521 5  91875904.66205     -2514.657 5        33.090    22436922.079 7  91875895.64807     -2514.608 7        44.090
I02        29.000    39726224.899 6 155894338.45906     -1059.482 6        39.631
C14        30.000                                                                                                                                    23589759.375 7 122838100.13507      1301.095 7        44.644    23589756.143 8  94986206.79608      1006.045 8        49.023    23589754.585 7  99816005.41607      1057.116 7        46.806
R02        31.000    22622095.888 7 120715875.82407     -2699.705 7        46.053                                                                    22622095.027 6  93890146.29106     -2099.697 6        40.677
E03        32.000    27499919.524 6 144513061.83006       509.102 6        37.047                                                                    27499919.441 6 107915612.18606       380.044 6        40.698    27499919.076 6 110730795.23206       389.908 6        41.487
G30        33.000    25838565.938 6 135782570.44906       609.006 6        36.087                                    25838565.380 4 105804602.55304       474.557 4        26.275    25838565.997 5 105804610.53805       474.633 5        32.263
R03        34.000    21143949.311 8 113185246.21108       979.388 8        49.706                                                                    21143947.270 7  88032992.02407       761.729 7        45.141
R10        35.000    21357634.695 7 113848267.56007       940.322 7        44.333
R18        36.000    20763035.843 7 110834904.08107     -2953.431 7        47.528                                                                    20763035.807 7  86205131.32707     -2297.145 7        46.210
E27        37.000    27509918.099 6 144565804.66506     -3746.643 6        37.841                                                                    27509919.860 7 107955128.32607     -2797.895 7        42.281    27509919.155 7 110771330.11607     -2870.941 7        42.910
R16        38.000    23072275.608 7 123248031.09507     -5046.833 7        45.685                                                                    23072277.274 7  95859625.20007     -3925.306 7        42.119
G13        39.000    24768355.794 5 130158581.22505     -1149.938 5        35.829                                    24768352.953 2 101422258.83502      -896.059 2        12.242
R09        40.000    20534939.643 8 109655498.16508     -2505.474 8        50.352                                                                    20534938.652 8  85287633.54508     -1948.731 8        48.017
C34        41.000                                                                                                                                    26759181.091 4 139342388.52904     -3350.741 4        29.469                                                                    26759181.782 5 113227238.40105     -2723.180 5        32.695
S44        42.000    40367967.415 6 212135290.49206      -512.463 6        37.758
C38        43.000                                                                                                                                    39902970.290 6 207785390.62206     -1756.250 6        40.405                                                                    39902967.776 6 168842712.45806     -1427.104 6        39.904
C05        44.000                                                                                                                                    39147892.182 6 203853374.40006      -460.409 6        37.497    39147888.302 7 157632381.73007      -356.028 7        43.299    39147890.440 6 165647666.36706      -374.241 6        40.303
C08        45.000                                                                                                                                    38468362.160 6 200315045.29606     -1609.047 6        39.201    38468355.489 7 154896375.09807     -1244.271 7        43.890    38468354.920 6 162772434.27506     -1307.607 6        41.230
C21        46.000                                                                                                                                    26140226.758 6 136119016.45606     -2761.606 6        40.048                                                                    26140222.166 6 110607824.16406     -2244.090 6        40.346
R19        47.000    19500504.460 7 104314920.14107      -585.864 7        42.250                                                                    19500503.704 7  81133994.38007      -455.752 7        45.184
C43        48.000                                                                                                                                    22860161.890 8 119039183.69608     -2485.574 8        48.260                                                                    22860160.320 8  96729213.62308     -2019.725 8        48.088
C42        50.000                                                                                                                                    23715545.827 7 123493117.91107      -257.576 7        46.155                                                                    23715553.776 7 100348322.36407      -209.316 7        47.283
S48        51.000    77077439.922 6 405045165.67006      -566.620 6        37.508
G21        52.000    24408971.232 5 128270038.02405      2675.695 5        33.719                                    24408969.312 2  99950688.80602      2084.976 2        12.485
C37        53.000                                                                                                                                    24323743.941 7 126660135.97007     -2586.236 7        45.499                                                                    24323746.955 7 102921757.99807     -2101.521 7        46.110
C60        54.000                                                                                                                                    40367969.443 6 210206807.25506      -507.751 6        40.057                                                                    40367953.164 6 170810218.39606      -412.682 6        39.508
C27        55.000                                                                                                                                    24756570.574 7 128913969.52607      2129.515 7        43.860                                                                    24756568.777 7 104753162.64307      1730.384 7        42.311
C23        56.000                                                                                                                                    26346754.385 6 137194756.62006     -3784.192 6        41.232                                                                    26346748.496 6 111482076.41506     -3075.154 6        41.561
C02        57.000                                                                                                                                    40482572.358 5 210803421.63405      -462.491 5        34.700    40482565.724 6 163006570.69206      -357.624 6        39.691    40482569.341 5 171295050.41105      -375.832 5        35.895
I03        58.000   110493170.258 6 357813685.79806      1038.298 6        40.965
C11        59.000                                                                                                                                    24624261.834 7 128225292.79207     -3047.408 7        42.241    24624258.230 7  99152079.90107     -2356.482 7        46.251    24624256.716 7 104193662.47607     -2476.208 7        43.558
C28        60.000                                                                                                                                    21771844.958 8 113372026.84408       600.296 8        50.452                                                                    21771843.609 8  92124194.83908       487.688 8        48.507
> 2025 01 01 19 45 20.0000000  0 57
G10         1.000    21615504.461 8 113590335.38708      1880.740 8        49.299                                    21615502.684 8  88512009.78808      1465.511 8        48.905    21615503.004 7  88511986.79507      1465.480 7        43.589
G15         2.000    23548602.072 6 123748762.91506      -566.145 6        39.480                                    23548598.835 5  96427599.54205      -441.149 5        32.623    23548598.309 6  96427602.55906      -441.288 6        36.998
C33         3.000                                                                                                                                    24467213.377 7 127407210.27507      2428.433 7        45.168                                                                    24467224.851 7 103528850.61507      1973.304 7        45.443
E31         4.000    28427827.266 5 149389255.94405      2331.926 5        35.805                                                                    28427829.263 6 111556915.92206      1741.374 6        38.631    28427828.659 6 114467093.83206      1786.776 6        39.661
S21         5.000    38333698.849 6 201444677.78606      -529.815 6        41.912
