     3.04           OBSERVATION DATA    M                   RINEX VERSION / TYPE
ssrcrin-15.6.1x                         20250101 144500 UTC PGM / RUN BY / DATE 
(00000000023479385599111004) Septentrio proprietary         COMMENT             
rref                                                        MARKER NAME         
01                                                          MARKER NUMBER       
geodetic                                                    MARKER TYPE         
NFB                 CLIMERS@TUW                             OBSERVER / AGENCY   
3297213             SEPT ASTERX SB3 PROB4.14.4              REC # / TYPE / VERS 
Unknown             Unknown                                 ANT # / TYPE        
  4127831.8182  1207194.4857  4695247.0582                  APPROX POSITION XYZ 
        0.0000        0.0000        0.0000                  ANTENNA: DELTA H/E/N
G   23 X1  C1C L1C D1C S1C C1W S1W C2W L2W D2W S2W C2L L2L  SYS / # / OBS TYPES 
       D2L S2L C5Q L5Q D5Q S5Q C1L L1L D1L S1L              SYS / # / OBS TYPES 
E   21 X1  C1C L1C D1C S1C C6C L6C D6C S6C C5Q L5Q D5Q S5Q  SYS / # / OBS TYPES 
       C7Q L7Q D7Q S7Q C8Q L8Q D8Q S8Q                      SYS / # / OBS TYPES 
S    9 X1  C1C L1C D1C S1C C5I L5I D5I S5I                  SYS / # / OBS TYPES 
R   17 X1  C1C L1C D1C S1C C2P L2P D2P S2P C2C L2C D2C S2C  SYS / # / OBS TYPES 
       C3Q L3Q D3Q S3Q                                      SYS / # / OBS TYPES 
C   25 X1  C1P L1P D1P S1P C5P L5P D5P S5P C2I L2I D2I S2I  SYS / # / OBS TYPES 
       C7I L7I D7I S7I C6I L6I D6I S6I C7D L7D D7D S7D      SYS / # / OBS TYPES 
J   17 X1  C1C L1C D1C S1C C2L L2L D2L S2L C5Q L5Q D5Q S5Q  SYS / # / OBS TYPES 
       C1L L1L D1L S1L                                      SYS / # / OBS TYPES 
I    5 X1  C5A L5A D5A S5A                                  SYS / # / OBS TYPES 
SEPTENTRIO RECEIVERS OUTPUT ALIGNED CARRIER PHASES.         COMMENT             
NO FURTHER PHASE SHIFT APPLIED IN THE RINEX ENCODER.        COMMENT             
G L1C                                                       SYS / PHASE SHIFT   
G L2W                                                       SYS / PHASE SHIFT   
G L2L  0.00000                                              SYS / PHASE SHIFT   
G L5Q  0.00000                                              SYS / PHASE SHIFT   
G L1L  0.00000                                              SYS / PHASE SHIFT   
E L1C  0.00000                                              SYS / PHASE SHIFT   
E L6C  0.00000                                              SYS / PHASE SHIFT   
E L5Q  0.00000                                              SYS / PHASE SHIFT   
E L7Q  0.00000                                              SYS / PHASE SHIFT   
E L8Q  0.00000                                              SYS / PHASE SHIFT   
S L1C                                                       SYS / PHASE SHIFT   
S L5I                                                       SYS / PHASE SHIFT   
R L1C                                                       SYS / PHASE SHIFT   
R L2P  0.00000                                              SYS / PHASE SHIFT   
R L2C                                                       SYS / PHASE SHIFT   
R L3Q  0.00000                                              SYS / PHASE SHIFT   
C L1P  0.00000                                              SYS / PHASE SHIFT   
C L5P  0.00000                                              SYS / PHASE SHIFT   
C L2I                                                       SYS / PHASE SHIFT   
C L7I                                                       SYS / PHASE SHIFT   
C L6I                                                       SYS / PHASE SHIFT   
C L7D                                                       SYS / PHASE SHIFT   
J L1C                                                       SYS / PHASE SHIFT   
J L2L  0.00000                                              SYS / PHASE SHIFT   
J L5Q  0.00000                                              SYS / PHASE SHIFT   
J L1L  0.00000                                              SYS / PHASE SHIFT   
I L5A                                                       SYS / PHASE SHIFT   
  2025     1     1    14    45    0.0000000     GPS         TIME OF FIRST OBS   
 C1C    0.000 C2C    0.000 C2P    0.000                     GLONASS COD/PHS/BIS 
DBHZ                                                        SIGNAL STRENGTH UNIT
    18                                                      LEAP SECONDS        
 24 R01  1 R02 -4 R03  5 R04  6 R05  1 R06 -4 R07  5 R08  6 GLONASS SLOT / FRQ #
    R09 -2 R10 -7 R11  0 R12 -1 R13 -2 R14 -7 R15  0 R16 -1 GLONASS SLOT / FRQ #
    R17  4 R18 -3 R19  3 R20  2 R21  4 R22 -3 R23  3 R24  2 GLONASS SLOT / FRQ #
                                                            END OF HEADER       
> 2025 01 01 14 45  0.0000000  0 57
G20         1.000    24787025.036 6 130256731.95806      1694.605 6        37.860                                    24787030.248 2 101498783.86402      1320.460 2        17.736
G25         2.000    19829081.579 8 104202661.93208      -806.537 8        50.132                                    19829084.803 8  81196965.64708      -628.471 8        50.170    19829085.393 7  81196975.65107      -628.427 7        45.252
G24         3.000    25401614.618 4 133486212.18004     -4537.303 4        28.436                                    25401628.061 2 104015217.11702     -3535.593 2        14.667    25401628.513 4 104015214.09504     -3535.643 4        28.682
G29         4.000    21068401.658 8 110715457.75508      1249.584 8        48.994                                    21068404.277 8  86271923.85608       973.695 8        48.956    21068404.826 7  86271926.86607       973.741 7        44.488
S21         5.000    38469812.585 7 202159812.61307      -627.643 7        43.517
G06         6.000    24480706.829 6 128647178.62906     -3562.803 6        37.996                                    24480709.405 5 100244665.75305     -2776.236 5        32.000    24480709.729 6 100244656.78706     -2776.123 6        37.807
E19         7.000    26846082.393 5 141077029.32905        44.281 5        35.229                                                                    26846096.881 6 105349721.12106        33.045 6        37.834    26846095.098 6 108097977.71606        33.811 6        38.697
E15         8.000    26170867.828 7 137528991.33507      2419.278 7        42.463                                                                    26170881.039 7 102700341.91207      1806.584 7        46.092    26170879.237 7 105379463.11907      1853.766 7        46.472
G11         9.000    22503016.293 7 118254346.51607     -1527.680 7        45.776                                    22503019.137 5  92146351.90505     -1190.404 5        34.319    22503019.131 7  92146351.91207     -1190.309 7        44.456
E30        10.000    23986662.387 8 126050913.52508     -1544.531 8        48.460                                                                    23986668.094 8  94129040.44108     -1153.324 8        51.269    23986666.956 8  96584569.02308     -1183.481 8        51.426
S27        12.000    39267636.929 6 206352617.68706      -631.677 6        36.628
R15        13.000    20740374.595 8 110830459.18908      2251.831 8        50.112                                                                    20740381.905 7  86201581.02907      1751.433 7        46.141
S36        14.000    38242174.233 7 200964339.13007      -627.645 7        45.114
G12        15.000    21711269.301 7 114093624.93307     -3037.024 7        47.383                                    21711270.345 7  88904196.79107     -2366.516 7        45.630    21711271.009 7  88904196.79307     -2366.522 7        43.412
E29        16.000    26303242.443 7 138224359.54907     -2122.149 7        42.487                                                                    26303257.484 7 103219486.05307     -1584.650 7        44.886    26303255.728 7 105912167.73107     -1626.038 7        45.172
S45        17.000    63444778.037 6 333405917.85906      -691.666 6        36.465
G31        18.000    23622873.920 6 124139130.36806      2555.551 6        41.485                                    23622882.925 5  96731891.40105      1991.322 5        35.719    23622883.535 6  96731870.44506      1991.252 6        39.411
C35        19.000                                                                                                                                    26131985.187 6 136076298.89906     -3808.321 6        39.616                                                                    26131986.726 6 110573227.74706     -3094.659 6        40.145
E21        20.000    28579087.551 6 150184117.06506      1876.093 6        36.106                                                                    28579114.641 6 112150583.31106      1400.941 6        38.057    28579111.696 6 115076238.29906      1437.379 6        38.240
R14        21.000    19320453.525 8 102989003.47708     -1198.609 8        52.099                                                                    19320458.733 7  80102639.54807      -932.248 7        47.656
I06        22.000    38653977.741 7 151686527.80107      -544.776 7        42.696
S28        23.000    40946827.085 5 215176853.43305      -631.229 5        34.781
E34        24.000    24677653.691 7 129682167.08407       231.740 7        46.799                                                                    24677660.803 8  96840739.81008       173.077 8        49.133    24677659.887 8  99367002.88608       177.658 8        49.544
S23        25.000    38187403.041 7 200675973.08907      -632.277 7        45.469
C13        26.000                                                                                                                                    40405503.119 6 210402084.97906      1496.363 6        39.156    40405515.101 6 162696305.58006      1157.096 6        40.253    40405510.943 6 170968980.52406      1215.821 6        38.724
C07        27.000                                                                                                                                    41455557.091 5 215869991.73005     -1467.832 5        34.667    41455554.257 6 166924391.82606     -1135.073 6        38.129    41455552.044 5 175412056.61505     -1192.808 5        34.738
R24        28.000    19417686.472 8 103835361.89808      -220.782 8        52.074                                                                    19417690.705 7  80760999.56207      -171.695 7        46.489
I02        29.000    37465338.305 7 147022015.57707      -799.604 7        42.973
G28        30.000    21935627.406 7 115272585.81707      1335.182 7        46.007                                    21935631.548 5  89822865.32105      1040.396 5        34.676    21935631.744 7  89822862.33907      1040.335 7        45.245
E07        31.000    27675789.766 6 145436995.89906     -3603.012 6        39.550                                                                    27675812.508 7 108605490.60507     -2690.526 7        42.028    27675809.737 6 111438681.81506     -2760.578 6        41.604
C12        32.000                                                                                                                                    21915120.561 8 114117980.13908      -567.422 8        48.760    21915122.442 8  88243368.46108      -438.817 8        52.445    21915120.678 8  92730282.88608      -461.025 8        50.169
R17        33.000    21643201.505 8 115817335.92508      3412.948 8        49.346                                                                    21643211.022 7  90080274.19407      2654.507 7        45.171
R23        34.000    22115323.584 7 118302213.10907     -4358.908 7        43.890
C24        35.000                                                                                                                                    22641395.380 8 117899717.34208     -2829.908 8        49.357                                                                    22641397.297 8  95803198.25308     -2299.442 8        49.087
R05        36.000    23576143.893 7 126027818.49807     -3751.989 7        42.734                                                                    23576163.317 6  98021624.30506     -2918.177 6        39.532
E27        37.000    24313414.626 7 127767985.00607       802.205 7        47.551                                                                    24313422.823 8  95411277.88308       599.082 8        50.286    24313421.559 8  97900251.59708       614.715 8        50.694
R06        39.000    23506069.338 5 125432865.72105      -386.763 5        32.940
C32        40.000                                                                                                                                    27187120.204 6 141570210.35106     -2264.351 6        38.691                                                                    27187138.382 6 115037370.77706     -1840.009 6        38.973
C34        41.000                                                                                                                                    22028708.686 8 114709499.00608      1145.227 8        50.994                                                                    22028713.221 8  93210981.63708       930.661 8        49.152
S44        42.000    40706379.202 6 213913470.99906      -545.128 6        38.000
C38        43.000                                                                                                                                    39966527.989 6 208116224.11506      1019.349 6        41.159                                                                    39966531.013 6 169111515.83706       828.466 6        41.299
C05        44.000                                                                                                                                    39479411.321 6 205579518.35506      -592.352 6        38.114    39479417.548 7 158967103.33307      -457.982 7        43.164    39479416.747 6 167050265.63306      -481.178 6        40.017
C08        45.000                                                                                                                                    40170133.583 6 209176465.57906      1527.019 6        37.527    40170137.782 7 161748547.42607      1180.772 7        42.427    40170135.145 6 169973032.01906      1240.774 6        40.319
G32        46.000    24043188.315 7 126347628.81207     -3065.273 7        43.355                                    24043203.016 6  98452678.91906     -2388.520 6        36.170    24043203.644 6  98452680.90606     -2388.359 6        37.716
E36        47.000    26774387.639 6 140700499.90506     -2502.946 6        40.944                                                                    26774395.846 7 105068684.43607     -1869.035 7        43.467    26774394.987 7 107809588.00607     -1917.891 7        43.918
C43        48.000                                                                                                                                    25420623.129 7 132371910.31707      2738.867 7        42.167                                                                    25420634.961 7 107563090.47907      2225.715 7        42.379
C10        49.000                                                                                                                                    40227732.964 6 209476358.67506     -1330.210 6        37.123    40227737.745 6 161980421.69906     -1028.475 6        40.079    40227734.289 6 170216701.63306     -1080.931 6        38.174
C44        50.000                                                                                                                                    22382577.314 8 116551994.00308     -2161.701 8        48.546                                                                    22382580.283 8  94708074.32808     -1756.482 8        48.794
S48        51.000    77183389.510 6 405601847.15806      -653.884 6        37.905
E02        53.000    27307514.456 6 143501949.29606     -3028.346 6        39.748                                                                    27307525.844 7 107160596.64307     -2261.428 7        42.313    27307524.587 7 109956075.13407     -2320.372 7        43.697
C60        54.000                                                                                                                                    40706378.570 6 211968820.89406      -540.112 6        38.733                                                                    40706372.817 6 172241961.83006      -438.952 6        41.056
C25        55.000                                                                                                                                    21592348.713 8 112437146.56808       205.096 8        51.387                                                                    21592351.108 8  91364454.70408       166.723 8        49.729
C23        56.000                                                                                                                                    25382110.486 7 132171407.31407      2331.688 7        42.781                                                                    25382115.170 7 107400152.04307      1894.766 7        44.436
C02        57.000                                                                                                                                    40905232.672 5 213004159.69305      -546.188 5        33.898    40905237.047 6 164708277.95806      -422.293 6        40.315    40905237.355 5 173083295.79105      -443.599 5        35.376
I03        58.000   117255353.083 6 384349713.45906       943.634 6        37.164
C11        59.000                                                                                                                                    23613174.443 7 122960143.44207      2300.939 7        46.245    23613181.163 8  95080692.28808      1779.250 8        49.112    23613177.641 7  99915265.08407      1869.776 7        47.102
R13        60.000    22948689.415 6 122544718.38106     -4226.979 6        38.264
> 2025 01 01 14 45  5.0000000  0 57
G20         1.000    24785413.185 6 130248262.67206      1693.178 6        38.435                                    24785418.609 3 101492184.49703      1319.326 3        18.000
G25         2.000    19829849.874 8 104206700.54608      -808.931 8        49.816                                    19829853.319 8  81200112.62308      -630.338 8        50.185    19829854.143 7  81200122.63407      -630.391 7        45.258
G24         3.000    25405930.296 4 133508897.58104     -4537.197 4        28.872                                    25405945.050 2 104032893.96502     -3535.474 2        14.286    25405945.630 4 104032891.00104     -3535.834 4        28.768
G29         4.000    21067213.921 8 110709215.53608      1247.264 8        49.238                                    21067216.404 8  86267059.81008       971.889 8        48.927    21067216.903 7  86267062.82607       971.876 7        44.689
S21         5.000    38470409.546 7 202162950.80407      -627.748 7        43.232
G06         6.000    24484097.921 6 128664997.20906     -3564.632 6        38.541                                    24484100.165 5 100258550.46805     -2777.661 5        31.796    24484099.683 6 100258541.53106     -2777.750 6        37.539
E19         7.000    26846041.264 5 141076814.02205        42.038 5        35.290                                                                    26846055.838 6 105349560.44206        31.137 6        37.902    26846053.969 6 108097812.83406        31.882 6        38.685
E15         8.000    26168566.389 7 137516897.33707      2418.351 7        42.804                                                                    26168579.743 7 102691310.73007      1805.862 7        46.066    26168577.730 7 105370196.33407      1853.036 7        46.521
G11         9.000    22504471.439 7 118261993.12107     -1531.005 7        46.059                                    22504474.297 5  92152310.32505     -1192.999 5        34.186    22504474.407 7  92152310.32707     -1192.897 7        44.847
E30        10.000    23988132.452 8 126058638.91608     -1545.656 8        48.232                                                                    23988138.198 8  94134809.41808     -1154.161 8        51.108    23988137.075 8  96590488.49208     -1184.332 8        51.316
S27        12.000    39268238.143 6 206355776.09306      -631.536 6        36.692
R15        13.000    20738268.109 8 110819204.13408      2250.219 8        50.684                                                                    20738275.039 7  86192827.15207      1750.156 7        45.756
S36        14.000    38242773.350 7 200967477.50807      -627.621 7        44.989
G12        15.000    21714159.432 7 114108813.83107     -3038.563 7        47.137                                    21714160.721 7  88916032.29807     -2367.710 7        45.570    21714161.428 7  88916032.29707     -2367.618 7        43.545
E29        16.000    26305262.315 7 138234975.28707     -2124.220 7        42.212                                                                    26305277.566 7 103227413.36107     -1586.236 7        44.789    26305275.850 7 105920301.84307     -1627.649 7        45.141
S45        17.000    63445382.265 6 333409375.98706      -691.604 6        36.718
G31        18.000    23620443.512 7 124126357.52607      2553.798 7        42.665                                    23620452.258 5  96721938.61305      1989.959 5        35.671    23620452.480 6  96721917.64906      1989.871 6        38.877
C35        19.000                                                                                                                                    26135642.414 6 136095342.45506     -3808.916 6        39.685                                                                    26135643.524 6 110588702.27506     -3095.093 6        39.958
E21        20.000    28577301.823 6 150174736.76806      1875.655 6        36.159                                                                    28577329.630 6 112143578.53606      1401.046 6        37.868    28577326.581 6 115069050.79706      1437.542 6        38.282
R14        21.000    19321578.994 8 102995003.88708     -1201.567 8        52.100                                                                    19321584.461 7  80107306.54707      -934.568 7        47.770
I06        22.000    38654671.589 7 151689251.52807      -544.721 7        42.607
S28        23.000    40947425.384 5 215180008.86405      -630.975 5        34.976
E34        24.000    24677434.355 7 129681014.32907       229.283 7        46.918                                                                    24677441.399 8  96839879.02008       171.252 8        49.078    24677440.499 8  99366119.63708       175.686 8        49.528
S23        25.000    38188004.125 7 200679134.69207      -632.368 7        45.464
C13        26.000                                                                                                                                    40404065.841 6 210394604.44306      1495.864 6        39.294    40404078.372 6 162690521.21906      1156.624 6        40.069    40404074.319 6 170962901.98406      1215.586 6        38.823
C07        27.000                                                                                                                                    41456966.827 5 215877331.13405     -1467.967 5        35.029    41456964.513 6 166930067.12606     -1135.007 6        38.063    41456961.423 5 175418020.46005     -1192.698 5        34.614
R24        28.000    19417894.633 8 103836477.03508      -225.257 8        51.882                                                                    19417899.282 7  80761866.90007      -175.205 7        46.744
I02        29.000    37466356.813 7 147026013.77507      -799.676 7        42.912
G28        30.000    21934358.177 7 115265916.91807      1332.424 7        45.470                                    21934362.492 5  89817668.79505      1038.247 5        34.595    21934363.001 7  89817665.81507      1038.229 7        45.446
E07        31.000    27679218.036 6 145455010.95706     -3603.076 6        39.799                                                                    27679240.655 6 108618943.34206     -2690.596 6        41.874    27679238.076 6 111452485.52006     -2760.877 6        41.647
C12        32.000                                                                                                                                    21915666.856 8 114120824.24908      -570.253 8        48.851    21915668.459 8  88245567.71708      -440.911 8        52.315    21915666.828 8  92732593.95008      -463.259 8        50.096
R17        33.000    21640014.130 8 115800276.46408      3410.884 8        48.734                                                                    21640022.778 7  90067005.75107      2652.977 7        44.882
R23        34.000    22119398.203 7 118324013.05107     -4361.079 7        43.879
C24        35.000                                                                                                                                    22644113.502 8 117913871.02508     -2831.551 8        49.420                                                                    22644115.409 8  95814699.26608     -2300.824 8        48.887
R05        36.000    23579653.830 7 126046583.53407     -3754.092 7        42.650                                                                    23579674.370 6  98036219.27206     -2919.767 6        39.679
E27        37.000    24312651.629 7 127763975.94207       801.391 7        47.397                                                                    24312659.880 8  95408284.13308       598.380 8        50.183    24312658.665 8  97897179.74408       614.023 8        50.670
R06        39.000    23506435.648 5 125434809.38405      -390.850 5        32.623
C32        40.000                                                                                                                                    27189295.722 6 141581536.48906     -2266.212 6        39.246                                                                    27189313.603 6 115046574.24006     -1841.414 6        40.260
C34        41.000                                                                                                                                    22027609.815 8 114703778.85208      1142.828 8        50.983                                                                    22027614.720 8  93206333.53908       928.764 8        49.001
S44        42.000    40706897.052 6 213916197.10706      -545.155 6        38.090
C38        43.000                                                                                                                                    39965549.192 6 208111128.93906      1018.704 6        41.652                                                                    39965552.479 6 169107375.61906       827.664 6        41.058
C05        44.000                                                                                                                                    39479979.749 6 205582479.86806      -592.120 6        38.159    39479986.285 7 158969393.39307      -458.079 7        42.921    39479985.399 6 167052672.10906      -481.260 6        39.730
C08        45.000                                                                                                                                    40168668.608 6 209168832.02806      1526.425 6        37.720    40168671.793 7 161742644.75307      1180.359 7        42.301    40168669.209 6 169966829.16206      1240.372 6        40.253
G32        46.000    24046105.588 7 126362959.27907     -3066.882 7        43.424                                    24046120.334 6  98464624.68706     -2389.771 6        36.219    24046121.039 6  98464626.68106     -2389.722 6        37.512
E36        47.000    26776770.565 6 140713019.68506     -2504.931 6        40.853                                                                    26776778.310 7 105078033.68107     -1870.573 7        43.268    26776777.397 7 107819181.13407     -1919.444 7        44.107
C43        48.000                                                                                                                                    25417993.044 6 132358216.97806      2738.392 6        41.938                                                                    25418005.054 7 107551963.57007      2225.084 7        42.136
C10        49.000                                                                                                                                    40229009.640 6 209483008.91806     -1330.003 6        37.244    40229014.762 6 161985564.15606     -1028.575 6        39.868    40229011.452 6 170222105.53306     -1080.864 6        38.246
C44        50.000                                                                                                                                    22384653.847 8 116562808.01108     -2163.905 8        48.923                                                                    22384656.898 8  94716861.58608     -1758.348 8        48.668
S48        51.000    77183992.884 6 405605116.17106      -653.860 6        38.294
E02        53.000    27310395.954 6 143517091.61506     -3028.584 6        39.826                                                                    27310407.199 6 107171904.24606     -2261.598 6        41.993    27310406.152 7 109967677.72107     -2320.597 7        43.625
C60        54.000                                                                                                                                    40706897.350 6 211971522.21706      -540.181 6        38.898                                                                    40706891.704 6 172244156.88106      -438.979 6        40.980
C25        55.000                                                                                                                                    21592152.776 8 112436126.40108       202.945 8        51.372                                                                    21592155.218 8  91363625.72308       164.977 8        49.637
C23        56.000                                                                                                                                    25379871.395 7 132159750.18407      2331.154 7        42.842                                                                    25379876.402 7 107390679.77107      1894.221 7        44.322
C02        57.000                                                                                                                                    40905756.755 5 213006890.47205      -546.170 5        33.677    40905761.313 6 164710389.61606      -422.389 6        40.138    40905761.845 5 173085514.80805      -443.960 5        35.281
I03        58.000   117254151.237 6 384344995.74406       943.731 6        36.836
C11        59.000                                                                                                                                    23610965.446 7 122948642.14307      2299.640 7        46.176    23610972.401 8  95071798.79608      1778.138 8        49.106    23610968.895 7  99905919.35107      1868.583 7        47.015
R13        60.000    22952649.814 6 122565856.48706     -4228.076 6        38.730
> 2025 01 01 14 45 10.0000000  0 57
G20         1.000    24783803.569 6 130239800.38906      1691.767 6        37.996                                    24783808.002 2 101485590.57202      1318.257 2        17.547
G25         2.000    19830620.421 8 104210750.63208      -811.165 8        49.434                                    19830624.025 8  81203268.53808      -632.077 8        50.181    19830624.675 7  81203278.54207      -632.056 7        45.163
G24         3.000    25410247.402 4 133531582.06804     -4537.356 4        28.682                                    25410261.789 2 104050570.16102     -3535.633 2        13.273    25410260.962 4 104050567.09704     -3535.344 4        28.834
G29         4.000    21066028.441 8 110702984.53608      1245.040 8        49.271                                    21066030.669 8  86262204.50908       970.158 8        48.947    21066031.155 7  86262207.51607       970.168 7        44.796
S21         5.000    38471005.032 7 202166088.40107      -627.470 7        43.318
G06         6.000    24487490.250 6 128682825.21006     -3566.510 6        38.688                                    24487492.624 5 100272442.56205     -2779.127 5        31.796    24487492.690 6 100272433.60706     -2778.906 6        36.801
E19         7.000    26846002.541 5 141076610.41705        39.470 5        34.476                                                                    26846017.060 6 105349408.44506        29.571 6        37.391    26846015.294 6 108097656.86206        30.505 6        38.300
E15         8.000    26166265.941 7 137504807.50007      2417.588 7        43.397                                                                    26166279.233 7 102682282.64507      1805.291 7        46.115    26166277.065 7 105360932.73607      1852.384 7        46.444
G11         9.000    22505929.589 7 118269655.65607     -1534.171 7        45.439                                    22505932.435 5  92158281.15505     -1195.461 5        34.229    22505932.028 7  92158281.17407     -1195.453 7        44.816
E30        10.000    23989603.382 8 126066369.39808     -1546.634 8        48.281                                                                    23989609.217 8  94140582.19608     -1154.965 8        51.049    23989608.145 8  96596411.85808     -1185.074 8        51.258
S27        12.000    39268842.684 6 206358933.78506      -631.289 6        36.537
R15        13.000    20736163.667 8 110807956.11808      2248.809 8        50.800                                                                    20736170.559 7  86184078.75207      1749.001 7        46.041
S36        14.000    38243369.905 7 200970615.53207      -627.646 7        45.077
G12        15.000    21717051.373 7 114124009.93107     -3039.977 7        47.161                                    21717052.488 7  88927873.42207     -2368.815 7        45.520    21717052.719 7  88927873.41607     -2368.790 7        43.352
E29        16.000    26307284.579 7 138245600.64207     -2125.945 7        42.209                                                                    26307299.586 7 103235347.84707     -1587.678 7        44.621    26307297.746 7 105928443.31107     -1629.018 7        44.968
S45        17.000    63445985.062 6 333411133.60216      -691.613 6        36.295
G31        18.000    23618013.828 6 124113592.26406      2552.347 6        40.975                                    23618023.031 5  96711991.74605      1988.826 5        35.676    23618023.910 6  96711970.79206      1988.654 6        39.240
C35        19.000                                                                                                                                    26139300.044 6 136114388.22706     -3809.333 6        39.664                                                                    26139300.829 6 110604178.61006     -3095.407 6        39.661
E21        20.000    28575516.743 5 150165355.81205      1876.255 5        35.990                                                                    28575544.809 6 112136573.27506      1401.239 6        37.834    28575541.452 6 115061862.79506      1437.688 6        37.977
R14        21.000    19322707.390 8 103001019.08908     -1204.568 8        52.036                                                                    19322713.013 7  80111985.03407      -936.898 7        47.610
I06        22.000    38655365.902 7 151691974.82707      -544.657 7        42.612
S28        23.000    40948029.563 5 215183163.40405      -630.921 5        34.738
E34        24.000    24677217.272 7 129679873.66607       226.849 7        46.692                                                                    24677224.389 8  96839027.25208       169.417 8        48.945    24677223.446 8  99365245.64308       173.830 8        49.376
S23        25.000    38188606.252 7 200682295.76807      -632.171 7        45.476
C13        26.000                                                                                                                                    40402630.040 6 210387125.65806      1495.537 6        39.387    40402642.024 6 162684738.20306      1156.489 6        40.133    40402637.866 6 170956824.94706      1215.260 6        38.366
C07        27.000                                                                                                                                    41458375.254 5 215884669.64005     -1467.401 5        34.881    41458373.342 6 166935741.74606     -1134.983 6        37.992    41458370.809 5 175423983.62305     -1192.592 5        34.452
R24        28.000    19418107.186 8 103837613.99508      -229.581 8        52.069                                                                    19418111.249 7  80762751.21607      -178.576 7        46.290
I02        29.000    37467375.841 7 147030012.52407      -799.689 7        42.770
G28        30.000    21933091.464 7 115259261.08407      1329.837 7        45.428                                    21933095.914 5  89812482.45305      1036.232 5        34.676    21933096.339 7  89812479.46007      1036.213 7        45.708
E07        31.000    27682646.133 6 145473026.24506     -3603.142 6        39.474                                                                    27682668.839 6 108632396.25706     -2690.611 6        41.774    27682666.337 6 111466289.37206     -2760.770 6        41.745
C12        32.000                                                                                                                                    21916215.903 8 114123681.49508      -572.803 8        48.848    21916217.178 8  88247777.13608      -442.902 8        52.309    21916215.542 8  92734915.73308      -465.410 8        49.923
R17        33.000    21636827.277 8 115783226.62208      3409.034 8        48.006                                                                    21636836.210 7  90053744.80507      2651.450 7        44.665
R23        34.000    22123475.628 7 118345823.28907     -4363.085 7        44.048
C24        35.000                                                                                                                                    22646833.073 8 117928032.61708     -2833.129 8        49.273                                                                    22646835.051 8  95826206.73408     -2302.024 8        48.743
R05        36.000    23583167.194 7 126065359.30507     -3756.197 7        43.393                                                                    23583186.783 6  98050822.59506     -2921.562 6        40.229
E27        37.000    24311889.520 7 127759970.68307       800.654 7        47.299                                                                    24311897.749 8  95405293.20408       597.885 8        50.125    24311896.465 8  97894110.79308       613.495 8        50.552
R06        39.000    23506802.143 5 125436774.11205      -395.229 5        33.317
C32        40.000                                                                                                                                    27191471.914 6 141592872.34706     -2268.240 6        38.015                                                                    27191490.316 6 115055785.58606     -1843.216 6        38.255
C34        41.000                                                                                                                                    22026513.466 8 114698069.67008      1140.712 8        50.910                                                                    22026518.299 8  93201694.40208       926.979 8        48.928
S44        42.000    40707415.112 6 213918922.86306      -545.060 6        38.009
C38        43.000                                                                                                                                    39964571.509 6 208106037.36806      1017.940 6        41.678                                                                    39964574.630 6 169103238.36306       827.178 6        40.710
C05        44.000                                                                                                                                    39480548.696 6 205585440.93006      -592.046 6        38.105    39480554.865 7 158971683.08807      -457.920 7        43.101    39480554.109 6 167055078.25106      -481.045 6        39.553
C08        45.000                                                                                                                                    40167203.103 6 209161201.06706      1525.721 6        37.652    40167206.452 7 161736744.07807      1180.086 7        42.301    40167203.602 6 169960628.46806      1239.906 6        40.257
G32        46.000    24049024.673 7 126378297.73307     -3068.432 7        43.001                                    24049039.230 6  98476576.68506     -2390.974 6        36.166    24049040.112 6  98476578.66306     -2390.937 6        38.360
E36        47.000    26779154.728 6 140725548.94706     -2506.929 6        40.482                                                                    26779162.570 7 105087390.00607     -1871.983 7        43.060    26779161.615 7 107828781.53007     -1920.776 7        43.915
C43        48.000                                                                                                                                    25415363.884 6 132344526.40806      2737.942 6        41.616                                                                    25415375.353 6 107540838.92906      2224.789 6        41.456
C10        49.000                                                                                                                                    40230286.470 6 209489658.58206     -1329.819 6        37.074    40230291.772 6 161990706.12706     -1028.163 6        40.164    40230288.543 6 170227508.94606     -1080.257 6        38.105
C44        50.000                                                                                                                                    22386732.751 8 116573632.64408     -2166.031 8        48.847                                                                    22386735.669 8  94725657.51408     -1760.011 8        48.533
S48        51.000    77184593.928 6 405608385.04906      -653.724 6        38.183
E02        53.000    27313277.569 6 143532235.36406     -3028.869 6        39.114                                                                    27313288.997 6 107183212.89506     -2261.855 6        41.650    27313287.942 7 109979281.37407     -2320.911 7        43.801
C60        54.000                                                                                                                                    40707415.883 6 211974223.21706      -540.174 6        38.811                                                                    40707410.300 6 172246351.69206      -438.837 6        40.887
C25        55.000                                                                                                                                    21591958.566 8 112435116.31408       200.983 8        51.205                                                                    21591961.246 8  91362804.97908       163.418 8        49.512
C23        56.000                                                                                                                                    25377633.261 7 132148095.26907      2330.730 7        42.609                                                                    25377638.088 7 107381209.31707      1893.861 7        44.290
C02        57.000                                                                                                                                    40906281.933 5 213009620.82805      -545.901 5        33.748    40906285.682 6 164712500.91206      -422.290 6        40.229    40906285.977 5 173087733.47305      -443.751 5        35.290
I03        58.000   117252948.805 6 384340277.62006       943.729 6        36.934
C11        59.000                                                                                                                                    23608758.410 7 122937147.83907      2298.122 7        46.257    23608765.233 8  95062910.70408      1777.056 8        49.783    23608761.379 7  99896579.32407      1867.446 7        46.875
R13        60.000    22956609.908 6 122587000.40706     -4229.349 6        38.925
> 2025 01 01 14 45 15.0000000  0 57
G20         1.000    24782194.046 6 130231345.37906      1690.551 6        38.036                                    24782198.942 3 101479002.29903      1317.284 3        18.507
G25         2.000    19831393.435 8 104214812.53608      -813.357 8        49.573                                    19831396.977 8  81206433.65608      -633.785 8        50.247    19831397.537 7  81206443.65907      -633.760 7        45.187
G24         3.000    25414564.387 4 133554265.80504     -4536.962 4        27.665                                    25414578.412 2 104068245.72202     -3535.307 2        13.030    25414579.917 4 104068242.71704     -3534.823 4        28.588
G29         4.000    21064844.441 8 110696765.05608      1242.923 8        48.855                                    21064847.142 8  86257358.18608       968.506 8        49.033    21064847.741 7  86257361.19507       968.517 7        44.764
S21         5.000    38471602.571 7 202169226.02707      -627.299 7        43.424
G06         6.000    24490884.252 6 128700662.82006     -3568.340 6        38.739                                    24490886.728 5 100286342.13105     -2780.551 5        31.758    24490886.762 6 100286333.17406     -2780.575 6        36.185
E19         7.000    26845966.600 5 141076418.60205        37.199 5        34.352                                                                    26845980.442 6 105349265.25906        27.998 6        37.335    26845978.494 6 108097509.93406        28.682 6        38.249
E15         8.000    26163965.882 7 137492722.17607      2416.818 7        43.139                                                                    26163979.398 7 102673257.93607      1804.795 7        45.944    26163977.377 7 105351672.59507      1851.796 7        46.252
G11         9.000    22507390.726 7 118277334.47207     -1537.137 7        45.469                                    22507393.699 5  92164264.67005     -1197.774 5        34.181    22507393.449 7  92164264.67907     -1197.830 7        45.044
E30        10.000    23991075.420 8 126074105.27508     -1547.443 8        48.405                                                                    23991081.303 8  94146359.00708     -1155.636 8        50.830    23991080.205 8  96602339.36808     -1185.737 8        51.117
S27        12.000    39269440.589 6 206362091.55806      -631.514 6        36.662
R15        13.000    20734059.769 8 110796715.76308      2247.552 8        50.737                                                                    20734067.116 7  86175336.30107      1748.092 7        46.024
S36        14.000    38243968.700 7 200973754.32707      -627.485 7        45.126
G12        15.000    21719944.527 7 114139213.58507     -3041.306 7        47.084                                    21719945.686 7  88939720.42707     -2369.850 7        45.594    21719945.759 7  88939720.42507     -2369.846 7        42.739
E29        16.000    26309308.219 7 138256235.96607     -2128.027 7        42.154                                                                    26309323.397 7 103243289.76107     -1588.971 7        44.542    26309321.674 7 105936592.42107     -1630.440 7        44.912
S45        17.000    63446588.078 6 333414591.26506      -691.074 6        36.295
G31        18.000    23615585.349 6 124100834.99406      2551.005 6        40.338                                    23615595.365 5  96702051.11405      1987.771 5        35.700    23615596.355 6  96702030.15606      1987.688 6        38.559
C35        19.000                                                                                                                                    26142957.797 6 136133436.73906     -3809.749 6        39.631                                                                    26142958.956 6 110619657.17706     -3095.681 6        39.465
E21        20.000    28573731.725 6 150155974.56706      1876.486 6        36.102                                                                    28573759.505 6 112129567.80806      1401.375 6        37.724    28573756.042 6 115054674.56406      1437.850 6        37.928
R14        21.000    19323838.736 8 103007049.39008     -1207.427 8        51.956                                                                    19323844.168 7  80116675.28007      -939.106 7        47.524
I06        22.000    38656059.765 7 151694697.95807      -544.500 7        42.538
S28        23.000    40948629.529 5 215186318.52505      -630.967 5        34.181
E34        24.000    24677002.375 7 129678745.42307       224.655 7        46.499                                                                    24677009.733 8  96838184.76308       167.760 8        48.783    24677008.632 8  99364381.17808       172.090 8        49.359
S23        25.000    38189206.956 7 200685457.00507      -632.065 7        45.663
C13        26.000                                                                                                                                    40401194.365 6 210379649.05706      1495.225 6        39.243    40401205.866 6 162678956.89106      1156.300 6        40.167    40401201.997 6 170950749.64706      1214.903 6        38.123
C07        27.000                                                                                                                                    41459783.597 5 215892007.61505     -1467.296 5        34.300    41459782.528 6 166941415.90906     -1134.507 6        37.369    41459779.934 5 175429946.33705     -1192.351 5        34.748
R24        28.000    19418324.098 8 103838773.26808      -233.795 8        51.854                                                                    19418328.266 7  80763652.88907      -181.911 7        46.595
I02        29.000    37468395.529 7 147034011.76707      -799.717 7        42.681
G28        30.000    21931827.534 7 115252618.65107      1327.369 7        45.341                                    21931831.872 5  89807306.55505      1034.307 5        34.843    21931832.289 7  89807303.56707      1034.306 7        45.834
E07        31.000    27686074.439 6 145491042.10506     -3602.920 6        38.634                                                                    27686097.274 6 108645849.60206     -2690.624 6        41.273    27686094.635 6 111480093.68906     -2760.746 6        41.838
C12        32.000                                                                                                                                    21916767.084 8 114126552.18908      -575.280 8        48.741    21916768.656 8  88249996.95208      -444.902 8        52.364    21916766.845 8  92737248.40608      -467.482 8        49.876
R17        33.000    21633642.367 8 115766186.88608      3407.138 8        48.330                                                                    21633652.382 7  90040491.72007      2649.964 7        44.855
R23        34.000    22127555.312 7 118367644.11407     -4365.139 7        44.060
C24        35.000                                                                                                                                    22649554.238 8 117942202.43808     -2834.582 8        49.378                                                                    22649556.192 8  95837720.87108     -2303.341 8        48.686
R05        36.000    23586682.377 7 126084146.21507     -3758.354 7        43.547                                                                    23586700.939 6  98065434.55906     -2923.108 6        40.145
E27        37.000    24311128.324 7 127755969.55307       799.980 7        47.156                                                                    24311136.318 8  95402305.37008       597.377 8        50.001    24311135.034 8  97891045.01308       612.985 8        50.452
R06        39.000    23507174.996 5 125438759.87505      -399.262 5        35.029
C32        40.000                                                                                                                                    27193650.629 6 141604218.20206     -2270.012 6        37.622                                                                    27193669.187 6 115065005.00106     -1844.540 6        38.441
C34        41.000                                                                                                                                    22025419.201 8 114692371.81708      1138.645 8        50.834                                                                    22025424.025 8  93197064.44408       925.213 8        48.885
S44        42.000    40707937.245 6 213921648.63906      -545.004 6        38.084
C38        43.000                                                                                                                                    39963594.215 6 208100949.75306      1017.241 6        41.540                                                                    39963597.546 6 169099104.29406       826.652 6        40.753
C05        44.000                                                                                                                                    39481117.241 6 205588401.89006      -591.875 6        37.928    39481123.593 7 158973972.69807      -457.770 7        43.183    39481122.671 6 167057484.27906      -480.982 6        39.453
C08        45.000                                                                                                                                    40165738.452 6 209153573.02906      1525.419 6        37.709    40165741.167 7 161730845.65407      1179.643 7        42.152    40165739.001 6 169954430.10006      1239.591 6        40.198
G32        46.000    24051944.807 7 126393644.53807     -3069.893 7        42.254                                    24051959.656 6  98488535.18206     -2392.115 6        36.140    24051960.329 6  98488537.16706     -2392.198 6        38.057
E36        47.000    26781540.603 6 140738087.97306     -2508.710 6        40.191                                                                    26781548.659 7 105096753.64507     -1873.309 7        42.889    26781547.490 7 107838389.41707     -1922.117 7        43.841
C43        48.000                                                                                                                                    25412735.714 6 132330838.98306      2737.371 6        41.986                                                                    25412746.726 6 107529716.81506      2224.304 6        41.223
C10        49.000                                                                                                                                    40231563.662 6 209496307.94006     -1329.659 6        36.692    40231569.327 6 161995847.90406     -1028.195 6        40.074    40231565.291 6 170232912.17706     -1080.498 6        37.879
C44        50.000                                                                                                                                    22388813.708 8 116584468.18708     -2168.009 8        49.017                                                                    22388816.550 8  94734462.29408     -1761.704 8        48.445
S48        51.000    77185199.752 6 405611653.91706      -653.759 6        38.420
E02        53.000    27316159.648 6 143547380.86406     -3029.079 6        39.105                                                                    27316170.952 6 107194522.84706     -2262.001 6        41.290    27316169.834 7 109990886.36007     -2321.056 7        43.795
C60        54.000                                                                                                                                    40707934.762 6 211976924.18306      -539.798 6        38.580                                                                    40707928.964 6 172248546.47106      -438.783 6        40.679
C25        55.000                                                                                                                                    21591766.653 8 112434116.64408       199.123 8        51.144                                                                    21591769.209 8  91361992.67708       161.793 8        49.384
C23        56.000                                                                                                                                    25375395.512 7 132136442.93207      2330.482 7        42.838                                                                    25375400.202 7 107371740.93007      1893.616 7        44.114
C02        57.000                                                                                                                                    40906806.808 5 213012351.07305      -545.862 5        33.485    40906809.904 6 164714612.13606      -422.130 6        40.248    40906810.494 5 173089952.03605      -443.467 5        35.205
I03        58.000   117251746.100 6 384335559.31606       943.671 6        37.040
C11        59.000                                                                                                                                    23606552.505 7 122925660.84307      2296.873 7        45.986    23606559.893 8  95054028.27008      1776.094 8        49.909    23606555.364 7  99887245.22307      1866.437 7        46.818
R13        60.000    22960571.380 6 122608150.47206     -4230.534 6        38.928
> 2025 01 01 14 45 20.0000000  0 57
G20         1.000    24780586.659 6 130222897.92906      1688.482 6        37.924                                    24780591.644 3 101472419.94703      1315.687 3        18.149
G25         2.000    19832168.910 8 104218886.48808      -816.109 8        49.554                                    19832172.226 8  81209608.16508      -635.929 8        50.446    19832173.004 7  81209618.17007      -635.913 7        44.957
G24         3.000    25418878.919 4 133576949.24304     -4536.627 4        28.815                                    25418895.043 2 104085921.06102     -3535.026 2        12.970    25418895.048 4 104085918.10404     -3535.377 4        28.483
G29         4.000    21063663.215 8 110690557.37008      1240.235 8        48.887                                    21063665.838 8  86252521.05108       966.414 8        49.228    21063666.182 7  86252524.05807       966.463 7        44.731
S21         5.000    38472201.330 7 202172363.80107      -627.754 7        43.630
G06         6.000    24494280.464 6 128718510.36706     -3570.561 6        38.243                                    24494282.774 5 100300249.45605     -2782.284 5        31.947    24494282.987 6 100300240.51906     -2782.394 6        36.102
