     3.04           OBSERVATION DATA    M                   RINEX VERSION / TYPE
ssrcrin-15.6.1x                         20250101 221500 UTC PGM / RUN BY / DATE 
(00000000023479385599111004) Septentrio proprietary         COMMENT             
rref                                                        MARKER NAME         
01                                                          MARKER NUMBER       
geodetic                                                    MARKER TYPE         
NFB                 CLIMERS@TUW                             OBSERVER / AGENCY   
3297213             SEPT ASTERX SB3 PROB4.14.4              REC # / TYPE / VERS 
Unknown             Unknown                                 ANT # / TYPE        
  4127832.0040  1207193.7693  4695247.5360                  APPROX POSITION XYZ 
        0.0000        0.0000        0.0000                  ANTENNA: DELTA H/E/N
G   23 X1  C1C L1C D1C S1C C1W S1W C2W L2W D2W S2W C2L L2L  SYS / # / OBS TYPES 
       D2L S2L C5Q L5Q D5Q S5Q C1L L1L D1L S1L              SYS / # / OBS TYPES 
E   21 X1  C1C L1C D1C S1C C6C L6C D6C S6C C5Q L5Q D5Q S5Q  SYS / # / OBS TYPES 
       C7Q L7Q D7Q S7Q C8Q L8Q D8Q S8Q                      SYS / # / OBS TYPES 
S    9 X1  C1C L1C D1C S1C C5I L5I D5I S5I                  SYS / # / OBS TYPES 
R   17 X1  C1C L1C D1C S1C C2P L2P D2P S2P C2C L2C D2C S2C  SYS / # / OBS TYPES 
       C3Q L3Q D3Q S3Q                                      SYS / # / OBS TYPES 
C   25 X1  C1P L1P D1P S1P C5P L5P D5P S5P C2I L2I D2I S2I  SYS / # / OBS TYPES 
       C7I L7I D7I S7I C6I L6I D6I S6I C7D L7D D7D S7D      SYS / # / OBS TYPES 
J   17 X1  C1C L1C D1C S1C C2L L2L D2L S2L C5Q L5Q D5Q S5Q  SYS / # / OBS TYPES 
       C1L L1L D1L S1L                                      SYS / # / OBS TYPES 
I    5 X1  C5A L5A D5A S5A                                  SYS / # / OBS TYPES 
SEPTENTRIO RECEIVERS OUTPUT ALIGNED CARRIER PHASES.         COMMENT             
NO FURTHER PHASE SHIFT APPLIED IN THE RINEX ENCODER.        COMMENT             
G L1C                                                       SYS / PHASE SHIFT   
G L2W                                                       SYS / PHASE SHIFT   
G L2L  0.00000                                              SYS / PHASE SHIFT   
G L5Q  0.00000                                              SYS / PHASE SHIFT   
G L1L  0.00000                                              SYS / PHASE SHIFT   
E L1C  0.00000                                              SYS / PHASE SHIFT   
E L6C  0.00000                                              SYS / PHASE SHIFT   
E L5Q  0.00000                                              SYS / PHASE SHIFT   
E L7Q  0.00000                                              SYS / PHASE SHIFT   
E L8Q  0.00000                                              SYS / PHASE SHIFT   
S L1C                                                       SYS / PHASE SHIFT   
S L5I                                                       SYS / PHASE SHIFT   
R L1C                                                       SYS / PHASE SHIFT   
R L2P  0.00000                                              SYS / PHASE SHIFT   
R L2C                                                       SYS / PHASE SHIFT   
R L3Q  0.00000                                              SYS / PHASE SHIFT   
C L1P  0.00000                                              SYS / PHASE SHIFT   
C L5P  0.00000                                              SYS / PHASE SHIFT   
C L2I                                                       SYS / PHASE SHIFT   
C L7I                                                       SYS / PHASE SHIFT   
C L6I                                                       SYS / PHASE SHIFT   
C L7D                                                       SYS / PHASE SHIFT   
J L1C                                                       SYS / PHASE SHIFT   
J L2L  0.00000                                              SYS / PHASE SHIFT   
J L5Q  0.00000                                              SYS / PHASE SHIFT   
J L1L  0.00000                                              SYS / PHASE SHIFT   
I L5A                                                       SYS / PHASE SHIFT   
  2025     1     1    22    15    0.0000000     GPS         TIME OF FIRST OBS   
 C1C    0.000 C2C    0.000 C2P    0.000                     GLONASS COD/PHS/BIS 
DBHZ                                                        SIGNAL STRENGTH UNIT
    18                                                      LEAP SECONDS        
 24 R01  1 R02 -4 R03  5 R04  6 R05  1 R06 -4 R07  5 R08  6 GLONASS SLOT / FRQ #
    R09 -2 R10 -7 R11  0 R12 -1 R13 -2 R14 -7 R15  0 R16 -1 GLONASS SLOT / FRQ #
    R17  4 R18 -3 R19  3 R20  2 R21  4 R22 -3 R23  3 R24  2 GLONASS SLOT / FRQ #
                                                            END OF HEADER       
> 2025 01 01 22 15  0.0000000  0 51
G10         1.000    21973399.530 8 115471096.57008     -2740.306 8        48.388                                    21973397.346 7  89977540.23907     -2135.304 7        47.572    21973397.089 7  89977517.25207     -2135.381 7        43.592
G14         2.000    24321715.913 6 127811513.37706       848.997 6        39.979                                    24321712.762 4  99593385.73104       661.552 4        24.391    24321712.997 6  99593381.72706       661.750 6        39.775
C33         3.000                                                                                                                                    23220402.143 8 120914757.49008     -2029.283 8        49.149                                                                    23220413.204 8  98253204.77708     -1648.989 8        49.147
E31         4.000    26146516.251 7 137400917.16007      -952.722 7        43.075                                                                    26146516.377 7 102604593.78307      -711.482 7        44.906    26146515.993 7 105281231.82207      -730.053 7        45.657
S21         5.000    38616488.051 7 202930746.29107      -506.579 7        42.159
E13         6.000    26131552.325 7 137322574.72307     -2599.007 7        43.304                                                                    26131553.006 7 102546283.90707     -1940.723 7        45.205    26131552.697 7 105221374.14707     -1991.418 7        46.368
G23         7.000    25096690.184 6 131884107.00606     -3984.959 6        37.921                                    25096687.161 3 102766870.28303     -3105.179 3        19.015    25096687.359 6 102766869.29606     -3105.312 6        36.310
G03         8.000    24778019.596 6 130209419.93206      3203.523 6        38.297                                    24778019.367 4 101461915.11704      2496.245 4        29.640    24778021.252 5 101461913.16205      2496.349 5        34.948
G02         9.000    22328834.795 7 117338870.41107      1571.496 7        47.009                                    22328828.281 5  91432880.56005      1224.539 5        35.371
R12        10.000    23641007.176 7 126286031.92607       717.154 7        44.596                                                                    23641006.818 6  98222499.52006       557.796 6        41.473
C30        11.000                                                                                                                                    24792128.719 7 129099131.00007      2340.750 7        44.286                                                                    24792129.168 7 104903620.96207      1902.114 7        43.970
S27        12.000    39304452.275 5 206546315.33805      -476.104 5        34.633
R20        13.000    19589728.231 6 104755131.81206      -205.298 6        39.252                                                                    19589729.599 7  81476280.91807      -159.652 7        47.210
S36        14.000    38384950.891 7 201714791.35007      -505.679 7        43.528
G27        15.000    22283436.538 7 117100523.29507     -3681.680 7        46.019                                    22283434.264 7  91247317.61207     -2868.839 7        46.385    22283435.149 7  91247231.60807     -2868.891 7        43.010
S45        17.000    63592085.375 6 334178681.35706      -548.575 6        37.554
E08        18.000    26238013.862 7 137881740.98907     -1304.798 7        43.372                                                                    26238012.019 7 102963641.53307      -974.424 7        45.105    26238011.715 7 105649645.05907      -999.782 7        45.859
E26        21.000    23553270.679 8 123773621.90308      -678.896 8        48.139                                                                    23553268.380 8  92428551.32308      -506.954 8        50.481    23553268.081 8  94839706.45908      -520.211 8        51.258
I06        22.000    38633349.106 6 151605788.55606      -274.601 6        41.800
S28        23.000    41071340.519 5 215831345.12605      -498.169 5        33.772
G08        24.000    20676736.198 8 108656998.05308     -1733.080 8        50.452                                    20676734.050 8  84667791.63608     -1350.452 8        50.621    20676735.124 7  84667792.63807     -1350.452 7        45.521
S23        25.000    38339419.364 7 201474986.57007      -504.222 7        44.480
C13        26.000                                                                                                                                    40059080.332 6 208598336.59006     -1466.596 6        39.438    40059082.374 6 161301575.30106     -1134.044 6        41.046    40059080.244 6 169503321.22506     -1191.860 6        38.712
E24        27.000    28719393.817 6 150921452.71106      1370.767 6        37.278                                                                    28719393.845 6 112701093.02106      1023.647 6        40.980    28719392.701 6 115641118.59106      1050.377 6        41.464
R21        29.000    21960842.296 7 117516905.80207      2748.522 7        47.191                                                                    21960841.476 7  91402040.00907      2137.707 7        43.175
C14        30.000                                                                                                                                    24950692.126 7 129924833.98107     -3238.881 7        42.440    24950688.094 7 100466119.30207     -2504.514 7        47.079    24950687.014 7 105574557.43507     -2631.948 7        44.521
R05        31.000    19778282.808 8 105726294.89808      1127.821 8        52.605                                                                    19778281.304 7  82231572.80707       877.182 7        47.980
E29        33.000    27832602.786 6 146261356.11706      2670.370 6        38.291                                                                    27832603.809 6 109221145.08306      1994.166 6        41.592    27832603.465 7 112070388.28207      2046.123 7        42.978
C32        36.000                                                                                                                                    26102080.800 7 135920401.46607      3003.632 7        42.186                                                                    26102081.758 7 110446473.34407      2440.682 7        42.197
G32        37.000    22308999.652 7 117234623.62807       865.919 7        47.585                                    22308997.609 7  91351656.45107       674.738 7        47.236    22308998.244 7  91351665.46007       674.699 7        44.262
E07        38.000    25387522.970 7 133412348.30907      1388.822 7        44.415                                                                    25387523.391 7  99626141.01507      1037.159 7        47.901    25387523.143 8 102225076.34608      1064.203 8        48.443
C41        39.000                                                                                                                                    22601190.922 8 117690361.96408      1104.271 8        50.797                                                                    22601195.817 8  95633088.59808       897.261 8        49.765
C39        40.000                                                                                                                                    40970268.955 6 213342963.45406      1306.351 6        38.697                                                                    40970265.775 6 173358627.32806      1061.475 6        40.369
E33        41.000    25207676.201 7 132467319.29207      1335.568 7        44.676                                                                    25207674.308 7  98920433.18807       997.363 7        47.713    25207674.090 8 101500962.22408      1023.338 8        48.551
S44        42.000    40666431.984 6 213703722.58606      -540.538 6        37.399
R06        43.000    23759593.709 5 126785754.54105      4066.472 5        35.100
C05        44.000                                                                                                                                    39336722.824 6 204836669.78606      -460.693 6        38.712    39336716.950 7 158392729.84507      -356.148 7        42.671    39336719.257 6 166446675.78106      -374.377 6        39.679
C08        45.000                                                                                                                                    40802958.623 5 212471898.52505     -1600.740 5        34.719    40802954.795 6 164296822.01506     -1237.756 6        41.137    40802953.545 5 172650870.77705     -1300.719 5        35.176
R11        46.000    23111408.543 7 123500370.62707     -2878.226 7        45.386                                                                    23111406.574 6  96055846.42206     -2238.534 6        41.678
R19        47.000    22643717.744 6 121128981.19006     -3681.176 6        37.195                                                                    22643718.214 6  94211594.13706     -2863.115 6        39.264
I05        49.000  -496613257.212 6-873031887.64206       312.487 6        37.369
C42        50.000                                                                                                                                    27325077.712 5 142288867.41805     -3787.863 5        32.856                                                                    27325086.802 5 115621402.60905     -3077.853 5        35.662
S48        51.000    77371566.954 6 406591661.41706      -529.675 6        37.754
G21        52.000    21005812.464 7 110386361.90207       382.103 7        46.080                                    21005807.173 6  86015368.66306       297.745 6        37.376
C60        54.000                                                                                                                                    40666431.039 6 211760980.91506      -535.676 6        40.329                                                                    40666414.836 6 172073112.85306      -435.258 6        40.689
C27        55.000                                                                                                                                    21692597.786 8 112959068.31708       253.186 8        51.416                                                                    21692596.074 8  91788499.95008       205.652 8        49.459
R04        56.000    20842106.137 8 111608552.98908     -3001.191 8        50.193                                                                    20842104.227 7  86806645.67007     -2334.301 7        46.044
C02        57.000                                                                                                                                    40701017.345 5 211940926.50505      -491.626 5        33.952    40701011.010 6 163886162.69306      -380.048 6        40.849    40701014.323 6 172219367.16406      -399.419 6        36.215
I03        58.000   107565695.565 6 346325656.39106       986.866 6        39.447
C36        59.000                                                                                                                                    26710733.725 6 139089807.62606     -1965.138 6        38.880                                                                    26710738.731 6 113021892.84606     -1596.983 6        40.288
C28        60.000                                                                                                                                    22505484.255 8 117192276.57308     -2297.668 8        49.787                                                                    22505482.969 8  95228460.20608     -1867.078 8        48.335
> 2025 01 01 22 15  5.0000000  0 51
G10         1.000    21976007.562 8 115484801.57308     -2741.790 8        48.552                                    21976005.330 7  89988219.46707     -2136.460 7        47.525    21976005.353 7  89988196.47207     -2136.398 7        43.755
G14         2.000    24320908.715 6 127807273.88606       846.479 6        38.955                                    24320905.987 4  99590082.23104       659.591 4        24.135    24320906.371 6  99590078.24006       659.531 6        39.658
C33         3.000                                                                                                                                    23222351.462 8 120924908.71708     -2031.417 8        49.261                                                                    23222362.657 8  98261453.49608     -1650.723 8        49.261
E31         4.000    26147423.829 7 137405685.84907      -954.905 7        42.872                                                                    26147423.833 7 102608154.83207      -713.095 7        45.020    26147423.482 7 105284885.77007      -731.753 7        45.704
S21         5.000    38616968.925 7 202933278.13007      -506.273 7        42.093
E13         6.000    26134025.272 7 137335569.48307     -2599.214 7        42.819                                                                    26134025.823 7 102555987.78507     -1940.952 7        45.404    26134025.557 7 105231331.16907     -1991.577 7        46.473
G23         7.000    25100481.657 6 131904031.73306     -3984.952 6        37.595                                    25100478.597 3 102782396.03803     -3105.170 3        19.284    25100479.429 6 102782395.01906     -3105.030 6        37.047
G03         8.000    24774970.620 6 130193402.96006      3203.162 6        38.411                                    24774971.410 4 101449434.41004      2495.957 4        29.706    24774972.545 5 101449432.44605      2496.075 5        34.952
G02         9.000    22327339.512 7 117331014.18707      1570.835 7        46.765                                    22327333.270 5  91426758.83105      1224.030 5        35.367
R12        10.000    23640336.704 7 126282454.96307       713.417 7        44.507                                                                    23640337.263 6  98219717.43606       554.882 6        41.218
C30        11.000                                                                                                                                    24789881.014 7 129087426.75007      2340.590 7        44.658                                                                    24789881.619 7 104894110.33207      1901.843 7        44.125
S27        12.000    39304905.492 5 206548694.55905      -475.683 5        34.319
R20        13.000    19589921.775 6 104756163.38106      -207.536 6        38.982                                                                    19589922.626 7  81477083.24307      -161.433 7        47.218
S36        14.000    38385432.704 7 201717319.47907      -505.508 7        43.621
G27        15.000    22286939.975 7 117118934.95707     -3683.214 7        47.021                                    22286937.991 7  91261664.35807     -2870.037 7        46.461    22286938.727 7  91261578.36207     -2869.948 7        43.208
S45        17.000    63592560.261 6 334181422.45806      -548.075 6        37.456
E08        18.000    26239256.237 7 137888269.99007     -1306.970 7        42.808                                                                    26239254.375 7 102968517.08607      -975.955 7        45.065    26239253.992 7 105654647.80507     -1001.467 7        45.901
E26        21.000    23553916.798 8 123777017.86908      -679.746 8        48.131                                                                    23553914.629 8  92431087.27808      -507.640 8        50.472    23553914.314 8  94842308.56308      -520.842 8        51.231
I06        22.000    38633698.536 6 151607160.54906      -274.410 6        41.750
S28        23.000    41071812.557 5 215833836.13205      -498.101 5        33.395
G08        24.000    20678386.345 8 108665669.77508     -1735.769 8        50.261                                    20678384.217 8  84674548.82108     -1352.548 8        50.582    20678384.988 7  84674549.82807     -1352.626 7        45.243
S23        25.000    38339897.421 7 201477506.43007      -504.016 7        44.351
C13        26.000                                                                                                                                    40060488.638 6 208605668.15706     -1466.214 6        39.691    40060490.394 6 161307244.52906     -1133.724 6        40.722    40060488.421 6 169509278.71706     -1191.437 6        38.276
E24        27.000    28718090.375 6 150914601.95606      1369.444 6        37.172                                                                    28718090.304 6 112695977.22206      1022.474 6        41.313    28718088.828 6 115635869.35206      1049.116 6        41.487
R21        29.000    21958274.372 7 117503163.83807      2747.990 7        47.084                                                                    21958273.322 7  91391351.80207      2137.485 7        42.832
C14        30.000                                                                                                                                    24953802.412 7 129941030.81107     -3240.074 7        42.555    24953798.583 7 100478643.71607     -2505.464 7        46.984    24953797.362 7 105587718.68707     -2632.870 7        44.495
R05        31.000    19777229.623 8 105720665.44108      1123.796 8        52.551                                                                    19777228.204 7  82227194.33807       874.003 7        47.576
E29        33.000    27830061.702 6 146248002.99806      2670.589 6        38.213                                                                    27830062.939 6 109211173.65006      1994.348 6        41.642    27830062.323 7 112060156.72207      2046.323 7        43.067
C32        36.000                                                                                                                                    26099196.743 7 135905383.63007      3003.375 7        42.599                                                                    26099197.720 7 110434270.19707      2440.265 7        42.144
G32        37.000    22308176.816 7 117230299.66907       863.367 7        47.973                                    22308174.758 7  91348287.13807       672.754 7        47.157    22308175.107 7  91348296.13807       672.692 7        43.746
E07        38.000    25386202.223 7 133405407.51507      1387.342 7        44.062                                                                    25386202.516 7  99620957.96507      1035.983 7        47.872    25386202.353 8 102219758.08108      1063.003 8        48.469
C41        39.000                                                                                                                                    22600131.358 8 117684845.72908      1102.049 8        50.778                                                                    22600136.506 8  95628606.22108       895.452 8        49.833
C39        40.000                                                                                                                                    40969014.659 6 213336431.84706      1306.013 6        38.664                                                                    40969011.388 6 173353319.86406      1061.154 6        40.615
E33        41.000    25206405.667 7 132460641.87407      1335.119 7        44.703                                                                    25206403.646 7  98915446.80807       997.029 7        47.743    25206403.431 8 101495845.76008      1023.075 8        48.550
S44        42.000    40666943.332 6 213706424.34706      -540.417 6        37.361
R06        43.000    23755782.826 5 126765422.66405      4065.993 5        34.824
C05        44.000                                                                                                                                    39337165.072 6 204838972.31406      -460.395 6        39.081    39337159.475 7 158394510.31607      -356.124 7        42.705    39337161.420 6 166448546.79306      -374.283 6        39.958
C08        45.000                                                                                                                                    40804495.971 5 212479900.32905     -1600.211 5        35.219    40804491.091 6 164303009.49806     -1237.255 6        40.801    40804490.217 5 172657372.89005     -1300.297 5        35.381
R11        46.000    23114102.313 7 123514768.60007     -2881.094 7        44.393                                                                    23114100.737 6  96067044.85206     -2240.939 6        41.766
R19        47.000    22647159.778 6 121147389.76906     -3682.623 6        36.775                                                                    22647159.731 6  94225911.90806     -2863.961 6        39.453
I05        49.000  -496613655.096 6-873033450.29006       312.426 6        37.618
C42        50.000                                                                                                                                    27328714.220 5 142307805.70105     -3788.093 5        32.156                                                                    27328723.506 5 115636791.53305     -3077.949 5        34.738
S48        51.000    77372049.738 6 406594308.37106      -529.345 6        37.777
G21        52.000    21005449.840 7 110384454.45007       380.746 7        46.014                                    21005444.225 6  86013882.33406       296.685 6        37.448
C60        54.000                                                                                                                                    40666944.949 6 211763658.11306      -535.419 6        40.400                                                                    40666928.893 6 172075288.31106      -434.942 6        40.729
C27        55.000                                                                                                                                    21692355.326 8 112957806.06108       251.555 8        51.344                                                                    21692353.762 8  91787474.27908       204.329 8        49.480
R04        56.000    20844909.749 8 111623566.93108     -3004.570 8        50.025                                                                    20844908.152 7  86818323.17307     -2336.842 7        46.347
C02        57.000                                                                                                                                    40701488.792 5 211943383.07005      -491.470 5        33.838    40701482.829 6 163888062.27006      -379.882 6        40.636    40701486.039 6 172221363.32406      -399.167 6        36.510
I03        58.000   107564438.171 6 346320721.71406       986.900 6        39.459
C36        59.000                                                                                                                                    26712620.594 6 139099637.59806     -1966.936 6        38.787                                                                    26712626.192 6 113029880.51206     -1598.359 6        40.374
C28        60.000                                                                                                                                    22507691.050 8 117203768.21708     -2299.150 8        49.925                                                                    22507689.883 8  95237798.12608     -1868.305 8        48.433
> 2025 01 01 22 15 10.0000000  0 51
G10         1.000    21978617.030 8 115498514.48608     -2743.412 8        48.164                                    21978614.799 7  89998904.85607     -2137.721 7        47.596    21978614.800 7  89998881.86007     -2137.724 7        43.539
G14         2.000    24320104.890 6 127803048.71906       843.502 6        39.898                                    24320101.936 4  99586789.90704       657.282 4        24.346    24320101.702 6  99586785.91106       657.463 6        40.310
C33         3.000                                                                                                                                    23224303.172 8 120935071.62208     -2033.777 8        49.236                                                                    23224314.375 8  98269711.66908     -1652.654 8        49.245
E31         4.000    26148333.946 7 137410466.43707      -957.288 7        42.574                                                                    26148333.523 7 102611724.74607      -714.847 7        44.907    26148333.107 7 105288548.81707      -733.494 7        45.693
S21         5.000    38617450.326 6 202935809.63306      -506.242 6        41.983
E13         6.000    26136498.306 7 137348566.51707     -2599.601 7        42.610                                                                    26136499.075 7 102565693.36507     -1941.213 7        45.231    26136498.796 7 105241289.94107     -1991.930 7        46.312
G23         7.000    25104273.390 6 131923956.73806     -3985.196 6        37.403                                    25104270.143 3 102797922.01103     -3105.332 3        18.985    25104271.032 6 102797921.00006     -3105.419 6        37.149
G03         8.000    24771923.576 6 130177388.53906      3202.745 6        38.423                                    24771924.044 4 101436955.70504      2495.629 4        29.706    24771925.378 5 101436953.73005      2495.606 5        35.433
G02         9.000    22325845.372 7 117323162.73007      1569.804 7        46.834                                    22325839.144 5  91420640.81505      1223.227 5        35.414
R12        10.000    23639670.698 7 126278897.77507       709.413 7        43.674                                                                    23639671.552 6  98216950.74206       551.837 6        41.728
C30        11.000                                                                                                                                    24787633.676 7 129075725.16507      2340.026 7        44.500                                                                    24787634.451 7 104884601.80707      1901.439 7        44.111
S27        12.000    39305355.735 5 206551073.27705      -475.776 5        34.519
R20        13.000    19590116.657 6 104757207.08006      -210.063 6        39.405                                                                    19590117.913 7  81477895.01007      -163.273 7        47.084
S36        14.000    38385916.024 7 201719847.31307      -505.677 7        43.329
G27        15.000    22290445.514 7 117137354.90807     -3684.812 7        46.891                                    22290443.314 7  91276017.56607     -2871.283 7        46.530    22290443.696 7  91275931.57507     -2871.290 7        43.549
S45        17.000    63593041.166 6 334184163.37806      -548.347 6        37.327
E08        18.000    26240500.720 7 137894810.70107     -1309.359 7        42.466                                                                    26240499.050 7 102973401.38407      -977.768 7        44.928    26240498.690 7 105659659.51507     -1003.303 7        45.637
E26        21.000    23554564.067 7 123780418.83007      -680.714 7        47.849                                                                    23554561.823 8  92433626.95608      -508.305 8        50.398    23554561.522 8  94844914.49908      -521.587 8        51.215
I06        22.000    38634048.600 6 151608532.30506      -274.396 6        41.676
S28        23.000    41072286.665 5 215836326.85505      -498.303 5        33.557
G08        24.000    20680039.052 8 108674355.97808     -1738.640 8        50.234                                    20680037.152 8  84681317.28808     -1354.786 8        50.636    20680037.978 7  84681318.29107     -1354.823 7        45.499
S23        25.000    38340377.172 7 201480026.09107      -503.974 7        44.141
C13        26.000                                                                                                                                    40061896.597 6 208612998.63606     -1465.963 6        39.850    40061897.793 6 161312912.91706     -1133.578 6        40.958    40061896.208 6 169515235.30506     -1191.195 6        38.601
E24        27.000    28716788.423 6 150907760.08806      1367.450 6        37.312                                                                    28716788.186 6 112690868.02906      1021.164 6        41.323    28716787.086 6 115630626.87006      1047.794 6        41.516
R21        29.000    21955707.033 7 117489425.19807      2747.308 7        47.105                                                                    21955706.178 7  91380666.21007      2136.788 7        42.315
C14        30.000                                                                                                                                    24956914.447 7 129957234.60307     -3241.453 7        42.590    24956910.220 7 100491173.49807     -2506.500 7        46.965    24956908.968 7 105600885.56607     -2634.013 7        44.340
R05        31.000    19776180.076 8 105715057.18808      1119.481 8        52.341                                                                    19776178.754 7  82222832.37607       870.695 7        47.626
E29        33.000    27827520.534 6 146234649.36106      2670.730 6        38.135                                                                    27827521.693 6 109201201.84506      1994.393 6        41.738    27827521.158 7 112049924.77407      2046.430 7        42.899
C32        36.000                                                                                                                                    26096312.691 7 135890367.96807      3002.811 7        42.354                                                                    26096314.066 7 110422068.74407      2440.129 7        42.032
G32        37.000    22307356.884 7 117225989.83907       860.602 7        47.874                                    22307354.605 7  91344928.83207       670.599 7        47.213    22307355.173 7  91344937.83207       670.589 7        43.731
E07        38.000    25384883.394 7 133398475.99807      1385.392 7        44.020                                                                    25384883.635 7  99615781.84507      1034.527 7        47.767    25384883.404 8 102214446.93008      1061.555 8        48.455
C41        39.000                                                                                                                                    22599074.509 8 117679341.66908      1099.592 8        50.693                                                                    22599079.475 8  95624133.70608       893.479 8        49.915
C39        40.000                                                                                                                                    40967760.826 6 213329902.83806      1305.575 6        38.748                                                                    40967757.437 6 173348014.49606      1060.931 6        40.648
E33        41.000    25205135.508 7 132453967.07907      1334.673 7        44.498                                                                    25205133.554 7  98910462.38607       996.638 7        47.539    25205133.214 8 101490731.31308      1022.699 8        48.492
S44        42.000    40667458.593 6 213709125.97606      -540.403 6        37.104
R06        43.000    23751972.994 5 126745093.18805      4065.667 5        34.919
C05        44.000                                                                                                                                    39337607.530 6 204841274.66606      -460.481 6        38.724    39337601.500 7 158396290.65307      -356.034 7        42.700    39337603.588 6 166450417.62006      -374.123 6        39.904
C08        45.000                                                                                                                                    40806033.145 5 212487900.59105     -1599.819 5        35.133    40806027.410 6 164309195.80606     -1237.214 6        40.737    40806026.664 5 172663873.74405     -1300.145 5        35.581
R11        46.000    23116800.071 7 123529182.28207     -2884.308 7        44.787                                                                    23116798.596 7  96078255.49507     -2243.286 7        42.544
R19        47.000    22650602.127 6 121165804.75406     -3683.389 6        36.484                                                                    22650601.597 6  94240234.70806     -2865.004 6        39.399
I05        49.000  -496614053.659 6-873035012.44106       312.321 6        37.153
C42        50.000                                                                                                                                    27332351.815 5 142326745.76105     -3788.052 5        32.012                                                                    27332360.868 5 115652181.85705     -3078.170 5        34.929
S48        51.000    77372533.639 6 406596955.06806      -529.302 6        37.762
G21        52.000    21005088.046 7 110382554.76507       379.148 7        45.854                                    21005082.712 6  86012402.06106       295.440 6        37.554
C60        54.000                                                                                                                                    40667459.213 6 211766335.18506      -535.446 6        40.114                                                                    40667443.076 6 172077463.64106      -435.103 6        40.677
C27        55.000                                                                                                                                    21692114.875 8 112956553.20208       249.584 8        51.273                                                                    21692113.099 8  91786456.19908       202.810 8        49.469
R04        56.000    20847716.814 8 111638598.58308     -3008.148 8        50.264                                                                    20847714.838 7  86830014.46107     -2339.716 7        45.696
C02        57.000                                                                                                                                    40701960.119 5 211945839.54305      -491.403 5        33.623    40701954.585 6 163889961.79306      -379.850 6        40.827    40701957.652 6 172223359.41206      -399.129 6        36.461
I03        58.000   107563180.871 6 346315787.06506       987.088 6        39.625
C36        59.000                                                                                                                                    26714510.243 6 139109477.32606     -1968.932 6        38.390                                                                    26714515.510 6 113037876.06506     -1599.985 6        40.381
C28        60.000                                                                                                                                    22509899.479 8 117215268.25208     -2300.858 8        49.961                                                                    22509898.321 8  95247142.81708     -1869.648 8        48.430
> 2025 01 01 22 15 15.0000000  0 51
G10         1.000    21981227.790 8 115512235.44208     -2745.250 8        48.042                                    21981225.788 7  90009596.51107     -2139.155 7        47.492    21981225.642 7  90009573.52507     -2139.145 7        43.318
G14         2.000    24319304.044 6 127798837.98606       840.418 6        40.286                                    24319300.599 4  99583508.83504       654.867 4        24.271    24319300.907 6  99583504.82406       654.928 6        40.677
C33         3.000                                                                                                                                    23226256.973 8 120945246.38708     -2036.373 8        49.410                                                                    23226268.328 8  98277979.51508     -1654.651 8        48.964
E31         4.000    26149245.507 7 137415259.08107      -959.883 7        42.663                                                                    26149245.547 7 102615303.66107      -716.799 7        44.942    26149245.218 7 105292221.09607      -735.549 7        45.588
S21         5.000    38617934.308 7 202938341.02107      -506.542 7        42.172
E13         6.000    26138972.179 7 137361565.99807     -2600.420 7        43.041                                                                    26138972.825 7 102575400.76907     -1941.894 7        45.386    26138972.353 7 105251250.57507     -1992.533 7        46.246
G23         7.000    25108064.934 6 131943882.18606     -3985.437 6        37.497                                    25108061.959 3 102813448.31703     -3105.521 3        19.015    25108062.137 6 102813447.30906     -3105.523 6        37.414
G03         8.000    24768876.975 6 130161376.90206      3201.672 6        38.378                                    24768877.152 4 101424479.16804      2494.800 4        29.687    24768877.944 5 101424477.17405      2495.044 5        35.414
G02         9.000    22324352.372 7 117315316.22407      1568.552 7        46.738                                    22324346.011 5  91414526.65305      1222.250 5        35.433
R12        10.000    23639009.004 7 126275360.69007       705.197 7        44.259                                                                    23639009.551 6  98214199.66806       548.517 6        41.974
C30        11.000                                                                                                                                    24785386.993 7 129064026.41007      2339.266 7        44.698                                                                    24785387.826 7 104875095.63507      1900.808 7        43.936
S27        12.000    39305809.989 5 206553452.66805      -476.173 5        34.719
R20        13.000    19590314.752 6 104758263.18606      -212.729 6        39.748                                                                    19590315.132 7  81478716.43607      -165.428 7        46.940
S36        14.000    38386392.525 7 201722375.53007      -506.054 7        43.276
G27        15.000    22293952.007 7 117155783.31507     -3686.730 7        47.028                                    22293950.219 7  91290377.36607     -2872.776 7        46.539    22293950.127 7  91290291.35707     -2872.795 7        43.314
S45        17.000    63593517.372 6 334186904.20206      -548.332 6        37.524
E08        18.000    26241747.914 7 137901363.29007     -1312.011 7        42.768                                                                    26241746.081 7 102978294.54407      -979.746 7        45.037    26241745.640 7 105664680.32307     -1005.233 7        45.573
E26        21.000    23555212.289 8 123783824.96408      -681.966 8        48.089                                                                    23555210.011 8  92436170.49508      -509.274 8        50.512    23555209.667 8  94847524.39008      -522.544 8        51.058
I06        22.000    38634397.946 6 151609903.93006      -274.525 6        41.795
S28        23.000    41072760.094 5 215838817.51805      -498.507 5        33.665
G08        24.000    20681695.092 8 108683056.82508     -1741.850 8        50.344                                    20681692.874 8  84688097.17208     -1357.287 8        50.585    20681693.618 7  84688098.16607     -1357.350 7        45.272
S23        25.000    38340857.067 7 201482545.66907      -503.883 7        44.020
C13        26.000                                                                                                                                    40063303.872 6 208620328.10906     -1466.082 6        39.730    40063305.790 6 161318580.51706     -1133.596 6        41.075    40063303.699 6 169521191.11906     -1191.205 6        38.408
E24        27.000    28715487.748 6 150900927.28706      1365.416 6        37.384                                                                    28715487.729 6 112685765.62206      1019.611 6        41.261    28715486.857 6 115625391.35506      1046.229 6        41.547
R21        29.000    21953140.045 8 117475690.23708      2746.387 8        48.009                                                                    21953138.596 6  91369983.43706      2136.080 6        41.893
C14        30.000                                                                                                                                    24960027.353 7 129973445.50407     -3243.105 7        42.409    24960023.183 7 100503708.78407     -2507.725 7        46.839    24960022.201 7 105614058.26107     -2635.334 7        44.436
R05        31.000    19775134.896 8 105709470.44408      1114.979 8        52.485                                                                    19775134.107 8  82218487.12808       867.219 8        48.097
E29        33.000    27824979.370 6 146221295.44506      2670.438 6        38.411                                                                    27824980.556 6 109191229.80306      1994.245 6        41.933    27824980.006 7 112039692.59707      2046.222 7        42.912
C32        36.000                                                                                                                                    26093429.493 7 135875354.62207      3002.176 7        42.345                                                                    26093430.898 6 110409869.22906      2439.579 6        41.986
G32        37.000    22306539.478 7 117221694.32207       857.482 7        47.993                                    22306537.134 7  91341581.68107       668.166 7        47.154    22306537.981 7  91341590.68007       668.228 7        43.962
E07        38.000    25383566.284 7 133391553.93007      1383.267 7        44.498                                                                    25383566.572 8  99610612.76608      1032.891 8        48.017    25383566.108 8 102209143.00508      1059.909 8        48.408
C41        39.000                                                                                                                                    22598019.794 8 117673849.96608      1096.880 8        50.555                                                                    22598024.872 8  95619671.25708       891.332 8        49.679
C39        40.000                                                                                                                                    40966507.683 6 213323376.61006      1304.799 6        38.793                                                                    40966504.190 6 173342711.41606      1060.262 6        40.381
E33        41.000    25203865.788 7 132447295.09407      1333.890 7        44.751                                                                    25203863.894 7  98905480.04907       996.088 7        47.712    25203863.603 8 101485619.00408      1022.076 8        48.453
S44        42.000    40667972.244 6 213711827.67206      -540.670 6        36.870
R06        43.000    23748164.012 5 126724766.41805      4064.698 5        34.905
C05        44.000                                                                                                                                    39338049.537 6 204843577.03806      -460.863 6        39.084    39338043.569 7 158398070.98807      -356.275 7        42.817    39338045.786 6 166452288.51106      -374.394 6        39.820
C08        45.000                                                                                                                                    40807569.456 5 212495899.58805     -1599.884 5        35.519    40807563.626 6 164315381.13806     -1237.254 6        40.555    40807563.011 5 172670373.60205     -1300.032 5        35.676
R11        46.000    23119500.219 7 123543611.76707     -2887.723 7        45.102                                                                    23119498.822 7  96089478.42207     -2246.027 7        42.074
R19        47.000    22654045.842 6 121184226.35006     -3685.078 6        37.206                                                                    22654045.486 6  94254562.58006     -2866.220 6        38.664
I05        49.000  -496614451.547 6-873036574.00006       312.057 6        37.682
C42        50.000                                                                                                                                    27335988.790 5 142345687.75205     -3789.061 5        32.611                                                                    27335998.316 5 115667573.79805     -3078.730 5        35.381
S48        51.000    77373016.547 6 406598001.68116      -529.593 6        37.664
G21        52.000    21004728.074 7 110380663.02607       377.269 7        45.813                                    21004722.742 6  86010927.98006       293.975 6        37.467
C60        54.000                                                                                                                                    40667973.203 6 211769012.31406      -535.714 6        40.441                                                                    40667957.143 6 172079639.03606      -435.262 6        40.474
C27        55.000                                                                                                                                    21691876.018 8 112955309.89008       247.469 8        51.157                                                                    21691874.361 8  91785445.92508       201.095 8        49.327
R04        56.000    20850527.963 8 111653648.01608     -3011.912 8        50.509                                                                    20850525.492 7  86841719.55707     -2342.620 7        45.809
C02        57.000                                                                                                                                    40702432.841 5 211948296.08605      -491.216 5        34.129    40702426.587 6 163891861.37906      -380.156 6        40.877    40702429.359 6 172225355.61106      -399.483 6        36.352
I03        58.000   107561923.476 6 346310852.60406       986.566 6        39.637
C36        59.000                                                                                                                                    26716402.505 6 139119326.94606     -1971.126 6        38.922                                                                    26716406.851 6 113045879.70806     -1601.666 6        40.119
C28        60.000                                                                                                                                    22512109.358 8 117226776.83408     -2302.777 8        49.910                                                                    22512108.459 8  95256494.50108     -1871.213 8        48.326
> 2025 01 01 22 15 20.0000000  0 51
G10         1.000    21983840.484 8 115525964.22808     -2746.731 8        48.113                                    21983838.285 7  90020294.26607     -2140.311 7        47.387    21983838.220 7  90020271.26207     -2140.201 7        43.661
G14         2.000    24318505.088 6 127794641.49606       837.679 6        39.763                                    24318502.021 4  99580238.84604       652.737 4        24.060    24318502.313 6  99580234.83406       652.793 6        39.727
C33         3.000                                                                                                                                    23228213.168 8 120955432.74808     -2038.531 8        49.109                                                                    23228224.466 8  98286256.75108     -1656.311 8        48.970
E31         4.000    26150160.104 7 137420063.51007      -962.154 7        42.700                                                                    26150159.868 7 102618891.39807      -718.584 7        45.016    26150159.464 7 105295902.42207      -737.284 7        45.618
S21         5.000    38618413.822 7 202940871.85907      -506.402 7        42.195
E13         6.000    26141446.661 7 137374567.67407     -2600.623 7        43.073                                                                    26141446.946 7 102585109.81707     -1942.082 7        45.312    26141446.378 7 105261212.90307     -1992.694 7        46.203
G23         7.000    25111856.698 6 131963807.81306     -3985.176 6        37.474                                    25111853.734 3 102828974.76303     -3105.320 3        19.104    25111854.287 6 102828973.76606     -3105.465 6        37.614
G03         8.000    24765830.131 6 130145367.75206      3201.327 6        37.758                                    24765830.734 4 101412004.55604      2494.529 4        29.848    24765831.738 6 101412002.57106      2494.670 6        36.091
G02         9.000    22322860.283 7 117307474.40307      1567.810 7        46.842                                    22322853.746 5  91408416.14605      1221.671 5        35.238
R12        10.000    23638350.460 7 126271843.39207       701.468 7        43.223                                                                    23638350.439 6  98211464.02106       545.492 6        41.707
C30        11.000                                                                                                                                    24783140.966 7 129052330.25807      2338.937 7        44.579                                                                    24783141.642 7 104865591.53507      1900.635 7        43.801
S27        12.000    39306264.445 5 206555831.86805      -475.869 5        34.881
R20        13.000    19590514.273 6 104759331.62906      -215.119 6        39.069                                                                    19590515.219 7  81479547.43207      -167.219 7        47.140
S36        14.000    38386876.922 7 201724904.02107      -505.740 7        43.456
G27        15.000    22297460.400 7 117174219.91207     -3688.273 7        46.827                                    22297458.645 7  91304743.54307     -2873.979 7        46.463    22297458.726 7  91304657.53507     -2873.866 7        43.067
S45        17.000    63593989.655 6 334189644.63906      -548.130 6        37.595
E08        18.000    26242997.055 7 137907927.50107     -1314.071 7        42.593                                                                    26242995.243 7 102983196.39307      -981.365 7        45.073    26242994.725 7 105669710.04707     -1006.966 7        45.734
E26        21.000    23555861.406 8 123787236.02608      -682.790 8        48.195                                                                    23555859.120 8  92438717.71608      -509.939 8        50.467    23555858.768 8  94850138.06008      -523.228 8        51.197
I06        22.000    38634747.119 6 151611275.27806      -274.319 6        41.661
S28        23.000    41073236.666 5 215841307.98505      -498.057 5        33.677
G08        24.000    20683353.387 8 108691772.05808     -1744.493 8        50.606                                    20683351.331 8  84694888.26408     -1359.345 8        50.492    20683352.055 7  84694889.27207     -1359.403 7        45.022
S23        25.000    38341335.530 7 201485065.00807      -503.935 7        44.361
C13        26.000                                                                                                                                    40064711.255 6 208627656.41006     -1465.496 6        39.474    40064713.174 6 161324247.21406     -1133.370 6        41.409    40064710.796 6 169527145.94806     -1190.827 6        38.294
E24        27.000    28714189.611 6 150894103.26806      1363.783 6        37.626                                                                    28714189.126 6 112680669.75706      1018.388 6        41.144    28714188.194 6 115620162.54906      1044.983 6        41.754
R21        29.000    21950574.448 7 117461958.58607      2745.857 7        47.965                                                                    21950573.035 6  91359303.25806      2135.723 6        41.819
C14        30.000                                                                                                                                    24963142.594 7 129989663.25107     -3244.386 7        42.358    24963137.724 7 100516249.37007     -2508.783 7        46.692    24963136.832 7 105627236.47807     -2636.221 7        44.265
R05        31.000    19774094.171 8 105703905.02708      1110.873 8        52.670                                                                    19774092.772 7  82214158.46607       864.002 7        47.598
E29        33.000    27822438.101 6 146207940.95306      2670.901 6        38.649                                                                    27822439.252 6 109181257.35506      1994.496 6        41.988    27822438.722 7 112029459.98507      2046.433 7        42.995
C32        36.000                                                                                                                                    26090546.620 6 135860343.36306      3001.949 6        41.681                                                                    26090548.060 6 110397671.39306      2439.384 6        41.893
G32        37.000    22305724.600 8 117217412.88308       854.754 8        48.349                                    22305722.346 7  91338245.50007       666.041 7        47.011    22305723.379 7  91338254.49507       666.004 7        43.797
E07        38.000    25382250.877 7 133384641.06407      1381.533 7        44.629                                                                    25382251.186 8  99605450.56508      1031.704 8        48.055    25382250.592 8 102203846.14208      1058.639 8        48.524
C41        39.000                                                                                                                                    22596967.531 8 117668370.34908      1094.597 8        50.306                                                                    22596972.575 8  95615218.61308       889.541 8        49.595
C39        40.000                                                                                                                                    40965255.102 6 213316852.92706      1304.275 6        38.724                                                                    40965251.429 6 173337410.37906      1060.020 6        40.429
E33        41.000    25202596.801 7 132440625.66207      1333.567 7        44.963                                                                    25202594.735 7  98900499.63507       995.862 7        47.677    25202594.436 8 101480508.66008      1021.855 8        48.561
