     3.04           OBSERVATION DATA    M                   RINEX VERSION / TYPE
ssrcrin-15.6.1x                         20250101 174500 UTC PGM / RUN BY / DATE 
(00000000023479385599111004) Septentrio proprietary         COMMENT             
rref                                                        MARKER NAME         
01                                                          MARKER NUMBER       
geodetic                                                    MARKER TYPE         
NFB                 CLIMERS@TUW                             OBSERVER / AGENCY   
3297213             SEPT ASTERX SB3 PROB4.14.4              REC # / TYPE / VERS 
Unknown             Unknown                                 ANT # / TYPE        
  4127831.9311  1207193.4290  4695247.2268                  APPROX POSITION XYZ 
        0.0000        0.0000        0.0000                  ANTENNA: DELTA H/E/N
G   23 X1  C1C L1C D1C S1C C1W S1W C2W L2W D2W S2W C2L L2L  SYS / # / OBS TYPES 
       D2L S2L C5Q L5Q D5Q S5Q C1L L1L D1L S1L              SYS / # / OBS TYPES 
E   21 X1  C1C L1C D1C S1C C6C L6C D6C S6C C5Q L5Q D5Q S5Q  SYS / # / OBS TYPES 
       C7Q L7Q D7Q S7Q C8Q L8Q D8Q S8Q                      SYS / # / OBS TYPES 
S    9 X1  C1C L1C D1C S1C C5I L5I D5I S5I                  SYS / # / OBS TYPES 
R   17 X1  C1C L1C D1C S1C C2P L2P D2P S2P C2C L2C D2C S2C  SYS / # / OBS TYPES 
       C3Q L3Q D3Q S3Q                                      SYS / # / OBS TYPES 
C   25 X1  C1P L1P D1P S1P C5P L5P D5P S5P C2I L2I D2I S2I  SYS / # / OBS TYPES 
       C7I L7I D7I S7I C6I L6I D6I S6I C7D L7D D7D S7D      SYS / # / OBS TYPES 
J   17 X1  C1C L1C D1C S1C C2L L2L D2L S2L C5Q L5Q D5Q S5Q  SYS / # / OBS TYPES 
       C1L L1L D1L S1L                                      SYS / # / OBS TYPES 
I    5 X1  C5A L5A D5A S5A                                  SYS / # / OBS TYPES 
SEPTENTRIO RECEIVERS OUTPUT ALIGNED CARRIER PHASES.         COMMENT             
NO FURTHER PHASE SHIFT APPLIED IN THE RINEX ENCODER.        COMMENT             
G L1C                                                       SYS / PHASE SHIFT   
G L2W                                                       SYS / PHASE SHIFT   
G L2L  0.00000                                              SYS / PHASE SHIFT   
G L5Q  0.00000                                              SYS / PHASE SHIFT   
G L1L  0.00000                                              SYS / PHASE SHIFT   
E L1C  0.00000                                              SYS / PHASE SHIFT   
E L6C  0.00000                                              SYS / PHASE SHIFT   
E L5Q  0.00000                                              SYS / PHASE SHIFT   
E L7Q  0.00000                                              SYS / PHASE SHIFT   
E L8Q  0.00000                                              SYS / PHASE SHIFT   
S L1C                                                       SYS / PHASE SHIFT   
S L5I                                                       SYS / PHASE SHIFT   
R L1C                                                       SYS / PHASE SHIFT   
R L2P  0.00000                                              SYS / PHASE SHIFT   
R L2C                                                       SYS / PHASE SHIFT   
R L3Q  0.00000                                              SYS / PHASE SHIFT   
C L1P  0.00000                                              SYS / PHASE SHIFT   
C L5P  0.00000                                              SYS / PHASE SHIFT   
C L2I                                                       SYS / PHASE SHIFT   
C L7I                                                       SYS / PHASE SHIFT   
C L6I                                                       SYS / PHASE SHIFT   
C L7D                                                       SYS / PHASE SHIFT   
J L1C                                                       SYS / PHASE SHIFT   
J L2L  0.00000                                              SYS / PHASE SHIFT   
J L5Q  0.00000                                              SYS / PHASE SHIFT   
J L1L  0.00000                                              SYS / PHASE SHIFT   
I L5A                                                       SYS / PHASE SHIFT   
  2025     1     1    17    45    0.0000000     GPS         TIME OF FIRST OBS   
 C1C    0.000 C2C    0.000 C2P    0.000                     GLONASS COD/PHS/BIS 
DBHZ                                                        SIGNAL STRENGTH UNIT
    18                                                      LEAP SECONDS        
 24 R01  1 R02 -4 R03  5 R04  6 R05  1 R06 -4 R07  5 R08  6 GLONASS SLOT / FRQ #
    R09 -2 R10 -7 R11  0 R12 -1 R13 -2 R14 -7 R15  0 R16 -1 GLONASS SLOT / FRQ #
    R17  4 R18 -3 R19  3 R20  2 R21  4 R22 -3 R23  3 R24  2 GLONASS SLOT / FRQ #
                                                            END OF HEADER       
> 2025 01 01 17 45  0.0000000  0 54
G20         1.000    25635214.212 4 134714109.52304     -3634.338 4        29.393
G25         2.000    24769287.099 6 130163652.66706     -4388.729 6        37.508                                    24769287.574 4 101426318.29904     -3419.785 4        29.697    24769287.819 5 101426328.29005     -3419.668 5        35.319
G05         3.000    23275487.986 7 122313656.60007     -2133.999 7        42.059                                    23275483.871 6  95309401.14906     -1662.862 6        37.497    23275484.533 6  95309400.18206     -1662.855 6        39.108
G29         4.000    22124586.048 7 116265850.43207     -2958.740 7        46.582                                    22124581.908 7  90596932.09907     -2305.509 7        44.257    22124582.448 6  90596935.10406     -2305.487 6        41.030
S21         5.000    38486864.862 7 202249580.39007      -557.277 7        42.167
E13         6.000    24054237.875 7 126406215.20707      1178.120 7        47.393                                                                    24054238.624 8  94394457.36308       879.786 8        49.894    24054238.189 8  96856891.21308       902.757 8        50.546
G23         7.000    23525510.583 6 123627487.40806      2858.878 6        41.480                                    23525508.401 4  96333136.88404      2227.692 4        28.095    23525508.927 6  96333135.90406      2227.741 6        41.111
E15         8.000    23900290.939 7 125597202.11907     -1713.600 7        46.915                                                                    23900291.134 8  93790290.73608     -1279.667 8        50.447    23900290.708 8  96236969.86708     -1312.999 8        51.175
E30        10.000    28199317.308 6 148188608.01606     -3508.473 6        38.108                                                                    28199320.176 7 110660448.11507     -2619.940 7        42.540    28199319.423 7 113547229.35107     -2688.206 7        43.084
G26        11.000    20554902.889 8 108017130.51608      -314.092 8        49.764                                    20554901.757 8  84169378.69308      -244.748 8        51.431    20554901.635 7  84169398.69107      -244.733 7        45.646
S27        12.000    39265573.556 5 206341970.28605      -536.221 5        35.429
R15        13.000    21333872.920 8 114002047.03908     -4438.083 8        50.050                                                                    21333873.513 7  88668399.91207     -3451.902 7        45.991
S36        14.000    38258248.607 7 201048956.28607      -556.246 7        43.735
G27        15.000    23933847.592 6 125773479.42206      2726.644 6        39.883                                    23933846.407 5  98005461.63805      2124.649 5        33.790    23933847.292 6  98005375.64506      2124.693 6        36.272
S45        17.000    63469574.914 6 333536378.27606      -612.569 6        36.548
G31        18.000    23207899.125 7 121958620.46707     -3402.781 7        44.331                                    23207896.085 6  95032842.52506     -2651.518 6        40.124    23207896.314 6  95032821.51806     -2651.429 6        39.937
G16        19.000    21596402.148 7 113490123.08307      1872.036 7        45.561                                    21596397.024 5  88433982.94405      1458.731 5        33.772
E21        20.000    24108054.386 7 126689063.93607       676.463 7        47.430                                                                    24108053.685 8  94605688.95108       505.146 8        50.338    24108053.391 8  97073637.90708       518.348 8        50.977
E26        21.000    28189230.555 6 148135592.00906      2484.041 6        36.885                                                                    28189240.502 6 110620883.25406      1854.887 6        39.589    28189239.123 6 113506626.58706      1903.335 6        40.386
I06        22.000    38769956.688 6 152141843.27206      -408.308 6        41.440
S28        23.000    40962724.539 5 215260535.86205      -553.362 5        34.219
E34        24.000    27685481.515 6 145488490.49706     -3429.135 6        38.099                                                                    27685482.811 6 108644187.11806     -2560.634 6        41.445    27685482.022 6 111478363.39206     -2627.415 6        41.309
S23        25.000    38211237.638 7 200801370.06007      -559.115 7        44.489
C13        26.000                                                                                                                                    37737153.264 7 196507457.20007      -291.306 7        44.787    37737154.334 7 151952141.77907      -225.245 7        45.147    37737152.584 7 159678492.45707      -236.722 7        43.774
G18        27.000    20559434.004 8 108040907.68108      -331.890 8        49.896                                    20559430.142 7  84187893.48707      -258.615 7        43.725    20559430.467 8  84187884.48608      -258.582 8        49.724
I02        29.000    38724538.697 6 151963508.30606      -986.845 6        40.436
G28        30.000    24502387.636 6 128761062.78406     -4025.809 6        40.577                                    24502388.956 4 100333381.64904     -3136.984 4        24.105    24502389.067 6 100333378.63506     -3136.776 6        39.468
R02        31.000    23833770.786 7 127181589.96307      2666.889 7        43.054                                                                    23833771.520 6  98919030.67406      2074.381 6        38.165
C12        32.000                                                                                                                                    25973371.224 6 135250430.67506     -3449.946 6        36.957    25973368.107 6 104584339.33406     -2667.750 6        41.974    25973367.886 6 109902145.75606     -2803.335 6        41.392
R17        33.000    20431463.619 8 109333256.85408     -3186.013 8        50.746                                                                    20431462.565 7  85037145.22607     -2477.988 7        46.698
R08        34.000    24616886.977 6 131822214.56206     -3087.675 6        36.718                                                                    24616892.080 6 102528364.57106     -2401.393 6        39.892
E09        35.000    29068003.031 5 152753383.20205      -466.402 5        35.476                                                                    29068010.049 6 114069099.68006      -348.164 6        39.970    29068008.467 6 117044834.36706      -357.316 6        40.470
R18        36.000    19355287.700 8 103320247.97508         4.954 8        51.453                                                                    19355287.521 7  80360399.17507         3.862 7        47.684
E27        37.000    24115893.829 7 126730115.69407     -2153.149 7        47.961                                                                    24115893.471 8  94636278.34308     -1607.896 8        50.087    24115893.126 8  97105030.86808     -1649.883 8        50.767
R16        38.000    19419536.950 8 103735803.06708      -654.598 8        52.235                                                                    19419536.271 7  80683458.49607      -509.095 7        47.775
C22        39.000                                                                                                                                    26342404.280 6 137171800.93506     -1412.389 6        39.237                                                                    26342399.136 6 111463302.09506     -1147.503 6        39.393
R09        40.000    22190242.557 7 118494719.09107      3100.741 7        46.626                                                                    22190240.881 7  92162582.63407      2411.799 7        44.030
C34        41.000                                                                                                                                    23237812.592 7 121005722.23907     -2850.904 7        47.560                                                                    23237811.874 7  98327200.14207     -2316.588 7        46.519
S44        42.000    40572943.892 6 213212435.45306      -501.570 6        37.637
C38        43.000                                                                                                                                    38756603.805 7 201815966.25507     -1031.859 7        43.592                                                                    38756601.271 7 163992067.59407      -838.491 7        43.604
C05        44.000                                                                                                                                    39393004.884 6 205129728.95606      -487.855 6        38.036    39392999.833 6 158619337.81206      -377.454 6        41.666    39393002.739 6 166684807.20906      -396.667 6        40.498
C08        45.000                                                                                                                                    37762770.941 6 196640852.67106      -543.577 6        41.993    37762765.158 7 152055256.57507      -420.424 7        45.943    37762764.352 7 159786852.02107      -441.772 7        42.946
R19        47.000    21723509.923 6 116206476.52506      2527.592 6        38.189                                                                    21723510.139 7  90382977.09307      1965.937 7        42.129
C43        48.000                                                                                                                                    21537731.183 8 112152944.60608      -552.322 8        51.714                                                                    21537729.553 8  91133581.07808      -448.819 8        49.651
S48        51.000    77217802.245 6 405783622.55906      -596.630 6        37.788
R01        52.000    23066150.794 6 123301823.60306       -75.088 6        40.527                                                                    23066150.677 5  95901408.95505       -58.482 5        34.248
C37        53.000                                                                                                                                    24151396.123 7 125762684.13907      1134.826 7        46.020                                                                    24151399.204 7 102192506.19307       922.126 7        46.766
C60        54.000                                                                                                                                    40572945.639 6 211274159.86406      -497.013 6        39.282                                                                    40572931.009 6 171677526.66606      -403.913 6        40.577
C25        55.000                                                                                                                                    24872090.872 7 129515677.00107     -3942.458 7        43.276                                                                    24872090.157 7 105242170.84407     -3203.626 7        43.573
C23        56.000                                                                                                                                    22825899.328 8 118860801.29008     -1904.324 8        49.995                                                                    22825891.041 8  96584248.07408     -1547.375 8        49.671
C02        57.000                                                                                                                                    40742624.183 5 212157561.16005      -465.119 5        33.904    40742619.498 6 164053671.87506      -359.595 6        39.009    40742622.409 5 172395395.31305      -377.766 5        35.662
I03        58.000   113308433.693 6 368861355.00406      1038.634 6        40.658
C11        59.000                                                                                                                                    21989361.829 8 114504693.92908     -1830.237 8        48.401    21989358.236 8  88542445.27708     -1415.244 8        51.737    21989357.157 8  93044554.23808     -1487.266 8        48.974
C28        60.000                                                                                                                                    24637475.634 7 128294087.81407      2122.641 7        44.874                                                                    24637475.708 7 104249585.52607      1724.787 7        42.973
> 2025 01 01 17 45  5.0000000  0 54
G20         1.000    25638671.705 4 134732283.40904     -3635.130 4        29.043
G25         2.000    24773462.909 6 130185596.17706     -4388.692 6        37.607                                    24773463.256 4 101443417.12604     -3419.755 4        29.536    24773464.190 5 101443427.12905     -3419.865 5        35.224
G05         3.000    23277520.238 6 122324334.26306     -2137.130 6        41.602                                    23277515.646 6  95317721.43906     -1665.297 6        37.289    23277515.983 6  95317720.44006     -1665.289 6        38.922
G29         4.000    22127401.398 7 116280646.88107     -2959.729 7        46.751                                    22127397.559 7  90608461.80007     -2306.282 7        44.254    22127398.432 6  90608464.81706     -2306.322 6        41.628
S21         5.000    38487395.648 7 202252367.29507      -557.391 7        42.267
E13         6.000    24053117.789 7 126400328.32907      1176.538 7        47.260                                                                    24053118.381 8  94390061.33208       878.593 8        49.967    24053117.942 8  96852380.50308       901.537 8        50.528
G23         7.000    23522791.343 6 123613195.55806      2858.101 6        41.015                                    23522788.782 4  96322000.40804      2227.090 4        27.581    23522789.461 6  96321999.41606      2227.097 6        41.201
E15         8.000    23901922.018 7 125605774.13807     -1715.253 7        46.877                                                                    23901922.351 8  93796691.93108     -1280.882 8        50.529    23901921.915 8  96243538.04808     -1314.248 8        51.047
E30        10.000    28202655.471 6 148206150.65206     -3508.706 6        38.021                                                                    28202658.504 7 110673548.12007     -2619.988 7        42.682    28202657.820 7 113560671.10307     -2688.342 7        43.052
G26        11.000    20555203.295 8 108018708.27308      -317.054 8        49.876                                    20555201.991 8  84170608.11708      -247.056 8        51.345    20555202.308 7  84170628.12307      -247.037 7        45.834
S27        12.000    39266084.135 5 206344650.41705      -535.915 5        35.662
R15        13.000    21338025.876 8 114024242.39808     -4440.133 8        49.315                                                                    21338026.436 7  88685662.97207     -3453.386 7        44.870
S36        14.000    38258779.201 7 201051736.92907      -556.065 7        43.898
G27        15.000    23931253.575 6 125759846.67406      2726.436 6        40.062                                    23931252.106 5  97994838.76205      2124.489 5        33.790    23931252.657 5  97994752.79305      2124.321 5        35.986
S45        17.000    63470107.489 6 333537841.06716      -612.476 6        36.681
G31        18.000    23211137.755 7 121975638.10907     -3404.285 7        44.309                                    23211134.443 6  95046103.01906     -2652.688 6        40.079    23211134.685 6  95046082.01506     -2652.746 6        39.784
G16        19.000    21594621.888 7 113480768.19607      1870.013 7        45.780                                    21594616.844 5  88426693.41805      1457.154 5        33.719
E21        20.000    24107411.562 7 126685685.37507       674.992 7        47.314                                                                    24107410.737 8  94603166.00308       504.057 8        50.410    24107410.476 8  97071049.13908       517.229 8        50.949
E26        21.000    28186867.422 6 148123172.68806      2483.773 6        37.705                                                                    28186877.011 6 110611609.26306      1854.778 6        39.655    28186875.329 6 113497110.64606      1903.145 6        40.191
I06        22.000    38770476.668 6 152143884.05706      -408.086 6        41.223
S28        23.000    40963246.950 5 215263302.34805      -553.020 5        34.500
E34        24.000    27688744.166 6 145505636.28706     -3429.170 6        37.766                                                                    27688745.497 6 108656990.83906     -2560.722 6        41.719    27688744.556 6 111491501.12806     -2627.616 6        41.046
S23        25.000    38211770.142 7 200804165.09907      -558.859 7        44.585
C13        26.000                                                                                                                                    37737433.394 7 196508915.71507      -292.059 7        44.740    37737434.292 7 151953269.59707      -225.840 7        45.321    37737432.696 7 159679677.61707      -237.343 7        43.712
G18        27.000    20559751.067 8 108042573.85608      -334.542 8        49.878                                    20559747.198 7  84189191.80707      -260.685 7        43.645    20559747.686 8  84189182.80908      -260.704 8        50.111
I02        29.000    38725796.154 6 151968442.49106      -986.893 6        40.427
G28        30.000    24506218.034 6 128781191.76606     -4025.888 6        39.610                                    24506219.267 3 100349066.54303     -3137.053 3        23.695    24506219.049 6 100349063.52606     -3137.083 6        39.498
R02        31.000    23831272.098 7 127168259.47107      2665.062 7        42.262                                                                    23831272.950 6  98908662.50806      2072.908 6        37.543
C12        32.000                                                                                                                                    25976684.495 6 135267680.53306     -3449.865 6        37.043    25976680.650 7 104597678.00807     -2667.646 7        42.011    25976680.526 6 109916162.68206     -2803.353 6        41.261
R17        33.000    20434441.592 8 109349190.98808     -3187.532 8        50.550                                                                    20434441.142 7  85049538.44607     -2479.165 7        47.127
R08        34.000    24619769.562 5 131837659.69205     -3090.643 5        35.781                                                                    24619775.873 6 102540377.60106     -2403.553 6        40.610
E09        35.000    29068447.386 5 152755719.75505      -468.370 5        35.952                                                                    29068453.936 6 114070844.73706      -349.943 6        40.102    29068452.513 6 117046624.91306      -358.962 6        40.455
R18        36.000    19355284.596 8 103320230.32908         2.169 8        51.518                                                                    19355284.145 7  80360385.45307         1.677 7        47.429
E27        37.000    24117943.248 7 126740885.47107     -2154.715 7        47.696                                                                    24117942.889 8  94644320.71208     -1609.019 8        50.146    24117942.527 8  97113283.03308     -1651.013 8        50.581
R16        38.000    19420151.551 8 103739086.95908      -658.945 8        52.473                                                                    19420151.236 7  80686012.63807      -512.487 7        47.824
C22        39.000                                                                                                                                    26343761.456 6 137178869.05006     -1414.887 6        39.366                                                                    26343756.504 6 111469045.45506     -1149.658 6        39.141
R09        40.000    22187339.788 7 118479220.08307      3098.855 7        46.178                                                                    22187338.038 7  92150527.88507      2410.294 7        44.423
C34        41.000                                                                                                                                    23240550.096 7 121019978.52107     -2851.501 7        47.047                                                                    23240549.561 7  98338784.53407     -2317.006 7        46.488
S44        42.000    40573421.738 6 213214942.57206      -501.346 6        37.743
C38        43.000                                                                                                                                    38757594.935 7 201821127.43307     -1032.562 7        43.403                                                                    38757592.427 7 163996261.48007      -839.000 7        43.460
C05        44.000                                                                                                                                    39393473.241 6 205132168.86806      -487.826 6        38.030    39393468.365 6 158621224.49706      -377.318 6        41.909    39393471.284 6 166686789.83006      -396.381 6        40.486
C08        45.000                                                                                                                                    37763293.224 6 196643573.19906      -544.573 6        41.914    37763287.362 7 152057360.25207      -421.011 7        45.804    37763286.773 7 159789062.66607      -442.450 7        42.840
R19        47.000    21721148.815 6 116193842.49106      2526.019 6        37.603                                                                    21721148.203 6  90373150.64106      1964.640 6        41.313
C43        48.000                                                                                                                                    21538262.346 8 112155710.25008      -553.886 8        51.556                                                                    21538260.696 8  91135828.38908      -450.040 8        49.606
S48        51.000    77218345.162 6 405786605.60006      -596.546 6        37.996
R01        52.000    23066222.467 6 123302209.40206       -79.243 6        40.851                                                                    23066223.323 5  95901709.05805       -61.719 5        34.543
C37        53.000                                                                                                                                    24150307.519 7 125757015.49707      1132.622 7        46.091                                                                    24150310.646 7 102187899.95207       920.389 7        46.723
C60        54.000                                                                                                                                    40573422.716 6 211276644.19006      -496.909 6        39.156                                                                    40573408.109 6 171679545.39906      -403.739 6        40.677
C25        55.000                                                                                                                                    24875876.569 7 129535390.33107     -3942.901 7        43.151                                                                    24875876.054 7 105258189.52707     -3203.821 7        43.604
C23        56.000                                                                                                                                    22827729.127 8 118870329.00808     -1906.732 8        49.947                                                                    22827720.727 8  96591990.13008     -1549.364 8        49.637
C02        57.000                                                                                                                                    40743070.093 5 212159885.70605      -464.647 5        34.057    40743066.209 6 164055469.38606      -359.400 6        39.192    40743068.842 5 172397284.23805      -377.581 5        35.505
I03        58.000   113307110.459 6 368856161.94006      1038.691 6        40.751
C11        59.000                                                                                                                                    21991119.736 8 114513848.43808     -1831.485 8        48.385    21991116.223 8  88549524.13208     -1416.253 8        51.971    21991115.182 8  93051993.03208     -1488.203 8        48.989
C28        60.000                                                                                                                                    24635437.747 7 128283476.36607      2122.002 7        44.882                                                                    24635437.954 7 104240962.87307      1724.265 7        42.758
> 2025 01 01 17 45 10.0000000  0 54
G20         1.000    25642131.277 4 134750463.98104     -3636.787 4        29.081
G25         2.000    24777638.230 6 130207540.82806     -4389.326 6        37.558                                    24777639.130 4 101460516.84104     -3420.250 4        29.460    24777640.331 5 101460526.83005     -3420.096 5        35.219
G05         3.000    23279554.583 6 122335027.51106     -2140.417 6        41.380                                    23279550.418 6  95326053.84006     -1667.862 6        37.081    23279550.958 6  95326052.86206     -1667.817 6        38.694
G29         4.000    22130218.254 7 116295448.85407     -2961.172 7        46.497                                    22130214.288 7  90619995.80207     -2307.407 7        44.214    22130214.921 6  90619998.81206     -2307.417 6        41.805
S21         5.000    38487925.155 7 202255154.18507      -557.604 7        42.406
E13         6.000    24051999.083 7 126394449.97707      1174.580 7        47.352                                                                    24051999.783 8  94385671.66008       877.151 8        49.911    24051999.311 8  96847876.31608       900.012 8        50.499
G23         7.000    23520072.065 6 123598907.85606      2856.825 6        41.116                                    23520069.960 4  96310867.15204      2226.093 4        27.317    23520070.333 6  96310866.17506      2226.112 6        41.569
E15         8.000    23903554.880 7 125614354.65207     -1717.140 7        46.879                                                                    23903555.165 8  93803099.45508     -1282.315 8        50.486    23903554.733 8  96250112.72708     -1315.774 8        51.054
E30        10.000    28205994.133 6 148223695.07906     -3509.151 6        38.249                                                                    28205997.015 7 110686649.48307     -2620.590 7        42.544    28205996.389 7 113574114.23607     -2688.949 7        43.173
G26        11.000    20555506.377 8 108020300.99608      -320.204 8        49.982                                    20555505.068 8  84171849.20308      -249.511 8        51.302    20555505.185 7  84171869.21307      -249.566 7        45.877
S27        12.000    39266594.517 5 206347330.43505      -536.072 5        35.624
R15        13.000    21342181.667 8 114046448.74508     -4442.586 8        49.916                                                                    21342182.418 7  88702934.56207     -3455.281 7        44.810
S36        14.000    38259307.711 7 201054517.43507      -556.226 7        44.062
G27        15.000    23928659.637 6 125746216.26506      2725.660 6        40.253                                    23928658.301 5  97984217.70605      2123.882 5        33.772    23928658.529 6  97984131.73306      2123.881 6        36.450
S45        17.000    63470637.425 6 333540903.51806      -612.803 6        36.798
G31        18.000    23214377.645 7 121992663.83707     -3406.138 7        44.658                                    23214374.343 6  95059369.81606     -2654.132 6        40.010    23214375.133 6  95059348.82906     -2654.250 6        40.262
G16        19.000    21592843.573 7 113471423.83807      1867.546 7        45.883                                    21592838.704 5  88419412.09705      1455.232 5        33.623
E21        20.000    24106770.135 7 126682314.61007       673.210 7        47.562                                                                    24106769.314 8  94600648.88808       502.720 8        50.379    24106769.013 8  97068466.36008       515.805 8        50.949
E26        21.000    28184504.133 6 148110754.92706      2483.072 6        38.051                                                                    28184513.856 6 110602336.43306      1854.248 6        39.790    28184512.222 6 113487595.89406      1902.624 6        40.362
I06        22.000    38770996.622 6 152145924.34706      -408.171 6        41.266
S28        23.000    40963778.022 5 215266067.95105      -553.351 5        34.138
E34        24.000    27692007.099 6 145522783.33506     -3429.667 6        37.501                                                                    27692008.534 6 108669795.53706     -2561.179 6        41.852    27692007.557 6 111504639.85406     -2627.996 6        40.923
S23        25.000    38212302.953 7 200806959.67407      -559.078 7        44.707
C13        26.000                                                                                                                                    37737714.081 7 196510378.82007      -293.308 7        44.676    37737715.250 7 151954400.96507      -226.840 7        45.204    37737713.731 7 159680866.51107      -238.246 7        43.769
G18        27.000    20560071.024 8 108044254.03408      -337.681 8        49.890                                    20560066.933 7  84190501.03707      -263.131 7        43.636    20560066.967 8  84190492.03608      -263.093 8        50.143
I02        29.000    38727053.785 6 151973377.03506      -987.183 6        40.355
G28        30.000    24510049.184 6 128801322.04406     -4026.362 6        38.730                                    24510049.824 3 100364752.42603     -3137.413 3        23.410    24510049.554 6 100364749.40506     -3137.408 6        39.679
R02        31.000    23828776.186 6 127154938.36306      2663.126 6        40.794                                                                    23828777.122 6  98898301.67406      2071.286 6        37.482
C12        32.000                                                                                                                                    25979996.864 6 135284930.25206     -3450.020 6        37.198    25979993.728 7 104611016.58407     -2667.909 7        42.182    25979992.905 6 109930179.49906     -2803.533 6        41.128
R17        33.000    20437420.552 8 109365133.06408     -3189.477 8        50.339                                                                    20437419.855 7  85061937.83607     -2480.662 7        46.941
R08        34.000    24622658.231 6 131853119.22206     -3093.486 6        36.321                                                                    24622662.519 6 102552401.71006     -2406.002 6        39.450
E09        35.000    29068893.596 5 152758067.35105      -470.804 5        34.962                                                                    29068900.528 6 114072597.80806      -351.556 6        39.225    29068899.492 6 117048423.71806      -360.786 6        39.931
R18        36.000    19355284.359 8 103320227.16608        -1.016 8        51.359                                                                    19355283.447 8  80360382.99708        -0.771 8        48.108
E27        37.000    24119994.237 8 126751663.39808     -2156.578 8        48.127                                                                    24119993.916 8  94652369.16308     -1610.441 8        50.051    24119993.522 8  97121541.44108     -1652.438 8        50.615
R16        38.000    19420770.838 8 103742393.00008      -663.739 8        52.294                                                                    19420770.062 7  80688584.00407      -516.218 7        47.797
C22        39.000                                                                                                                                    26345121.265 6 137185950.49006     -1417.682 6        39.312                                                                    26345116.337 6 111474799.70906     -1151.881 6        38.952
R09        40.000    22184438.451 7 118463731.28907      3096.431 7        46.271                                                                    22184438.044 7  92138481.05307      2408.399 7        44.072
C34        41.000                                                                                                                                    23243288.280 7 121034238.59807     -2852.663 7        46.741                                                                    23243288.093 7  98350371.99407     -2317.885 7        46.465
S44        42.000    40573897.546 6 213217449.43506      -501.575 6        37.773
C38        43.000                                                                                                                                    38758586.915 7 201826292.46907     -1033.547 7        43.606                                                                    38758584.253 7 164000458.48607      -839.855 7        43.507
C05        44.000                                                                                                                                    39393942.024 6 205134608.36006      -488.177 6        38.132    39393936.834 6 158623110.86706      -377.403 6        41.678    39393939.727 6 166688772.09506      -396.410 6        40.415
C08        45.000                                                                                                                                    37763816.573 6 196646298.70306      -545.790 6        41.816    37763810.541 7 152059467.78607      -422.049 7        45.549    37763810.153 7 159791277.34907      -443.303 7        42.766
R19        47.000    21718788.199 6 116181217.63206      2523.598 6        38.159                                                                    21718787.669 6  90363331.31506      1963.016 6        41.204
C43        48.000                                                                                                                                    21538794.921 8 112158484.12008      -555.812 8        51.387                                                                    21538793.383 8  91138082.38508      -451.591 8        49.566
S48        51.000    77218883.456 6 405787987.86116      -596.584 6        37.974
R01        52.000    23066298.268 6 123302615.78006       -83.665 6        41.125                                                                    23066300.127 5  95902025.11305       -65.250 5        34.500
C37        53.000                                                                                                                                    24149221.202 7 125751358.23807      1130.095 7        45.941                                                                    24149224.217 7 102183302.96807       918.400 7        46.650
C60        54.000                                                                                                                                    40573899.758 6 211279128.24606      -496.930 6        39.291                                                                    40573885.347 6 171681563.90206      -403.809 6        40.503
C25        55.000                                                                                                                                    24879662.725 7 129555106.25107     -3943.644 7        43.147                                                                    24879662.331 7 105274210.31107     -3204.444 7        43.704
C23        56.000                                                                                                                                    22829560.989 8 118879869.27208     -1909.510 8        49.833                                                                    22829552.772 8  96599742.36208     -1551.522 8        49.614
C02        57.000                                                                                                                                    40743516.982 5 212162209.92805      -464.947 5        33.599    40743512.365 6 164057266.63606      -359.624 6        38.913    40743515.289 5 172399172.86105      -377.851 5        35.390
I03        58.000   113305787.129 6 368850968.61306      1038.431 6        40.856
C11        59.000                                                                                                                                    21992879.002 8 114523009.63208     -1833.042 8        48.364    21992875.758 8  88556608.15608     -1417.499 8        51.771    21992874.491 8  93059437.24908     -1489.417 8        49.009
C28        60.000                                                                                                                                    24633400.596 7 128272868.60707      2120.939 7        44.661                                                                    24633400.810 7 104232343.21507      1723.473 7        42.785
> 2025 01 01 17 45 15.0000000  0 54
G20         1.000    25645591.730 4 134768651.27304     -3638.267 4        28.910
G25         2.000    24781814.611 6 130229486.91406     -4389.160 6        37.350                                    24781815.294 4 101477617.67404     -3420.122 4        29.270    24781816.571 5 101477627.65405     -3420.062 5        35.238
G05         3.000    23281593.123 6 122345736.66106     -2143.363 6        41.066                                    23281588.244 6  95334398.65206     -1670.160 6        36.934    23281588.771 6  95334397.65806     -1669.939 6        38.763
G29         4.000    22133035.910 7 116310256.62007     -2961.952 7        45.655                                    22133032.144 7  90631534.31707     -2308.013 7        43.973    22133032.814 6  90631537.31706     -2308.079 6        41.928
S21         5.000    38488456.062 7 202257940.87707      -557.107 7        42.396
E13         6.000    24050882.425 7 126388580.41707      1173.192 7        47.611                                                                    24050882.824 8  94381288.55608       876.046 8        50.039    24050882.384 8  96843378.86708       898.935 8        50.465
G23         7.000    23517354.261 6 123584624.62306      2856.477 6        41.652                                    23517351.982 4  96299737.38604      2225.813 4        27.317    23517352.343 6  96299736.39506      2225.657 6        41.499
E15         8.000    23905189.273 7 125622943.96007     -1718.613 7        47.143                                                                    23905189.673 8  93809513.54308     -1283.405 8        50.541    23905189.222 8  96256694.14008     -1316.896 8        50.961
E30        10.000    28209333.113 6 148241241.61706     -3509.430 6        38.054                                                                    28209336.041 7 110699752.40507     -2620.684 7        42.684    28209335.492 7 113587558.97407     -2688.982 7        43.175
G26        11.000    20555812.370 8 108021908.98508      -322.986 8        49.681                                    20555811.053 8  84173102.18208      -251.678 8        51.130    20555811.181 7  84173122.17807      -251.679 7        45.907
S27        12.000    39267102.838 6 206350009.80506      -535.516 6        36.113
R15        13.000    21346339.828 8 114068666.04608     -4444.475 8        49.937                                                                    21346340.081 7  88720214.67807     -3456.861 7        44.591
S36        14.000    38259836.914 7 201057298.10707      -556.037 7        44.114
G27        15.000    23926066.680 6 125732588.48106      2725.397 6        40.410                                    23926065.028 5  97973598.69705      2123.676 5        33.623    23926065.595 6  97973512.71706      2123.787 6        36.423
S45        17.000    63471169.124 6 333543965.82606      -612.275 6        36.847
G31        18.000    23217619.279 7 122009697.95407     -3407.522 7        44.587                                    23217615.845 6  95072643.14306     -2655.212 6        39.934    23217616.799 6  95072622.14706     -2655.250 6        40.632
G16        19.000    21591067.410 7 113462090.35107      1865.776 7        45.698                                    21591062.575 5  88412139.25205      1453.849 5        33.389
E21        20.000    24106130.222 7 126678951.98907       671.858 7        47.488                                                                    24106129.456 8  94598137.83408       501.731 8        50.456    24106129.156 8  97065889.80508       514.797 8        50.852
E26        21.000    28182141.287 6 148098339.02006      2483.195 6        38.336                                                                    28182151.289 6 110593064.99106      1854.278 6        40.040    28182149.250 6 113478082.56706      1902.568 6        39.925
I06        22.000    38771516.701 6 152147964.35606      -407.782 6        41.337
S28        23.000    40964299.565 5 215268833.46805      -553.135 5        34.586
E34        24.000    27695270.218 6 145539931.76406     -3429.745 6        37.501                                                                    27695271.664 6 108682601.23406     -2561.123 6        41.950    27695270.576 6 111517779.61906     -2627.972 6        40.510
S23        25.000    38212833.069 7 200809754.06207      -558.680 7        44.751
C13        26.000                                                                                                                                    37737995.636 7 196511846.79107      -293.941 7        44.596    37737997.130 7 151955536.08907      -227.300 7        45.011    37737995.690 7 159682059.36707      -239.143 7        43.721
G18        27.000    20560393.400 8 108045948.49108      -340.142 8        49.765                                    20560389.382 7  84191821.39307      -265.046 7        43.443    20560389.468 8  84191812.39808      -265.096 8        50.003
I02        29.000    38728311.047 6 151978311.85906      -986.850 6        40.427
G28        30.000    24513880.289 6 128821453.87306     -4026.443 6        38.556                                    24513880.941 3 100380439.54103     -3137.483 3        23.276    24513881.249 6 100380436.52006     -3137.424 6        39.658
R02        31.000    23826281.106 6 127141626.55106      2661.417 6        41.001                                                                    23826283.041 6  98887948.04506      2070.292 6        37.278
C12        32.000                                                                                                                                    25983309.837 6 135302180.19506     -3449.731 6        37.372    25983307.034 7 104624355.32707     -2667.744 7        42.305    25983305.600 6 109944196.46806     -2803.384 6        41.182
R17        33.000    20440401.329 8 109381083.45708     -3190.773 8        50.470                                                                    20440400.013 7  85074343.70707     -2481.739 7        46.571
R08        34.000    24625547.909 5 131868593.34905     -3096.189 5        35.890                                                                    24625552.092 6 102564436.94006     -2408.085 6        38.237
E09        35.000    29069343.034 5 152760426.98505      -472.812 5        35.548                                                                    29069349.438 6 114074360.12306      -353.271 6        39.447    29069348.573 6 117050231.97206      -362.397 6        39.952
R18        36.000    19355286.152 8 103320238.78708        -3.639 8        51.556                                                                    19355285.732 7  80360392.04407        -2.876 7        47.463
E27        37.000    24122046.858 8 126762449.77108     -2157.987 8        48.100                                                                    24122046.508 8  94660423.91508     -1611.476 8        50.180    24122046.153 8  97129806.32008     -1653.488 8        50.507
R16        38.000    19421394.008 8 103745721.68608      -667.838 8        52.339                                                                    19421392.982 7  80691172.98407      -519.439 7        47.633
C22        39.000                                                                                                                                    26346483.418 6 137193045.26006     -1420.149 6        39.823                                                                    26346478.810 6 111480564.85606     -1154.131 6        39.300
R09        40.000    22181539.984 7 118448253.00807      3094.743 7        45.728                                                                    22181539.020 7  92126442.42907      2407.031 7        43.837
C34        41.000                                                                                                                                    23246027.774 7 121048502.73307     -2853.190 7        46.972                                                                    23246027.437 7  98361962.78807     -2318.610 7        46.536
S44        42.000    40574374.373 6 213219956.30206      -501.299 6        38.003
C38        43.000                                                                                                                                    38759579.557 7 201831461.67307     -1034.100 7        43.786                                                                    38759576.949 7 164004658.89507      -840.438 7        43.554
C05        44.000                                                                                                                                    39394410.091 6 205137047.73806      -487.808 6        37.981    39394405.313 6 158624997.14906      -377.071 6        41.602    39394408.255 6 166690754.30906      -396.397 6        40.522
C08        45.000                                                                                                                                    37764341.154 6 196649029.40206      -546.508 6        41.921    37764335.155 7 152061579.32807      -422.634 7        45.601    37764334.498 7 159793496.28107      -444.249 7        42.728
R19        47.000    21716429.571 6 116168602.33906      2522.135 6        38.495                                                                    21716429.764 6  90353519.45406      1961.645 6        41.652
C43        48.000                                                                                                                                    21539329.057 8 112161266.50108      -557.164 8        51.491                                                                    21539327.685 8  91140343.31008      -452.903 8        49.632
S48        51.000    77219424.017 6 405790969.98606      -596.254 6        38.039
R01        52.000    23066378.891 6 123303043.21606       -87.501 6        40.446                                                                    23066379.577 5  95902357.57005       -68.075 5        34.938
C37        53.000                                                                                                                                    24148136.706 7 125745712.64007      1128.129 7        45.937                                                                    24148140.122 7 102178715.46707       916.477 7        46.718
C60        54.000                                                                                                                                    40574376.652 6 211281612.34906      -496.854 6        39.174                                                                    40574362.264 6 171683582.44306      -403.678 6        40.586
C25        55.000                                                                                                                                    24883449.328 7 129574825.01707     -3943.863 7        43.003                                                                    24883449.238 7 105290233.44207     -3204.946 7        43.953
C23        56.000                                                                                                                                    22831395.400 8 118889422.35308     -1911.802 8        50.001                                                                    22831387.420 8  96607505.04408     -1553.636 8        49.543
C02        57.000                                                                                                                                    40743963.036 5 212164534.07705      -464.673 5        33.922    40743958.606 6 164059063.83706      -359.204 6        38.979    40743961.450 5 172401061.44905      -377.668 5        35.900
I03        58.000   113304463.615 6 368845775.19306      1038.808 6        40.858
C11        59.000                                                                                                                                    21994639.672 8 114532177.83808     -1834.227 8        48.557    21994636.198 8  88563697.59408     -1418.296 8        51.544    21994635.112 8  93066887.17608     -1490.613 8        48.999
C28        60.000                                                                                                                                    24631364.340 7 128262264.83907      2120.555 7        44.405                                                                    24631364.459 7 104223726.81507      1722.931 7        42.838
> 2025 01 01 17 45 20.0000000  0 54
G20         1.000    25649055.415 4 134786845.13004     -3639.167 4        28.303
G25         2.000    24785990.821 6 130251434.15606     -4389.335 6        37.263                                    24785991.727 4 101494719.40104     -3420.258 4        29.185    24785993.152 5 101494729.40605     -3420.310 5        35.419
G05         3.000    23283633.876 6 122356461.42806     -2146.455 6        41.302                                    23283629.079 6  95342755.64506     -1672.573 6        36.832    23283630.114 6  95342754.66206     -1672.426 6        39.018
G29         4.000    22135854.809 7 116325069.97807     -2963.211 7        45.651                                    22135851.019 7  90643077.18707     -2308.993 7        43.805    22135851.525 6  90643080.17906     -2308.898 6        41.890
S21         5.000    38488985.274 7 202260727.23607      -557.212 7        42.398
E13         6.000    24049767.089 7 126382719.45807      1171.433 7        47.525                                                                    24049767.480 8  94376911.87008       874.775 8        50.030    24049767.061 8  96838888.01008       897.578 8        50.336
G23         7.000    23514636.647 6 123570345.66806      2855.250 6        41.440                                    23514634.886 4  96288610.94204      2224.863 4        27.365    23514634.584 6  96288609.94106      2225.044 6        41.402
E15         8.000    23906825.486 7 125631541.83307     -1720.355 7        46.956                                                                    23906825.771 8  93815934.02508     -1284.617 8        50.544    23906825.369 8  96263282.11508     -1318.203 8        50.881
E30        10.000    28212672.580 6 148258790.02706     -3509.787 6        38.030                                                                    28212675.464 7 110712856.72007     -2620.839 7        42.790    28212674.902 7 113601005.15107     -2689.259 7        43.272
G26        11.000    20556121.114 8 108023532.02108      -326.104 8        49.702                                    20556119.894 8  84174366.88908      -254.108 8        51.020    20556120.197 7  84174386.89407      -254.073 7        46.189
S27        12.000    39267612.759 5 206352688.37105      -535.931 5        35.695
R15        13.000    21350499.250 8 114090894.31708     -4446.676 8        49.625                                                                    21350500.219 7  88737503.33107     -3458.512 7        44.892
S36        14.000    38260365.209 7 201060079.70807      -556.225 7        43.973
G27        15.000    23923473.678 6 125718963.10106      2724.984 6        40.734                                    23923472.301 5  97962981.55605      2123.358 5        33.599    23923472.886 6  97962895.58806      2123.155 6        36.408
S45        17.000    63471701.385 6 333547027.93406      -612.823 6        36.820
G31        18.000    23220862.036 7 122026740.22207     -3409.214 7        44.030                                    23220858.862 6  95085922.83206     -2656.530 6        39.775    23220859.284 6  95085901.82606     -2656.524 6        40.949
G16        19.000    21589293.476 7 113452767.49907      1863.533 7        45.998                                    21589288.495 5  88404874.68805      1452.109 5        33.287
E21        20.000    24105491.892 7 126675597.26207       670.221 7        47.488                                                                    24105491.040 8  94595632.67708       500.563 8        50.407    24105490.767 8  97063319.29208       513.569 8        50.809
E26        21.000    28179778.885 6 148085924.77106      2482.730 6        38.120                                                                    28179788.750 6 110583794.77206      1854.127 6        40.169    28179786.661 6 113468570.49606      1902.418 6        40.031
I06        22.000    38772035.818 6 152150003.94506      -407.844 6        41.566
S28        23.000    40964824.467 5 215271598.79505      -552.881 5        34.248
E34        24.000    27698533.858 6 145557081.37506     -3430.179 6        37.108                                                                    27698535.048 6 108695407.75206     -2561.316 6        41.909    27698534.362 6 111530920.21306     -2628.070 6        40.253
S23        25.000    38213366.175 7 200812548.13107      -558.797 7        44.754
C13        26.000                                                                                                                                    37738278.400 7 196513319.45507      -295.033 7        44.758    37738280.026 7 151956674.84007      -228.066 7        45.162    37738278.499 7 159683255.99707      -239.636 7        43.755
G18        27.000    20560718.530 8 108047657.04008      -343.022 8        49.651                                    20560714.536 7  84193152.73207      -267.291 7        43.361    20560714.569 8  84193143.73308      -267.335 8        50.198
