     3.04           OBSERVATION DATA    M                   RINEX VERSION / TYPE
ssrcrin-15.6.1x                         20250101 233000 UTC PGM / RUN BY / DATE 
(00000000023479385599111004) Septentrio proprietary         COMMENT             
rref                                                        MARKER NAME         
01                                                          MARKER NUMBER       
geodetic                                                    MARKER TYPE         
NFB                 CLIMERS@TUW                             OBSERVER / AGENCY   
3297213             SEPT ASTERX SB3 PROB4.14.4              REC # / TYPE / VERS 
Unknown             Unknown                                 ANT # / TYPE        
  4127831.9440  1207193.3117  4695247.2722                  APPROX POSITION XYZ 
        0.0000        0.0000        0.0000                  ANTENNA: DELTA H/E/N
G   23 X1  C1C L1C D1C S1C C1W S1W C2W L2W D2W S2W C2L L2L  SYS / # / OBS TYPES 
       D2L S2L C5Q L5Q D5Q S5Q C1L L1L D1L S1L              SYS / # / OBS TYPES 
E   21 X1  C1C L1C D1C S1C C6C L6C D6C S6C C5Q L5Q D5Q S5Q  SYS / # / OBS TYPES 
       C7Q L7Q D7Q S7Q C8Q L8Q D8Q S8Q                      SYS / # / OBS TYPES 
S    9 X1  C1C L1C D1C S1C C5I L5I D5I S5I                  SYS / # / OBS TYPES 
R   17 X1  C1C L1C D1C S1C C2P L2P D2P S2P C2C L2C D2C S2C  SYS / # / OBS TYPES 
       C3Q L3Q D3Q S3Q                                      SYS / # / OBS TYPES 
C   25 X1  C1P L1P D1P S1P C5P L5P D5P S5P C2I L2I D2I S2I  SYS / # / OBS TYPES 
       C7I L7I D7I S7I C6I L6I D6I S6I C7D L7D D7D S7D      SYS / # / OBS TYPES 
J   17 X1  C1C L1C D1C S1C C2L L2L D2L S2L C5Q L5Q D5Q S5Q  SYS / # / OBS TYPES 
       C1L L1L D1L S1L                                      SYS / # / OBS TYPES 
I    5 X1  C5A L5A D5A S5A                                  SYS / # / OBS TYPES 
SEPTENTRIO RECEIVERS OUTPUT ALIGNED CARRIER PHASES.         COMMENT             
NO FURTHER PHASE SHIFT APPLIED IN THE RINEX ENCODER.        COMMENT             
G L1C                                                       SYS / PHASE SHIFT   
G L2W                                                       SYS / PHASE SHIFT   
G L2L  0.00000                                              SYS / PHASE SHIFT   
G L5Q  0.00000                                              SYS / PHASE SHIFT   
G L1L  0.00000                                              SYS / PHASE SHIFT   
E L1C  0.00000                                              SYS / PHASE SHIFT   
E L6C  0.00000                                              SYS / PHASE SHIFT   
E L5Q  0.00000                                              SYS / PHASE SHIFT   
E L7Q  0.00000                                              SYS / PHASE SHIFT   
E L8Q  0.00000                                              SYS / PHASE SHIFT   
S L1C                                                       SYS / PHASE SHIFT   
S L5I                                                       SYS / PHASE SHIFT   
R L1C                                                       SYS / PHASE SHIFT   
R L2P  0.00000                                              SYS / PHASE SHIFT   
R L2C                                                       SYS / PHASE SHIFT   
R L3Q  0.00000                                              SYS / PHASE SHIFT   
C L1P  0.00000                                              SYS / PHASE SHIFT   
C L5P  0.00000                                              SYS / PHASE SHIFT   
C L2I                                                       SYS / PHASE SHIFT   
C L7I                                                       SYS / PHASE SHIFT   
C L6I                                                       SYS / PHASE SHIFT   
C L7D                                                       SYS / PHASE SHIFT   
J L1C                                                       SYS / PHASE SHIFT   
J L2L  0.00000                                              SYS / PHASE SHIFT   
J L5Q  0.00000                                              SYS / PHASE SHIFT   
J L1L  0.00000                                              SYS / PHASE SHIFT   
I L5A                                                       SYS / PHASE SHIFT   
  2025     1     1    23    30    0.0000000     GPS         TIME OF FIRST OBS   
 C1C    0.000 C2C    0.000 C2P    0.000                     GLONASS COD/PHS/BIS 
DBHZ                                                        SIGNAL STRENGTH UNIT
    18                                                      LEAP SECONDS        
 24 R01  1 R02 -4 R03  5 R04  6 R05  1 R06 -4 R07  5 R08  6 GLONASS SLOT / FRQ #
    R09 -2 R10 -7 R11  0 R12 -1 R13 -2 R14 -7 R15  0 R16 -1 GLONASS SLOT / FRQ #
    R17  4 R18 -3 R19  3 R20  2 R21  4 R22 -3 R23  3 R24  2 GLONASS SLOT / FRQ #
                                                            END OF HEADER       
> 2025 01 01 23 30  0.0000000  0 53
G10         1.000    24148359.811 6 126900583.75106     -3544.966 6        41.998                                    24148357.735 5  98883633.06605     -2762.316 5        35.386    24148356.902 6  98883610.07806     -2762.433 6        37.928
G14         2.000    24148328.137 6 126900369.60406     -1792.229 6        39.535                                    24148323.987 3  98883407.33803     -1396.538 3        22.419    24148324.250 6  98883403.32006     -1396.530 6        38.619
C33         3.000                                                                                                                                    25090259.385 7 130651594.44507     -3445.188 7        43.780                                                                    25090271.183 7 106165181.74507     -2799.404 7        44.748
E31         4.000    27183969.571 6 142852769.95306     -2702.977 6        39.760                                                                    27183969.405 6 106675782.29406     -2018.519 6        41.566    27183969.574 7 109458625.28607     -2071.119 7        42.044
S21         5.000    38439282.617 7 201999558.65107      -483.562 7        42.246
E13         6.000    27930124.596 6 146774134.34406     -2990.985 6        36.314                                                                    27930125.766 6 109604266.06106     -2233.781 6        41.330    27930125.220 6 112463477.63806     -2291.903 6        41.349
G28         7.000    24993960.283 6 131344151.90806      2315.154 6        37.728                                    24993956.180 3 102346072.94503      1804.012 3        20.381    24993956.231 6 102346080.95606      1803.964 6        38.090
G03         8.000    21790197.591 7 114508357.91207      2215.074 7        45.546                                    21790195.704 7  89227333.06107      1726.031 7        44.862    21790196.418 7  89227331.05307      1726.160 7        43.039
G02         9.000    20850004.174 8 109567566.14708       358.420 8        49.198                                    20849997.416 7  85377319.52707       279.291 7        42.195
R12        10.000    23965847.235 7 128021276.34007     -2761.297 7        43.608                                                                    23965847.453 6  99572135.87706     -2147.697 6        40.145
C30        11.000                                                                                                                                    22551207.223 8 117430069.85108      1245.905 8        48.988                                                                    22551207.585 8  95421553.99308      1012.502 8        49.047
S27        12.000    39103015.968 5 205487768.18605      -457.741 5        35.933
R20        13.000    20195574.345 6 107994866.73106     -2715.795 6        38.357                                                                    20195576.545 7  83996074.73707     -2112.317 7        46.461
S36        14.000    38207213.866 7 200780795.76407      -482.860 7        43.972
G27        15.000    25247670.888 5 132677674.79705     -4362.941 5        34.000                                    25247668.534 3 103385356.64203     -3399.694 3        21.048    25247669.237 4 103385270.67304     -3400.020 4        29.754
S45        17.000    63410504.359 6 333225756.84006      -525.167 6        38.132
E08        18.000    27549599.147 6 144774158.00606     -2987.899 6        38.387                                                                    27549597.835 7 108110573.74907     -2231.272 7        42.017    27549596.721 6 110930845.36306     -2289.438 6        40.839
E12        19.000    28126813.971 5 147807408.23405      2070.998 5        34.510                                                                    28126810.337 6 110375649.50706      1546.553 6        38.117    28126809.762 6 113255013.86606      1586.783 6        37.112
G17        20.000    24018431.820 6 126217726.27306      2408.723 6        41.287                                    24018427.051 5  98351463.39305      1876.925 5        35.981    24018427.780 6  98351462.41006      1876.899 6        38.550
E26        21.000    23944439.558 7 125829227.89807     -1660.561 7        47.296                                                                    23944436.943 8  93963582.02408     -1240.046 8        50.299    23944436.626 8  96414781.40308     -1272.359 8        50.776
I06        22.000    38333851.076 7 150430503.27207      -253.173 7        42.658
S28        23.000    40887222.408 5 214863826.16505      -475.633 5        34.329
G08        24.000    22534969.471 7 118422077.41307     -3773.293 7        45.135                                    22534967.823 7  92276943.29507     -2940.227 7        42.743    22534968.682 7  92276944.30907     -2940.282 7        42.019
S23        25.000    38159934.046 7 200531799.20807      -480.316 7        44.754
C13        26.000                                                                                                                                    40638592.736 6 211616008.91606     -1263.666 6        37.229    40638593.976 6 163635031.91506      -977.354 6        39.901    40638591.791 6 171955427.95606     -1026.938 6        36.934
E24        27.000    27758334.493 6 145871065.17606      -617.770 6        38.583                                                                    27758333.156 6 108929703.53306      -461.275 6        41.945    27758332.603 7 111771344.59607      -473.462 7        42.191
R21        29.000    19558790.772 8 104663046.40108      1207.138 8        51.092                                                                    19558789.632 7  81404595.07607       938.889 7        46.831
R05        31.000    19877906.821 8 106258846.26608     -2647.217 8        50.995                                                                    19877905.770 7  82645779.54207     -2058.919 7        47.769
R13        32.000    23770488.666 6 126933105.31906      -286.811 6        37.622
E29        33.000    25107903.239 7 131942999.63807      2068.307 7        45.356                                                                    25107901.407 8  98528876.78208      1544.498 8        48.148    25107901.439 8 101099189.98008      1584.836 8        48.567
C16        35.000                                                                                                                                    39911954.836 6 207832045.62306       981.506 6        39.691    39911954.799 6 160708931.60506       759.010 6        41.866    39911952.152 6 168880560.13706       797.657 6        37.781
C32        36.000                                                                                                                                    23263493.181 8 121139166.82508      1984.000 8        49.077                                                                    23263492.827 8  98435516.67808      1612.226 8        49.005
G32        37.000    22147895.896 7 116388021.13507     -1886.808 7        47.757                                    22147893.822 7  90691966.93407     -1470.241 7        47.015    22147894.200 7  90691975.94007     -1470.333 7        44.125
E07        38.000    24437059.167 7 128417631.11307      -651.742 7        46.033                                                                    24437059.280 8  95896321.06408      -486.711 8        49.325    24437058.910 8  98397956.58008      -499.416 8        50.046
C41        39.000                                                                                                                                    22040903.619 8 114772801.38208     -1174.463 8        50.834                                                                    22040908.529 8  93262332.13108      -954.280 8        50.658
C39        40.000                                                                                                                                    39505376.858 6 205714890.69106       640.123 6        41.681                                                                    39505372.945 7 167160194.48807       520.209 7        42.482
E33        41.000    23716853.696 8 124632995.35208       677.672 8        48.010                                                                    23716851.424 8  93070127.07708       506.042 8        50.684    23716851.279 8  95498039.34708       519.269 8        51.310
S44        42.000    40527635.150 6 212974348.26306      -538.420 6        38.844
R06        43.000    20277793.837 6 108206253.33206      2370.985 6        41.576
C05        44.000                                                                                                                                    39131539.807 6 203768238.27506      -455.902 6        37.947    39131534.769 7 157566552.84707      -352.539 7        43.731    39131536.920 6 165578489.27006      -370.507 6        40.582
R22        48.000    23410625.067 7 124967522.10007      3444.768 7        44.315                                                                    23410624.334 6  97196955.88406      2679.292 6        40.615
I05        49.000  -497529627.689 6-876627918.54506       250.519 6        36.250
C06        50.000                                                                                                                                    39639940.242 6 206415596.49806      1089.130 6        37.966    39639935.480 6 159613613.77006       842.148 6        41.876    39639935.705 6 167729559.23406       885.103 6        40.188
S48        51.000    77195734.134 6 405666498.15606      -495.731 6        38.426
G21        52.000    20719634.501 7 108882487.54707     -1151.667 7        44.147                                    20719628.627 6  84843519.05806      -897.402 6        37.520
C09        53.000                                                                                                                                    40680787.627 6 211835542.67906      1310.541 6        37.690    40680784.537 7 163804666.02307      1013.455 7        42.009    40680782.831 6 172133707.32506      1065.167 6        38.886
C60        54.000                                                                                                                                    40527633.883 6 211038237.34506      -533.410 6        40.329                                                                    40527617.925 6 171485826.39006      -433.255 6        40.727
C27        55.000                                                                                                                                    21698946.229 8 112992127.41408     -1720.446 8        51.378                                                                    21698944.310 8  91815363.53908     -1397.920 8        49.424
R04        56.000    23702867.807 7 126927781.14607     -4757.508 7        42.447                                                                    23702866.657 6  98721596.47206     -3700.306 6        37.667
C02        57.000                                                                                                                                    40526894.491 5 211034237.03705      -496.246 5        33.599    40526888.487 6 163185055.29006      -383.744 6        40.994    40526891.970 6 171482609.64006      -403.195 6        36.926
I03        58.000   105847053.045 6 339581342.75706       962.309 6        40.515
R07        59.000    24121115.042 7 129122246.72607      3891.989 7        42.639                                                                    24121114.827 6 100428459.73506      3027.104 6        37.629
C28        60.000                                                                                                                                    24484024.501 7 127495046.52407     -3563.718 7        43.225                                                                    24484022.918 7 103600303.27407     -2895.707 7        43.928
> 2025 01 01 23 30  5.0000000  0 53
G10         1.000    24151732.713 6 126918309.41906     -3545.394 6        41.671                                    24151730.756 5  98897445.28205     -2762.648 5        35.167    24151729.885 6  98897422.29406     -2762.752 6        37.690
G14         2.000    24150033.988 6 126909336.42606     -1794.553 6        39.048                                    24150030.269 3  98890394.45803     -1398.356 3        22.152    24150031.148 6  98890390.49006     -1398.440 6        38.018
C33         3.000                                                                                                                                    25093567.778 7 130668822.05707     -3445.934 7        44.283                                                                    25093579.611 7 106179180.60707     -2799.958 7        45.023
E31         4.000    27186541.903 6 142866287.84206     -2704.386 6        39.372                                                                    27186541.747 6 106685876.79806     -2019.372 6        41.480    27186541.905 7 109468983.12707     -2072.038 7        42.157
S21         5.000    38439742.742 7 202001975.59807      -483.392 7        42.396
E13         6.000    27932970.821 6 146789090.53706     -2991.332 6        36.389                                                                    27932971.947 6 109615434.62506     -2233.715 6        41.230    27932971.052 6 112474937.58006     -2292.182 6        41.209
G28         7.000    24991757.361 6 131332577.21906      2314.462 6        38.135                                    24991753.678 3 102337053.71303      1803.476 3        20.405    24991754.033 6 102337061.70906      1803.644 6        38.336
G03         8.000    21788090.744 7 114497286.26307      2213.520 7        45.479                                    21788088.819 7  89218705.80807      1724.820 7        44.781    21788089.283 7  89218703.81507      1724.798 7        42.984
G02         9.000    20849663.988 8 109565778.21208       356.658 8        49.372                                    20849657.179 7  85375926.33507       277.915 7        42.104
R12        10.000    23968431.362 7 128035090.23807     -2764.423 7        42.916                                                                    23968432.537 6  99582880.04806     -2150.010 6        39.712
C30        11.000                                                                                                                                    22550012.061 8 117423845.20408      1243.984 8        49.247                                                                    22550012.216 8  95416495.96808      1010.953 8        49.208
S27        12.000    39103453.449 5 205490056.33505      -457.660 5        35.567
R20        13.000    20198115.584 6 108008452.49206     -2718.706 6        38.664                                                                    20198117.159 7  84006641.43307     -2114.529 7        46.654
S36        14.000    38207674.242 7 200783209.23707      -482.514 7        43.820
G27        15.000    25251822.491 5 132699488.98605     -4362.814 5        34.214                                    25251819.734 3 103402354.69103     -3399.579 3        21.167    25251820.717 4 103402268.69404     -3399.798 4        28.806
S45        17.000    63410961.945 6 333228382.51406      -525.169 6        37.947
E08        18.000    27552442.324 6 144789100.10706     -2989.069 6        38.595                                                                    27552441.079 6 108121731.79206     -2232.152 6        41.878    27552440.037 6 110942294.49806     -2290.283 6        40.834
E12        19.000    28124843.395 5 147797053.03805      2071.168 5        34.738                                                                    28124839.944 6 110367916.74106      1546.515 6        38.030    28124839.475 6 113247079.36206      1586.979 6        37.240
G17        20.000    24016140.602 6 126205686.09906      2407.176 6        40.882                                    24016135.868 5  98342081.45305      1875.715 5        35.910    24016136.383 6  98342080.44506      1875.832 6        38.483
E26        21.000    23946020.171 7 125837533.40307     -1661.685 7        47.705                                                                    23946017.437 8  93969784.18808     -1240.888 8        50.278    23946017.114 8  96421145.36108     -1273.228 8        50.898
I06        22.000    38334174.202 7 150431769.44607      -253.150 7        42.637
S28        23.000    40887676.466 5 214866203.18105      -475.588 5        34.300
G08        24.000    22538560.310 7 118440947.10407     -3774.729 7        45.311                                    22538558.594 7  92291646.95007     -2941.351 7        42.692    22538559.741 7  92291647.95307     -2941.294 7        42.169
S23        25.000    38160390.496 7 200534200.49007      -480.324 7        44.652
C13        26.000                                                                                                                                    40639805.416 6 211622327.70106     -1263.643 6        37.648    40639807.035 6 163639917.98106      -977.295 6        39.616    40639805.175 6 171960562.47906     -1026.752 6        37.055
E24        27.000    27758923.396 6 145874159.71106      -620.176 6        38.510                                                                    27758922.035 7 108932014.38507      -463.022 7        42.125    27758921.387 7 111773715.72007      -475.265 7        42.449
R21        29.000    19557663.898 8 104657017.57608      1204.304 8        51.442                                                                    19557662.835 7  81399905.99507       936.658 7        46.899
R05        31.000    19880384.494 8 106272090.32408     -2650.545 8        50.843                                                                    19880383.177 7  82656080.47707     -2061.541 7        47.883
R13        32.000    23770758.879 6 126934549.67606      -290.984 6        36.975
E29        33.000    25105935.650 7 131932661.28207      2066.987 7        45.252                                                                    25105934.167 8  98521156.57908      1543.543 8        48.246    25105934.174 8 101091268.38308      1583.799 8        48.709
C16        35.000                                                                                                                                    39911012.115 6 207827139.64206       980.865 6        39.513    39911012.228 6 160705137.97706       758.487 6        41.843    39911010.135 6 168876573.62906       797.229 6        37.966
C32        36.000                                                                                                                                    23261588.793 8 121129250.88608      1982.223 8        49.249                                                                    23261588.591 8  98427459.17008      1610.914 8        49.145
G32        37.000    22149692.436 7 116397462.14107     -1889.623 7        47.672                                    22149690.381 7  90699323.56307     -1472.433 7        46.932    22149690.785 7  90699332.55507     -1472.455 7        43.972
E07        38.000    24437680.377 7 128420895.63207      -654.176 7        46.078                                                                    24437680.478 8  95898758.84708      -488.472 8        49.414    24437680.117 8  98400457.96008      -501.218 8        50.152
C41        39.000                                                                                                                                    22042032.380 8 114778679.10608     -1176.725 8        50.895                                                                    22042037.267 8  93267108.27308      -956.108 8        50.836
C39        40.000                                                                                                                                    39504762.948 6 205711692.52106       639.109 6        41.833                                                                    39504758.733 7 167157595.70507       519.496 7        42.718
E33        41.000    23716209.330 8 124629609.26708       676.688 8        48.031                                                                    23716207.102 8  93067598.50508       505.309 8        50.653    23716206.950 8  95495444.81308       518.470 8        51.380
S44        42.000    40528144.476 6 212977039.19906      -538.247 6        38.793
R06        43.000    20275573.458 6 108194406.32406      2367.740 6        41.607
C05        44.000                                                                                                                                    39131977.521 6 203770517.78106      -455.851 6        38.108    39131972.653 7 157568315.50807      -352.475 7        43.674    39131974.714 6 165580341.55406      -370.309 6        40.853
R22        48.000    23407398.627 7 124950297.68207      3444.759 7        44.673                                                                    23407397.610 6  97183559.12906      2679.328 6        40.980
I05        49.000  -497529946.972 5-876629172.34705       250.720 5        35.552
C06        50.000                                                                                                                                    39638895.095 6 206410152.45806      1088.550 6        38.021    39638889.798 7 159609404.09507       841.718 7        42.004    39638890.292 6 167725135.51606       884.656 6        40.369
S48        51.000    77196192.332 6 405668977.01706      -495.931 6        38.246
G21        52.000    20720730.966 7 108888250.16307     -1153.445 7        44.349                                    20720725.203 6  84848009.41206      -898.787 6        37.474
C09        53.000                                                                                                                                    40679529.364 6 211828990.27906      1310.215 6        38.372    40679526.455 7 163799599.30507      1013.184 7        42.021    40679524.642 6 172128382.98106      1064.929 6        38.841
C60        54.000                                                                                                                                    40528146.062 6 211040903.82006      -533.299 6        40.281                                                                    40528130.029 6 171487993.12806      -433.148 6        40.984
C27        55.000                                                                                                                                    21700599.234 8 113000735.22908     -1722.714 8        51.346                                                                    21700597.331 8  91822358.10008     -1399.751 8        49.694
R04        56.000    23707309.176 7 126951569.77507     -4757.952 7        42.535                                                                    23707308.601 6  98740098.71406     -3700.513 6        37.437
C02        57.000                                                                                                                                    40527371.581 5 211036718.45405      -496.397 5        33.778    40527364.948 6 163186974.07706      -383.770 6        40.768    40527368.413 6 171484626.01206      -403.212 6        36.828
I03        58.000   105845826.663 6 339576531.16706       962.206 6        40.307
R07        59.000    24117479.721 7 129102787.45307      3891.435 7        42.688                                                                    24117479.533 6 100413324.77506      3026.913 6        37.278
C28        60.000                                                                                                                                    24487446.796 7 127512866.95207     -3564.565 7        43.126                                                                    24487444.868 7 103614783.84807     -2896.405 7        43.691
> 2025 01 01 23 30 10.0000000  0 53
G10         1.000    24155105.339 6 126936036.83206     -3545.677 6        40.830                                    24155104.089 5  98911258.84805     -2762.862 5        34.867    24155103.966 6  98911235.85306     -2762.874 6        38.078
G14         2.000    24151742.536 6 126918316.07906     -1797.105 6        39.985                                    24151738.966 3  98897391.60103     -1400.356 3        21.952    24151739.149 6  98897387.60206     -1400.476 6        37.709
C33         3.000                                                                                                                                    25096877.090 7 130686053.76307     -3446.661 7        44.218                                                                    25096888.649 7 106193182.78107     -2800.776 7        44.945
E31         4.000    27189115.800 6 142879812.33906     -2705.237 6        40.267                                                                    27189115.367 6 106695976.26906     -2020.292 6        41.454    27189115.342 7 109479346.05507     -2072.847 7        42.121
S21         5.000    38440208.954 7 202004392.97507      -483.326 7        42.546
E13         6.000    27935817.362 6 146804048.89406     -2992.015 6        36.348                                                                    27935818.299 6 109626604.81306     -2234.191 6        41.104    27935817.505 6 112486399.15506     -2292.479 6        40.989
G28         7.000    24989555.122 6 131321007.14606      2313.548 6        38.294                                    24989551.972 3 102328038.06403      1802.762 3        19.761    24989552.217 6 102328046.05606      1802.858 6        37.924
G03         8.000    21785985.077 7 114486222.72307      2212.001 7        45.717                                    21785983.467 7  89210084.87207      1723.638 7        44.751    21785983.982 7  89210082.86307      1723.672 7        42.681
G02         9.000    20849325.502 8 109563999.36908       354.948 8        49.376                                    20849318.677 7  85374540.22307       276.582 7        42.051
R12        10.000    23971021.200 7 128048919.44107     -2767.253 7        44.605                                                                    23971021.370 6  99593636.07206     -2152.199 6        39.916
C30        11.000                                                                                                                                    22548818.368 8 117417630.43408      1242.036 8        49.243                                                                    22548818.696 8  95411445.95508      1009.211 8        49.243
S27        12.000    39103886.691 6 205492344.79806      -457.350 6        36.185
R20        13.000    20200659.518 6 108022052.49806     -2721.459 6        38.694                                                                    20200660.953 7  84017219.20307     -2116.569 7        46.753
S36        14.000    38208136.085 7 200785622.55507      -482.786 7        43.934
G27        15.000    25255972.983 5 132721302.50505     -4362.789 5        33.982                                    25255970.853 3 103419352.25203     -3399.568 3        20.310    25255970.145 4 103419266.24504     -3399.534 4        28.900
S45        17.000    63411417.630 6 333229408.34216      -525.100 6        37.633
E08        18.000    27555287.015 6 144804048.60206     -2990.332 6        38.721                                                                    27555285.691 6 108132894.61806     -2232.969 6        41.821    27555284.812 6 110953748.52506     -2291.285 6        40.789
E12        19.000    28122872.631 5 147786697.79805      2071.110 5        34.624                                                                    28122869.265 6 110360183.90806      1546.833 6        38.168    28122868.942 6 113239144.83806      1586.773 6        37.123
G17        20.000    24013850.603 6 126193653.17006      2405.923 6        40.412                                    24013846.115 5  98332705.14905      1874.739 5        35.695    24013846.553 6  98332704.15506      1874.656 6        38.571
E26        21.000    23947601.730 7 125845844.98807     -1662.908 7        47.831                                                                    23947599.110 8  93975990.89108     -1241.800 8        50.247    23947598.768 8  96427513.97908     -1274.152 8        50.792
I06        22.000    38334496.658 7 150433035.73107      -253.297 7        42.584
S28        23.000    40888126.007 5 214868580.43205      -475.402 5        34.005
G08        24.000    22542152.601 7 118459823.87607     -3776.024 7        44.832                                    22542150.733 7  92306356.12207     -2942.356 7        42.563    22542151.715 6  92306357.12706     -2942.338 6        41.909
S23        25.000    38160846.472 7 200536601.92707      -480.199 7        44.512
C13        26.000                                                                                                                                    40641018.848 6 211628645.69706     -1263.513 6        37.769    40641020.229 6 163644803.45606      -977.089 6        39.856    40641018.449 6 171965696.35706     -1026.678 6        37.168
E24        27.000    27759514.490 6 145877266.34406      -622.561 6        38.640                                                                    27759513.325 7 108934334.27407      -464.895 7        42.059    27759512.449 7 111776096.12607      -476.921 7        42.305
R21        29.000    19556540.219 8 104651003.34808      1201.466 8        51.415                                                                    19556539.128 7  81395228.25907       934.427 7        46.600
R05        31.000    19882865.500 8 106285351.53408     -2653.873 8        51.308                                                                    19882864.290 7  82666394.75407     -2064.156 7        47.719
R13        32.000    23771032.897 6 126936014.91106      -295.083 6        37.452
E29        33.000    25103969.865 7 131922330.10607      2065.605 7        45.099                                                                    25103968.404 8  98513441.74408      1542.520 8        48.194    25103968.155 8 101083352.29008      1582.731 8        48.651
C16        35.000                                                                                                                                    39910070.915 6 207822237.49206       980.067 6        39.628    39910070.741 6 160701347.32406       757.945 6        41.676    39910068.219 6 168872590.21906       796.395 6        37.845
C32        36.000                                                                                                                                    23259686.078 8 121119343.73508      1980.682 8        48.783                                                                    23259686.066 8  98419408.80508      1609.355 8        49.240
G32        37.000    22151491.975 7 116406917.48307     -1892.473 7        47.829                                    22151489.659 7  90706691.36407     -1474.651 7        46.873    22151489.731 7  90706700.35407     -1474.692 7        43.647
E07        38.000    24438304.022 7 128424172.37207      -656.498 7        46.329                                                                    24438303.964 8  95901205.76808      -490.256 8        49.406    24438303.666 8  98402968.71308      -503.013 8        49.990
C41        39.000                                                                                                                                    22043163.305 8 114784568.62108     -1179.047 8        50.770                                                                    22043168.289 8  93271893.97908      -958.100 8        50.875
C39        40.000                                                                                                                                    39504149.334 6 205708499.07406       638.223 6        41.924                                                                    39504145.478 7 167155000.77707       518.518 7        42.821
E33        41.000    23715565.983 8 124626228.32508       675.709 8        48.143                                                                    23715563.768 8  93065073.77708       504.606 8        50.594    23715563.535 8  95492854.22208       517.772 8        51.266
S44        42.000    40528654.836 6 212979730.38306      -538.270 6        38.598
R06        43.000    20273356.017 6 108182575.04306      2364.776 6        41.566
C05        44.000                                                                                                                                    39132414.957 6 203772797.55006      -456.011 6        38.030    39132410.286 7 157570078.35807      -352.513 7        43.702    39132412.620 6 165582194.04406      -370.556 6        40.925
R22        48.000    23404171.555 7 124933073.93007      3444.719 7        45.147                                                                    23404170.391 6  97170162.90306      2679.167 6        41.404
I05        49.000  -497530266.955 5-876630425.83005       250.672 5        35.319
C06        50.000                                                                                                                                    39637850.484 6 206404712.09506      1087.854 6        37.939    39637844.832 7 159605197.27507       841.207 7        42.351    39637845.518 6 167720714.79906       883.874 6        40.181
S48        51.000    77196654.886 6 405671456.16606      -495.817 6        38.210
G21        52.000    20721829.386 7 108894022.00907     -1155.201 7        44.524                                    20721823.532 6  84852506.95206      -900.157 6        37.380
C09        53.000                                                                                                                                    40678271.515 6 211822440.22306      1309.701 6        38.036    40678268.654 7 163794534.39007      1012.925 7        42.040    40678266.647 6 172123060.51506      1064.410 6        38.823
C60        54.000                                                                                                                                    40528657.862 6 211043570.55306      -533.395 6        40.410                                                                    40528642.119 6 171490160.06106      -433.480 6        40.942
C27        55.000                                                                                                                                    21702254.620 8 113009354.77508     -1724.990 8        51.225                                                                    21702252.685 8  91829362.17608     -1401.729 8        49.586
R04        56.000    23711752.399 7 126975360.67107     -4758.443 7        42.863                                                                    23711751.557 6  98758602.74306     -3700.997 6        37.648
C02        57.000                                                                                                                                    40527848.391 5 211039200.11405      -496.374 5        33.790    40527841.542 6 163188893.06906      -383.697 6        40.682    40527845.155 6 171486642.57006      -403.319 6        37.017
I03        58.000   105844600.780 6 339571719.91806       962.270 6        40.493
R07        59.000    24113844.398 7 129083330.95907      3891.150 7        43.103                                                                    24113844.151 6 100398192.02806      3026.340 6        37.830
C28        60.000                                                                                                                                    24490869.699 7 127530692.53507     -3565.613 7        43.630                                                                    24490868.376 7 103629268.58207     -2897.314 7        44.098
> 2025 01 01 23 30 15.0000000  0 53
G10         1.000    24158479.900 6 126953766.12506     -3546.003 6        39.982                                    24158477.826 5  98925073.88505     -2763.115 5        34.576    24158477.509 6  98925050.87006     -2763.052 6        37.894
G14         2.000    24153454.378 6 126927308.72106     -1799.946 6        39.012                                    24153450.291 3  98904398.85203     -1402.555 3        22.171    24153451.132 6  98904394.85606     -1402.502 6        37.924
C33         3.000                                                                                                                                    25100187.341 7 130703289.70307     -3447.596 7        43.824                                                                    25100198.686 7 106207188.39107     -2801.653 7        44.746
E31         4.000    27191690.600 6 142893343.69406     -2706.999 6        39.604                                                                    27191690.370 6 106706080.83806     -2021.419 6        41.321    27191690.239 7 109489714.23407     -2074.179 7        42.083
S21         5.000    38440665.909 7 202006810.66307      -483.560 7        42.354
E13         6.000    27938663.869 6 146819009.49006     -2992.136 6        36.612                                                                    27938665.106 6 109637776.68506     -2234.471 6        40.875    27938664.576 6 112497862.47606     -2292.882 6        41.023
G28         7.000    24987354.638 6 131309441.81806      2312.422 6        38.351                                    24987350.981 3 102319026.11803      1801.902 3        19.851    24987351.242 6 102319034.12306      1801.980 6        37.595
G03         8.000    21783881.794 7 114475167.47207      2210.153 7        45.884                                    21783879.698 7  89201470.39407      1722.199 7        44.751    21783880.260 7  89201468.39407      1722.165 7        42.787
G02         9.000    20848988.929 8 109562229.81408       352.956 8        49.323                                    20848981.951 7  85373161.34807       275.029 7        42.100
R12        10.000    23973614.142 7 128062764.07707     -2770.473 7        44.510                                                                    23973612.867 6  99604404.14906     -2154.846 6        39.177
C30        11.000                                                                                                                                    22547626.655 8 117411425.69908      1239.925 8        49.180                                                                    22547627.117 8  95406404.09908      1007.423 8        49.146
S27        12.000    39104319.168 5 205494633.48605      -457.747 5        35.738
R20        13.000    20203204.940 6 108035666.91806     -2724.421 6        39.426                                                                    20203206.704 7  84027808.18707     -2118.923 7        46.886
S36        14.000    38208593.746 7 200788036.08507      -482.756 7        43.905
G27        15.000    25260123.860 5 132743115.49805     -4362.565 5        33.731                                    25260121.820 3 103436349.38203     -3399.391 3        19.701    25260122.535 4 103436263.37804     -3399.236 4        27.772
S45        17.000    63411872.336 6 333232034.46206      -525.275 6        37.535
E08        18.000    27558132.727 6 144819003.65306     -2991.646 6        38.862                                                                    27558131.412 6 108144062.34006     -2234.091 6        41.821    27558130.828 6 110965207.58806     -2292.361 6        40.949
E12        19.000    28120901.955 5 147776342.64505      2070.912 5        34.800                                                                    28120898.681 6 110352451.18106      1546.461 6        38.090    28120898.325 6 113231210.35806      1586.995 6        37.372
G17        20.000    24011562.682 6 126181627.76106      2404.326 6        41.752                                    24011557.789 5  98323334.70705      1873.497 5        35.805    24011557.744 6  98323333.72306      1873.440 6        38.586
E26        21.000    23949184.411 7 125854162.79407     -1664.214 7        47.721                                                                    23949181.923 8  93982202.24408     -1242.774 8        50.304    23949181.556 8  96433887.36008     -1275.099 8        50.883
I06        22.000    38334819.855 7 150434302.21507      -253.342 7        42.482
S28        23.000    40888578.978 5 214870957.94705      -475.548 5        33.994
G08        24.000    22545746.112 7 118478707.91107     -3777.511 7        44.664                                    22545744.219 7  92321070.95307     -2943.513 7        42.521    22545745.109 6  92321071.96206     -2943.635 6        41.831
S23        25.000    38161305.909 7 200539003.65607      -480.420 7        44.567
C13        26.000                                                                                                                                    40642232.274 6 211634963.00006     -1263.454 6        37.682    40642233.762 6 163649688.39306      -977.029 6        39.727    40642231.431 6 171970829.69406     -1026.746 6        36.730
E24        27.000    27760107.870 6 145880385.23906      -625.148 6        38.619                                                                    27760106.824 7 108936663.32207      -466.781 7        42.019    27760105.993 7 111778485.92907      -478.968 7        42.474
R21        29.000    19555419.378 8 104645003.78208      1198.389 8        51.748                                                                    19555417.068 7  81390561.91807       932.078 7        45.974
R05        31.000    19885349.519 8 106298629.88208     -2657.420 8        50.955                                                                    19885348.373 7  82676722.35607     -2066.900 7        47.895
R13        32.000    23771311.490 6 126937501.25706      -299.407 6        37.096
E29        33.000    25102005.599 7 131912006.28607      2063.957 7        45.667                                                                    25102003.845 8  98505732.39608      1541.337 8        48.314    25102003.504 8 101075441.82608      1581.525 8        48.702
C16        35.000                                                                                                                                    39909130.186 6 207817339.32706       979.077 6        39.375    39909130.173 6 160697559.76006       757.172 6        41.464    39909127.828 6 168868610.06406       795.531 6        37.883
C32        36.000                                                                                                                                    23257785.412 8 121109445.57808      1978.705 8        49.013                                                                    23257785.228 8  98411365.73408      1607.670 8        49.222
G32        37.000    22153293.954 8 116416387.26508     -1895.409 8        48.112                                    22153291.696 7  90714070.41207     -1476.944 7        46.874    22153292.197 7  90714079.41207     -1477.001 7        43.788
E07        38.000    24438929.933 7 128427461.49507      -659.128 7        46.350                                                                    24438929.887 8  95903661.92808      -492.139 8        49.353    24438929.545 8  98405488.94708      -505.037 8        50.095
C41        39.000                                                                                                                                    22044296.552 8 114790470.08308     -1181.543 8        50.668                                                                    22044301.598 8  93276689.39808      -960.254 8        50.791
C39        40.000                                                                                                                                    39503537.345 6 205705310.52806       637.187 6        41.409                                                                    39503533.331 7 167152409.81507       517.698 7        42.673
E33        41.000    23714923.595 8 124622852.72008       674.506 8        48.040                                                                    23714921.386 8  93062553.02908       503.743 8        50.648    23714921.222 8  95490267.71808       516.855 8        51.385
S44        42.000    40529167.709 6 212982421.95706      -538.352 6        38.541
R06        43.000    20271142.103 6 108170759.81606      2361.390 6        41.452
C05        44.000                                                                                                                                    39132852.765 6 203775077.68406      -456.114 6        37.936    39132848.469 7 157571841.51007      -352.717 7        43.501    39132850.356 6 165584046.85306      -370.753 6        40.915
R22        48.000    23400945.580 7 124915851.12507      3444.495 7        45.409                                                                    23400944.165 6  97156767.42506      2679.002 6        41.256
I05        49.000  -497530586.222 5-876631678.87005       250.293 5        35.367
C06        50.000                                                                                                                                    39636806.192 6 206399275.55306      1086.885 6        37.856    39636801.050 7 159600993.39407       840.501 7        42.262    39636801.411 6 167716297.15206       883.068 6        40.198
S48        51.000    77197105.742 6 405673935.61306      -496.020 6        37.777
G21        52.000    20722929.627 7 108899803.26207     -1157.265 7        44.746                                    20722923.690 6  84857011.82306      -901.766 6        37.527
C09        53.000                                                                                                                                    40677014.291 6 211815892.65806      1309.320 6        38.060    40677010.996 7 163789471.39807      1012.327 7        42.013    40677009.082 6 172117740.08706      1063.700 6        38.742
C60        54.000                                                                                                                                    40529170.037 6 211046237.65406      -533.385 6        40.372                                                                    40529154.267 6 171492327.29506      -433.518 6        40.903
C27        55.000                                                                                                                                    21703911.993 8 113017986.18108     -1727.494 8        51.156                                                                    21703910.220 8  91836375.90408     -1403.913 8        49.582
R04        56.000    23716196.003 7 126999154.19307     -4758.945 7        42.593                                                                    23716195.070 6  98777108.78906     -3701.333 6        37.338
C02        57.000                                                                                                                                    40528324.869 5 211041682.15905      -496.205 5        33.665    40528318.177 6 163190812.34106      -383.842 6        40.632    40528321.642 6 171488659.43406      -403.639 6        36.628
I03        58.000   105843374.929 6 339566909.12506       962.096 6        40.291
R07        59.000    24110211.094 7 129063877.17207      3890.464 7        43.321                                                                    24110209.918 6 100383061.33606      3025.842 6        37.747
C28        60.000                                                                                                                                    24494294.391 7 127548523.43007     -3566.754 7        43.769                                                                    24494293.134 7 103643757.65907     -2898.396 7        44.179
> 2025 01 01 23 30 20.0000000  0 53
G10         1.000    24161853.869 6 126971496.78806     -3546.285 6        40.393                                    24161851.813 5  98938889.97905     -2763.336 5        34.348    24161851.462 6  98938866.96906     -2763.334 6        37.709
G14         2.000    24155167.346 6 126936313.84206     -1802.157 6        39.393                                    24155163.759 3  98911415.81703     -1404.280 3        21.905    24155163.824 6  98911411.82206     -1404.367 6        37.505
C33         3.000                                                                                                                                    25103498.072 7 130720529.38907     -3448.293 7        43.920                                                                    25103509.412 7 106221197.01807     -2801.926 7        44.703
E31         4.000    27194266.646 6 142906881.33606     -2708.137 6        39.976                                                                    27194266.685 6 106716190.11206     -2022.358 6        41.607    27194266.556 6 109500087.22306     -2074.991 6        41.869
S21         5.000    38441122.935 7 202009227.79607      -483.320 7        42.091
E13         6.000    27941511.171 6 146833971.90806     -2992.485 6        36.491                                                                    27941512.506 6 109648949.93006     -2234.730 6        40.715    27941511.711 6 112509327.18306     -2292.962 6        40.834
G28         7.000    24985155.270 6 131297880.78106      2311.782 6        38.321                                    24985151.233 3 102310017.52103      1801.391 3        20.190    24985151.346 6 102310025.50306      1801.529 6        37.981
G03         8.000    21781779.348 7 114464119.99507      2208.801 7        45.828                                    21781777.428 7  89192861.97407      1721.142 7        44.611    21781777.827 7  89192859.97907      1721.128 7        43.035
G02         9.000    20848653.808 8 109560469.01508       351.314 8        49.240                                    20848646.901 6  85371789.29706       273.751 6        41.969
R12        10.000    23976207.422 7 128076623.54907     -2773.300 7        43.532                                                                    23976207.699 6  99615183.75406     -2157.069 6        40.255
C30        11.000                                                                                                                                    22546436.754 8 117405230.54908      1238.063 8        49.324                                                                    22546437.465 8  95401370.01508      1006.171 8        49.065
S27        12.000    39104759.239 5 205496922.18405      -457.787 5        35.476
R20        13.000    20205754.452 6 108049295.26306     -2727.130 6        38.766                                                                    20205754.876 7  84038408.01007     -2121.027 7        46.582
S36        14.000    38209049.624 7 200790449.12507      -482.622 7        43.111
G27        15.000    25264273.941 5 132764927.50905     -4362.107 5        33.467                                    25264272.022 3 103453345.73203     -3399.041 3        19.164    25264273.979 4 103453259.72204     -3399.467 4        27.509
S45        17.000    63412330.713 6 333234660.26806      -525.143 6        38.021
E08        18.000    27560979.873 6 144833964.75906     -2992.768 6        38.709                                                                    27560978.478 6 108155234.58406     -2234.927 6        41.671    27560978.061 6 110976671.27706     -2293.127 6        40.839
E12        19.000    28118931.108 5 147765987.09605      2071.188 5        34.557                                                                    28118928.182 6 110344718.15306      1546.496 6        38.117    28118927.664 6 113223275.60606      1586.960 6        37.021
G17        20.000    24009275.394 6 126169609.36906      2403.110 6        41.228                                    24009270.836 5  98313969.73605      1872.554 5        35.952    24009270.643 6  98313968.74006      1872.440 6        38.748
E26        21.000    23950768.202 7 125862486.35707     -1665.236 7        47.664                                                                    23950765.840 8  93988417.89108     -1243.547 8        50.357    23950765.440 8  96440265.15508     -1275.925 8        50.714
I06        22.000    38335141.841 7 150435568.56007      -253.251 7        42.447
S28        23.000    40889028.693 5 214873335.01205      -475.312 5        34.133
G08        24.000    22549340.865 7 118497598.69507     -3778.840 7        44.679                                    22549339.001 7  92335791.04407     -2944.548 7        42.387    22549339.684 6  92335792.03306     -2944.548 6        41.855
S23        25.000    38161761.316 7 200541405.24807      -480.305 7        44.402
C13        26.000                                                                                                                                    40643445.054 6 211641279.16006     -1263.070 6        37.690    40643446.383 6 163654572.44306      -976.637 6        39.892    40643444.380 6 171975962.08206     -1026.178 6        36.529
E24        27.000    27760703.409 6 145883515.89906      -627.289 6        38.970                                                                    27760702.713 6 108939001.16306      -468.400 6        41.909    27760701.762 6 111780884.75906      -480.549 6        41.933
R21        29.000    19554300.742 8 104639018.32208      1195.711 8        51.539                                                                    19554299.131 7  81385906.56607       929.997 7        46.445
R05        31.000    19887836.057 8 106311925.10808     -2660.646 8        50.883                                                                    19887835.453 7  82687063.09007     -2069.404 7        47.548
R13        32.000    23771593.739 6 126939007.96006      -303.288 6        37.070
E29        33.000    25100042.269 7 131901689.31907      2062.726 7        45.869                                                                    25100040.617 8  98498028.16708      1540.393 8        48.357    25100040.198 8 101067536.62608      1580.512 8        48.585
C16        35.000                                                                                                                                    39908190.076 6 207812444.66506       978.592 6        39.580    39908190.246 6 160693774.89306       756.686 6        41.247    39908187.691 6 168864632.73106       795.463 6        37.346
