     3.04           OBSERVATION DATA    M                   RINEX VERSION / TYPE
ssrcrin-15.6.1x                         20250101 224500 UTC PGM / RUN BY / DATE 
(00000000023479385599111004) Septentrio proprietary         COMMENT             
rref                                                        MARKER NAME         
01                                                          MARKER NUMBER       
geodetic                                                    MARKER TYPE         
NFB                 CLIMERS@TUW                             OBSERVER / AGENCY   
3297213             SEPT ASTERX SB3 PROB4.14.4              REC # / TYPE / VERS 
Unknown             Unknown                                 ANT # / TYPE        
  4127832.0387  1207193.4413  4695247.4022                  APPROX POSITION XYZ 
        0.0000        0.0000        0.0000                  ANTENNA: DELTA H/E/N
G   23 X1  C1C L1C D1C S1C C1W S1W C2W L2W D2W S2W C2L L2L  SYS / # / OBS TYPES 
       D2L S2L C5Q L5Q D5Q S5Q C1L L1L D1L S1L              SYS / # / OBS TYPES 
E   21 X1  C1C L1C D1C S1C C6C L6C D6C S6C C5Q L5Q D5Q S5Q  SYS / # / OBS TYPES 
       C7Q L7Q D7Q S7Q C8Q L8Q D8Q S8Q                      SYS / # / OBS TYPES 
S    9 X1  C1C L1C D1C S1C C5I L5I D5I S5I                  SYS / # / OBS TYPES 
R   17 X1  C1C L1C D1C S1C C2P L2P D2P S2P C2C L2C D2C S2C  SYS / # / OBS TYPES 
       C3Q L3Q D3Q S3Q                                      SYS / # / OBS TYPES 
C   25 X1  C1P L1P D1P S1P C5P L5P D5P S5P C2I L2I D2I S2I  SYS / # / OBS TYPES 
       C7I L7I D7I S7I C6I L6I D6I S6I C7D L7D D7D S7D      SYS / # / OBS TYPES 
J   17 X1  C1C L1C D1C S1C C2L L2L D2L S2L C5Q L5Q D5Q S5Q  SYS / # / OBS TYPES 
       C1L L1L D1L S1L                                      SYS / # / OBS TYPES 
I    5 X1  C5A L5A D5A S5A                                  SYS / # / OBS TYPES 
SEPTENTRIO RECEIVERS OUTPUT ALIGNED CARRIER PHASES.         COMMENT             
NO FURTHER PHASE SHIFT APPLIED IN THE RINEX ENCODER.        COMMENT             
G L1C                                                       SYS / PHASE SHIFT   
G L2W                                                       SYS / PHASE SHIFT   
G L2L  0.00000                                              SYS / PHASE SHIFT   
G L5Q  0.00000                                              SYS / PHASE SHIFT   
G L1L  0.00000                                              SYS / PHASE SHIFT   
E L1C  0.00000                                              SYS / PHASE SHIFT   
E L6C  0.00000                                              SYS / PHASE SHIFT   
E L5Q  0.00000                                              SYS / PHASE SHIFT   
E L7Q  0.00000                                              SYS / PHASE SHIFT   
E L8Q  0.00000                                              SYS / PHASE SHIFT   
S L1C                                                       SYS / PHASE SHIFT   
S L5I                                                       SYS / PHASE SHIFT   
R L1C                                                       SYS / PHASE SHIFT   
R L2P  0.00000                                              SYS / PHASE SHIFT   
R L2C                                                       SYS / PHASE SHIFT   
R L3Q  0.00000                                              SYS / PHASE SHIFT   
C L1P  0.00000                                              SYS / PHASE SHIFT   
C L5P  0.00000                                              SYS / PHASE SHIFT   
C L2I                                                       SYS / PHASE SHIFT   
C L7I                                                       SYS / PHASE SHIFT   
C L6I                                                       SYS / PHASE SHIFT   
C L7D                                                       SYS / PHASE SHIFT   
J L1C                                                       SYS / PHASE SHIFT   
J L2L  0.00000                                              SYS / PHASE SHIFT   
J L5Q  0.00000                                              SYS / PHASE SHIFT   
J L1L  0.00000                                              SYS / PHASE SHIFT   
I L5A                                                       SYS / PHASE SHIFT   
  2025     1     1    22    45    0.0000000     GPS         TIME OF FIRST OBS   
 C1C    0.000 C2C    0.000 C2P    0.000                     GLONASS COD/PHS/BIS 
DBHZ                                                        SIGNAL STRENGTH UNIT
    18                                                      LEAP SECONDS        
 24 R01  1 R02 -4 R03  5 R04  6 R05  1 R06 -4 R07  5 R08  6 GLONASS SLOT / FRQ #
    R09 -2 R10 -7 R11  0 R12 -1 R13 -2 R14 -7 R15  0 R16 -1 GLONASS SLOT / FRQ #
    R17  4 R18 -3 R19  3 R20  2 R21  4 R22 -3 R23  3 R24  2 GLONASS SLOT / FRQ #
                                                            END OF HEADER       
> 2025 01 01 22 45  0.0000000  0 52
G10         1.000    22698152.066 7 119279697.51507     -3203.624 7        45.743                                    22698150.147 7  92945281.08007     -2496.329 7        43.187    22698150.349 6  92945258.08706     -2496.260 6        41.642
G14         2.000    23914740.998 6 125672857.11606      -233.383 6        40.155                                    23914737.395 4  97926902.62704      -181.852 4        24.331    23914738.051 6  97926898.64106      -181.857 6        40.501
C33         3.000                                                                                                                                    23756474.402 7 123706226.27607     -2767.786 7        47.896                                                                    23756485.316 7 100521501.95107     -2248.900 7        47.285
E31         4.000    26316022.027 7 138291678.12707     -1768.020 7        42.019                                                                    26316022.289 7 103269772.72407     -1320.248 7        44.062    26316021.920 7 105963763.23807     -1354.776 7        45.186
S21         5.000    38488243.266 7 202256795.74507      -493.354 7        42.180
E13         6.000    26750465.707 6 140574986.89806     -2761.668 6        40.217                                                                    26750467.096 7 104975033.00907     -2062.354 7        44.217    26750466.057 7 107713481.95407     -2116.090 7        44.512
G03         8.000    23423810.070 6 123093038.43506      2926.348 6        41.175                                    23423808.316 6  95916691.94306      2280.271 6        36.106    23423809.335 6  95916689.95906      2280.275 6        38.805
G02         9.000    21555904.008 8 113277091.41808      1176.040 8        48.160                                    21555897.028 6  88267858.38706       916.393 6        38.616
R12        10.000    23348147.170 7 124721635.04507      -765.457 7        44.798                                                                    23348147.976 7  97005747.15007      -595.410 7        42.154
C30        11.000                                                                                                                                    23727347.671 7 123554539.20507      2056.365 7        46.720                                                                    23727347.968 7 100398186.61007      1671.175 7        46.106
S27        12.000    39166034.446 5 205818937.52905      -464.411 5        35.271
R20        13.000    19516634.196 6 104364263.38906     -1160.331 6        39.865                                                                    19516635.305 7  81172272.21307      -902.430 7        47.027
S36        14.000    38256488.916 7 201039720.52207      -492.773 7        43.617
G27        15.000    23333437.368 7 122618314.69807     -4153.667 7        42.366                                    23333435.179 6  95546895.40506     -3236.622 6        40.307    23333435.901 6  95546809.40006     -3236.592 6        40.667
S45        17.000    63462111.633 6 333496172.63006      -535.369 6        37.766
E08        18.000    26524727.850 6 139388431.45206     -2096.984 6        41.175                                                                    26524726.195 7 104088766.92507     -1565.967 7        43.898    26524725.805 7 106804121.62107     -1606.898 7        44.506
G17        20.000    25700477.114 6 135056920.05506      2872.217 6        39.423                                    25700473.284 4 105239143.07804      2238.090 4        27.976    25700473.682 5 105239142.02105      2238.360 5        32.365
E26        21.000    23549662.483 8 123754660.61408     -1051.655 8        48.328                                                                    23549660.013 8  92414392.01708      -785.309 8        50.579    23549659.750 8  94825177.76108      -805.789 8        51.502
I06        22.000    38456788.926 7 150912933.50607      -261.704 7        42.034
S28        23.000    40940310.549 5 215142788.59805      -485.593 5        33.946
G08        24.000    21142992.589 8 111107191.26808     -2711.605 8        48.372                                    21142990.823 8  86577032.58208     -2112.938 8        48.622    21142991.779 7  86577033.58507     -2113.007 7        44.986
S23        25.000    38210334.598 7 200796654.50207      -490.709 7        44.485
C13        26.000                                                                                                                                    40252517.309 6 209605615.20706     -1383.691 6        38.303    40252519.227 6 162080467.41206     -1069.824 6        39.778    40252517.370 6 170321817.93506     -1124.089 6        38.039
E24        27.000    28069960.712 6 147508662.86606       648.405 6        37.924                                                                    28069959.943 6 110152582.42406       484.215 6        41.754    28069959.527 7 113026124.96007       496.739 7        42.635
R21        29.000    20792881.684 8 111266917.01508      2369.869 8        49.848                                                                    20792880.854 7  86540938.41107      1843.248 7        45.013
C14        30.000                                                                                                                                    25843570.128 6 134574275.46906     -3618.417 6        40.470    25843566.209 7 104061360.85807     -2798.011 7        43.867    25843564.956 7 109352608.26107     -2940.141 7        42.027
R05        31.000    19365768.726 8 103521173.01708      -467.575 8        52.367                                                                    19365767.517 7  80516478.27607      -363.663 7        47.750
R13        32.000    24464841.872 6 130640903.12406      1765.994 6        36.144
E29        33.000    26625363.254 6 139917300.12606      2593.827 6        41.220                                                                    26625361.619 7 104483709.78407      1936.959 7        44.364    26625361.934 7 107209366.66507      1987.476 7        45.562
C16        35.000                                                                                                                                    40811695.512 6 212517219.33206      1311.221 6        37.580    40811695.280 6 164331801.99606      1014.121 6        38.574    40811693.586 6 172687645.04006      1065.634 6        36.212
C32        36.000                                                                                                                                    24804008.150 7 129161023.17807      2739.682 7        45.290                                                                    24804007.914 7 104953930.51107      2226.309 7        45.342
G32        37.000    21896650.153 8 115067713.09208      -226.062 8        48.480                                    21896647.803 8  89663155.29808      -176.151 8        48.676    21896648.159 7  89663164.29307      -176.163 7        45.357
E07        38.000    24736578.897 7 129991616.12607       639.438 7        46.197                                                                    24736578.817 8  97071699.17908       477.541 8        48.677    24736578.632 8  99603996.77008       490.041 8        49.776
C41        39.000                                                                                                                                    22077113.578 8 114961356.45708       185.668 8        51.432                                                                    22077118.372 8  93415548.64908       151.007 8        50.049
C39        40.000                                                                                                                                    40256133.123 6 209624271.88406      1082.624 6        40.970                                                                    40256129.322 6 170336886.29306       879.860 6        40.853
E33        41.000    24486090.053 7 128675359.67407      1121.602 7        46.565                                                                    24486088.191 8  96088775.42708       837.574 8        49.194    24486087.784 8  98595435.07808       859.459 8        49.971
S44        42.000    40551389.182 6 213099166.95706      -536.315 6        37.690
R06        43.000    22142001.433 6 118154015.46706      3680.751 6        38.321
C05        44.000                                                                                                                                    39195406.986 6 204100807.26306      -454.530 6        38.486    39195401.707 7 157823715.52307      -351.430 7        43.526    39195403.567 6 165848728.20406      -369.212 6        40.052
C08        45.000                                                                                                                                    41038581.812 5 213698847.86005     -1494.233 5        35.424    41038576.734 6 165245578.19706     -1155.365 6        38.997    41038575.202 5 173647868.51105     -1213.982 5        34.676
R11        46.000    23945431.365 7 127957133.44507     -3767.745 7        43.268                                                                    23945428.583 6  99522217.48406     -2930.335 6        38.652
R19        47.000    23655601.601 5 126541871.15405     -4092.740 5        33.054                                                                    23655602.442 6  98421618.09406     -3183.263 6        37.501
I05        49.000  -497048312.668 6-874739138.50106       281.092 6        37.062
C06        50.000                                                                                                                                    40589930.425 5 211362427.58005      1396.253 5        35.757    40589926.174 6 163438813.72606      1079.889 6        41.185    40589925.556 6 171749261.76006      1134.872 6        36.979
S48        51.000    77244233.147 6 405921840.04906      -512.216 6        38.069
G21        52.000    20674365.156 7 108644595.02007      -201.950 7        44.670                                    20674359.584 6  84658147.98206      -157.365 6        37.304
C60        54.000                                                                                                                                    40551387.173 6 211161921.27406      -531.411 6        40.107                                                                    40551370.553 6 171586328.74106      -431.661 6        40.439
C27        55.000                                                                                                                                    21429830.973 8 111590774.12508      -483.311 8        51.634                                                                    21429829.248 8  90676649.13708      -392.521 8        49.387
R04        56.000    21740571.734 8 116419789.39808     -4048.670 8        48.231                                                                    21740569.259 7  90548717.51407     -3149.093 7        42.093
C02        57.000                                                                                                                                    40571116.969 5 211264507.14305      -489.544 5        33.551    40571110.849 6 163363113.47706      -378.462 6        40.963    40571113.974 6 171669721.95806      -397.652 6        36.370
I03        58.000   106815113.229 6 343380214.15406       980.045 6        41.092
C28        60.000                                                                                                                                    23102144.049 8 120299238.06108     -2875.664 8        48.530                                                                    23102142.736 7  97753120.55107     -2336.599 7        46.964
> 2025 01 01 22 45  5.0000000  0 52
G10         1.000    22701200.381 7 119295717.15607     -3204.160 7        45.439                                    22701198.551 7  92957763.91207     -2496.745 7        43.209    22701198.597 6  92957740.91806     -2496.872 6        41.685
G14         2.000    23914964.486 6 125674030.24206      -236.017 6        40.584                                    23914960.775 4  97927816.76104      -183.911 4        24.451    23914960.543 6  97927812.74506      -183.851 6        39.781
C33         3.000                                                                                                                                    23759132.566 7 123720068.32607     -2769.083 7        47.711                                                                    23759143.589 7 100532749.74207     -2250.102 7        47.264
E31         4.000    26317705.352 7 138300522.12407     -1769.682 7        42.055                                                                    26317705.251 7 103276377.01207     -1321.552 7        44.089    26317704.851 7 105970539.80107     -1355.976 7        45.156
S21         5.000    38488705.449 7 202259261.28507      -492.905 7        42.140
E13         6.000    26753093.989 6 140588795.19206     -2761.735 6        40.822                                                                    26753094.586 7 104985344.38307     -2062.274 7        43.947    26753093.566 7 107724062.32707     -2116.144 7        44.372
G03         8.000    23421025.637 6 123078407.61506      2925.882 6        41.316                                    23421024.052 6  95905291.31206      2279.904 6        36.291    23421024.782 6  95905289.29206      2279.883 6        37.282
G02         9.000    21554785.276 8 113271213.05608      1175.271 8        48.182                                    21554778.420 6  88263277.84806       915.796 6        38.775
R12        10.000    23348864.986 7 124725471.59107      -769.196 7        44.266                                                                    23348866.238 7  97008731.14107      -598.185 7        42.474
C30        11.000                                                                                                                                    23725373.396 7 123544258.95607      2055.737 7        46.702                                                                    23725373.784 7 100389833.06907      1670.505 7        46.109
S27        12.000    39166474.995 5 205821258.47805      -463.971 5        35.962
R20        13.000    19517720.866 6 104370070.63406     -1162.665 6        39.375                                                                    19517721.152 7  81176788.96107      -904.279 7        46.795
S36        14.000    38256959.782 7 201042182.45607      -491.980 7        43.803
G27        15.000    23337389.515 7 122639084.28107     -4154.271 7        43.124                                    23337387.499 6  95563079.49406     -3237.093 6        40.317    23337388.172 6  95562993.50006     -3237.054 6        41.159
S45        17.000    63462580.138 6 333498848.25506      -534.903 6        37.902
E08        18.000    26526724.022 6 139398920.66306     -2098.635 6        41.664                                                                    26526722.194 7 104096599.77907     -1567.197 7        44.000    26526721.932 7 106812158.80307     -1608.016 7        44.451
G17        20.000    25697744.059 6 135042558.10006      2872.476 6        38.625                                    25697740.009 4 105227951.94704      2238.296 4        27.904    25697741.657 5 105227950.94305      2238.518 5        34.476
E26        21.000    23550663.358 8 123759920.36408     -1052.290 8        48.384                                                                    23550660.900 8  92418319.75808      -785.832 8        50.577    23550660.673 8  94829207.96208      -806.343 8        51.573
I06        22.000    38457122.127 6 150914240.99406      -261.342 6        41.895
S28        23.000    40940771.130 5 215145212.89905      -484.865 5        34.305
G08        24.000    21145573.816 8 111120754.44608     -2713.623 8        48.556                                    21145571.804 8  86587601.29008     -2114.512 8        48.691    21145572.653 7  86587602.29107     -2114.516 7        44.758
S23        25.000    38210803.005 7 200799106.72307      -490.251 7        44.605
C13        26.000                                                                                                                                    40253844.955 6 209612530.96306     -1382.726 6        38.480    40253847.359 6 162085815.12106     -1069.273 6        39.955    40253845.187 6 170327437.55606     -1123.650 6        37.758
E24        27.000    28069344.819 6 147505425.62706       646.545 6        38.781                                                                    28069343.911 6 110150165.00106       482.872 6        41.990    28069343.353 7 113023644.47807       495.462 7        42.946
R21        29.000    20790668.566 8 111255070.00208      2368.913 8        49.957                                                                    20790666.797 7  86531724.06707      1842.519 7        44.928
C14        30.000                                                                                                                                    25847045.277 6 134592368.47706     -3618.830 6        40.930    25847041.152 7 104075351.51507     -2798.282 7        44.135    25847039.476 6 109367310.29906     -2940.656 6        41.967
R05        31.000    19366208.004 8 103523520.62808      -471.478 8        52.450                                                                    19366206.430 7  80518304.18907      -366.685 7        47.889
R13        32.000    24463189.234 6 130632081.47806      1763.218 6        36.446
E29        33.000    26622895.466 6 139904331.19306      2593.746 6        41.447                                                                    26622893.833 7 104474025.20707      1936.775 7        44.313    26622894.031 7 107199429.43807      1987.412 7        45.365
C16        35.000                                                                                                                                    40810436.052 6 212510663.00706      1311.420 6        38.015    40810436.571 6 164326732.25606      1013.878 6        38.550    40810434.404 5 172682317.53005      1065.271 5        35.886
C32        36.000                                                                                                                                    24801377.528 7 129147326.27107      2739.062 7        44.953                                                                    24801377.553 7 104942800.65207      2225.671 7        45.311
G32        37.000    21896866.340 8 115068850.17708      -228.818 8        48.443                                    21896864.158 8  89664041.34108      -178.299 8        48.724    21896864.712 7  89664050.33407      -178.232 7        45.327
E07        38.000    24735971.353 7 129988423.23407       637.667 7        46.322                                                                    24735971.331 8  97069314.88608       476.100 8        48.778    24735970.950 8  99601550.28008       488.530 8        49.801
C41        39.000                                                                                                                                    22076936.285 8 114960433.42108       183.532 8        51.323                                                                    22076941.103 8  93414798.61108       149.059 8        49.974
C39        40.000                                                                                                                                    40255093.424 6 209618858.81906      1082.615 6        40.636                                                                    40255089.801 6 170332487.74306       879.587 6        40.870
E33        41.000    24485022.995 7 128669751.77907      1121.506 7        46.368                                                                    24485021.077 8  96084587.71708       837.428 8        49.231    24485020.623 8  98591138.12408       859.276 8        50.044
S44        42.000    40551897.132 6 213101846.82306      -535.668 6        37.947
R06        43.000    22138552.257 6 118135614.26306      3679.737 6        38.084
C05        44.000                                                                                                                                    39195843.161 6 204103078.44606      -453.904 6        38.453    39195837.967 7 157825471.75907      -351.113 7        43.725    39195839.747 6 165850573.73906      -368.898 6        39.865
C08        45.000                                                                                                                                    41040016.463 5 213706315.78605     -1493.216 5        35.619    41040010.248 6 165251352.87806     -1154.777 6        39.333    41040009.377 5 173653936.80305     -1213.292 5        34.224
R11        46.000    23948956.680 6 127975975.57106     -3769.069 6        41.349                                                                    23948954.263 6  99536872.45406     -2931.593 6        38.093
R19        47.000    23659427.780 5 126562336.11705     -4093.309 5        32.838                                                                    23659428.820 6  98437535.31006     -3183.610 6        37.565
I05        49.000  -497048671.687 6-874740544.63906       281.348 6        36.870
C06        50.000                                                                                                                                    40588589.544 5 211355446.11205      1396.295 5        35.729    40588585.686 6 163433415.24006      1079.610 6        41.430    40588585.014 6 171743588.77506      1134.537 6        37.059
S48        51.000    77244699.277 6 405924399.66606      -511.509 6        37.864
G21        52.000    20674557.727 7 108645607.65607      -203.077 7        44.578                                    20674552.270 6  84658937.05406      -158.242 6        37.308
C60        54.000                                                                                                                                    40551896.866 6 211164576.78106      -530.823 6        40.072                                                                    40551880.618 6 171588486.56706      -431.357 6        40.474
C27        55.000                                                                                                                                    21430296.050 8 111593195.01808      -485.098 8        51.772                                                                    21430294.136 8  90678616.31808      -394.210 8        49.347
R04        56.000    21744353.040 8 116440037.28708     -4050.481 8        48.003                                                                    21744350.485 7  90564465.86107     -3150.427 7        42.383
C02        57.000                                                                                                                                    40571586.690 5 211266954.09905      -489.251 5        33.473    40571580.584 6 163365005.61706      -378.318 6        40.977    40571583.803 6 171671710.30206      -397.467 6        36.234
I03        58.000   106813864.146 6 343375312.95206       980.342 6        40.923
C28        60.000                                                                                                                                    23104905.714 8 120313618.90208     -2876.712 8        48.648                                                                    23104904.318 7  97764806.16307     -2337.560 7        46.885
> 2025 01 01 22 45 10.0000000  0 52
G10         1.000    22704250.034 7 119311741.57207     -3205.255 7        45.880                                    22704247.835 7  92970250.46907     -2497.600 7        43.130    22704247.937 6  92970227.48706     -2497.632 6        41.819
G14         2.000    23915190.353 6 125675218.51706      -238.997 6        39.589                                    23915186.972 4  97928742.69304      -186.199 4        24.451    23915186.923 6  97928738.70006      -186.436 6        39.733
C33         3.000                                                                                                                                    23761792.121 8 123733918.86008     -2770.925 8        48.071                                                                    23761803.393 7 100544004.42307     -2251.588 7        47.151
E31         4.000    26319390.083 7 138309376.44307     -1771.799 7        42.224                                                                    26319390.155 7 103282988.99507     -1323.099 7        44.105    26319389.822 7 105977324.27507     -1357.668 7        45.142
S21         5.000    38489178.873 7 202261726.44107      -492.938 7        42.284
E13         6.000    26755722.141 6 140602605.50906     -2762.162 6        41.316                                                                    26755722.317 7 104995657.29007     -2062.609 7        43.898    26755721.596 7 107734644.25807     -2116.479 7        44.281
G03         8.000    23418243.159 6 123063781.64906      2924.814 6        41.116                                    23418240.797 6  95893894.46606      2279.077 6        36.423    23418241.744 6  95893892.48406      2278.873 6        38.063
G02         9.000    21553667.661 7 113265340.67207      1173.907 7        47.852                                    21553660.939 6  88258701.96306       914.734 6        38.754
R12        10.000    23349586.956 7 124729328.71307      -773.319 7        44.608                                                                    23349587.359 6  97011731.11006      -601.530 6        41.800
C30        11.000                                                                                                                                    23723400.328 7 123533983.82107      2054.538 7        46.897                                                                    23723400.433 7 100381483.66607      1669.488 7        46.114
S27        12.000    39166918.736 6 205823578.90006      -464.085 6        36.110
R20        13.000    19518808.168 6 104375891.79706     -1165.536 6        39.444                                                                    19518809.699 7  81181316.53207      -906.531 7        47.126
S36        14.000    38257429.557 7 201044643.79907      -492.041 7        43.871
G27        15.000    23341342.901 7 122659858.38207     -4155.178 7        42.908                                    23341340.744 6  95579267.10706     -3237.801 6        40.451    23341341.181 6  95579181.11106     -3237.722 6        40.932
S45        17.000    63463040.196 6 333501523.58206      -534.882 6        38.027
E08        18.000    26528722.184 6 139409419.76806     -2100.813 6        41.623                                                                    26528720.108 7 104104440.01807     -1568.803 7        43.991    26528719.742 7 106820203.56907     -1609.679 7        44.542
G17        20.000    25695011.450 6 135028197.51906      2872.186 6        36.030                                    25695007.311 4 105216761.90004      2238.072 4        27.281    25695008.423 5 105216760.91105      2237.817 5        35.629
E26        21.000    23551665.343 8 123765185.27308     -1053.491 8        48.462                                                                    23551662.755 8  92422251.34408      -786.700 8        50.591    23551662.567 8  94833242.11008      -807.192 8        51.591
I06        22.000    38457454.911 7 150915548.19007      -261.305 7        42.102
S28        23.000    40941234.104 5 215147637.03505      -484.755 5        34.143
G08        24.000    21148157.125 8 111134329.83408     -2716.321 8        48.167                                    21148155.123 8  86598179.51908     -2116.610 8        48.615    21148156.153 7  86598180.50607     -2116.524 7        45.108
S23        25.000    38211269.069 7 200801558.66607      -490.379 7        44.530
C13        26.000                                                                                                                                    40255172.961 6 209619445.39506     -1382.834 6        38.838    40255175.062 6 162091161.80406     -1069.195 6        40.267    40255173.095 6 170333056.09806     -1123.635 6        37.754
E24        27.000    28068730.932 6 147502199.18806       644.330 6        38.607                                                                    28068730.037 6 110147755.64906       481.122 6        41.847    28068729.416 7 113021172.26807       493.632 7        42.749
R21        29.000    20788456.095 8 111243230.08908      2367.319 8        49.929                                                                    20788454.337 7  86522515.24007      1841.227 7        44.525
C14        30.000                                                                                                                                    25850520.507 6 134610464.87206     -3619.525 6        41.092    25850516.242 7 104089344.80107     -2798.937 7        44.301    25850514.783 7 109382015.09107     -2941.285 7        42.027
R05        31.000    19366650.955 8 103525890.25708      -476.112 8        52.111                                                                    19366649.589 7  80520147.23707      -370.294 7        47.693
R13        32.000    24461540.129 6 130623275.84206      1759.497 6        36.469
E29        33.000    26620427.866 6 139891364.69006      2593.096 6        40.939                                                                    26620426.491 7 104464342.42607      1936.428 7        44.473    26620426.666 7 107189494.08407      1986.818 7        45.607
C16        35.000                                                                                                                                    40809177.316 6 212504108.90406      1310.505 6        38.357    40809177.703 6 164321664.19706      1013.430 6        38.694    40809175.715 5 172676991.76505      1065.069 5        35.871
C32        36.000                                                                                                                                    24798748.021 7 129133634.29507      2737.929 7        44.913                                                                    24798748.022 7 104931674.79507      2224.743 7        45.275
G32        37.000    21897085.815 8 115070002.87908      -232.075 8        48.347                                    21897083.482 8  89664939.54708      -180.836 8        48.664    21897083.928 7  89664948.54007      -180.825 7        45.123
E07        38.000    24735366.077 7 129985241.50107       635.261 7        46.526                                                                    24735365.837 8  97066938.91308       474.358 8        48.847    24735365.443 8  99599112.32508       486.752 8        49.841
C41        39.000                                                                                                                                    22076761.277 8 114959523.26408       180.785 8        51.143                                                                    22076766.323 8  93414059.02008       146.856 8        49.978
C39        40.000                                                                                                                                    40254054.697 6 209613449.13006      1081.750 6        40.625                                                                    40254050.938 6 170328091.92806       878.769 6        40.868
E33        41.000    24483956.731 7 128664147.04207      1120.664 7        46.305                                                                    24483954.528 8  96080402.35608       836.857 8        49.247    24483954.095 8  98586843.58108       858.699 8        50.060
S44        42.000    40552406.763 6 213104526.47406      -535.771 6        37.921
R06        43.000    22135105.483 6 118117221.07106      3677.951 6        38.928
C05        44.000                                                                                                                                    39196279.180 6 204105349.42806      -454.217 6        38.444    39196274.156 7 157827227.81907      -351.179 7        43.860    39196275.788 6 165852419.08306      -369.015 6        39.811
C08        45.000                                                                                                                                    41041450.619 5 213713782.07105     -1492.982 5        35.700    41041444.200 6 165257126.27606     -1154.565 6        39.471    41041443.347 5 173660003.76905     -1213.370 5        34.062
R11        46.000    23952483.658 7 127994826.33107     -3770.843 7        42.199                                                                    23952481.803 6  99551534.14006     -2933.079 6        38.120
R19        47.000    23663254.824 5 126582805.74405     -4094.422 5        33.778                                                                    23663254.851 6  98453456.12206     -3184.415 6        37.845
I05        49.000  -497049029.922 6-874741950.56406       281.272 6        36.745
C06        50.000                                                                                                                                    40587249.535 5 211348466.59405      1395.666 5        35.890    40587244.989 6 163428018.22606      1079.330 6        41.294    40587244.610 6 171737917.34506      1134.037 6        37.081
S48        51.000    77245175.885 6 405926958.11906      -511.478 6        38.255
G21        52.000    20674752.140 7 108646628.51707      -204.909 7        44.715                                    20674746.527 6  84659732.53006      -159.671 6        37.214
C60        54.000                                                                                                                                    40552407.114 6 211167232.08406      -531.054 6        40.160                                                                    40552390.504 6 171590644.20806      -431.507 6        40.253
C27        55.000                                                                                                                                    21430762.977 8 111595626.68008      -487.363 8        51.666                                                                    21430761.136 8  90680592.23208      -396.047 8        49.214
R04        56.000    21748135.834 8 116460296.17208     -4052.836 8        48.265                                                                    21748134.864 7  90580222.77607     -3152.086 7        43.666
C02        57.000                                                                                                                                    40572055.951 5 211269400.83905      -489.242 5        33.329    40572050.364 6 163366897.60606      -378.360 6        41.068    40572053.967 6 171673698.48406      -397.666 6        36.435
I03        58.000   106812615.354 6 343370411.71006       980.216 6        40.970
C28        60.000                                                                                                                                    23107669.019 8 120328007.08108     -2878.364 8        48.563                                                                    23107667.380 7  97776497.72607     -2338.952 7        46.811
> 2025 01 01 22 45 15.0000000  0 52
G10         1.000    22707300.397 7 119327770.96907     -3206.298 7        45.746                                    22707298.103 7  92982740.90207     -2498.414 7        43.141    22707298.148 6  92982717.91806     -2498.454 6        41.573
G14         2.000    23915419.431 6 125676422.18706      -242.223 6        39.658                                    23915415.995 4  97929680.62704      -188.749 4        24.301    23915416.064 6  97929676.62806      -188.693 6        40.226
C33         3.000                                                                                                                                    23764453.913 8 123747778.06808     -2772.646 8        48.020                                                                    23764464.985 7 100555266.18107     -2253.000 7        47.238
E31         4.000    26321077.338 7 138318241.26007     -1773.938 7        42.262                                                                    26321076.932 7 103289608.83607     -1324.724 7        44.176    26321076.744 7 105984116.80807     -1359.268 7        44.995
S21         5.000    38489650.495 7 202264191.32007      -492.900 7        42.398
E13         6.000    26758350.448 6 140616418.05206     -2762.709 6        41.492                                                                    26758350.622 7 105005971.84707     -2062.992 7        43.448    26758350.010 7 107745227.89107     -2116.877 7        43.852
G03         8.000    23415460.379 6 123049160.74706      2923.616 6        40.322                                    23415458.599 6  95882501.56506      2278.137 6        36.556    23415459.480 6  95882499.57306      2278.191 6        38.691
G02         9.000    21552551.117 7 113259474.58607      1172.594 7        47.767                                    21552544.684 6  88254130.98806       913.711 6        38.769
R12        10.000    23350314.559 7 124733206.44807      -777.564 7        45.707                                                                    23350314.546 7  97014747.13807      -604.744 7        42.315
C30        11.000                                                                                                                                    23721427.837 7 123523714.00107      2053.457 7        46.744                                                                    23721428.263 7 100373138.61107      1668.634 7        46.085
S27        12.000    39167361.941 6 205825899.12006      -463.968 6        36.212
R20        13.000    19519900.341 6 104381727.08206     -1168.441 6        39.694                                                                    19519901.159 7  81185855.07807      -908.787 7        46.771
S36        14.000    38257895.697 7 201047105.00507      -492.496 7        44.080
G27        15.000    23345296.582 7 122680637.19907     -4156.186 7        42.696                                    23345294.830 6  95595458.39006     -3238.585 6        40.377    23345294.964 6  95595372.39306     -3238.468 6        40.591
S45        17.000    63463506.685 6 333504198.70906      -535.090 6        38.024
E08        18.000    26530721.802 6 139419928.93906     -2102.774 6        41.576                                                                    26530720.053 7 104112287.77307     -1570.265 7        43.799    26530719.558 7 106828256.04807     -1611.158 7        44.336
G17        20.000    25692279.553 5 135013838.56405      2871.735 5        35.810                                    25692275.145 4 105205573.12104      2237.717 4        26.826    25692275.935 5 105205572.13805      2237.415 5        34.162
E26        21.000    23552668.213 8 123770455.53208     -1054.580 8        48.419                                                                    23552665.697 8  92426186.92708      -787.509 8        50.621    23552665.443 8  94837280.36308      -808.016 8        51.419
I06        22.000    38457788.138 6 150916855.24706      -261.302 6        41.895
S28        23.000    40941694.659 5 215150061.12505      -484.748 5        34.329
G08        24.000    21150742.838 8 111147917.58308     -2718.757 8        48.492                                    21150740.794 8  86608767.37208     -2118.511 8        48.650    21150741.422 7  86608768.38407     -2118.563 7        44.745
S23        25.000    38211734.806 7 200804010.49407      -490.260 7        44.811
C13        26.000                                                                                                                                    40256501.011 6 209626358.62306     -1382.263 6        38.997    40256502.274 6 162096507.55606     -1068.938 6        40.212    40256500.744 6 170338673.68206     -1123.315 6        37.966
E24        27.000    28068118.927 6 147498983.73506       642.174 6        38.222                                                                    28068118.024 6 110145354.51206       479.461 6        41.907    28068117.609 7 113018708.49507       491.951 7        42.518
R21        29.000    20786244.906 8 111231397.45408      2365.832 8        50.426                                                                    20786242.950 7  86513312.07107      1840.124 7        44.432
C14        30.000                                                                                                                                    25853996.640 6 134628564.87206     -3620.353 6        40.791    25853991.960 7 104103340.85207     -2799.477 7        43.918    25853990.606 6 109396722.81406     -2941.743 6        41.757
R05        31.000    19367098.859 8 103528282.22908      -480.570 8        52.186                                                                    19367097.105 7  80522007.66107      -373.749 7        47.277
R13        32.000    24459894.699 6 130614486.23806      1756.428 6        36.571
E29        33.000    26617960.889 6 139878400.81306      2592.543 6        40.894                                                                    26617959.625 7 104454661.61307      1936.011 7        44.367    26617959.590 7 107179560.72207      1986.557 7        45.237
C16        35.000                                                                                                                                    40807919.801 6 212497557.16406      1310.274 6        38.450    40807919.571 6 164316597.99106      1013.026 6        38.985    40807917.252 5 172671667.95005      1064.638 5        35.905
C32        36.000                                                                                                                                    24796119.787 7 129119947.42907      2736.956 7        44.909                                                                    24796119.582 7 104920553.11207      2223.951 7        45.327
G32        37.000    21897308.196 8 115071171.40008      -235.281 8        48.441                                    21897305.833 8  89665850.08208      -183.337 8        48.730    21897306.383 7  89665859.09007      -183.408 7        44.837
E07        38.000    24734762.254 7 129982071.11007       633.000 7        46.365                                                                    24734762.664 8  97064571.41808       472.684 8        48.809    24734762.282 8  99596683.06708       485.068 8        49.597
C41        39.000                                                                                                                                    22076589.202 8 114958626.16308       178.155 8        51.006                                                                    22076594.041 8  93413330.05708       144.769 8        50.058
C39        40.000                                                                                                                                    40253016.615 6 209608042.99706      1080.925 6        40.472                                                                    40253012.681 6 170323698.99606       878.365 6        40.918
E33        41.000    24482890.768 7 128658545.64607      1119.950 7        46.393                                                                    24482888.587 8  96076219.49108       836.363 8        49.284    24482888.213 8  98582551.59808       858.200 8        49.793
S44        42.000    40552919.546 6 213107206.11306      -535.941 6        38.240
R06        43.000    22131661.142 6 118098836.10206      3676.193 6        39.183
C05        44.000                                                                                                                                    39196715.235 6 204107620.37206      -454.145 6        38.351    39196710.278 7 157828983.85407      -351.085 7        43.714    39196712.102 6 165854264.43406      -369.232 6        40.093
C08        45.000                                                                                                                                    41042884.199 5 213721246.94105     -1492.823 5        35.633    41042877.756 6 165262898.58406     -1154.296 6        39.357    41042876.810 5 173666069.59105     -1213.032 5        34.224
R11        46.000    23956014.791 7 128013685.83107     -3772.710 7        42.514                                                                    23956012.769 6  99566202.67306     -2934.531 6        38.592
R19        47.000    23667081.014 5 126603280.26305     -4095.008 5        33.156                                                                    23667082.643 6  98469380.76006     -3185.285 6        37.206
I05        49.000  -497049387.637 6-874743356.11906       281.173 6        37.112
C06        50.000                                                                                                                                    40585910.172 6 211341489.24906      1395.173 6        36.015    40585905.251 6 163422622.90206      1079.025 6        41.216    40585904.658 6 171732247.66706      1133.731 6        37.312
S48        51.000    77245642.150 6 405929516.02106      -511.516 6        38.270
G21        52.000    20674948.057 7 108647657.80307      -206.672 7        44.798                                    20674942.379 6  84660534.57206      -161.045 6        37.316
C60        54.000                                                                                                                                    40552917.045 6 211169887.33706      -530.980 6        40.133                                                                    40552900.439 6 171592801.82406      -431.396 6        40.284
C27        55.000                                                                                                                                    21431231.975 8 111598069.29408      -489.596 8        51.569                                                                    21431230.196 8  90682577.05808      -397.838 8        49.391
R04        56.000    21751920.887 8 116480566.41608     -4055.113 8        48.059                                                                    21751919.699 7  90595988.51107     -3153.971 7        43.814
C02        57.000                                                                                                                                    40572525.731 5 211271847.58205      -489.105 5        33.701    40572520.425 6 163368789.59406      -378.369 6        40.901    40572523.707 6 171675686.65306      -397.449 6        36.318
I03        58.000   106811366.578 6 343365510.60606       980.146 6        40.977
C28        60.000                                                                                                                                    23110433.325 8 120342402.77908     -2879.865 8        48.186                                                                    23110431.903 7  97788195.40707     -2340.151 7        46.873
> 2025 01 01 22 45 20.0000000  0 52
G10         1.000    22710351.344 7 119343805.04607     -3207.488 7        45.747                                    22710349.333 7  92995234.98807     -2499.340 7        43.122    22710349.275 6  92995211.99506     -2499.291 6        41.676
G14         2.000    23915651.675 6 125677640.92606      -245.560 6        39.940                                    23915647.898 4  97930630.28804      -191.376 4        24.662    23915648.162 6  97930626.30706      -191.388 6        40.348
C33         3.000                                                                                                                                    23767117.033 8 123761645.66208     -2774.542 8        48.010                                                                    23767128.014 7 100566534.72107     -2254.466 7        47.322
E31         4.000    26322766.210 7 138327116.29907     -1776.092 7        42.474                                                                    26322765.844 7 103296236.29707     -1326.276 7        44.223    26322765.669 7 105990917.16207     -1360.978 7        45.245
S21         5.000    38490115.745 7 202266655.69107      -492.976 7        42.334
E13         6.000    26760978.952 6 140630232.51606     -2763.096 6        41.456                                                                    26760979.513 7 105016287.84607     -2063.436 7        43.424    26760978.899 7 107755813.00307     -2117.299 7        44.063
G03         8.000    23412679.143 6 123034544.61806      2922.376 6        40.832                                    23412677.410 6  95871112.38906      2277.174 6        36.654    23412678.385 6  95871110.38806      2277.396 6        39.441
G02         9.000    21551436.052 8 113253614.54508      1171.241 8        48.141                                    21551429.555 6  88249564.72106       912.656 6        38.787
R12        10.000    23351043.635 7 124737104.62707      -781.878 7        45.096                                                                    23351044.296 7  97017779.05607      -608.087 7        42.006
C30        11.000                                                                                                                                    23719456.353 7 123513449.21907      2052.292 7        46.809                                                                    23719457.037 7 100364797.62507      1667.656 7        46.175
S27        12.000    39167802.320 5 205828219.07505      -464.261 5        35.900
R20        13.000    19520994.460 6 104387576.13306     -1171.516 6        39.991                                                                    19520994.692 7  81190404.34307      -911.061 7        46.772
S36        14.000    38258364.712 7 201049566.06707      -492.334 7        43.862
G27        15.000    23349251.362 7 122701420.41807     -4157.287 7        42.832                                    23349249.524 6  95611653.10506     -3239.444 6        40.026    23349249.829 6  95611567.10606     -3239.390 6        40.117
S45        17.000    63463969.552 6 333506873.40506      -534.960 6        38.075
E08        18.000    26532723.118 6 139430447.90306     -2104.993 6        41.602                                                                    26532721.796 7 104120142.83407     -1571.907 7        44.038    26532721.170 7 106836316.02707     -1612.841 7        44.536
G17        20.000    25689547.056 6 134999480.89406      2871.292 6        36.454                                    25689543.172 4 105194385.34904      2237.355 4        26.862    25689543.083 5 105194384.37605      2237.555 5        34.519
E26        21.000    23553671.957 8 123775730.84108     -1055.689 8        48.481                                                                    23553669.586 8  92430126.28508      -788.373 8        50.649    23553669.281 8  94841322.48508      -808.886 8        51.620
I06        22.000    38458121.136 6 150918161.94706      -261.474 6        41.869
S28        23.000    40942157.105 5 215152484.62605      -484.779 5        34.095
G08        24.000    21153330.836 8 111161517.42508     -2721.353 8        48.839                                    21153328.768 8  86619364.64908     -2120.533 8        48.636    21153329.657 7  86619365.64707     -2120.540 7        44.864
S23        25.000    38212201.818 7 200806461.78407      -490.387 7        44.591
C13        26.000                                                                                                                                    40257828.740 6 209633270.39106     -1382.382 6        39.327    40257829.788 6 162101852.18306     -1068.860 6        40.465    40257828.157 6 170344290.05306     -1123.178 6        38.030
E24        27.000    28067508.836 6 147495779.03306       639.614 6        38.411                                                                    28067508.178 6 110142961.39406       477.697 6        41.964    28067507.803 7 113016252.93507       490.275 7        42.447
R21        29.000    20784035.257 8 111219571.83008      2364.429 8        50.561                                                                    20784033.158 7  86504114.37207      1838.955 7        44.903
C14        30.000                                                                                                                                    25857472.897 6 134646668.16606     -3621.115 6        40.479    25857468.552 7 104117339.47907     -2800.166 7        44.069    25857467.013 6 109411433.22306     -2942.375 6        41.743
R05        31.000    19367550.365 8 103530696.32408      -485.157 8        52.078                                                                    19367548.947 7  80523885.29207      -377.336 7        47.566
R13        32.000    24458251.181 6 130605712.53006      1753.222 6        36.057
E29        33.000    26615494.654 6 139865439.27206      2591.882 6        41.497                                                                    26615493.274 7 104444982.56007      1935.400 7        44.801    26615492.966 7 107169629.16207      1986.020 7        45.341
C16        35.000                                                                                                                                    40806662.611 6 212491007.54706      1309.519 6        38.547    40806661.429 6 164311533.40006      1012.745 6        39.246    40806659.621 5 172666345.82405      1064.544 5        35.433
C32        36.000                                                                                                                                    24793492.243 7 129106265.41207      2735.844 7        45.299                                                                    24793492.272 7 104909435.34607      2223.136 7        45.339
G32        37.000    21897533.453 8 115072355.44408      -238.514 8        49.042                                    21897531.145 8  89666772.71108      -185.856 8        48.772    21897531.655 7  89666781.70707      -185.809 7        44.953
E07        38.000    24734161.002 7 129978911.78507       630.601 7        46.280                                                                    24734161.490 8  97062212.18908       470.860 8        48.883    24734161.112 8  99594262.28908       483.213 8        49.836
