     3.04           OBSERVATION DATA    M                   RINEX VERSION / TYPE
ssrcrin-15.6.1x                         20250101 041500 UTC PGM / RUN BY / DATE 
(00000000023479385599111004) Septentrio proprietary         COMMENT             
rref                                                        MARKER NAME         
01                                                          MARKER NUMBER       
geodetic                                                    MARKER TYPE         
NFB                 CLIMERS@TUW                             OBSERVER / AGENCY   
3297213             SEPT ASTERX SB3 PROB4.14.4              REC # / TYPE / VERS 
Unknown             Unknown                                 ANT # / TYPE        
  4127831.7875  1207193.2559  4695247.6833                  APPROX POSITION XYZ 
        0.0000        0.0000        0.0000                  ANTENNA: DELTA H/E/N
G   23 X1  C1C L1C D1C S1C C1W S1W C2W L2W D2W S2W C2L L2L  SYS / # / OBS TYPES 
       D2L S2L C5Q L5Q D5Q S5Q C1L L1L D1L S1L              SYS / # / OBS TYPES 
E   21 X1  C1C L1C D1C S1C C6C L6C D6C S6C C5Q L5Q D5Q S5Q  SYS / # / OBS TYPES 
       C7Q L7Q D7Q S7Q C8Q L8Q D8Q S8Q                      SYS / # / OBS TYPES 
S    9 X1  C1C L1C D1C S1C C5I L5I D5I S5I                  SYS / # / OBS TYPES 
R   17 X1  C1C L1C D1C S1C C2P L2P D2P S2P C2C L2C D2C S2C  SYS / # / OBS TYPES 
       C3Q L3Q D3Q S3Q                                      SYS / # / OBS TYPES 
C   25 X1  C1P L1P D1P S1P C5P L5P D5P S5P C2I L2I D2I S2I  SYS / # / OBS TYPES 
       C7I L7I D7I S7I C6I L6I D6I S6I C7D L7D D7D S7D      SYS / # / OBS TYPES 
J   17 X1  C1C L1C D1C S1C C2L L2L D2L S2L C5Q L5Q D5Q S5Q  SYS / # / OBS TYPES 
       C1L L1L D1L S1L                                      SYS / # / OBS TYPES 
I    5 X1  C5A L5A D5A S5A                                  SYS / # / OBS TYPES 
SEPTENTRIO RECEIVERS OUTPUT ALIGNED CARRIER PHASES.         COMMENT             
NO FURTHER PHASE SHIFT APPLIED IN THE RINEX ENCODER.        COMMENT             
G L1C                                                       SYS / PHASE SHIFT   
G L2W                                                       SYS / PHASE SHIFT   
G L2L  0.00000                                              SYS / PHASE SHIFT   
G L5Q  0.00000                                              SYS / PHASE SHIFT   
G L1L  0.00000                                              SYS / PHASE SHIFT   
E L1C  0.00000                                              SYS / PHASE SHIFT   
E L6C  0.00000                                              SYS / PHASE SHIFT   
E L5Q  0.00000                                              SYS / PHASE SHIFT   
E L7Q  0.00000                                              SYS / PHASE SHIFT   
E L8Q  0.00000                                              SYS / PHASE SHIFT   
S L1C                                                       SYS / PHASE SHIFT   
S L5I                                                       SYS / PHASE SHIFT   
R L1C                                                       SYS / PHASE SHIFT   
R L2P  0.00000                                              SYS / PHASE SHIFT   
R L2C                                                       SYS / PHASE SHIFT   
R L3Q  0.00000                                              SYS / PHASE SHIFT   
C L1P  0.00000                                              SYS / PHASE SHIFT   
C L5P  0.00000                                              SYS / PHASE SHIFT   
C L2I                                                       SYS / PHASE SHIFT   
C L7I                                                       SYS / PHASE SHIFT   
C L6I                                                       SYS / PHASE SHIFT   
C L7D                                                       SYS / PHASE SHIFT   
J L1C                                                       SYS / PHASE SHIFT   
J L2L  0.00000                                              SYS / PHASE SHIFT   
J L5Q  0.00000                                              SYS / PHASE SHIFT   
J L1L  0.00000                                              SYS / PHASE SHIFT   
I L5A                                                       SYS / PHASE SHIFT   
  2025     1     1     4    15    0.0000000     GPS         TIME OF FIRST OBS   
 C1C    0.000 C2C    0.000 C2P    0.000                     GLONASS COD/PHS/BIS 
DBHZ                                                        SIGNAL STRENGTH UNIT
    18                                                      LEAP SECONDS        
 24 R01  1 R02 -4 R03  5 R04  6 R05  1 R06 -4 R07  5 R08  6 GLONASS SLOT / FRQ #
    R09 -2 R10 -7 R11  0 R12 -1 R13 -2 R14 -7 R15  0 R16 -1 GLONASS SLOT / FRQ #
    R17  4 R18 -3 R19  3 R20  2 R21  4 R22 -3 R23  3 R24  2 GLONASS SLOT / FRQ #
                                                            END OF HEADER       
> 2025 01 01 04 15  0.0000000  0 54
G16         1.000    23895109.725 6 125569663.58306       969.406 6        40.744                                    23895104.819 3  97846474.78103       755.387 3        22.457
G09         3.000    20128279.542 8 105774869.67108      -801.285 8        50.917                                    20128277.031 8  82421987.95908      -624.379 8        53.748    20128277.309 7  82421988.96107      -624.429 7        46.556
E34         4.000    24234948.182 8 127355524.51608      -865.895 8        48.264                                                                    24234948.054 8  95103160.01008      -646.597 8        50.123    24234947.770 8  97584111.24208      -663.512 8        50.948
S21         5.000    38562118.723 7 202645121.41707      -377.286 7        43.238
E05         6.000    22180640.058 8 116560096.47808       424.478 8        48.533                                                                    22180639.702 8  87041660.82308       316.958 8        50.784    22180639.414 8  89312304.82708       325.220 8        51.678
E15         7.000    26594663.083 6 139755916.23406      1807.994 6        40.732                                                                    26594663.766 7 104363207.35807      1350.136 7        44.799    26594663.152 7 107085723.61907      1385.406 7        45.363
E04         8.000    28626183.658 5 150431616.62305     -2970.176 5        34.986                                                                    28626183.165 6 112335297.81506     -2217.919 6        39.739    28626182.902 6 115265776.39606     -2275.641 6        40.958
E31         9.000    27231766.808 6 143103904.56806      1535.215 6        39.967                                                                    27231767.766 7 106863327.99107      1146.350 7        42.464    27231767.538 7 109651065.12907      1176.255 7        43.674
G04        10.000    21236255.786 7 111597322.08207     -2418.648 7        46.316                                    21236252.453 6  86958961.63206     -1884.660 6        36.087    21236252.767 7  86958956.62707     -1884.613 7        45.290
E09        11.000    24656257.368 7 129569554.75307     -2033.737 7        46.856                                                                    24656256.397 8  96756502.83708     -1518.690 8        48.922    24656256.000 8  99280584.75108     -1558.335 8        50.280
S27        12.000    39192455.408 5 205957760.21505      -384.430 5        35.467
G06        13.000    21445466.576 8 112696717.46308     -1398.429 8        48.334                                    21445465.233 8  87815628.90008     -1089.682 8        49.325    21445465.915 7  87815639.90007     -1089.710 7        45.738
S36        14.000    38329798.073 7 201424955.70607      -377.650 7        44.853
G20        15.000    23913828.582 6 125668023.05406      2970.759 6        40.560                                    23913824.094 3  97923115.87103      2314.876 3        23.314
E36        16.000    25818756.651 7 135678499.01107     -3294.730 7        44.292                                                                    25818757.716 7 101318373.54607     -2460.391 7        46.347    25818757.093 7 103961456.66307     -2524.609 7        47.375
S45        17.000    63517896.738 6 333789700.59606      -417.396 6        37.543
G03        18.000    23454661.965 6 123255124.64306     -3688.552 6        40.899                                    23454661.911 6  96042969.73106     -2874.193 6        37.463    23454662.064 6  96042978.72006     -2874.136 6        39.384
R23        20.000    21161087.895 7 113197554.92607         2.845 7        47.567
G30        21.000    24423087.737 6 128344205.68406      3232.739 6        40.899                                    24423087.098 5 100008476.71105      2519.017 5        35.405    24423088.109 6 100008480.70306      2519.223 6        37.856
I06        22.000    38104546.584 7 149530654.04907      -244.647 7        43.437
S28        23.000    40991403.070 5 215411283.55705      -375.266 5        35.271
S23        25.000    38270936.526 7 201115121.34907      -373.292 7        45.040
E06        26.000    26208339.788 7 137725813.55907     -2707.367 7        43.407                                                                    26208340.072 7 102847196.66807     -2021.675 7        44.770    26208340.117 7 105530165.66707     -2074.406 7        46.039
R15        27.000    23998748.516 7 128242021.68707     -3836.472 7        42.125                                                                    23998749.468 6  99743801.27106     -2983.749 6        39.141
G26        28.000    24422595.107 6 128341615.33406     -1413.112 6        38.366                                    24422593.553 5 100006456.97205     -1101.119 5        30.121    24422593.983 5 100006457.99505     -1101.291 5        34.938
R09        29.000    21625997.384 8 115481624.18008      3042.961 8        48.001                                                                    21625996.743 7  89819043.66507      2366.775 7        46.472
C22        30.000                                                                                                                                    22796446.805 8 118707109.87808      1471.319 8        50.134                                                                    22796440.415 8  96459237.78108      1195.489 8        49.198
I01        31.000   338637236.367 7  25744433.63507     -2763.116 7        42.506
E03        32.000    27123660.540 6 142535806.63506      2058.707 6        41.421                                                                    27123661.066 7 106439092.73907      1537.230 7        42.102    27123660.424 7 109215758.88507      1577.387 7        43.031
C36        35.000                                                                                                                                    24734367.485 7 128798348.06407      2819.207 7        45.041                                                                    24734372.858 7 104659229.84207      2290.794 7        45.261
G11        36.000    22615131.506 7 118843351.63407      1233.500 7        45.533                                    22615127.892 5  92605209.48705       961.170 5        33.575    22615127.949 7  92605209.49107       961.093 7        44.621
C35        37.000                                                                                                                                    25529446.589 7 132938528.63007     -3328.853 7        43.896                                                                    25529445.578 7 108023440.25007     -2705.086 7        42.667
I09        38.000    37941565.246 7 148890839.22507      -654.202 7        43.752
R08        39.000    22171089.364 8 118725184.63008      2485.436 8        48.605                                                                    22171086.552 7  92341810.91407      1933.156 7        43.088
R22        40.000    21352062.412 8 113978784.76508     -3419.228 8        49.676                                                                    21352060.715 7  88650179.26407     -2659.369 7        46.289
S44        42.000    40882438.536 6 214838866.31006      -449.223 6        38.003
C09        43.000                                                                                                                                    38861691.164 7 202363048.58807      -930.370 7        42.191    38861687.359 7 156479937.58807      -719.342 7        45.487    38861685.347 7 164436534.90707      -756.079 7        42.082
C05        44.000                                                                                                                                    39298808.571 6 204639241.39106      -419.922 6        39.814    39298803.757 7 158240065.85207      -324.712 7        43.113    39298805.040 6 166286249.05606      -341.332 6        40.021
R06        45.000    20990509.183 6 112009429.80506     -2692.360 6        40.944
C44        46.000                                                                                                                                    24509898.216 7 127629505.06307     -1688.795 7        44.895                                                                    24509896.613 7 103709431.08307     -1372.490 7        43.405
C39        47.000                                                                                                                                    40635540.492 6 211599931.72006     -1561.955 6        39.018                                                                    40635536.476 6 171942266.22106     -1269.285 6        39.126
C20        48.000                                                                                                                                    25293215.068 7 131708436.78507     -2967.932 7        45.032                                                                    25293209.971 7 107023881.80507     -2411.625 7        43.926
C06        49.000                                                                                                                                    39238504.996 6 204325218.25906     -1327.562 6        39.336    39238499.081 7 157997203.95107     -1026.677 7        42.303    39238498.900 6 166030956.67506     -1079.048 6        40.181
C16        50.000                                                                                                                                    39816499.800 6 207334985.58306     -1348.339 6        40.184    39816499.118 6 160324572.39506     -1042.506 6        41.406    39816497.455 6 168476658.38606     -1095.547 6        37.157
S48        51.000    77301280.859 6 406219418.42106      -364.864 6        37.255
C19        52.000                                                                                                                                    22251399.630 8 115868938.88008     -1203.394 8        51.555                                                                    22251394.848 8  94153007.62508      -977.950 8        50.573
C12        53.000                                                                                                                                    24916805.962 6 129748353.06406      -244.106 6        41.840    24916802.281 7 100329639.51107      -188.786 7        46.901    24916801.774 7 105431142.83907      -198.397 7        44.501
C60        54.000                                                                                                                                    40882442.416 6 212885805.10406      -445.304 6        40.865                                                                    40882427.500 6 172987123.09006      -362.085 6        39.598
R16        55.000    21189446.185 8 113190242.36808      -650.271 8        49.839                                                                    21189446.273 7  88036876.79707      -505.744 7        46.007
C37        56.000                                                                                                                                    25545473.105 7 133022003.80407     -2306.677 7        42.373                                                                    25545476.447 7 108091293.92707     -1874.542 7        43.308
C02        57.000                                                                                                                                    40831267.723 5 212619164.17905      -455.287 5        34.824    40831261.121 6 164410616.53806      -352.154 6        39.423    40831264.698 6 172770488.77606      -370.135 6        36.624
I03        58.000   129604682.070 7 432811355.41107       929.502 7        42.282
R07        59.000    19665220.451 8 105269494.82908       108.033 8        52.156                                                                    19665218.710 7  81876276.64507        83.989 7        47.906
G07        60.000    21964593.011 8 115424741.44008      1924.843 8        48.352                                    21964588.507 7  89941350.87107      1499.877 7        46.017    21964588.398 7  89941351.88107      1499.829 7        42.152
> 2025 01 01 04 15  5.0000000  0 54
G16         1.000    23894188.504 6 125564822.81406       966.320 6        40.181                                    23894183.656 3  97842702.76403       752.985 3        22.057
G09         3.000    20129042.575 8 105778880.07308      -803.263 8        50.861                                    20129040.185 8  82425112.94708      -625.920 8        53.702    20129040.317 7  82425113.94507      -625.941 7        46.585
E34         4.000    24235772.943 8 127359859.38308      -868.307 8        48.060                                                                    24235772.902 8  95106397.08308      -648.398 8        50.051    24235772.696 8  97587432.76408      -665.351 8        51.034
S21         5.000    38562479.534 7 202647006.65707      -377.062 7        43.522
E05         6.000    22180236.732 8 116557976.55708       423.205 8        48.453                                                                    22180236.274 8  87040077.76708       316.044 8        50.754    22180235.964 8  89310680.47808       324.254 8        51.765
E15         7.000    26592943.213 6 139746879.19906      1806.540 6        40.942                                                                    26592944.139 7 104356458.93807      1348.960 7        44.877    26592943.578 7 107078799.15307      1384.175 7        45.648
E04         8.000    28629009.220 5 150446465.97905     -2970.419 5        35.124                                                                    28629008.960 6 112346386.60206     -2217.848 6        39.504    28629008.787 6 115277154.46306     -2275.571 6        41.073
E31         9.000    27230306.691 6 143096232.13406      1533.649 6        39.838                                                                    27230307.827 7 106857598.59007      1145.208 7        42.540    27230307.399 7 109645186.27307      1175.020 7        43.835
G04        10.000    21238557.565 7 111609417.87507     -2420.003 7        46.635                                    21238554.203 6  86968386.92706     -1885.715 6        36.045    21238554.222 7  86968381.92007     -1885.790 7        45.484
E09        11.000    24658192.658 7 129579724.49607     -2034.465 7        46.922                                                                    24658191.651 8  96764097.12808     -1519.258 8        48.937    24658191.231 8  99288377.15708     -1558.907 8        50.378
S27        12.000    39192828.319 5 205959681.08805      -384.178 5        35.557
G06        13.000    21446798.528 8 112703717.07308     -1401.789 8        48.241                                    21446797.222 8  87821083.14008     -1092.304 8        49.256    21446797.791 7  87821094.14507     -1092.330 7        45.828
S36        14.000    38330158.517 7 201426843.27507      -377.625 7        44.909
G20        15.000    23911001.750 6 125653170.09806      2970.380 6        39.763                                    23910997.667 3  97911542.13703      2314.577 3        23.333
E36        16.000    25821891.699 7 135694974.67807     -3295.800 7        43.841                                                                    25821893.015 7 101330676.80007     -2461.146 7        46.375    25821892.284 7 103974080.87307     -2525.369 7        47.469
S45        17.000    63518248.869 6 333791785.47006      -416.955 6        37.490
G03        18.000    23458171.992 6 123273568.93806     -3689.542 6        41.840                                    23458171.602 6  96057341.89906     -2874.971 6        37.040    23458171.668 6  96057350.89906     -2874.925 6        38.730
R23        20.000    21161087.644 7 113197551.70107        -1.817 7        47.959
G30        21.000    24420011.752 6 128328041.77106      3232.295 6        40.758                                    24420011.342 5  99995881.46505      2518.667 5        35.714    24420012.517 6  99995885.44306      2518.864 6        37.769
I06        22.000    38104857.959 7 149531876.59507      -244.624 7        43.346
S28        23.000    40991761.574 5 215413158.37805      -375.094 5        34.900
S23        25.000    38271290.795 7 201116986.66207      -373.206 7        44.975
E06        26.000    26210915.633 7 137739349.65307     -2707.495 7        42.990                                                                    26210915.988 7 102857304.79107     -2021.831 7        44.805    26210915.838 7 105540537.48507     -2074.574 7        46.091
R15        27.000    24002339.340 7 128261208.79007     -3838.732 7        42.705                                                                    24002341.276 6  99758724.55606     -2985.749 6        39.126
G26        28.000    24423940.789 6 128348687.95806     -1416.165 6        38.120                                    24423939.431 5 100011968.09405     -1103.502 5        30.008    24423940.508 5 100011969.09905     -1103.563 5        35.576
R09        29.000    21623149.070 8 115466414.71108      3040.479 8        48.592                                                                    21623148.685 7  89807214.06607      2364.914 7        46.524
C22        30.000                                                                                                                                    22795034.198 8 118699754.69508      1470.416 8        50.194                                                                    22795027.898 8  96453261.10308      1194.844 8        49.019
I01        31.000   338640756.721 7  25758248.53607     -2763.116 7        42.470
E03        32.000    27121701.580 6 142525513.88506      2058.150 6        40.839                                                                    27121702.571 7 106431406.59607      1536.969 7        42.025    27121701.723 7 109207872.24307      1577.019 7        43.045
C36        35.000                                                                                                                                    24731660.498 7 128784253.03207      2818.547 7        44.784                                                                    24731666.176 7 104647776.49407      2290.291 7        45.120
G11        36.000    22613959.640 7 118837190.68407      1230.589 7        45.618                                    22613955.535 5  92600408.74205       958.897 5        33.503    22613955.320 7  92600408.74407       958.860 7        44.644
C35        37.000                                                                                                                                    25532643.025 7 132955173.75707     -3329.498 7        43.799                                                                    25532642.111 7 108036965.78507     -2705.486 7        42.301
I09        38.000    37942398.835 7 148894109.72407      -654.185 7        43.606
R08        39.000    22168769.101 8 118712758.70108      2484.655 8        48.423                                                                    22168766.138 7  92332146.31407      1932.479 7        43.443
R22        40.000    21355265.880 8 113995887.42408     -3422.207 8        49.445                                                                    21355264.349 7  88663481.32707     -2661.763 7        46.414
S44        42.000    40882869.006 6 214841112.00606      -449.330 6        37.981
C09        43.000                                                                                                                                    38862584.500 7 202367700.34407      -930.751 7        42.364    38862580.616 7 156483534.63407      -719.595 7        45.556    38862578.750 6 164440314.84906      -756.239 6        41.723
C05        44.000                                                                                                                                    39299211.674 6 204641340.07506      -419.789 6        39.685    39299206.530 7 158241688.69407      -324.660 7        43.141    39299208.054 6 166287954.42106      -341.216 6        40.021
R06        45.000    20993031.991 6 112022894.64306     -2693.776 6        40.224
C44        46.000                                                                                                                                    24511520.487 7 127637953.77307     -1691.113 7        44.867                                                                    24511519.034 7 103716296.36207     -1374.110 7        43.113
C39        47.000                                                                                                                                    40637039.508 6 211607740.62806     -1561.943 6        39.553                                                                    40637036.200 6 171948611.61906     -1269.312 6        39.078
C20        48.000                                                                                                                                    25296064.691 7 131723276.42907     -2968.358 7        45.403                                                                    25296059.913 7 107035940.24307     -2411.980 7        43.860
C06        49.000                                                                                                                                    39239779.435 6 204331856.11806     -1327.923 6        39.583    39239774.272 7 158002336.77607     -1026.800 7        42.482    39239773.480 6 166036350.47506     -1078.973 6        39.763
C16        50.000                                                                                                                                    39817794.563 6 207341726.61006     -1348.473 6        40.379    39817793.879 6 160329784.99506     -1042.718 6        41.509    39817791.783 6 168482136.03806     -1095.801 6        36.915
S48        51.000    77301628.662 6 406222841.77516      -364.867 6        37.565
C19        52.000                                                                                                                                    22252555.551 8 115874958.56708     -1204.825 8        51.755                                                                    22252550.864 8  94157899.12008      -978.966 8        50.300
C12        53.000                                                                                                                                    24917041.238 6 129749579.77906      -246.918 6        41.955    24917038.113 7 100330588.08407      -190.920 7        46.836    24917037.308 7 105432139.65707      -200.671 7        44.272
C60        54.000                                                                                                                                    40882870.234 6 212888030.37506      -445.108 6        40.973                                                                    40882854.925 6 172988931.28906      -361.644 6        39.775
R16        55.000    21190057.190 8 113193504.23308      -654.821 8        49.730                                                                    21190056.690 7  88039413.81207      -509.283 7        45.868
C37        56.000                                                                                                                                    25547689.038 7 133033541.45907     -2308.719 7        42.889                                                                    25547691.998 7 108100669.22607     -1876.000 7        43.143
C02        57.000                                                                                                                                    40831703.984 5 212621440.46605      -455.269 5        35.019    40831698.150 6 164412376.70006      -351.998 6        39.432    40831702.125 6 172772338.46106      -370.011 6        36.457
I03        58.000   129603497.853 6 432806707.39106       929.551 6        41.995
R07        59.000    19665121.008 8 105268958.36608       106.193 8        52.423                                                                    19665118.861 8  81875859.39008        82.540 8        48.130
G07        60.000    21962762.327 8 115415121.44108      1922.815 8        48.153                                    21962757.843 7  89933854.76907      1498.300 7        45.994    21962758.000 7  89933855.77307      1498.322 7        42.370
> 2025 01 01 04 15 10.0000000  0 54
G16         1.000    23893269.988 6 125559997.02706       963.268 6        40.057                                    23893265.015 3  97838942.41003       750.593 3        21.857
G09         3.000    20129807.860 8 105782900.92708      -805.573 8        50.908                                    20129805.333 8  82428246.08308      -627.721 8        53.883    20129805.341 7  82428247.08207      -627.717 7        46.330
E34         4.000    24236600.157 8 127364206.73408      -871.025 8        48.184                                                                    24236600.223 8  95109643.48508      -650.479 8        50.099    24236599.956 8  97590763.85108      -667.458 8        50.997
S21         5.000    38562836.593 7 202648891.65607      -377.284 7        43.363
E05         6.000    22179834.566 8 116555862.94808       421.832 8        48.738                                                                    22179834.075 8  87038499.42808       314.983 8        50.738    22179833.774 8  89309060.96008       323.188 8        51.703
E15         7.000    26591224.970 6 139737850.37106      1804.621 6        41.056                                                                    26591225.958 7 104349716.63207      1347.668 7        44.950    26591225.376 7 107071880.96007      1382.762 7        45.448
E04         8.000    28631835.132 5 150461314.55205     -2969.915 5        34.905                                                                    28631834.501 6 112357474.80906     -2217.728 6        39.429    28631834.448 6 115288531.93306     -2275.573 6        40.822
E31         9.000    27228848.279 6 143088567.75806      1531.841 6        39.646                                                                    27228849.362 7 106851875.18907      1143.847 7        42.483    27228848.879 7 109639313.56107      1173.742 7        43.833
G04        10.000    21240860.631 7 111621520.82607     -2421.571 7        46.961                                    21240857.326 6  86977817.79506     -1886.940 6        36.178    21240857.441 7  86977812.79807     -1886.957 7        45.231
E09        11.000    24660128.647 7 129589898.28207     -2035.396 7        47.099                                                                    24660127.630 8  96771694.43508     -1520.053 8        49.003    24660127.244 8  99296172.64908     -1559.647 8        50.303
S27        12.000    39193187.189 5 205961601.36905      -384.180 5        35.367
G06        13.000    21448133.709 8 112710733.07808     -1405.167 8        48.043                                    21448132.323 8  87826550.15508     -1094.935 8        49.434    21448132.860 7  87826561.15807     -1094.959 7        45.529
S36        14.000    38330514.431 7 201428730.51907      -377.725 7        44.814
G20        15.000    23908176.284 6 125638319.87306      2969.497 6        40.455                                    23908171.731 3  97899970.53603      2313.904 3        23.505
E36        16.000    25825027.995 7 135711456.03507     -3297.141 7        44.066                                                                    25825029.198 7 101342984.30107     -2462.215 7        46.368    25825028.487 7 103986709.43707     -2526.395 7        47.366
S45        17.000    63518603.375 6 333793870.34506      -417.261 6        38.138
G03        18.000    23461683.038 6 123292018.14106     -3690.540 6        41.580                                    23461682.117 6  96071717.90606     -2875.745 6        36.888    23461681.945 6  96071726.90306     -2875.924 6        38.177
R23        20.000    21161091.490 7 113197572.12107        -6.688 7        47.743
G30        21.000    24416936.604 6 128311880.38806      3231.775 6        40.722                                    24416936.019 5  99983288.19205      2518.265 5        35.724    24416936.775 6  99983292.19806      2518.276 6        37.384
I06        22.000    38105169.914 7 149533099.26307      -244.807 7        43.344
S28        23.000    40992117.698 5 215415032.99005      -374.943 5        35.057
S23        25.000    38271646.365 7 201118851.76807      -373.385 7        45.071
E06        26.000    26213492.045 7 137752887.43007     -2708.055 7        42.753                                                                    26213492.130 7 102867414.16907     -2022.277 7        44.831    26213491.938 7 105550910.58907     -2075.039 7        45.971
R15        27.000    24005932.162 7 128280408.12107     -3841.260 7        43.115                                                                    24005933.934 6  99773657.41806     -2987.609 6        39.823
G26        28.000    24425289.000 6 128355776.04106     -1419.547 6        38.541                                    24425288.283 5 100017491.27905     -1106.142 5        30.181    24425289.041 6 100017492.28606     -1106.026 6        36.053
R09        29.000    21620303.731 8 115451217.65608      3037.847 8        48.259                                                                    21620302.927 7  89795394.14907      2362.734 7        46.325
C22        30.000                                                                                                                                    22793622.695 8 118692404.46908      1469.249 8        50.152                                                                    22793616.395 8  96447288.43308      1193.967 8        49.063
I01        31.000   338644277.141 7  25772063.99507     -2763.329 7        42.482
E03        32.000    27119743.394 6 142515223.81906      2057.551 6        40.987                                                                    27119744.344 7 106423722.46807      1536.408 7        42.133    27119743.588 7 109199987.66407      1576.401 7        43.058
C36        35.000                                                                                                                                    24728954.300 7 128770161.93707      2817.553 7        44.548                                                                    24728960.056 7 104636326.31007      2289.589 7        45.102
G11        36.000    22612790.124 7 118831044.73407      1227.365 7        45.699                                    22612786.005 5  92595619.69505       956.387 5        33.683    22612785.783 7  92595619.69507       956.365 7        44.340
C35        37.000                                                                                                                                    25535839.900 7 132971821.92907     -3330.249 7        43.820                                                                    25535838.991 7 108050493.76807     -2706.041 7        42.336
I09        38.000    37943232.108 7 148897380.72907      -654.523 7        43.589
R08        39.000    22166448.873 8 118700336.70208      2483.688 8        48.387                                                                    22166446.230 7  92322484.75607      1931.742 7        42.868
R22        40.000    21358472.829 8 114013005.64608     -3425.507 8        49.261                                                                    21358471.123 7  88676795.48707     -2664.241 7        46.240
S44        42.000    40883294.043 6 214843357.58606      -449.400 6        37.652
C09        43.000                                                                                                                                    38863477.778 7 202372354.09307      -931.233 7        42.411    38863474.463 7 156487133.21907      -720.162 7        45.890    38863472.375 6 164444096.39806      -756.707 6        41.814
C05        44.000                                                                                                                                    39299614.854 6 204643438.76306      -419.950 6        39.598    39299609.740 7 158243311.52607      -324.698 7        43.384    39299611.086 6 166289659.75206      -341.213 6        40.024
R06        45.000    20995556.137 6 112036366.24506     -2695.383 6        40.160
C44        46.000                                                                                                                                    24513145.306 7 127646414.39407     -1693.550 7        44.933                                                                    24513143.899 7 103723171.29707     -1376.143 7        43.192
C39        47.000                                                                                                                                    40638538.932 6 211615549.86606     -1562.214 6        39.291                                                                    40638535.880 6 171954957.22806     -1269.339 6        39.009
C20        48.000                                                                                                                                    25298915.224 7 131738118.83107     -2968.935 7        45.251                                                                    25298910.283 7 107048000.89007     -2412.599 7        44.018
C06        49.000                                                                                                                                    39241055.006 6 204338495.28606     -1328.182 6        39.345    39241049.155 7 158007470.60607     -1027.135 7        42.614    39241048.435 6 166041745.34706     -1079.252 6        39.859
C16        50.000                                                                                                                                    39819089.558 6 207348468.67006     -1348.755 6        40.665    39819088.675 6 160334998.38906     -1042.995 6        41.347    39819086.630 6 168487614.50506     -1095.861 6        36.817
S48        51.000    77301981.330 6 406224665.21406      -364.903 6        37.599
C19        52.000                                                                                                                                    22253713.147 8 115880985.31608     -1206.354 8        51.636                                                                    22253708.271 8  94162796.33408      -980.185 8        50.428
C12        53.000                                                                                                                                    24917279.939 7 129750820.75007      -249.982 7        42.142    24917276.363 7 100331547.67907      -193.239 7        46.816    24917275.635 7 105433148.02307      -202.939 7        44.343
C60        54.000                                                                                                                                    40883297.605 6 212890255.53806      -445.288 6        41.035                                                                    40883282.041 6 172990739.40906      -361.678 6        39.631
R16        55.000    21190672.027 8 113196789.18308      -659.558 8        50.091                                                                    21190672.119 7  88041968.77507      -513.028 7        46.152
C37        56.000                                                                                                                                    25549907.239 7 133045090.17907     -2311.110 7        42.828                                                                    25549909.697 7 108110053.50107     -1877.855 7        43.065
C02        57.000                                                                                                                                    40832141.474 5 212623716.67405      -455.364 5        35.010    40832135.596 6 164414136.82506      -352.219 6        39.646    40832139.088 6 172774188.04506      -369.955 6        36.624
I03        58.000   129602312.899 7 432802059.38607       929.317 7        42.114
R07        59.000    19665022.324 8 105268431.93608       104.052 8        52.350                                                                    19665020.284 7  81875449.93807        80.915 7        47.931
G07        60.000    21960933.548 8 115405511.54308      1920.654 8        48.049                                    21960929.097 7  89926366.54407      1496.612 7        46.123    21960929.655 7  89926367.55307      1496.553 7        42.288
> 2025 01 01 04 15 15.0000000  0 54
G16         1.000    23892354.142 6 125555186.12906       960.726 6        40.379                                    23892349.423 3  97835193.65403       748.607 3        21.214
G09         3.000    20130574.939 8 105786932.16108      -807.165 8        51.024                                    20130572.458 8  82431387.30408      -628.960 8        53.705    20130572.573 7  82431388.30507      -628.979 7        46.369
E34         4.000    24237430.086 8 127368566.47608      -873.178 8        48.020                                                                    24237429.887 8  95112899.13308      -652.052 8        50.198    24237429.555 8  97594104.43108      -669.030 8        50.982
S21         5.000    38563192.020 7 202650776.38807      -376.941 7        43.130
E05         6.000    22179433.477 8 116553755.56608       420.919 8        48.570                                                                    22179433.056 8  87036925.73008       314.291 8        50.865    22179432.758 8  89307446.20908       322.487 8        51.691
E15         7.000    26589508.540 6 139728829.66806      1803.400 6        41.728                                                                    26589509.336 7 104342980.39907      1346.654 7        44.975    26589508.883 7 107064968.99807      1381.830 7        45.514
E04         8.000    28634660.517 5 150476162.25405     -2969.559 5        35.243                                                                    28634659.934 6 112368562.34806     -2217.411 6        39.315    28634659.947 6 115299908.72706     -2275.440 6        40.610
E31         9.000    27227391.426 6 143080911.30006      1530.685 6        39.474                                                                    27227392.211 7 106846157.73307      1142.857 7        42.472    27227391.914 7 109633446.94107      1172.777 7        43.841
G04        10.000    21243165.101 7 111633630.84307     -2422.594 7        46.858                                    21243161.790 6  86987254.17006     -1887.734 6        36.004    21243161.833 7  86987249.17907     -1887.797 7        45.151
E09        11.000    24662065.143 7 129600075.98907     -2035.821 7        47.079                                                                    24662064.345 8  96779294.66908     -1520.320 8        49.011    24662064.037 8  99303971.15108     -1559.938 8        50.183
S27        12.000    39193550.437 5 205963521.14705      -384.108 5        35.148
G06        13.000    21449471.900 8 112717765.34608     -1407.990 8        48.149                                    21449470.524 8  87832029.84508     -1097.135 8        49.231    21449471.108 7  87832040.84807     -1097.164 7        45.400
S36        14.000    38330875.148 7 201430617.42807      -377.210 7        44.992
G20        15.000    23905351.100 6 125623472.22506      2969.355 6        41.147                                    23905346.193 3  97888400.95403      2313.777 3        23.448
E36        16.000    25828165.688 7 135727942.95707     -3297.882 7        44.229                                                                    25828166.536 7 101355295.95907     -2462.700 7        46.477    25828166.041 7 103999342.27207     -2526.957 7        47.182
S45        17.000    63518960.184 6 333795955.04406      -416.893 6        37.388
G03        18.000    23465194.622 6 123310472.19706     -3691.324 6        41.333                                    23465193.557 6  96086097.68806     -2876.355 6        36.401    23465194.261 6  96086106.69006     -2876.433 6        38.075
R23        20.000    21161100.302 8 113197615.82708       -10.997 8        48.271
G30        21.000    24413862.108 6 128295721.50106      3231.675 6        40.934                                    24413861.148 5  99970696.86005      2518.186 5        35.210    24413861.641 6  99970700.87206      2517.976 6        37.440
I06        22.000    38105481.122 7 149534321.98707      -244.554 7        43.378
S28        23.000    40992472.311 5 215416907.05005      -374.694 5        35.200
S23        25.000    38272000.665 7 201120716.64307      -372.822 7        45.022
E06        26.000    26216068.693 7 137766426.76507     -2707.879 7        42.571                                                                    26216068.581 7 102877524.70907     -2022.102 7        45.028    26216068.266 7 105561284.87807     -2074.924 7        45.821
R15        27.000    24009527.877 7 128299619.22507     -3843.255 7        43.568                                                                    24009529.320 6  99788599.34506     -2989.204 6        39.072
G26        28.000    24426641.447 6 128362879.47906     -1422.136 6        38.568                                    24426640.264 5 100023026.41905     -1108.159 5        30.385    24426640.134 6 100023027.43706     -1108.183 6        36.042
R09        29.000    21617460.008 8 115436033.13308      3035.731 8        48.579                                                                    21617459.215 7  89783583.97207      2361.142 7        46.452
C22        30.000                                                                                                                                    22792212.098 8 118685059.10408      1468.677 8        50.032                                                                    22792205.737 8  96441319.72108      1193.318 8        49.050
I01        31.000   338647797.799 7  25785879.98107     -2763.229 7        42.362
E03        32.000    27117786.141 6 142504936.34706      2057.279 6        41.025                                                                    27117786.722 7 106416040.28207      1536.157 7        42.133    27117786.170 7 109192105.05707      1576.426 7        43.185
C36        35.000                                                                                                                                    24726248.730 7 128756074.67907      2817.239 7        44.120                                                                    24726254.664 7 104624879.26407      2289.036 7        45.026
G11        36.000    22611623.063 7 118824913.67307      1224.829 7        45.707                                    22611619.309 5  92590842.24405       954.414 5        33.599    22611618.899 7  92590842.24507       954.338 7        43.509
C35        37.000                                                                                                                                    25539037.729 7 132988473.02107     -3330.473 7        44.072                                                                    25539037.040 7 108064024.14207     -2706.332 7        42.383
I09        38.000    37944065.671 7 148900652.19607      -654.333 7        43.608
R08        39.000    22164129.956 8 118687918.53208      2483.351 8        48.202                                                                    22164127.379 7  92312826.18107      1931.451 7        42.889
R22        40.000    21361682.547 8 114030139.24108     -3428.149 8        48.650                                                                    21361681.220 7  88690121.62807     -2666.285 7        45.518
S44        42.000    40883720.403 6 214845602.93906      -448.953 6        37.716
C09        43.000                                                                                                                                    38864372.035 7 202377009.77007      -931.219 7        42.220    38864368.494 7 156490733.27707      -720.135 7        45.914    38864366.447 6 164447879.51006      -756.832 6        41.805
C05        44.000                                                                                                                                    39300017.841 6 204645537.36306      -419.591 6        39.589    39300012.718 7 158244934.31207      -324.599 7        43.225    39300014.086 6 166291365.05006      -341.082 6        39.778
R06        45.000    20998081.719 6 112049844.63806     -2696.406 6        39.991
C44        46.000                                                                                                                                    24514772.608 7 127654886.81407     -1695.658 7        44.828                                                                    24514770.916 7 103730055.81607     -1377.871 7        43.227
C39        47.000                                                                                                                                    40640038.938 6 211623359.29606     -1561.785 6        39.616                                                                    40640035.423 6 171961303.04906     -1269.226 6        39.084
C20        48.000                                                                                                                                    25301766.383 7 131752963.91107     -2969.207 7        45.330                                                                    25301761.112 7 107060063.72007     -2412.846 7        44.108
C06        49.000                                                                                                                                    39242330.210 6 204345135.74606     -1328.151 6        39.237    39242324.297 7 158012605.42007     -1026.952 7        42.787    39242323.729 6 166047141.24606     -1079.318 6        39.556
C16        50.000                                                                                                                                    39820384.279 6 207355211.67206     -1348.540 6        40.574    39820383.650 6 160340212.49306     -1042.805 6        41.228    39820381.346 6 168493093.76006     -1096.035 6        36.556
S48        51.000    77302333.260 6 406226488.61106      -364.366 6        37.569
C19        52.000                                                                                                                                    22254871.886 8 115887019.01608     -1207.365 8        51.537                                                                    22254866.953 8  94167699.21108      -981.198 8        50.303
C12        53.000                                                                                                                                    24917521.690 7 129752075.88707      -252.334 7        42.178    24917517.263 7 100332518.23907      -195.170 7        46.983    24917516.656 7 105434167.93007      -205.162 7        44.188
C60        54.000                                                                                                                                    40883724.721 6 212892480.50406      -445.025 6        40.896                                                                    40883709.492 6 172992547.35606      -361.578 6        39.601
R16        55.000    21191291.967 8 113200097.10208      -663.816 8        50.309                                                                    21191290.843 7  88044541.59807      -516.281 7        45.261
C37        56.000                                                                                                                                    25552126.828 7 133056649.85807     -2312.910 7        42.476                                                                    25552129.598 7 108119446.67707     -1879.479 7        42.851
C02        57.000                                                                                                                                    40832578.933 5 212625992.76105      -455.278 5        34.848    40832572.652 6 164415896.83806      -352.005 6        39.712    40832576.113 6 172776037.54506      -369.768 6        36.526
I03        58.000   129601128.376 7 432797411.33007       929.620 7        42.184
R07        59.000    19664925.542 8 105267914.92008       102.502 8        52.205                                                                    19664923.456 7  81875047.82507        79.679 7        47.663
G07        60.000    21959106.973 8 115395911.68408      1919.029 8        48.451                                    21959102.269 7  89918886.13707      1495.345 7        45.979    21959102.450 7  89918887.14707      1495.275 7        42.525
> 2025 01 01 04 15 20.0000000  0 54
G16         1.000    23891442.168 6 125550390.31406       957.759 6        40.636                                    23891436.559 3  97831456.66103       746.307 3        21.262
G09         3.000    20131344.015 8 105790973.90708      -809.276 8        51.041                                    20131341.568 8  82434536.71908      -630.605 8        53.736    20131341.606 7  82434537.72607      -630.681 7        46.189
E34         4.000    24238261.992 8 127372938.74408      -875.665 8        48.220                                                                    24238261.873 8  95116164.13308      -653.909 8        50.139    24238261.588 8  97597454.60208      -670.960 8        50.811
S21         5.000    38563554.208 7 202652661.21007      -376.838 7        43.191
E05         6.000    22179033.574 8 116551654.52708       419.651 8        48.604                                                                    22179033.279 8  87035356.77308       313.368 8        50.830    22179032.942 8  89305836.32408       321.536 8        51.458
E15         7.000    26587793.409 6 139719817.22306      1801.627 6        41.359                                                                    26587794.348 7 104336250.32507      1345.406 7        44.936    26587793.807 7 107058063.35907      1380.496 7        45.383
E04         8.000    28637485.954 5 150491009.21605     -2969.451 5        35.310                                                                    28637485.185 6 112379649.34106     -2217.332 6        39.201    28637485.202 6 115311284.92906     -2275.178 6        40.558
E31         9.000    27225936.029 6 143073262.98806      1528.825 6        39.604                                                                    27225936.683 7 106840446.31307      1141.828 7        42.207    27225936.745 7 109627586.54407      1171.481 7        43.854
G04        10.000    21245470.800 7 111645748.05207     -2424.074 7        46.599                                    21245467.627 6  86996696.14906     -1888.890 6        36.026    21245467.679 7  86996691.15507     -1888.918 7        45.290
E09        11.000    24664002.579 7 129610257.75507     -2036.685 7        47.085                                                                    24664001.868 8  96786897.93108     -1520.902 8        48.930    24664001.572 8  99311772.76108     -1560.567 8        50.100
S27        12.000    39193917.762 5 205965441.48805      -384.064 5        35.457
G06        13.000    21450813.023 8 112724814.02908     -1411.327 8        48.176                                    21450811.849 8  87837522.32208     -1099.736 8        49.236    21450812.754 7  87837533.32307     -1099.790 7        45.631
S36        14.000    38331234.447 7 201432504.02607      -377.195 7        44.799
G20        15.000    23902526.662 6 125608627.31706      2968.624 6        41.101                                    23902521.250 3  97876833.48703      2313.208 3        23.543
E36        16.000    25831303.937 7 135744435.59307     -3299.016 7        44.185                                                                    25831304.964 7 101367611.89007     -2463.530 7        46.371    25831304.700 7 104011979.48607     -2527.798 7        47.238
S45        17.000    63519313.169 6 333796439.80916      -416.750 6        37.478
G03        18.000    23468707.653 6 123328931.20606     -3692.254 6        41.459                                    23468705.971 6  96100481.33406     -2877.076 6        36.427    23468706.674 6  96100490.32506     -2877.063 6        38.574
R23        20.000    21161111.646 7 113197683.10707       -15.799 7        47.775
G30        21.000    24410787.414 6 128279565.22406      3231.066 6        41.027                                    24410786.800 5  99958107.56605      2517.712 5        35.138    24410786.638 6  99958111.57406      2517.848 6        37.958
I06        22.000    38105793.131 7 149535544.86007      -244.558 7        43.420
S28        23.000    40992830.815 5 215418781.22205      -374.936 5        34.833
S23        25.000    38272355.301 7 201122581.66307      -372.937 7        45.085
E06        26.000    26218645.489 7 137779967.81207     -2708.351 7        42.626                                                                    26218645.419 7 102887636.52207     -2022.437 7        44.906    26218645.029 7 105571660.47807     -2075.198 7        45.723
R15        27.000    24013124.786 7 128318842.24507     -3845.795 7        42.555                                                                    24013125.530 6  99803550.58106     -2991.169 6        38.147
G26        28.000    24427996.312 6 128369998.39806     -1425.256 6        39.111                                    24427995.175 5 100028573.62605     -1110.596 5        30.815    24427994.539 5 100028574.65605     -1110.581 5        35.819
R09        29.000    21614618.919 7 115420861.19707      3033.203 7        47.658                                                                    21614617.859 7  89771783.57107      2359.113 7        45.785
C22        30.000                                                                                                                                    22790802.468 8 118677718.72408      1467.630 8        49.801                                                                    22790796.073 8  96435355.05308      1192.598 8        49.141
I01        31.000   338651319.030 7  25799696.56607     -2763.339 7        42.447
E03        32.000    27115829.096 6 142494651.61606      2056.797 6        41.011                                                                    27115829.311 7 106408360.11407      1535.948 7        42.118    27115828.965 7 109184224.55807      1575.799 7        42.927
