     3.04           OBSERVATION DATA    M                   RINEX VERSION / TYPE
ssrcrin-15.6.1x                         20250101 213000 UTC PGM / RUN BY / DATE 
(00000000023479385599111004) Septentrio proprietary         COMMENT             
rref                                                        MARKER NAME         
01                                                          MARKER NUMBER       
geodetic                                                    MARKER TYPE         
NFB                 CLIMERS@TUW                             OBSERVER / AGENCY   
3297213             SEPT ASTERX SB3 PROB4.14.4              REC # / TYPE / VERS 
Unknown             Unknown                                 ANT # / TYPE        
  4127832.4455  1207193.2321  4695248.1814                  APPROX POSITION XYZ 
        0.0000        0.0000        0.0000                  ANTENNA: DELTA H/E/N
G   23 X1  C1C L1C D1C S1C C1W S1W C2W L2W D2W S2W C2L L2L  SYS / # / OBS TYPES 
       D2L S2L C5Q L5Q D5Q S5Q C1L L1L D1L S1L              SYS / # / OBS TYPES 
E   21 X1  C1C L1C D1C S1C C6C L6C D6C S6C C5Q L5Q D5Q S5Q  SYS / # / OBS TYPES 
       C7Q L7Q D7Q S7Q C8Q L8Q D8Q S8Q                      SYS / # / OBS TYPES 
S    9 X1  C1C L1C D1C S1C C5I L5I D5I S5I                  SYS / # / OBS TYPES 
R   17 X1  C1C L1C D1C S1C C2P L2P D2P S2P C2C L2C D2C S2C  SYS / # / OBS TYPES 
       C3Q L3Q D3Q S3Q                                      SYS / # / OBS TYPES 
C   25 X1  C1P L1P D1P S1P C5P L5P D5P S5P C2I L2I D2I S2I  SYS / # / OBS TYPES 
       C7I L7I D7I S7I C6I L6I D6I S6I C7D L7D D7D S7D      SYS / # / OBS TYPES 
J   17 X1  C1C L1C D1C S1C C2L L2L D2L S2L C5Q L5Q D5Q S5Q  SYS / # / OBS TYPES 
       C1L L1L D1L S1L                                      SYS / # / OBS TYPES 
I    5 X1  C5A L5A D5A S5A                                  SYS / # / OBS TYPES 
SEPTENTRIO RECEIVERS OUTPUT ALIGNED CARRIER PHASES.         COMMENT             
NO FURTHER PHASE SHIFT APPLIED IN THE RINEX ENCODER.        COMMENT             
G L1C                                                       SYS / PHASE SHIFT   
G L2W                                                       SYS / PHASE SHIFT   
G L2L  0.00000                                              SYS / PHASE SHIFT   
G L5Q  0.00000                                              SYS / PHASE SHIFT   
G L1L  0.00000                                              SYS / PHASE SHIFT   
E L1C  0.00000                                              SYS / PHASE SHIFT   
E L6C  0.00000                                              SYS / PHASE SHIFT   
E L5Q  0.00000                                              SYS / PHASE SHIFT   
E L7Q  0.00000                                              SYS / PHASE SHIFT   
E L8Q  0.00000                                              SYS / PHASE SHIFT   
S L1C                                                       SYS / PHASE SHIFT   
S L5I                                                       SYS / PHASE SHIFT   
R L1C                                                       SYS / PHASE SHIFT   
R L2P  0.00000                                              SYS / PHASE SHIFT   
R L2C                                                       SYS / PHASE SHIFT   
R L3Q  0.00000                                              SYS / PHASE SHIFT   
C L1P  0.00000                                              SYS / PHASE SHIFT   
C L5P  0.00000                                              SYS / PHASE SHIFT   
C L2I                                                       SYS / PHASE SHIFT   
C L7I                                                       SYS / PHASE SHIFT   
C L6I                                                       SYS / PHASE SHIFT   
C L7D                                                       SYS / PHASE SHIFT   
J L1C                                                       SYS / PHASE SHIFT   
J L2L  0.00000                                              SYS / PHASE SHIFT   
J L5Q  0.00000                                              SYS / PHASE SHIFT   
J L1L  0.00000                                              SYS / PHASE SHIFT   
I L5A                                                       SYS / PHASE SHIFT   
  2025     1     1    21    30    0.0000000     GPS         TIME OF FIRST OBS   
 C1C    0.000 C2C    0.000 C2P    0.000                     GLONASS COD/PHS/BIS 
DBHZ                                                        SIGNAL STRENGTH UNIT
    18                                                      LEAP SECONDS        
 24 R01  1 R02 -4 R03  5 R04  6 R05  1 R06 -4 R07  5 R08  6 GLONASS SLOT / FRQ #
    R09 -2 R10 -7 R11  0 R12 -1 R13 -2 R14 -7 R15  0 R16 -1 GLONASS SLOT / FRQ #
    R17  4 R18 -3 R19  3 R20  2 R21  4 R22 -3 R23  3 R24  2 GLONASS SLOT / FRQ #
                                                            END OF HEADER       
> 2025 01 01 21 30  0.0000000  0 53
G10         1.000    20834133.437 8 109484211.30008     -1613.652 8        50.598                                    20834131.327 8  85312434.57408     -1257.393 8        51.916    20834130.991 7  85312411.58507     -1257.393 7        45.899
G14         2.000    25122718.274 6 132020798.81706      2179.781 6        37.172                                    25122717.268 3 102873344.69203      1698.535 3        19.224    25122716.950 6 102873340.69206      1698.401 6        37.527
C33         3.000                                                                                                                                    22533925.378 8 117340091.59508      -570.952 8        49.791                                                                    22533936.781 8  95348495.46308      -463.849 8        49.814
E31         4.000    25996389.603 6 136611994.28806       360.623 6        41.576                                                                    25996390.124 7 102015462.13507       269.371 7        44.629    25996389.830 7 104676731.64307       276.427 7        45.691
S21         5.000    38355199.165 7 201557649.06407      -511.458 7        42.231
E13         6.000    24868421.224 7 130684778.76507     -2310.835 7        44.074                                                                    24868421.876 7  97589488.97507     -1725.638 7        47.643    24868421.181 8 100135271.43608     -1770.702 8        48.542
G23         7.000    23103687.139 6 121410812.66606     -3687.114 6        41.437                                    23103683.567 4  94605863.68304     -2873.074 4        27.521    23103684.488 6  94605862.67606     -2873.015 6        40.865
G02         9.000    23258682.778 7 122225247.80107      2020.474 7        43.903                                    23258676.456 4  95240445.72504      1574.386 4        28.957
R12        10.000    24498625.426 6 130867266.81206      2545.793 6        39.844                                                                    24498628.254 6 101785677.67406      1980.081 6        38.598
C30        11.000                                                                                                                                    26056872.593 6 135684978.91606      2486.332 6        39.868                                                                    26056873.301 6 110255160.73406      2020.458 6        39.513
S27        12.000    39059242.105 6 205257664.34406      -479.520 6        36.461
R20        13.000    19795737.238 6 105856750.62206       958.152 6        40.834                                                                    19795738.631 7  82333095.14607       745.051 7        46.849
S36        14.000    38124044.057 7 200343715.46407      -510.061 7        43.742
G27        15.000    20672018.513 8 108632468.14608     -2514.988 8        49.757                                    20672016.188 8  84648834.12008     -1959.731 8        51.448    20672016.502 7  84648748.12207     -1959.752 7        45.374
S45        17.000    63333282.040 6 332820151.41406      -554.281 6        37.350
E08        18.000    25907804.935 7 136146475.79407        22.506 7        42.838                                                                    25907803.283 7 101667825.18107        16.878 7        45.041    25907802.847 7 104320024.97807        17.274 7        46.338
G16        19.000    24845349.655 6 130563408.72706     -4258.785 6        37.777                                    24845347.566 3 101737829.32103     -3318.516 3        18.776
E21        20.000    27466533.182 6 144337945.66406     -3689.859 6        39.330                                                                    27466535.488 6 107785036.01006     -2755.430 6        41.232    27466534.644 7 110596795.51007     -2827.490 7        42.567
E26        21.000    23347622.979 7 122692934.30207      -123.420 7        47.978                                                                    23347620.914 8  91621543.89508       -92.150 8        50.600    23347620.459 8  94011646.70708       -94.537 8        51.513
I06        22.000    38440959.479 6 150850800.94606      -285.939 6        40.744
S28        23.000    40814211.611 5 214480139.21805      -503.449 5        33.737
G08        24.000    20202646.353 8 106165636.62508      -115.430 8        50.113                                    20202644.394 8  82726470.39208       -89.948 8        50.979    20202645.375 7  82726471.40007       -89.998 7        45.890
S23        25.000    38079186.367 7 200107458.44507      -509.630 7        44.381
C13        26.000                                                                                                                                    39277154.579 6 204526638.63906     -1540.169 6        40.584    39277156.056 6 158153079.81506     -1191.028 6        41.285    39277154.133 6 166194732.83206     -1251.699 6        40.348
R21        29.000    23408075.751 7 125261335.07407      2923.290 7        44.933                                                                    23408075.360 6  97425483.95006      2273.624 6        38.673
C14        30.000                                                                                                                                    23520812.913 7 122479075.99107     -2186.771 7        45.577    23520807.874 8  94708587.56208     -1690.963 8        49.429    23520806.646 7  99524269.67807     -1776.987 7        47.071
R05        31.000    20877550.533 8 111602495.52108      3082.456 8        49.398                                                                    20877549.840 7  86801947.09507      2397.463 7        45.028
E03        32.000    28020361.895 5 147247992.50005     -2323.662 5        35.710                                                                    28020363.410 6 109957926.58206     -1735.201 6        40.937    28020362.498 6 112826387.87606     -1780.540 6        41.213
R03        34.000    22570555.756 7 120821976.46307     -4040.326 7        44.542                                                                    22570555.642 6  93972667.97406     -3142.587 6        40.508
R10        35.000    22788895.530 6 121477677.60006     -3890.998 6        41.669
R18        36.000    24277254.093 5 129594002.89505     -3894.427 5        35.238                                                                    24277256.092 5 100795532.54705     -3028.580 5        30.943
G32        37.000    23106163.813 7 121423732.07407      2132.652 7        44.175                                    23106163.312 6  94615892.42306      1661.807 6        41.123    23106163.260 6  94615901.42206      1661.797 6        40.841
E07        38.000    26325417.412 6 138340993.96606      2179.622 6        40.482                                                                    26325419.270 7 103306616.93107      1627.738 7        45.118    26325418.660 7 106001565.40907      1670.082 7        46.149
C41        39.000                                                                                                                                    23491653.218 7 122327219.20507      2261.977 7        47.296                                                                    23491658.805 8  99400912.23008      1838.053 8        48.185
E33        41.000    25967324.455 7 136459291.19107      1612.741 7        42.119                                                                    25967322.992 7 101901449.44207      1204.341 7        44.470    25967322.570 7 104559744.32707      1235.615 7        45.491
S44        42.000    40391371.865 6 212258278.52506      -531.001 6        37.198
C38        43.000                                                                                                                                    41421968.516 4 215695194.82104     -1673.291 4        27.305                                                                    41421968.073 5 175270071.77205     -1358.886 5        30.098
C05        44.000                                                                                                                                    39099281.638 6 203600244.58206      -456.231 6        38.093    39099278.389 7 157436644.93107      -352.855 7        43.424    39099279.399 6 165441977.01006      -370.665 6        39.913
C08        45.000                                                                                                                                    39941410.212 6 207985578.86606     -1714.075 6        36.238    39941404.694 6 160827714.51006     -1325.317 6        40.746    39941403.805 6 169005368.09306     -1392.664 6        37.448
R11        46.000    22162881.792 7 118431725.36307      -766.658 7        46.220                                                                    22162879.343 7  92113565.99307      -596.226 7        44.060
R19        47.000    20983025.991 6 112245398.93206     -2873.684 6        39.937                                                                    20983025.677 7  87302142.06807     -2235.189 7        43.725
C43        48.000                                                                                                                                    25913648.996 6 134939463.20706     -3460.755 6        40.310                                                                    25913649.260 6 109649486.80906     -2811.942 6        40.834
I05        49.000  -496370348.674 6-872078664.79906       398.825 6        36.019
C42        50.000                                                                                                                                    25462859.396 6 132591818.86706     -3302.503 6        41.714                                                                    25462867.060 7 107741759.03507     -2683.474 7        42.301
S48        51.000    77108062.742 6 405207071.54406      -539.739 6        37.834
G21        52.000    21416091.415 7 112542390.17107      1199.545 7        43.949                                    21416086.686 5  87695389.86505       934.708 5        32.868
C60        54.000                                                                                                                                    40391373.124 6 210328677.18406      -525.933 6        39.495                                                                    40391357.198 6 170909247.37506      -427.459 6        39.339
C27        55.000                                                                                                                                    22066156.238 8 114904283.46008      1134.896 8        49.909                                                                    22066154.862 8  93369146.07408       922.184 8        48.911
R04        56.000    19882591.435 8 106470389.79008      -703.272 8        50.887                                                                    19882589.142 7  82810295.87807      -547.008 7        47.718
C02        57.000                                                                                                                                    40449521.630 5 210631320.94505      -479.611 5        33.269    40449516.610 6 162873490.69006      -370.790 6        40.107    40449519.923 6 171155203.83506      -389.806 6        36.042
I03        58.000   108251953.550 6 349018669.79306      1007.153 6        40.107
C36        59.000                                                                                                                                    26006449.019 6 135422405.01406      -698.134 6        39.345                                                                    26006454.498 6 110041825.89406      -567.346 6        41.971
C28        60.000                                                                                                                                    21560110.094 8 112269462.50008     -1345.941 8        50.662                                                                    21560108.493 8  91228270.34008     -1093.671 8        48.951
> 2025 01 01 21 30  5.0000000  0 53
G10         1.000    20835669.965 8 109492285.62008     -1616.337 8        50.382                                    20835667.807 8  85318726.25108     -1259.484 8        51.862    20835667.975 7  85318703.25407     -1259.411 7        46.104
G14         2.000    25120645.327 6 132009904.95706      2177.694 6        37.233                                    25120644.121 3 102864855.95203      1696.903 3        19.343    25120643.827 6 102864851.96106      1696.904 6        38.147
C33         3.000                                                                                                                                    22534474.997 8 117342953.49108      -574.032 8        49.638                                                                    22534486.319 8  95350820.97808      -466.350 8        49.816
E31         4.000    25996047.439 6 136610196.06606       358.280 6        41.607                                                                    25996047.949 7 102014119.30107       267.626 7        44.549    25996047.671 7 104675353.78307       274.491 7        45.582
S21         5.000    38355684.685 6 201560206.10306      -511.567 6        41.955
E13         6.000    24870620.418 7 130696334.21607     -2311.616 7        43.953                                                                    24870620.802 7  97598118.04607     -1726.204 7        47.474    24870620.121 8 100144125.60708     -1771.153 8        48.576
G23         7.000    23107195.602 6 121429250.89906     -3688.359 6        41.297                                    23107192.181 4  94620231.12804     -2874.053 4        27.401    23107192.598 6  94620230.12806     -2874.007 6        41.073
G02         9.000    23256760.553 7 122215146.90807      2019.684 7        43.744                                    23256754.333 4  95232574.90204      1573.782 4        28.919
R12        10.000    24496244.254 6 130854544.25906      2543.220 6        40.207                                                                    24496246.051 6 101775782.39906      1978.176 6        38.706
C30        11.000                                                                                                                                    26054485.322 6 135672547.09906      2486.136 6        39.772                                                                    26054485.894 6 110245058.88606      2020.214 6        39.808
S27        12.000    39059698.649 6 205260061.49106      -479.641 6        36.193
R20        13.000    19794842.228 6 105851964.75706       956.175 6        41.106                                                                    19794844.044 7  82329372.79507       743.574 7        47.338
S36        14.000    38124531.683 7 200346266.77907      -510.440 7        43.477
G27        15.000    20674412.443 8 108645049.28708     -2517.670 8        49.810                                    20674410.290 8  84658637.60308     -1961.820 8        51.336    20674410.634 7  84658551.59807     -1961.840 7        45.672
S45        17.000    63333763.420 6 332821321.73116      -554.047 6        37.391
E08        18.000    25907784.533 7 136146368.79207        19.989 7        42.872                                                                    25907782.971 7 101667745.29207        14.918 7        44.927    25907782.465 7 104319942.99807        15.393 7        46.340
G16        19.000    24849401.729 6 130584702.58306     -4258.861 6        37.618                                    24849399.938 3 101754421.91303     -3318.595 3        18.716
E21        20.000    27470044.006 6 144356395.47506     -3690.061 6        39.195                                                                    27470046.202 6 107798813.45306     -2755.560 6        40.975    27470045.682 7 110610932.35007     -2827.582 7        42.561
E26        21.000    23347740.925 7 122693553.57307      -124.555 7        47.745                                                                    23347738.717 8  91622006.33808       -93.034 8        50.523    23347738.321 8  94012121.21308       -95.463 8        51.528
I06        22.000    38441323.862 6 150852230.71506      -286.107 6        40.598
S28        23.000    40814688.532 5 214482656.15105      -503.281 5        33.491
G08        24.000    20202757.372 8 106166220.91308      -118.550 8        50.072                                    20202755.581 8  82726925.68108       -92.377 8        50.923    20202756.488 7  82726926.68607       -92.317 7        45.998
S23        25.000    38079671.793 7 200110005.89607      -509.503 7        44.242
C13        26.000                                                                                                                                    39278633.334 6 204534339.77906     -1540.419 6        40.236    39278634.924 6 158159034.84106     -1191.191 6        41.364    39278633.125 6 166200990.61806     -1251.580 6        40.231
R21        29.000    23405343.971 7 125246717.96607      2923.248 7        44.612                                                                    23405342.725 6  97414115.07106      2273.660 6        38.859
C14        30.000                                                                                                                                    23522913.504 7 122490015.58407     -2189.312 7        45.222    23522908.408 8  94717046.74508     -1692.934 8        49.351    23522907.495 7  99533158.97707     -1778.934 7        47.119
R05        31.000    20874668.184 8 111587089.62008      3079.654 8        49.269                                                                    20874667.985 7  86789964.74807      2395.256 7        45.222
E03        32.000    28022573.445 5 147259615.26005     -2325.905 5        35.495                                                                    28022575.185 6 109966605.88506     -1736.694 6        40.763    28022574.653 6 112835293.60806     -1782.055 6        41.266
R03        34.000    22574332.144 7 120842184.25207     -4042.921 7        45.785                                                                    22574329.842 6  93988385.10006     -3144.569 6        40.479
R10        35.000    22792547.545 6 121497136.76906     -3893.073 6        41.998
R18        36.000    24280903.033 5 129613475.35405     -3894.955 5        34.448                                                                    24280903.663 5 100810677.79805     -3029.437 5        31.064
G32        37.000    23104135.011 7 121413072.94607      2130.756 7        43.524                                    23104134.613 6  94607586.61306      1660.329 6        40.803    23104134.819 6  94607595.60806      1660.459 6        41.354
E07        38.000    26323343.806 6 138330097.94706      2178.596 6        40.374                                                                    26323345.523 7 103298480.32407      1626.764 7        44.877    26323345.224 7 105993216.52007      1669.274 7        46.218
C41        39.000                                                                                                                                    23489482.245 7 122315913.47507      2260.090 7        47.564                                                                    23489487.602 8  99391725.38708      1836.657 8        48.224
E33        41.000    25965790.431 7 136451228.76207      1611.979 7        42.083                                                                    25965788.714 7 101895428.80307      1203.740 7        44.298    25965788.241 7 104553566.61707      1235.169 7        45.440
S44        42.000    40391878.518 6 212260932.35106      -531.109 6        37.361
C38        43.000                                                                                                                                    41423575.348 4 215703556.95104     -1672.562 4        25.955                                                                    41423573.593 4 175276866.69104     -1359.573 4        29.299
C05        44.000                                                                                                                                    39099719.951 6 203602525.78206      -456.427 6        37.690    39099716.541 7 157438408.88807      -352.897 7        43.496    39099717.417 6 165443830.66106      -370.852 6        39.820
C08        45.000                                                                                                                                    39943055.012 6 207994148.07306     -1714.262 6        36.121    39943050.000 6 160834340.72706     -1325.233 6        40.355    39943049.530 6 169012331.25206     -1392.695 6        37.467
R11        46.000    22163599.812 7 118435569.23107      -771.208 7        46.603                                                                    22163598.473 7  92116555.66907      -599.665 7        44.134
R19        47.000    20985713.213 6 112259771.38606     -2875.451 6        39.685                                                                    20985711.994 7  87313320.62907     -2236.377 7        43.475
C43        48.000                                                                                                                                    25916972.131 6 134956767.39506     -3461.349 6        40.131                                                                    25916972.176 6 109663547.85006     -2812.395 6        40.689
I05        49.000  -496370856.768 5-872080658.82105       398.580 5        35.990
C42        50.000                                                                                                                                    25466030.866 6 132608334.15606     -3304.003 6        41.666                                                                    25466038.738 7 107755179.05507     -2684.736 7        42.413
S48        51.000    77108558.399 6 405209769.18206      -540.047 6        38.054
G21        52.000    21414950.876 7 112536395.97607      1197.970 7        43.932                                    21414946.038 5  87690719.06605       933.483 5        32.868
C60        54.000                                                                                                                                    40391878.207 6 210331306.88106      -526.120 6        39.586                                                                    40391862.210 6 170911384.20306      -427.422 6        39.637
C27        55.000                                                                                                                                    22065067.219 8 114898612.47908      1133.326 8        49.869                                                                    22065065.836 8  93364537.92708       920.972 8        48.941
R04        56.000    19883249.539 8 106473917.62608      -708.129 8        50.733                                                                    19883247.947 7  82813039.75407      -550.776 7        47.653
C02        57.000                                                                                                                                    40449982.623 5 210633718.17905      -479.813 5        33.299    40449977.120 6 162875344.38806      -370.874 6        40.243    40449980.290 6 171157151.75006      -389.618 6        36.200
I03        58.000   108250670.679 6 349013634.21006      1006.990 6        39.688
C36        59.000                                                                                                                                    26007121.443 6 135425902.17406      -700.914 6        39.880                                                                    26007126.069 6 110044667.62806      -569.478 6        41.967
C28        60.000                                                                                                                                    21561402.987 8 112276196.16708     -1347.765 8        50.647                                                                    21561401.652 8  91233741.98408     -1095.085 8        48.955
> 2025 01 01 21 30 10.0000000  0 53
G10         1.000    20837208.609 8 109500372.09208     -1618.442 8        50.170                                    20837206.614 8  85325027.39808     -1261.123 8        51.889    20837206.374 7  85325004.40507     -1261.195 7        45.973
G14         2.000    25118574.163 6 131999020.28506      2176.054 6        36.737                                    25118572.964 3 102856374.37203      1695.608 3        19.642    25118572.900 6 102856370.35106      1695.567 6        37.958
C33         3.000                                                                                                                                    22535027.085 8 117345829.51908      -576.542 8        49.512                                                                    22535038.638 8  95353157.99008      -468.491 8        49.943
E31         4.000    25995707.689 6 136608409.12106       356.225 6        41.728                                                                    25995707.880 7 102012784.89907       266.035 7        44.631    25995707.585 7 104673984.56507       273.024 7        45.353
S21         5.000    38356174.203 7 201562762.82107      -511.096 7        42.224
E13         6.000    24872819.790 7 130707892.17107     -2311.767 7        43.987                                                                    24872820.188 7  97606748.97807     -1726.325 7        47.629    24872819.563 8 100152981.69508     -1771.387 8        48.307
G23         7.000    23110705.683 6 121447693.99006     -3689.105 6        41.621                                    23110701.748 4  94634602.36204     -2874.621 4        27.329    23110702.354 6  94634601.36606     -2874.667 6        41.344
G02         9.000    23254839.281 7 122205049.07407      2019.311 7        43.697                                    23254832.868 4  95224706.46904      1573.493 4        29.014
R12        10.000    24493865.318 6 130841834.31106      2540.762 6        40.212                                                                    24493867.314 6 101765896.99806      1976.041 6        39.697
C30        11.000                                                                                                                                    26052098.014 6 135660114.91606      2486.507 6        40.386                                                                    26052098.571 6 110234956.73006      2020.577 6        40.029
S27        12.000    39060150.641 6 205262458.47706      -479.147 6        36.461
R20        13.000    19793949.142 6 105847187.54006       954.631 6        41.390                                                                    19793950.265 7  82325657.17307       742.559 7        46.936
S36        14.000    38125014.037 7 200348817.50907      -510.237 7        43.496
G27        15.000    20676808.984 8 108657642.73808     -2519.881 8        49.646                                    20676806.736 8  84668450.67808     -1963.543 8        51.421    20676807.229 7  84668364.68107     -1963.531 7        45.550
S45        17.000    63334240.130 6 332824091.48006      -554.048 6        37.505
E08        18.000    25907766.712 7 136146273.50007        18.012 7        43.253                                                                    25907764.787 7 101667674.12707        13.445 7        45.067    25907764.372 7 104319869.98707        13.668 7        46.088
G16        19.000    24853453.087 6 130605995.00006     -4258.315 6        37.614                                    24853451.684 3 101771013.37403     -3318.152 3        19.313
E21        20.000    27473554.842 6 144374845.33006     -3689.852 6        38.784                                                                    27473557.112 6 107812590.92806     -2755.559 6        41.199    27473556.676 7 110625069.23407     -2827.396 7        42.601
E26        21.000    23347859.489 7 122694177.56407      -125.225 7        47.865                                                                    23347857.438 8  91622472.30008       -93.495 8        50.650    23347857.035 8  94012599.33308       -95.957 8        51.286
I06        22.000    38441687.920 6 150853660.04106      -285.650 6        40.641
S28        23.000    40815170.188 5 214485172.43905      -503.155 5        33.389
G08        24.000    20202871.388 8 106166819.35208      -121.051 8        50.162                                    20202869.465 8  82727392.00108       -94.325 8        50.951    20202870.100 7  82727393.00307       -94.294 7        45.985
S23        25.000    38080157.948 7 200112552.90707      -509.377 7        44.417
C13        26.000                                                                                                                                    39280111.711 6 204542040.09806     -1539.899 6        40.017    39280113.672 6 158164989.21006     -1190.791 6        41.623    39280111.726 6 166207247.78006     -1251.277 6        40.396
R21        29.000    23402612.393 7 125232100.53007      2923.587 7        43.424                                                                    23402611.249 6  97402745.95506      2273.876 6        38.724
C14        30.000                                                                                                                                    23525015.826 7 122500966.91607     -2191.382 7        45.138    23525012.006 8  94725515.00208     -1694.493 8        49.670    23525010.633 7  99542057.83207     -1780.708 7        47.242
R05        31.000    20871788.786 8 111571697.14608      3077.193 8        49.642                                                                    20871788.577 7  86777992.82307      2393.435 7        44.939
E03        32.000    28024786.823 5 147271247.02905     -2327.395 5        35.614                                                                    28024788.523 6 109975291.97806     -1737.839 6        40.749    28024787.930 6 112844206.28806     -1783.136 6        40.968
R03        34.000    22578109.613 7 120862403.94807     -4045.122 7        44.736                                                                    22578107.727 6  94004111.49606     -3146.190 6        41.440
R10        35.000    22796199.021 6 121516606.06306     -3894.844 6        41.535
R18        36.000    24284549.033 5 129632949.48705     -3894.862 5        34.495                                                                    24284552.380 5 100825824.36605     -3029.415 5        31.396
G32        37.000    23102108.633 7 121402422.01507      2129.415 7        44.233                                    23102107.648 6  94599287.19806      1659.281 6        40.925    23102108.386 6  94599296.21906      1659.236 6        41.652
E07        38.000    26321271.283 6 138319206.48306      2177.906 6        40.458                                                                    26321272.959 7 103290347.09307      1626.288 7        44.874    26321272.689 7 105984871.12407      1668.797 7        46.159
C41        39.000                                                                                                                                    23487312.448 7 122304615.97607      2258.701 7        47.469                                                                    23487317.918 8  99382545.25308      1835.392 8        48.285
E33        41.000    25964256.399 7 136443168.27307      1611.947 7        42.227                                                                    25964254.769 7 101889409.61007      1203.653 7        44.521    25964254.482 7 104547390.40007      1235.198 7        45.204
S44        42.000    40392381.615 6 212263585.85006      -530.870 6        37.293
C38        43.000                                                                                                                                    41425179.956 4 215711917.57904     -1672.495 4        25.985                                                                    41425179.085 4 175283660.38704     -1358.686 4        28.597
C05        44.000                                                                                                                                    39100157.298 6 203604806.56506      -456.238 6        37.750    39100154.474 7 157440172.53507      -352.668 7        43.441    39100155.381 6 165445683.97906      -370.607 6        39.829
C08        45.000                                                                                                                                    39944699.642 5 208002716.03105     -1713.617 5        35.733    39944695.334 6 160840966.03506     -1324.902 6        40.391    39944694.754 6 169019293.44206     -1392.289 6        37.705
R11        46.000    22164323.287 7 118439434.55807      -775.192 7        46.913                                                                    22164322.042 7  92119562.06607      -602.997 7        43.661
R19        47.000    20988400.263 6 112274151.38106     -2876.673 6        39.688                                                                    20988400.317 7  87324505.06607     -2237.395 7        43.547
C43        48.000                                                                                                                                    25920295.802 6 134974073.58406     -3461.354 6        40.153                                                                    25920295.637 6 109677610.56106     -2812.761 6        40.563
I05        49.000  -496371364.400 6-872082652.17006       398.816 6        36.189
C42        50.000                                                                                                                                    25469203.419 6 132624856.14406     -3304.944 6        41.895                                                                    25469211.806 7 107768604.53607     -2685.609 7        42.758
S48        51.000    77109048.735 6 405210866.13616      -539.208 6        38.171
G21        52.000    21413811.596 7 112530408.47207      1196.901 7        43.903                                    21413806.718 5  87686053.48305       932.646 5        32.898
C60        54.000                                                                                                                                    40392383.098 6 210333936.27106      -525.813 6        39.775                                                                    40392367.212 6 170913520.79006      -427.287 6        39.580
C27        55.000                                                                                                                                    22063979.559 8 114892947.78208      1132.440 8        50.002                                                                    22063978.001 8  93359934.90708       920.133 8        49.069
R04        56.000    19883912.886 8 106477468.49808      -712.431 8        50.853                                                                    19883910.951 7  82815801.54107      -554.094 7        47.616
C02        57.000                                                                                                                                    40450441.988 5 210636115.07705      -479.335 5        33.299    40450437.433 6 162877197.81506      -370.641 6        40.286    40450440.666 6 171159099.44206      -389.589 6        36.106
I03        58.000   108249387.421 6 349008598.48206      1007.235 6        40.040
C36        59.000                                                                                                                                    26007795.497 6 135429411.86206      -703.096 6        39.913                                                                    26007799.876 7 110047519.55307      -571.283 7        42.239
C28        60.000                                                                                                                                    21562697.832 8 112282938.22708     -1349.180 8        50.788                                                                    21562696.406 8  91239220.47108     -1096.314 8        49.129
> 2025 01 01 21 30 15.0000000  0 53
G10         1.000    20838749.779 8 109508470.86608     -1621.021 8        50.373                                    20838747.758 8  85331338.12608     -1263.132 8        51.815    20838747.791 7  85331315.12907     -1263.155 7        46.044
G14         2.000    25116504.946 6 131988145.04106      2174.057 6        37.168                                    25116503.792 3 102847900.14003      1694.081 3        19.910    25116503.466 6 102847896.13106      1694.120 6        38.102
C33         3.000                                                                                                                                    22535582.002 8 117348719.80808      -579.551 8        49.613                                                                    22535593.759 8  95355506.59008      -471.018 8        49.861
E31         4.000    25995369.987 6 136606633.63606       353.902 6        41.790                                                                    25995370.065 7 102011459.06207       264.226 7        44.719    25995369.786 7 104672624.13907       271.158 7        45.433
S21         5.000    38356662.218 7 201565319.30807      -511.315 7        42.030
E13         6.000    24875019.760 7 130719452.75807     -2312.435 7        44.361                                                                    24875020.111 7  97615381.88807     -1726.817 7        47.757    24875019.502 8 100161839.81208     -1771.847 8        48.318
G23         7.000    23114216.061 7 121466142.06107     -3690.124 7        42.106                                    23114212.266 4  94648977.46504     -2875.429 4        27.234    23114212.882 6  94648976.48206     -2875.465 6        41.249
G02         9.000    23252918.156 7 122194954.40507      2018.526 7        43.228                                    23252911.854 4  95216840.49204      1572.876 4        28.739
R12        10.000    24491487.573 6 130829136.93106      2538.203 6        40.827                                                                    24491490.247 6 101756021.28306      1974.105 6        40.582
C30        11.000                                                                                                                                    26049710.597 6 135647682.47606      2486.352 6        40.632                                                                    26049710.920 6 110224854.35706      2020.268 6        39.670
S27        12.000    39060612.220 6 205264855.12506      -479.572 6        36.030
R20        13.000    19793056.761 6 105842419.03306       952.805 6        41.468                                                                    19793058.735 7  82321948.33007       740.957 7        46.855
S36        14.000    38125500.053 7 200351368.40207      -510.122 7        43.651
G27        15.000    20679207.575 8 108670248.63208     -2522.536 8        49.932                                    20679205.555 8  84678273.44808     -1965.610 8        51.412    20679206.215 7  84678187.44507     -1965.529 7        45.524
S45        17.000    63334725.614 6 332826860.92106      -554.001 6        37.346
E08        18.000    25907750.982 7 136146190.05707        15.440 7        43.086                                                                    25907748.896 7 101667611.81907        11.519 7        44.904    25907748.453 7 104319806.04907        11.820 7        46.155
G16        19.000    24857505.379 6 130627286.07606     -4258.074 6        37.955                                    24857503.234 3 101787603.78103     -3317.975 3        19.164
E21        20.000    27477065.508 6 144393295.37506     -3690.147 6        38.183                                                                    27477068.066 6 107826368.52406     -2755.596 6        41.340    27477067.854 7 110639206.25107     -2827.532 7        42.633
E26        21.000    23347979.043 8 122694806.41408      -126.327 8        48.061                                                                    23347977.121 8  91622941.90008       -94.319 8        50.744    23347976.743 8  94013081.18108       -96.753 8        51.345
I06        22.000    38442052.020 6 150855089.03706      -285.839 6        40.584
S28        23.000    40815649.792 5 214487688.05705      -503.119 5        33.766
G08        24.000    20202988.100 8 106167432.08108      -124.092 8        50.026                                    20202986.053 8  82727869.45508       -96.695 8        50.898    20202986.979 7  82727870.45907       -96.689 7        45.943
S23        25.000    38080641.352 7 200115099.32707      -509.377 7        44.311
C13        26.000                                                                                                                                    39281590.497 6 204549739.75306     -1539.869 6        40.112    39281592.253 6 158170943.07506     -1190.821 6        41.447    39281590.476 6 166213504.38906     -1251.525 6        40.129
R21        29.000    23399880.041 7 125217482.76307      2923.504 7        43.936                                                                    23399879.805 6  97391376.59406      2273.692 6        38.784
C14        30.000                                                                                                                                    23527121.397 7 122511930.04107     -2193.872 7        45.496    23527117.623 8  94733992.39408     -1696.383 8        49.530    23527115.980 7  99550966.27107     -1782.744 7        47.062
R05        31.000    20868911.895 8 111556318.07708      3074.427 8        49.958                                                                    20868912.046 7  86766031.32007      2391.260 7        44.670
E03        32.000    28027002.306 5 147282887.74305     -2329.022 5        35.795                                                                    28027003.648 6 109983984.75306     -1739.386 6        40.753    28027003.068 6 112853125.81806     -1784.641 6        41.097
R03        34.000    22581887.534 7 120882635.79307     -4047.685 7        44.135                                                                    22581888.091 6  94019847.39106     -3148.153 6        41.335
R10        35.000    22799852.916 6 121536085.49006     -3897.052 6        41.628
R18        36.000    24288198.966 5 129652425.55705     -3895.570 5        34.743                                                                    24288200.826 5 100840972.36205     -3029.569 5        30.996
G32        37.000    23100083.905 7 121391779.46207      2127.599 7        44.780                                    23100082.482 6  94590994.31006      1657.870 6        41.409    23100082.886 6  94591003.31806      1657.884 6        41.638
E07        38.000    26319199.419 6 138308319.73206      2176.694 6        40.172                                                                    26319201.382 7 103282217.38207      1625.543 7        44.962    26319200.981 7 105976529.32607      1667.949 7        46.167
C41        39.000                                                                                                                                    23485144.306 7 122293326.85407      2256.905 7        47.791                                                                    23485149.920 8  99373371.92408      1833.875 8        48.124
E33        41.000    25962723.403 7 136435109.87407      1611.477 7        42.311                                                                    25962721.225 7 101883391.98807      1203.319 7        44.635    25962720.967 7 104541215.79607      1234.755 7        45.342
S44        42.000    40392887.566 6 212266239.14906      -530.741 6        37.365
C38        43.000                                                                                                                                    41426785.012 4 215720276.67204     -1671.354 4        26.695                                                                    41426783.757 4 175290452.85504     -1358.442 4        28.464
C05        44.000                                                                                                                                    39100595.597 6 203607087.10006      -456.252 6        38.105    39100592.375 7 157441935.99207      -352.695 7        43.484    39100593.421 6 165447537.10906      -370.660 6        39.976
C08        45.000                                                                                                                                    39946345.384 6 208011283.02406     -1713.470 6        36.030    39946340.586 6 160847590.61906     -1324.925 6        40.064    39946339.865 6 169026254.82106     -1392.229 6        37.524
R11        46.000    22165051.234 7 118443321.53307      -779.606 7        46.318                                                                    22165049.651 7  92122585.25707      -606.481 7        43.325
R19        47.000    20991090.450 6 112288539.28006     -2878.428 6        39.264                                                                    20991090.018 7  87335695.65607     -2238.727 7        43.570
C43        48.000                                                                                                                                    25923619.503 6 134991381.94106     -3462.079 6        40.064                                                                    25923619.454 6 109691675.00806     -2813.298 6        40.365
I05        49.000  -496371872.403 6-872084644.80006       398.415 6        36.465
C42        50.000                                                                                                                                    25472377.291 7 132641384.99807     -3306.577 7        42.197                                                                    25472385.993 7 107782035.58207     -2686.871 7        42.978
S48        51.000    77109542.236 6 405213562.75206      -539.309 6        37.679
G21        52.000    21412673.284 7 112524427.92507      1195.346 7        43.917                                    21412668.703 5  87681393.31705       931.434 5        32.976
C60        54.000                                                                                                                                    40392887.918 6 210336565.46106      -525.968 6        39.661                                                                    40392872.041 6 170915657.21606      -427.418 6        39.538
C27        55.000                                                                                                                                    22062892.823 8 114887289.53308      1130.956 8        50.029                                                                    22062891.409 8  93355337.11008       918.950 8        48.980
R04        56.000    19884580.664 8 106481042.53908      -717.226 8        50.970                                                                    19884578.341 7  82818581.34507      -557.865 7        47.108
C02        57.000                                                                                                                                    40450902.131 5 210638511.85105      -479.580 5        33.629    40450897.496 6 162879051.15106      -370.700 6        40.243    40450900.908 5 171161047.00505      -389.705 5        35.767
I03        58.000   108248104.071 6 349003562.73006      1007.181 6        40.167
C36        59.000                                                                                                                                    26008471.179 6 135432934.18506      -705.811 6        39.766                                                                    26008476.202 7 110050381.72807      -573.568 7        42.070
C28        60.000                                                                                                                                    21563994.202 8 112289688.81308     -1351.050 8        50.867                                                                    21563992.698 8  91244705.87708     -1097.910 8        49.038
> 2025 01 01 21 30 20.0000000  0 53
G10         1.000    20840293.480 8 109516582.70808     -1623.750 8        50.204                                    20840291.385 8  85337659.04108     -1265.258 8        51.930    20840291.375 7  85337636.04107     -1265.274 7        46.275
G14         2.000    25114437.403 6 131977279.93406      2171.894 6        37.471                                    25114436.279 3 102839433.82903      1692.374 3        20.500    25114435.805 6 102839429.84406      1692.412 6        38.219
C33         3.000                                                                                                                                    22536140.216 8 117351625.12408      -582.573 8        49.753                                                                    22536151.631 8  95357867.38808      -473.402 8        50.079
E31         4.000    25995034.317 7 136604870.35607       351.293 7        42.021                                                                    25995034.576 7 102010142.32307       262.422 7        44.978    25995034.239 7 104671273.05007       269.311 7        45.369
S21         5.000    38357146.325 6 201567876.28006      -511.490 6        41.902
E13         6.000    24877220.516 7 130731016.75407     -2313.133 7        44.647                                                                    24877220.641 7  97624017.33607     -1727.431 7        47.962    24877220.063 8 100170700.53008     -1772.444 8        48.355
G23         7.000    23117727.762 7 121484595.88707     -3691.368 7        42.159                                    23117723.957 4  94663357.06004     -2876.391 4        27.737    23117724.186 6  94663356.06706     -2876.479 6        41.282
G02         9.000    23250997.926 7 122184863.69807      2017.654 7        43.414                                    23250991.731 4  95208977.61104      1572.196 4        28.967
R12        10.000    24489113.633 6 130816452.78606      2535.399 6        40.894                                                                    24489115.754 6 101746155.78206      1971.898 6        39.778
C30        11.000                                                                                                                                    26047322.216 6 135635250.60306      2486.339 6        40.567                                                                    26047323.426 6 110214752.42706      2020.355 6        40.107
S27        12.000    39061063.442 6 205267252.20006      -479.627 6        36.113
R20        13.000    19792167.471 6 105837659.99606       950.849 6        41.147                                                                    19792168.705 7  82318246.87007       739.464 7        47.056
S36        14.000    38125987.026 7 200353919.52207      -510.243 7        43.566
G27        15.000    20681609.056 8 108682867.70408     -2525.194 8        50.093                                    20681606.893 8  84688106.48908     -1967.682 8        51.436    20681607.314 7  84688020.49107     -1967.734 7        45.737
S45        17.000    63335206.573 6 332829630.88006      -554.053 6        37.365
E08        18.000    25907737.105 7 136146119.23907        12.917 7        43.247                                                                    25907735.492 7 101667558.94007         9.635 7        45.278    25907735.033 7 104319751.78307         9.899 7        46.148
G16        19.000    24861556.935 6 130648576.59606     -4258.050 6        38.393                                    24861555.011 3 101804193.78603     -3317.944 3        19.881
E21        20.000    27480576.635 6 144411746.33906     -3690.219 6        38.075                                                                    27480579.363 6 107840146.82106     -2755.707 6        41.855    27480578.874 7 110653343.97607     -2827.619 7        42.646
E26        21.000    23348099.769 8 122695440.89308      -127.494 8        48.281                                                                    23348097.795 8  91623415.69908       -95.173 8        50.906    23348097.458 8  94013567.34408       -97.690 8        51.263
I06        22.000    38442416.618 6 150856518.24506      -285.871 6        40.563
S28        23.000    40816135.808 5 214490204.35205      -503.366 5        33.515
G08        24.000    20203107.305 8 106168059.86008      -127.045 8        50.072                                    20203105.517 8  82728358.63308       -98.997 8        50.977    20203106.229 7  82728359.63207       -99.009 7        45.774
S23        25.000    38081126.058 7 200117646.12507      -509.312 7        44.161
C13        26.000                                                                                                                                    39283069.278 6 204557439.54506     -1540.060 6        39.673    39283071.043 6 158176897.03406     -1190.933 6        41.392    39283069.114 6 166219761.08006     -1251.351 6        40.026
R21        29.000    23397148.011 7 125202865.56307      2923.305 7        43.678                                                                    23397147.046 6  97380007.65006      2273.512 6        38.333
C14        30.000                                                                                                                                    23529229.851 7 122522905.77307     -2196.353 7        45.217    23529225.442 8  94742479.53308     -1698.449 8        49.809    23529223.695 7  99559884.94807     -1784.764 7        47.262
R05        31.000    20866037.727 8 111540953.35208      3071.504 8        49.576                                                                    20866037.059 7  86754080.98207      2388.943 7        44.939
E03        32.000    28029219.494 6 147294538.25306     -2331.097 6        36.189                                                                    28029220.620 6 109992684.76706     -1740.826 6        40.636    28029220.216 6 112862052.79106     -1786.117 6        41.025
R03        34.000    22585670.519 7 120902880.23007     -4050.314 7        44.736                                                                    22585669.377 6  94035593.04306     -3150.179 6        40.820
R10        35.000    22803509.008 6 121555575.50606     -3899.104 6        41.006
