     3.04           OBSERVATION DATA    M                   RINEX VERSION / TYPE
ssrcrin-15.6.1x                         20250101 214500 UTC PGM / RUN BY / DATE 
(00000000023479385599111004) Septentrio proprietary         COMMENT             
rref                                                        MARKER NAME         
01                                                          MARKER NUMBER       
geodetic                                                    MARKER TYPE         
NFB                 CLIMERS@TUW                             OBSERVER / AGENCY   
3297213             SEPT ASTERX SB3 PROB4.14.4              REC # / TYPE / VERS 
Unknown             Unknown                                 ANT # / TYPE        
  4127832.1465  1207193.3153  4695247.5996                  APPROX POSITION XYZ 
        0.0000        0.0000        0.0000                  ANTENNA: DELTA H/E/N
G   23 X1  C1C L1C D1C S1C C1W S1W C2W L2W D2W S2W C2L L2L  SYS / # / OBS TYPES 
       D2L S2L C5Q L5Q D5Q S5Q C1L L1L D1L S1L              SYS / # / OBS TYPES 
E   21 X1  C1C L1C D1C S1C C6C L6C D6C S6C C5Q L5Q D5Q S5Q  SYS / # / OBS TYPES 
       C7Q L7Q D7Q S7Q C8Q L8Q D8Q S8Q                      SYS / # / OBS TYPES 
S    9 X1  C1C L1C D1C S1C C5I L5I D5I S5I                  SYS / # / OBS TYPES 
R   17 X1  C1C L1C D1C S1C C2P L2P D2P S2P C2C L2C D2C S2C  SYS / # / OBS TYPES 
       C3Q L3Q D3Q S3Q                                      SYS / # / OBS TYPES 
C   25 X1  C1P L1P D1P S1P C5P L5P D5P S5P C2I L2I D2I S2I  SYS / # / OBS TYPES 
       C7I L7I D7I S7I C6I L6I D6I S6I C7D L7D D7D S7D      SYS / # / OBS TYPES 
J   17 X1  C1C L1C D1C S1C C2L L2L D2L S2L C5Q L5Q D5Q S5Q  SYS / # / OBS TYPES 
       C1L L1L D1L S1L                                      SYS / # / OBS TYPES 
I    5 X1  C5A L5A D5A S5A                                  SYS / # / OBS TYPES 
SEPTENTRIO RECEIVERS OUTPUT ALIGNED CARRIER PHASES.         COMMENT             
NO FURTHER PHASE SHIFT APPLIED IN THE RINEX ENCODER.        COMMENT             
G L1C                                                       SYS / PHASE SHIFT   
G L2W                                                       SYS / PHASE SHIFT   
G L2L  0.00000                                              SYS / PHASE SHIFT   
G L5Q  0.00000                                              SYS / PHASE SHIFT   
G L1L  0.00000                                              SYS / PHASE SHIFT   
E L1C  0.00000                                              SYS / PHASE SHIFT   
E L6C  0.00000                                              SYS / PHASE SHIFT   
E L5Q  0.00000                                              SYS / PHASE SHIFT   
E L7Q  0.00000                                              SYS / PHASE SHIFT   
E L8Q  0.00000                                              SYS / PHASE SHIFT   
S L1C                                                       SYS / PHASE SHIFT   
S L5I                                                       SYS / PHASE SHIFT   
R L1C                                                       SYS / PHASE SHIFT   
R L2P  0.00000                                              SYS / PHASE SHIFT   
R L2C                                                       SYS / PHASE SHIFT   
R L3Q  0.00000                                              SYS / PHASE SHIFT   
C L1P  0.00000                                              SYS / PHASE SHIFT   
C L5P  0.00000                                              SYS / PHASE SHIFT   
C L2I                                                       SYS / PHASE SHIFT   
C L7I                                                       SYS / PHASE SHIFT   
C L6I                                                       SYS / PHASE SHIFT   
C L7D                                                       SYS / PHASE SHIFT   
J L1C                                                       SYS / PHASE SHIFT   
J L2L  0.00000                                              SYS / PHASE SHIFT   
J L5Q  0.00000                                              SYS / PHASE SHIFT   
J L1L  0.00000                                              SYS / PHASE SHIFT   
I L5A                                                       SYS / PHASE SHIFT   
  2025     1     1    21    45    0.0000000     GPS         TIME OF FIRST OBS   
 C1C    0.000 C2C    0.000 C2P    0.000                     GLONASS COD/PHS/BIS 
DBHZ                                                        SIGNAL STRENGTH UNIT
    18                                                      LEAP SECONDS        
 24 R01  1 R02 -4 R03  5 R04  6 R05  1 R06 -4 R07  5 R08  6 GLONASS SLOT / FRQ #
    R09 -2 R10 -7 R11  0 R12 -1 R13 -2 R14 -7 R15  0 R16 -1 GLONASS SLOT / FRQ #
    R17  4 R18 -3 R19  3 R20  2 R21  4 R22 -3 R23  3 R24  2 GLONASS SLOT / FRQ #
                                                            END OF HEADER       
> 2025 01 01 21 45  0.0000000  0 52
G10         1.000    21147764.727 8 111132354.39908     -2040.156 8        49.962                                    21147762.537 8  86596701.93308     -1589.734 8        51.210    21147762.286 7  86596678.94007     -1589.790 7        45.559
G14         2.000    24780971.614 6 130224909.81506      1799.966 6        37.331                                    24780969.165 3 101473952.09903      1402.559 3        20.833    24780968.509 6 101473948.08806      1402.703 6        37.130
C33         3.000                                                                                                                                    22677277.769 8 118086566.73808     -1084.392 8        49.639                                                                    22677289.470 8  95955067.67508      -881.176 8        50.094
E31         4.000    25971084.735 6 136479017.58506       -67.652 6        41.702                                                                    25971085.260 7 101916161.74307       -50.479 7        45.136    25971084.717 7 104574840.75607       -51.762 7        45.615
S21         5.000    38442437.602 7 202016092.31607      -507.076 7        42.235
E13         6.000    25272784.277 7 132809720.27807     -2409.551 7        44.131                                                                    25272784.765 7  99176295.78607     -1799.408 7        46.605    25272784.513 8 101763473.22308     -1846.292 8        48.033
G23         7.000    23749421.122 6 124804166.00706     -3842.402 6        40.358                                    23749417.985 4  97250034.37104     -2994.078 4        24.000    23749417.946 6  97250033.38006     -2994.009 6        39.012
G02         9.000    22923551.218 7 120464122.44407      1891.031 7        44.134                                    22923545.011 5  93868140.98205      1473.526 5        31.253
R12        10.000    24111770.439 6 128800763.90106      2029.350 6        41.719                                                                    24111772.312 6 100178400.15406      1578.440 6        39.691
C30        11.000                                                                                                                                    25627898.416 6 133451199.06006      2473.494 6        41.228                                                                    25627899.234 6 108440032.03006      2009.854 6        41.468
S27        12.000    39141035.805 5 205687541.48205      -475.390 5        35.943
R20        13.000    19662832.439 6 105146050.34706       615.026 6        41.068                                                                    19662833.962 7  81780328.36907       478.290 7        47.252
S36        14.000    38211144.584 7 200801432.92907      -506.543 7        43.735
G27        15.000    21140699.044 8 111095399.95808     -2950.755 8        48.939                                    21140696.904 8  86568001.20808     -2299.290 8        49.824    21140697.369 7  86567915.20707     -2299.295 7        44.236
S45        17.000    63419711.556 6 333273018.16506      -549.210 6        37.652
E08        18.000    25941521.678 7 136323661.20307      -417.573 7        43.452                                                                    25941519.821 7 101800139.66507      -311.804 7        45.016    25941519.501 7 104455791.05807      -319.911 7        46.249
G16        19.000    25569144.166 5 134366950.93405     -4180.561 5        34.310                                    25569143.415 1 104701623.09001     -3257.552 1        11.630
E21        20.000    28098211.480 6 147657423.77206     -3677.223 6        36.480                                                                    28098215.596 6 110263862.44206     -2745.920 6        40.594    28098214.549 6 113140287.49106     -2817.453 6        41.228
E26        21.000    23384390.374 8 122886148.57608      -305.300 8        48.130                                                                    23384388.219 8  91765827.39508      -227.959 8        50.517    23384387.839 8  94159694.10908      -233.914 8        51.318
I06        22.000    38505846.042 6 151105429.33906      -279.600 6        41.809
S28        23.000    40900074.822 5 214931324.48705      -498.819 5        33.461
G08        24.000    20267758.243 8 106507802.75708      -647.506 8        50.370                                    20267756.046 8  82993093.61608      -504.550 8        50.726    20267756.938 7  82993094.62207      -504.556 7        45.415
S23        25.000    38166101.187 7 200564192.86807      -505.026 7        44.321
C13        26.000                                                                                                                                    39541759.950 6 205904509.29906     -1519.778 6        40.815    39541761.125 6 159218536.92306     -1175.199 6        41.492    39541759.050 6 167314365.72306     -1235.091 6        38.802
R21        29.000    22917194.045 7 122634535.67707      2908.891 7        45.056                                                                    22917194.072 6  95382418.01706      2262.554 6        40.186
C14        30.000                                                                                                                                    23934816.893 7 124634908.53907     -2594.386 7        44.361    23934813.440 8  96375614.10308     -2006.121 8        49.171    23934811.532 7 101276060.27607     -2108.121 7        46.337
R05        31.000    20403317.663 8 109067455.20008      2532.248 8        52.243                                                                    20403316.736 7  84830250.60107      1969.556 7        46.555
E03        32.000    28445640.598 5 149482843.44105     -2634.784 5        34.129                                                                    28445643.303 6 111626806.63006     -1967.281 6        39.228    28445642.611 6 114538804.17206     -2018.738 6        39.625
R03        34.000    23283599.359 7 124638936.67407     -4421.025 7        44.155                                                                    23283598.172 6  96941412.79806     -3438.691 6        40.195
R10        35.000    23473273.975 6 125125781.40506     -4192.900 6        41.075
G32        37.000    22769638.156 7 119655286.12307      1784.472 7        45.406                                    22769636.333 7  93237884.75707      1390.496 7        43.304    22769637.791 7  93237893.77007      1390.484 7        42.027
E07        38.000    25968919.835 7 136467596.09207      1974.145 7        42.190                                                                    25968921.126 7 101907653.74307      1474.164 7        45.789    25968920.637 7 104566107.20407      1512.590 7        46.839
C41        39.000                                                                                                                                    23129010.030 8 120438846.41108      1925.783 8        49.337                                                                    23129015.535 8  97866455.48108      1564.809 8        48.841
C39        40.000                                                                                                                                    41453053.303 6 215856931.89406      1478.247 6        36.665                                                                    41453050.216 6 175401429.57906      1201.323 6        38.943
E33        41.000    25698351.641 7 135045831.76707      1528.142 7        42.212                                                                    25698349.855 7 100845944.72807      1141.128 7        45.422    25698349.587 7 103476704.61307      1170.880 7        46.496
S44        42.000    40482363.790 6 212736430.82606      -531.276 6        37.183
C05        44.000                                                                                                                                    39178043.622 6 204010375.31906      -454.666 6        38.874    39178039.031 7 157753784.67007      -351.599 7        43.536    39178040.319 6 165775242.34706      -369.445 6        40.160
C08        45.000                                                                                                                                    40234852.742 5 209513611.15805     -1679.892 5        35.410    40234847.278 6 162009286.04806     -1299.041 6        39.090    40234845.932 6 170247019.54106     -1364.957 6        36.473
R11        46.000    22357429.113 7 119471335.55607     -1536.221 7        45.743                                                                    22357427.499 7  92922152.17407     -1194.840 7        42.808
R19        47.000    21490554.858 6 114960337.32606     -3156.748 6        38.838                                                                    21490554.585 7  89413760.60307     -2455.310 7        42.493
C43        48.000                                                                                                                                    26518597.703 5 138089580.28005     -3535.620 5        35.548                                                                    26518598.117 5 112209213.08505     -2873.233 5        35.690
I05        49.000  -496458207.516 6-872423440.45306       368.345 6        37.127
C42        50.000                                                                                                                                    26053786.039 6 135668929.26206     -3524.338 6        39.898                                                                    26053795.062 6 110242162.51206     -2863.794 6        41.397
S48        51.000    77196145.702 6 405669264.48406      -533.239 6        37.713
G21        52.000    21232809.227 7 111579235.39807       939.711 7        44.829                                    21232804.041 5  86944879.95605       732.241 5        34.648
C60        54.000                                                                                                                                    40482363.301 6 210802482.64306      -526.367 6        40.091                                                                    40482347.196 6 171294252.69706      -427.780 6        39.859
C27        55.000                                                                                                                                    21891687.926 8 113995781.68208       878.708 8        50.693                                                                    21891686.476 8  92630914.08808       713.973 8        49.153
R04        56.000    20070762.401 8 107478038.10408     -1529.612 8        50.756                                                                    20070760.153 7  83594022.53407     -1189.706 7        46.502
C02        57.000                                                                                                                                    40532526.732 5 211063541.37305      -480.723 5        33.689    40532519.494 6 163207710.76806      -371.623 6        39.649    40532523.840 6 171506418.21006      -390.565 6        36.427
I03        58.000   108021519.402 6 348114394.50106      1002.709 6        40.100
C36        59.000                                                                                                                                    26166652.169 6 136256628.02606     -1151.459 6        39.859                                                                    26166657.809 6 110719700.88106      -935.676 6        41.759
C28        60.000                                                                                                                                    21820037.661 8 113622975.66308     -1661.918 8        50.648                                                                    21820036.325 8  92328110.77008     -1350.474 8        48.815
> 2025 01 01 21 45  5.0000000  0 52
G10         1.000    21149706.875 8 111142561.49108     -2042.557 8        50.131                                    21149704.890 8  86604655.51508     -1591.602 8        51.221    21149704.650 7  86604632.51507     -1591.570 7        46.061
G14         2.000    24779260.195 6 130215916.17106      1797.577 6        37.664                                    24779257.195 3 101466944.06303      1400.724 3        20.690    24779257.344 6 101466940.04806      1400.856 6        36.945
C33         3.000                                                                                                                                    22678320.724 8 118091996.33908     -1087.348 8        49.708                                                                    22678332.166 8  95959479.65508      -883.495 8        50.205
E31         4.000    25971150.734 7 136479362.39407       -70.127 7        42.343                                                                    25971150.902 7 101916419.23607       -52.476 7        45.067    25971150.381 7 104575104.97207       -53.846 7        45.637
S21         5.000    38442919.352 7 202018628.07007      -507.163 7        42.377
E13         6.000    25275077.290 7 132821770.26907     -2410.343 7        44.384                                                                    25275077.835 7  99185294.16107     -1799.934 7        46.671    25275077.522 8 101772706.33708     -1846.928 8        48.071
G23         7.000    23753077.587 6 124823380.75206     -3843.147 6        40.205                                    23753074.387 3  97265006.90303     -2994.666 3        23.981    23753074.385 6  97265005.88906     -2994.647 6        39.063
G02         9.000    22921752.610 7 120454669.86907      1890.141 7        44.324                                    22921746.229 5  93860775.34105      1472.838 5        31.298
R12        10.000    24109873.357 7 128790625.59207      2026.069 7        42.665                                                                    24109874.782 6 100170514.77006      1575.750 6        40.534
C30        11.000                                                                                                                                    25625524.103 6 133438833.32706      2472.948 6        41.361                                                                    25625524.364 6 108429983.84006      2009.553 6        41.435
S27        12.000    39141492.898 6 205689918.78206      -475.492 6        36.057
R20        13.000    19662258.521 6 105142981.55806       612.664 6        40.682                                                                    19662260.203 7  81777941.52807       476.534 7        47.554
S36        14.000    38211626.495 7 200803965.13207      -506.371 7        43.774
G27        15.000    21143507.568 8 111110160.32308     -2953.202 8        48.707                                    21143505.714 8  86579502.78708     -2301.197 8        49.883    21143506.162 7  86579416.79007     -2301.210 7        44.691
S45        17.000    63420190.748 6 333275764.95706      -549.308 6        37.478
E08        18.000    25941920.185 7 136325755.86207      -420.183 7        43.323                                                                    25941918.542 7 101801703.87107      -313.829 7        44.935    25941918.084 7 104457396.06507      -322.014 7        46.169
G16        19.000    25573120.899 5 134387852.16505     -4179.969 5        33.874                                    25573120.861 1 104717909.68201     -3257.096 1        11.556
E21        20.000    28101710.411 6 147675809.78806     -3677.047 6        37.059                                                                    28101714.360 6 110277592.23506     -2746.014 6        40.455    28101713.228 6 113154375.44906     -2817.494 6        41.104
E26        21.000    23384681.455 8 122887678.56808      -306.511 8        48.397                                                                    23384679.388 8  91766969.92808      -228.909 8        50.541    23384678.993 8  94160866.44908      -234.919 8        51.273
I06        22.000    38506202.149 7 151106827.69207      -279.649 7        42.019
S28        23.000    40900545.313 5 214933819.11205      -498.967 5        34.067
G08        24.000    20268376.107 8 106511048.33808      -650.637 8        50.264                                    20268373.654 8  82995622.64408      -506.990 8        50.748    20268374.546 7  82995623.64807      -507.049 7        45.746
S23        25.000    38166580.004 7 200566718.41007      -505.186 7        44.215
C13        26.000                                                                                                                                    39543219.423 6 205912108.72306     -1519.727 6        40.486    39543220.298 6 159224413.27806     -1175.208 6        41.485    39543218.479 6 167320540.84806     -1234.894 6        38.730
R21        29.000    22914477.225 7 122619992.31907      2908.536 7        45.415                                                                    22914476.064 6  95371106.51506      2262.100 6        40.331
C14        30.000                                                                                                                                    23937309.832 7 124647886.28707     -2596.705 7        44.462    23937305.411 8  96385649.32008     -2007.948 8        49.376    23937303.838 7 101286605.74107     -2109.841 7        46.472
R05        31.000    20400951.344 8 109054803.25808      2528.719 8        51.922                                                                    20400950.322 7  84820410.21207      1966.760 7        46.544
E03        32.000    28448148.672 5 149496021.24005     -2636.150 5        34.771                                                                    28448150.972 6 111636647.19906     -1968.566 6        39.162    28448150.198 6 114548901.46106     -2019.985 6        39.769
R03        34.000    23287729.468 7 124661047.23307     -4423.104 7        43.501                                                                    23287727.985 6  96958609.89206     -3440.243 6        39.886
R10        35.000    23477206.243 6 125146750.42206     -4194.390 6        40.131
G32        37.000    22767941.468 7 119646370.25007      1782.062 7        45.159                                    22767939.719 7  93230937.33507      1388.619 7        43.312    22767940.722 7  93230946.33707      1388.600 7        42.108
E07        38.000    25967042.237 7 136457729.47607      1972.624 7        42.354                                                                    25967043.631 7 101900285.83007      1472.998 7        46.068    25967043.016 7 104558547.07707      1511.470 7        46.833
C41        39.000                                                                                                                                    23127161.966 8 120429223.39608      1923.603 8        49.098                                                                    23127167.617 8  97858635.97508      1563.171 8        48.955
C39        40.000                                                                                                                                    41451634.157 6 215849541.93506      1477.749 6        36.507                                                                    41451630.974 6 175395424.64606      1200.967 6        38.985
E33        41.000    25696898.064 7 135038192.80807      1527.500 7        42.463                                                                    25696896.229 7 100840240.32607      1140.590 7        45.431    25696895.966 7 103470851.39607      1170.374 7        46.353
S44        42.000    40482869.361 6 212739088.01406      -531.399 6        37.180
C05        44.000                                                                                                                                    39178480.182 6 204012649.58006      -454.867 6        38.961    39178475.735 7 157755543.28607      -351.734 7        43.651    39178477.129 6 165777090.36806      -369.687 6        40.200
C08        45.000                                                                                                                                    40236465.445 5 209522010.78505     -1680.005 5        35.195    40236460.365 6 162015781.17306     -1298.983 6        39.504    40236459.115 6 170253844.90406     -1364.901 6        36.560
R11        46.000    22358869.402 7 119479028.15607     -1540.539 7        45.637                                                                    22358867.636 7  92928135.30707     -1198.290 7        43.181
R19        47.000    21493506.765 6 114976125.72806     -3158.367 6        38.700                                                                    21493506.451 7  89426040.47807     -2456.638 7        42.694
C43        48.000                                                                                                                                    26521992.729 5 138107260.74205     -3535.939 5        35.371                                                                    26521993.627 5 112223579.87005     -2873.240 5        35.829
I05        49.000  -496458675.916 6-872425281.03806       368.248 6        37.168
C42        50.000                                                                                                                                    26057170.848 6 135686554.49106     -3525.548 6        40.484                                                                    26057179.669 6 110256484.44706     -2864.866 6        41.640
S48        51.000    77196632.327 6 405671931.48006      -533.415 6        37.698
G21        52.000    21231916.112 7 111574541.55207       938.095 7        44.602                                    21231910.839 5  86941222.41605       730.983 5        34.705
C60        54.000                                                                                                                                    40482868.925 6 210805115.68006      -526.694 6        39.997                                                                    40482852.941 6 171296392.24306      -427.851 6        40.091
C27        55.000                                                                                                                                    21890845.153 8 113991392.83408       876.984 8        50.620                                                                    21890843.669 8  92627347.77408       712.691 8        49.217
R04        56.000    20072192.497 8 107485698.01908     -1534.270 8        50.763                                                                    20072190.895 7  83599980.25607     -1193.291 7        46.708
C02        57.000                                                                                                                                    40532987.760 5 211065945.02505      -480.743 5        34.005    40532981.569 6 163209569.41906      -371.830 6        39.955    40532985.330 6 171508371.34206      -390.543 6        36.181
I03        58.000   108020241.592 6 348109381.64406      1002.498 6        40.014
C36        59.000                                                                                                                                    26167758.940 6 136262392.42606     -1154.105 6        39.267                                                                    26167764.623 6 110724384.91206      -937.823 6        41.831
C28        60.000                                                                                                                                    21821634.423 8 113631290.34608     -1663.814 8        50.385                                                                    21821633.083 8  92334867.11208     -1351.925 8        48.829
> 2025 01 01 21 45 10.0000000  0 52
G10         1.000    21151651.328 8 111152779.79608     -2045.004 8        49.965                                    21151649.361 8  86612617.83008     -1593.510 8        51.278    21151649.305 7  86612594.84107     -1593.549 7        45.834
G14         2.000    24777551.410 6 130206934.17906      1794.990 6        37.161                                    24777547.940 3 101459945.11603      1398.673 3        20.452    24777549.109 6 101459941.10906      1398.800 6        37.747
C33         3.000                                                                                                                                    22679366.355 8 118097439.98008     -1090.355 8        49.788                                                                    22679377.595 8  95963903.07808      -886.022 8        50.173
E31         4.000    25971218.543 7 136479719.40407       -72.910 7        42.637                                                                    25971218.741 7 101916685.82807       -54.397 7        45.059    25971218.273 7 104575378.51607       -55.802 7        45.774
S21         5.000    38443399.917 7 202021163.86507      -507.430 7        42.155
E13         6.000    25277370.573 7 132833822.99107     -2411.020 7        44.551                                                                    25277371.387 7  99194294.57107     -1800.475 7        46.671    25277371.051 8 101781941.53608     -1847.417 8        48.106
G23         7.000    23756734.082 6 124842599.01306     -3844.276 6        40.136                                    23756731.409 4  97279982.15404     -2995.546 4        24.075    23756732.027 6  97279981.15306     -2995.447 6        39.057
G02         9.000    22919954.918 7 120445221.17607      1889.050 7        44.081                                    22919948.150 5  93853412.72505      1471.984 5        31.532
R12        10.000    24107979.087 7 128780503.30807      2022.527 7        42.256                                                                    24107979.649 6 100162641.88806      1573.238 6        40.114
C30        11.000                                                                                                                                    25623149.465 6 133426468.41706      2472.727 6        41.909                                                                    25623149.684 6 108419936.36306      2009.173 6        41.466
S27        12.000    39141942.104 5 205692296.22305      -475.804 5        35.810
R20        13.000    19661686.746 6 105139923.06306       610.287 6        40.651                                                                    19661688.130 7  81775562.69807       474.791 7        47.776
S36        14.000    38212107.834 7 200806496.48707      -506.648 7        43.664
G27        15.000    21146318.792 8 111124932.27608     -2955.767 8        48.390                                    21146316.723 8  86591013.39808     -2303.195 8        49.938    21146317.280 7  86590927.39707     -2303.201 7        44.661
S45        17.000    63420669.270 6 333278511.60006      -549.553 6        37.690
E08        18.000    25942320.971 7 136327862.94207      -422.883 7        43.395                                                                    25942319.447 7 101803277.34107      -315.786 7        44.883    25942319.054 7 104459010.58807      -324.043 7        46.361
G16        19.000    25577097.817 5 134408750.29605     -4179.366 5        33.114                                    25577097.815 1 104734193.98201     -3256.672 1        10.222
E21        20.000    28105208.754 6 147694194.78706     -3677.152 6        37.278                                                                    28105212.947 6 110291321.24606     -2746.062 6        40.534    28105211.763 6 113168462.61806     -2817.542 6        41.194
E26        21.000    23384973.561 8 122889213.68508      -307.742 8        48.563                                                                    23384971.516 8  91768116.28508      -229.828 8        50.492    23384971.080 8  94162042.71008      -235.850 8        51.425
I06        22.000    38506558.164 6 151108225.95406      -279.849 6        41.919
S28        23.000    40901020.507 5 214936313.50905      -499.174 5        34.181
G08        24.000    20268996.093 8 106514308.99708      -653.858 8        49.936                                    20268994.140 8  82998163.41908      -509.498 8        50.806    20268995.005 7  82998164.42507      -509.482 7        45.481
S23        25.000    38167062.447 7 200569243.98907      -505.242 7        44.426
C13        26.000                                                                                                                                    39544678.770 6 205919707.54406     -1519.866 6        40.389    39544679.766 6 159230289.17606     -1175.290 6        41.325    39544677.732 6 167326715.53906     -1235.159 6        38.706
R21        29.000    22911758.974 7 122605449.86807      2908.089 7        45.032                                                                    22911758.256 6  95359795.72606      2261.826 6        40.720
C14        30.000                                                                                                                                    23939803.843 7 124660874.63907     -2599.045 7        44.503    23939799.676 8  96395692.74308     -2009.735 8        49.454    23939797.951 7 101297159.85707     -2111.887 7        46.502
R05        31.000    20398586.874 8 109042168.17908      2525.047 8        51.549                                                                    20398586.243 7  84810582.94107      1963.965 7        46.055
E03        32.000    28450657.955 5 149509207.02505     -2637.997 5        34.814                                                                    28450660.037 6 111646493.66106     -1970.090 6        39.255    28450659.248 6 114559004.77806     -2021.394 6        39.802
R03        34.000    23291860.468 7 124683166.73607     -4425.051 7        43.706                                                                    23291860.496 6  96975814.01006     -3441.737 6        39.574
R10        35.000    23481141.171 6 125167726.02506     -4195.941 6        41.111
G32        37.000    22766247.077 7 119637465.22707      1779.692 7        45.210                                    22766245.117 7  93223998.36707      1386.770 7        43.280    22766245.903 7  93224007.37207      1386.833 7        42.311
E07        38.000    25965165.787 7 136447869.45407      1971.101 7        42.267                                                                    25965167.347 7 101892922.82807      1471.986 7        46.065    25965166.666 7 104550992.00607      1510.329 7        47.051
C41        39.000                                                                                                                                    23125315.843 8 120419610.55408      1921.325 8        48.766                                                                    23125321.623 8  97850824.77308      1561.246 8        48.947
C39        40.000                                                                                                                                    41450215.164 6 215842153.85206      1477.273 6        36.673                                                                    41450212.161 6 175389421.26506      1200.502 6        39.024
E33        41.000    25695445.185 7 135030556.34107      1526.793 7        42.715                                                                    25695442.951 7 100834537.76607      1140.161 7        45.345    25695442.815 7 103465000.07207      1169.965 7        46.581
S44        42.000    40483375.316 6 212741745.29806      -531.696 6        37.100
C05        44.000                                                                                                                                    39178917.185 6 204014923.89206      -455.051 6        38.895    39178912.545 7 157757301.94107      -351.931 7        43.670    39178913.882 6 165778938.44206      -369.815 6        40.281
C08        45.000                                                                                                                                    40238077.692 5 209530409.48905     -1679.781 5        35.157    40238072.854 6 162022275.55606     -1299.099 6        39.601    40238071.852 6 170260669.54206     -1365.124 6        36.318
R11        46.000    22360312.315 7 119486741.45607     -1544.954 7        46.436                                                                    22360311.192 7  92934134.53107     -1201.640 7        42.895
R19        47.000    21496459.044 6 114991921.92906     -3160.212 6        39.117                                                                    21496459.557 7  89438326.39707     -2457.975 7        42.728
C43        48.000                                                                                                                                    26525389.395 5 138124943.08705     -3536.887 5        35.081                                                                    26525389.263 5 112237948.25305     -2874.011 5        35.152
I05        49.000  -496459144.867 6-872427120.70706       367.678 6        37.013
C42        50.000                                                                                                                                    26060556.667 6 135704185.01606     -3526.859 6        40.608                                                                    26060565.424 6 110270810.70506     -2865.811 6        41.402
S48        51.000    77197119.452 6 405674598.59606      -533.718 6        37.728
G21        52.000    21231024.050 7 111569855.14707       936.294 7        44.038                                    21231019.077 5  86937570.67405       729.577 5        34.743
C60        54.000                                                                                                                                    40483374.657 6 210807748.81206      -526.924 6        40.157                                                                    40483358.659 6 171298531.88906      -428.056 6        40.007
C27        55.000                                                                                                                                    21890003.876 8 113987011.68508       875.246 8        50.679                                                                    21890002.319 8  92623787.74508       711.259 8        49.221
R04        56.000    20073627.257 8 107493380.49208     -1538.968 8        50.927                                                                    20073625.297 7  83605955.51607     -1196.959 7        46.836
C02        57.000                                                                                                                                    40533449.648 5 211068348.73205      -480.840 5        33.760    40533443.148 6 163211428.13306      -371.967 6        40.119    40533446.707 6 171510324.57706      -390.680 6        36.336
I03        58.000   108018964.473 6 348104368.97506      1002.303 6        40.184
C36        59.000                                                                                                                                    26168868.494 6 136268169.14306     -1156.706 6        39.492                                                                    26168873.904 6 110729078.98506      -939.990 6        41.478
C28        60.000                                                                                                                                    21823232.900 8 113639613.91808     -1665.836 8        50.444                                                                    21823231.532 8  92341630.71108     -1353.587 8        48.883
> 2025 01 01 21 45 15.0000000  0 52
G10         1.000    21153597.899 8 111163009.20708     -2047.021 8        49.745                                    21153595.961 8  86620588.80308     -1595.080 8        51.225    21153595.886 7  86620565.80807     -1595.072 7        45.839
G14         2.000    24775844.110 6 130197963.63806      1792.966 6        37.217                                    24775840.844 3 101452955.07703      1397.106 3        20.476    24775841.423 6 101452951.09506      1397.113 6        38.036
C33         3.000                                                                                                                                    22680414.097 8 118102897.60108     -1092.926 8        49.594                                                                    22680425.646 8  95968337.83008      -888.062 8        50.143
E31         4.000    25971288.548 7 136480088.51507       -75.100 7        42.512                                                                    25971288.976 7 101916961.45807       -55.968 7        44.983    25971288.540 7 104575661.34507       -57.553 7        45.755
S21         5.000    38443884.055 7 202023699.59307      -507.165 7        42.260
E13         6.000    25279664.571 7 132845878.33907     -2411.282 7        44.206                                                                    25279665.440 7  99203296.93507     -1800.675 7        46.527    25279665.038 8 101791178.74908     -1847.695 8        48.175
G23         7.000    23760392.614 6 124861820.67906     -3844.658 6        39.880                                    23760389.000 3  97294960.06803     -2995.832 3        23.848    23760390.129 6  97294959.05606     -2995.752 6        39.517
G02         9.000    22918157.227 7 120435776.27707      1888.590 7        44.071                                    22918150.835 5  93846053.06605      1471.627 5        31.525
R12        10.000    24106086.376 6 128770396.84506      2019.751 6        41.993                                                                    24106087.184 6 100154781.36406      1570.863 6        39.868
C30        11.000                                                                                                                                    25620775.083 7 133414104.29407      2472.729 7        42.188                                                                    25620775.193 6 108409889.50206      2009.300 6        41.714
S27        12.000    39142392.499 5 205694673.65005      -475.508 5        35.671
R20        13.000    19661116.336 6 105136874.66906       608.709 6        40.779                                                                    19661117.925 7  81773191.74207       473.458 7        47.821
S36        14.000    38212588.403 7 200809028.15807      -506.395 7        43.803
G27        15.000    21149132.024 8 111139715.70008     -2957.802 8        48.583                                    21149129.924 8  86602532.94408     -2304.781 8        49.893    21149130.388 7  86602446.94707     -2304.777 7        44.781
S45        17.000    63421143.669 6 333281258.10206      -549.218 6        37.947
E08        18.000    25942724.336 7 136329982.35507      -425.075 7        43.331                                                                    25942722.696 7 101804860.02307      -317.408 7        44.840    25942722.284 7 104460634.55607      -325.724 7        46.399
G16        19.000    25581074.133 5 134429645.21505     -4178.641 5        32.701                                    25581074.040 1 104750475.65401     -3256.088 1         9.619
E21        20.000    28108707.157 6 147712578.63006     -3676.594 6        37.467                                                                    28108711.221 6 110305049.40606     -2745.521 6        40.491    28108710.154 6 113182548.91406     -2817.057 6        41.249
E26        21.000    23385266.680 8 122890753.84308      -308.526 8        48.387                                                                    23385264.581 8  91769266.39708      -230.389 8        50.407    23385264.144 8  94163222.82308      -236.426 8        51.437
I06        22.000    38506914.459 6 151109624.02006      -279.510 6        41.800
S28        23.000    40901496.722 5 214938807.89505      -498.968 5        33.820
G08        24.000    20269619.208 8 106517584.65108      -656.676 8        49.858                                    20269617.476 8  83000715.87608      -511.696 8        50.742    20269618.184 7  83000716.87607      -511.707 7        45.594
S23        25.000    38167542.910 7 200571769.42407      -505.131 7        44.354
C13        26.000                                                                                                                                    39546137.515 6 205927305.70006     -1519.479 6        40.341    39546138.801 6 159236164.54506     -1174.946 6        41.509    39546136.976 6 167332889.65206     -1234.758 6        38.832
R21        29.000    22909041.603 7 122590908.35507      2908.204 7        45.448                                                                    22909040.347 6  95348485.64306      2261.888 6        39.769
C14        30.000                                                                                                                                    23942300.310 7 124673873.50407     -2600.828 7        44.789    23942295.783 8  96405744.29508     -2011.101 8        49.108    23942294.383 7 101307722.50407     -2113.448 7        46.365
R05        31.000    20396226.299 8 109029550.08808      2521.955 8        51.462                                                                    20396226.037 7  84800768.86507      1961.578 7        46.215
E03        32.000    28453168.631 5 149522400.90005     -2639.501 5        34.795                                                                    28453170.952 6 111656346.23906     -1971.070 6        39.381    28453170.125 6 114569114.38606     -2022.450 6        40.336
R03        34.000    23295993.939 7 124705294.92807     -4426.650 7        42.944                                                                    23295994.445 6  96993024.76306     -3442.950 6        39.315
R10        35.000    23485077.912 6 125188708.10006     -4197.061 6        39.934
G32        37.000    22764554.751 7 119628570.98107      1777.809 7        45.801                                    22764552.532 7  93217067.79407      1385.303 7        43.276    22764553.431 7  93217076.80307      1385.166 7        42.360
E07        38.000    25963290.587 6 136438015.96906      1969.942 6        41.743                                                                    25963292.346 7 101885564.70907      1471.179 7        46.158    25963291.666 7 104543441.93807      1509.537 7        47.194
C41        39.000                                                                                                                                    23123472.247 8 120410007.80008      1919.536 8        48.958                                                                    23123477.440 8  97843021.74708      1559.758 8        48.915
C39        40.000                                                                                                                                    41448797.239 6 215834767.57706      1476.939 6        36.975                                                                    41448793.529 6 175383419.31706      1200.285 6        38.886
E33        41.000    25693992.271 7 135022922.27907      1526.618 7        43.065                                                                    25693990.213 7 100828837.00807      1139.949 7        45.211    25693990.180 7 103459150.60507      1169.693 7        46.610
S44        42.000    40483877.255 6 212744402.59906      -531.511 6        37.350
C05        44.000                                                                                                                                    39179353.888 6 204017198.14406      -454.848 6        39.024    39179349.360 7 157759060.54207      -351.711 7        43.691    39179350.795 6 165780786.46106      -369.588 6        40.262
C08        45.000                                                                                                                                    40239689.857 5 209538807.02505     -1679.355 5        35.157    40239685.555 6 162028769.08806     -1298.621 6        39.598    40239684.690 6 170267493.23506     -1364.789 6        36.344
R11        46.000    22361760.472 7 119494475.51407     -1548.847 7        46.466                                                                    22361758.381 7  92940149.92107     -1204.667 7        43.206
R19        47.000    21499414.310 6 115007725.79306     -3161.479 6        39.387                                                                    21499413.760 7  89450618.28007     -2458.928 7        42.677
C43        48.000                                                                                                                                    26528785.881 5 138142627.25005     -3537.037 5        34.938                                                                    26528785.099 5 112252318.04505     -2874.061 5        35.048
I05        49.000  -496459614.225 6-872428959.60506       367.665 6        36.975
C42        50.000                                                                                                                                    26063943.889 6 135721820.76606     -3527.535 6        40.999                                                                    26063952.189 6 110285141.21106     -2866.671 6        41.232
S48        51.000    77197607.883 6 405677265.65706      -533.450 6        37.955
G21        52.000    21230133.658 7 111565176.11807       935.053 7        44.548                                    21230128.692 5  86933924.67805       728.612 5        34.724
C60        54.000                                                                                                                                    40483880.129 6 210810381.94906      -526.723 6        40.184                                                                    40483864.247 6 171300671.53106      -427.771 6        39.931
C27        55.000                                                                                                                                    21889163.900 8 113982638.14008       873.915 8        50.741                                                                    21889162.423 8  92620233.87908       710.171 8        49.193
R04        56.000    20075066.052 8 107501085.32808     -1543.198 8        50.994                                                                    20075064.115 7  83611948.17707     -1200.349 7        46.748
C02        57.000                                                                                                                                    40533911.745 5 211070752.50905      -480.867 5        33.701    40533904.736 6 163213286.87506      -371.625 6        39.799    40533908.563 6 171512277.81706      -390.599 6        36.401
I03        58.000   108017687.417 6 348099356.44706      1002.372 6        40.181
C36        59.000                                                                                                                                    26169980.526 6 136273958.09306     -1158.921 6        39.456                                                                    26169985.506 6 110733782.99206      -941.816 6        41.273
C28        60.000                                                                                                                                    21824833.059 8 113647946.28708     -1667.348 8        50.473                                                                    21824831.650 8  92348401.43508     -1354.801 8        48.827
> 2025 01 01 21 45 20.0000000  0 52
G10         1.000    21155546.677 8 111173249.73708     -2049.154 8        49.909                                    21155544.686 8  86628568.43308     -1596.742 8        51.337    21155544.689 7  86628545.43807     -1596.785 7        45.637
G14         2.000    24774139.151 6 130189004.64906      1790.606 6        37.338                                    24774136.065 3 101445974.05303      1395.281 3        20.619    24774136.969 6 101445970.04206      1395.572 6        37.482
C33         3.000                                                                                                                                    22681464.611 8 118108369.16008     -1095.629 8        49.386                                                                    22681476.449 8  95972783.92008      -890.327 8        50.176
E31         4.000    25971361.484 7 136480469.73707       -77.491 7        42.250                                                                    25971361.602 7 101917246.13207       -57.779 7        45.037    25971361.035 7 104575953.44607       -59.287 7        45.922
S21         5.000    38444368.444 7 202026235.06607      -507.066 7        42.133
E13         6.000    25281959.560 7 132857936.34807     -2411.806 7        43.772                                                                    25281960.076 7  99212301.28907     -1800.985 7        46.846    25281959.535 8 101800418.00008     -1848.038 8        48.245
G23         7.000    23764050.729 6 124881045.78206     -3845.374 6        39.946                                    23764047.471 4  97309940.67104     -2996.392 4        24.346    23764048.107 6  97309939.67306     -2996.337 6        39.571
G02         9.000    22916360.765 7 120426335.22907      1887.889 7        44.485                                    22916354.280 5  93838696.40705      1471.081 5        31.525
R12        10.000    24104196.996 6 128760306.17806      2016.524 6        41.275                                                                    24104197.943 6 100146933.12306      1568.362 6        40.226
C30        11.000                                                                                                                                    25618400.413 6 133401740.92706      2472.727 6        41.964                                                                    25618401.196 6 108399843.24506      2009.258 6        41.564
S27        12.000    39142848.645 6 205697050.80506      -475.484 6        36.026
R20        13.000    19660548.502 6 105133836.32906       606.679 6        40.548                                                                    19660549.820 7  81770828.59207       471.899 7        47.669
S36        14.000    38213071.571 7 200811559.24707      -506.105 7        43.793
G27        15.000    21151947.594 8 111154510.59808     -2960.077 8        48.416                                    21151945.334 8  86614061.43408     -2306.553 8        50.004    21151945.974 7  86613975.42707     -2306.548 7        44.743
S45        17.000    63421623.688 6 333284004.41206      -549.021 6        37.637
E08        18.000    25943130.311 7 136332114.11407      -427.541 7        43.426                                                                    25943128.445 7 101806451.92807      -319.313 7        44.998    25943127.924 7 104462267.98207      -327.600 7        46.434
G16        19.000    25585049.007 5 134450536.91605     -4177.865 5        31.675                                    25585049.616 1 104766754.90401     -3255.525 1         8.381
E21        20.000    28112205.482 6 147730961.34106     -3676.511 6        37.667                                                                    28112209.344 6 110318776.73906     -2745.360 6        40.551    28112208.343 6 113196634.34206     -2816.853 6        41.108
E26        21.000    23385560.861 8 122892299.03308      -309.463 8        48.270                                                                    23385558.643 8  91770420.28308      -231.110 8        50.585    23385558.192 8  94164406.80908      -237.114 8        51.559
I06        22.000    38507270.954 6 151111021.92406      -279.577 6        41.778
S28        23.000    40901971.054 5 214941302.34905      -498.743 5        33.946
G08        24.000    20270245.703 8 106520875.28308      -659.481 8        49.949                                    20270243.659 8  83003280.00708      -513.882 8        50.872    20270244.624 7  83003281.01807      -513.922 7        45.359
S23        25.000    38168021.695 7 200574294.86107      -505.039 7        44.196
C13        26.000                                                                                                                                    39547596.685 6 205934903.12706     -1519.506 6        40.286    39547597.747 6 159242039.34806     -1174.834 6        41.366    39547596.008 6 167339063.16706     -1234.592 6        38.871
R21        29.000    22906325.301 7 122576367.63307      2908.170 7        45.168                                                                    22906323.334 6  95337176.21806      2261.840 6        40.038
C14        30.000                                                                                                                                    23944798.758 7 124686882.90107     -2602.843 7        44.479    23944793.742 8  96415803.98508     -2012.707 8        49.059    23944792.760 7 101318293.69907     -2115.063 7        46.546
R05        31.000    20393869.095 8 109016948.76708      2518.630 8        51.289                                                                    20393868.610 7  84790967.85807      1958.971 7        46.504
E03        32.000    28455681.238 5 149535602.75105     -2641.115 5        35.019                                                                    28455683.168 6 111666204.76506     -1972.215 6        39.856    28455682.395 6 114579230.09506     -2023.686 6        40.691
R03        34.000    23300128.912 7 124727432.11107     -4428.243 7        42.487                                                                    23300129.314 6  97010242.59306     -3444.142 6        39.739
R10        35.000    23489014.229 6 125209696.64206     -4198.188 6        41.032
G32        37.000    22762863.892 7 119619687.54007      1775.705 7        46.347                                    22762862.062 7  93210145.64007      1383.665 7        43.636    22762863.029 7  93210154.64707      1383.591 7        42.320
E07        38.000    25961416.689 6 136428169.02606      1968.831 6        41.383                                                                    25961418.473 7 101878211.49307      1470.236 7        46.374    25961417.901 7 104535896.89507      1508.557 7        47.447
C41        39.000                                                                                                                                    23121630.157 8 120400415.13808      1917.628 8        49.165                                                                    23121635.284 8  97835226.92708      1558.194 8        48.975
