     3.04           OBSERVATION DATA    M                   RINEX VERSION / TYPE
ssrcrin-15.6.1x                         20250101 051500 UTC PGM / RUN BY / DATE 
(00000000023479385599111004) Septentrio proprietary         COMMENT             
rref                                                        MARKER NAME         
01                                                          MARKER NUMBER       
geodetic                                                    MARKER TYPE         
NFB                 CLIMERS@TUW                             OBSERVER / AGENCY   
3297213             SEPT ASTERX SB3 PROB4.14.4              REC # / TYPE / VERS 
Unknown             Unknown                                 ANT # / TYPE        
  4127831.5289  1207193.1333  4695247.4864                  APPROX POSITION XYZ 
        0.0000        0.0000        0.0000                  ANTENNA: DELTA H/E/N
G   23 X1  C1C L1C D1C S1C C1W S1W C2W L2W D2W S2W C2L L2L  SYS / # / OBS TYPES 
       D2L S2L C5Q L5Q D5Q S5Q C1L L1L D1L S1L              SYS / # / OBS TYPES 
E   21 X1  C1C L1C D1C S1C C6C L6C D6C S6C C5Q L5Q D5Q S5Q  SYS / # / OBS TYPES 
       C7Q L7Q D7Q S7Q C8Q L8Q D8Q S8Q                      SYS / # / OBS TYPES 
S    9 X1  C1C L1C D1C S1C C5I L5I D5I S5I                  SYS / # / OBS TYPES 
R   17 X1  C1C L1C D1C S1C C2P L2P D2P S2P C2C L2C D2C S2C  SYS / # / OBS TYPES 
       C3Q L3Q D3Q S3Q                                      SYS / # / OBS TYPES 
C   25 X1  C1P L1P D1P S1P C5P L5P D5P S5P C2I L2I D2I S2I  SYS / # / OBS TYPES 
       C7I L7I D7I S7I C6I L6I D6I S6I C7D L7D D7D S7D      SYS / # / OBS TYPES 
J   17 X1  C1C L1C D1C S1C C2L L2L D2L S2L C5Q L5Q D5Q S5Q  SYS / # / OBS TYPES 
       C1L L1L D1L S1L                                      SYS / # / OBS TYPES 
I    5 X1  C5A L5A D5A S5A                                  SYS / # / OBS TYPES 
SEPTENTRIO RECEIVERS OUTPUT ALIGNED CARRIER PHASES.         COMMENT             
NO FURTHER PHASE SHIFT APPLIED IN THE RINEX ENCODER.        COMMENT             
G L1C                                                       SYS / PHASE SHIFT   
G L2W                                                       SYS / PHASE SHIFT   
G L2L  0.00000                                              SYS / PHASE SHIFT   
G L5Q  0.00000                                              SYS / PHASE SHIFT   
G L1L  0.00000                                              SYS / PHASE SHIFT   
E L1C  0.00000                                              SYS / PHASE SHIFT   
E L6C  0.00000                                              SYS / PHASE SHIFT   
E L5Q  0.00000                                              SYS / PHASE SHIFT   
E L7Q  0.00000                                              SYS / PHASE SHIFT   
E L8Q  0.00000                                              SYS / PHASE SHIFT   
S L1C                                                       SYS / PHASE SHIFT   
S L5I                                                       SYS / PHASE SHIFT   
R L1C                                                       SYS / PHASE SHIFT   
R L2P  0.00000                                              SYS / PHASE SHIFT   
R L2C                                                       SYS / PHASE SHIFT   
R L3Q  0.00000                                              SYS / PHASE SHIFT   
C L1P  0.00000                                              SYS / PHASE SHIFT   
C L5P  0.00000                                              SYS / PHASE SHIFT   
C L2I                                                       SYS / PHASE SHIFT   
C L7I                                                       SYS / PHASE SHIFT   
C L6I                                                       SYS / PHASE SHIFT   
C L7D                                                       SYS / PHASE SHIFT   
J L1C                                                       SYS / PHASE SHIFT   
J L2L  0.00000                                              SYS / PHASE SHIFT   
J L5Q  0.00000                                              SYS / PHASE SHIFT   
J L1L  0.00000                                              SYS / PHASE SHIFT   
I L5A                                                       SYS / PHASE SHIFT   
  2025     1     1     5    15    0.0000000     GPS         TIME OF FIRST OBS   
 C1C    0.000 C2C    0.000 C2P    0.000                     GLONASS COD/PHS/BIS 
DBHZ                                                        SIGNAL STRENGTH UNIT
    18                                                      LEAP SECONDS        
 24 R01  1 R02 -4 R03  5 R04  6 R05  1 R06 -4 R07  5 R08  6 GLONASS SLOT / FRQ #
    R09 -2 R10 -7 R11  0 R12 -1 R13 -2 R14 -7 R15  0 R16 -1 GLONASS SLOT / FRQ #
    R17  4 R18 -3 R19  3 R20  2 R21  4 R22 -3 R23  3 R24  2 GLONASS SLOT / FRQ #
                                                            END OF HEADER       
> 2025 01 01 05 15  0.0000000  0 56
G16         1.000    23759304.179 6 124856004.99406     -1505.036 6        40.229                                    23759299.303 3  97290378.05803     -1172.756 3        22.705
G29         2.000    25840287.985 6 135791618.93906     -1042.002 6        37.289                                    25840284.727 4 105811636.22204      -811.964 4        26.623    25840285.317 5 105811638.23505      -812.070 5        34.138
G09         3.000    20863277.496 8 109637307.74508     -2163.014 8        48.416                                    20863275.313 8  85431679.10708     -1685.464 8        50.736    20863275.534 7  85431680.10607     -1685.452 7        45.356
E34         4.000    25123417.345 7 132024453.61007     -2533.394 7        46.264                                                                    25123417.190 8  98589696.23308     -1891.756 8        48.350    25123416.968 8 101161600.78808     -1941.082 8        49.311
S21         5.000    38526599.731 7 202458475.65007      -399.253 7        43.793
E05         6.000    21897286.659 8 115071065.53308      -457.483 8        48.575                                                                    21897286.194 8  85929722.39708      -341.598 8        51.116    21897286.017 8  88171359.27608      -350.452 8        51.756
E15         7.000    25553669.947 7 134285465.26507       246.853 7        43.900                                                                    25553670.518 7 100278131.44007       184.309 7        47.148    25553670.179 8 102894080.37808       189.074 8        48.032
R10         8.000    21558472.834 7 114918796.77107      3486.838 7        44.262
E31         9.000    26369171.032 7 138570940.29307         5.428 7        42.421                                                                    26369171.879 7 103478324.25807         4.016 7        44.936    26369171.156 7 106177756.70707         4.040 7        45.327
G04        10.000    22891885.564 7 120297700.21607     -3210.858 7        43.939                                    22891883.096 5  93738473.49605     -2501.958 5        30.053    22891882.634 6  93738468.49906     -2501.938 6        41.628
E09        11.000    25921397.650 7 136217903.01207     -2495.584 7        43.936                                                                    25921397.494 7 101721175.67607     -1863.586 7        46.496    25921397.231 7 104374771.12007     -1912.175 7        47.858
S27        12.000    39164449.157 6 205810529.37706      -414.337 6        37.512
G06        13.000    22827497.549 7 119959329.08107     -3337.116 7        44.065                                    22827496.857 7  93474804.15107     -2600.347 7        42.863    22827497.574 7  93474815.14807     -2600.276 7        42.305
S36        14.000    38294577.212 7 201239863.67407      -399.622 7        45.366
G20        15.000    21834661.239 7 114741930.76107      2040.243 7        47.032                                    21834656.319 5  89409279.05605      1589.803 5        34.443
E36        16.000    27968382.603 6 146974846.10306     -3715.600 6        37.830                                                                    27968384.629 6 109753953.27506     -2774.687 6        41.294    27968384.256 7 112617095.46707     -2847.136 7        42.237
S45        17.000    63479743.455 6 333588957.81106      -440.211 6        37.501
E13        18.000    28869837.333 5 151712032.66205      2293.370 5        35.390                                                                    28869838.180 6 113291442.68206      1712.500 6        38.943    28869838.232 6 116246872.43306      1757.316 6        41.175
E24        19.000    26923603.831 6 141484484.30806      2174.029 6        41.373                                                                    26923603.151 7 105654010.13407      1623.429 7        44.611    26923602.658 7 108410198.19707      1665.805 7        45.549
R23        20.000    21961439.030 7 117478887.71407     -3108.208 7        45.491
G30        21.000    22153376.949 7 116416805.18907      2360.866 7        47.114                                    22153375.204 7  90714401.46607      1839.633 7        46.520    22153375.696 7  90714405.47407      1839.575 7        42.362
I06        22.000    38046950.114 7 149304633.35907      -287.519 7        43.583
S28        23.000    40955312.372 5 215221570.40205      -399.964 5        35.429
S23        25.000    38232860.365 7 200915026.45407      -395.860 7        45.202
E06        26.000    27825958.949 6 146226422.18206     -2862.364 6        39.006                                                                    27825961.618 6 109195043.37406     -2137.537 6        41.659    27825960.763 7 112043609.57807     -2193.182 7        42.104
C34        27.000                                                                                                                                    25691993.102 6 133784952.40106      -997.830 6        41.912                                                                    25691993.233 6 108711237.59306      -810.754 6        41.378
R09        29.000    20093654.469 8 107299005.60308       366.003 8        50.392                                                                    20093653.902 8  83454786.13508       284.717 8        48.868
C22        30.000                                                                                                                                    21775732.425 8 113391983.66908       544.242 8        51.869                                                                    21775725.832 8  92140262.75008       442.346 8        50.117
I01        31.000   340921920.876 7  34710020.48907     -2876.875 7        42.557
E03        32.000    25566241.319 7 134351522.87507      1594.803 7        43.977                                                                    25566241.043 7 100327455.10907      1190.904 7        46.759    25566240.809 7 102944686.89907      1222.011 7        47.897
G05        33.000    24635266.431 6 129459221.71306      3238.709 6        40.412                                    24635263.026 5 100877312.89405      2523.664 5        32.395    24635264.266 5 100877315.90105      2523.438 5        35.762
R24        34.000    22662936.596 7 121188924.55907       873.009 7        45.369                                                                    22662935.490 7  94258055.48207       679.015 7        43.134
C36        35.000                                                                                                                                    22814525.041 8 118801231.40508      1692.346 8        49.688                                                                    22814530.032 8  96535755.12808      1375.252 8        49.550
G11        36.000    22280848.845 7 117086681.94007     -1173.107 7        46.536                                    22280845.133 5  91236375.63405      -914.108 5        35.262    22280845.094 7  91236375.64107      -914.143 7        44.701
I09        38.000    38285607.992 7 150240933.07507      -753.514 7        42.732
R08        39.000    20442780.876 8 109470180.12408      1682.107 8        50.679                                                                    20442778.640 7  85143475.52907      1308.326 7        46.135
R22        40.000    23887909.519 7 127515290.40407     -4639.823 7        42.688                                                                    23887908.535 6  99178568.24706     -3608.632 6        39.477
S44        42.000    40893266.754 6 214895717.03106      -461.891 6        37.815
C09        43.000                                                                                                                                    39291738.764 6 204602413.34706     -1154.824 6        41.521    39291734.537 7 158211555.62607      -893.162 7        44.283    39291732.823 6 166256201.51506      -938.271 6        41.280
C05        44.000                                                                                                                                    39298729.844 6 204638832.12006      -451.626 6        38.051    39298727.360 7 158239747.75407      -349.178 7        44.263    39298728.048 6 166285915.22506      -367.053 6        40.017
R06        45.000    22814881.320 6 121744606.66906     -3561.293 6        36.242
C44        46.000                                                                                                                                    25871431.165 6 134719354.95406     -2945.500 6        41.793                                                                    25871430.438 6 109470512.73906     -2393.365 6        40.148
C39        47.000                                                                                                                                    41420728.480 5 215688597.76205     -1556.971 5        35.210                                                                    41420725.217 5 175264639.18805     -1265.073 5        34.995
C20        48.000                                                                                                                                    27172186.136 5 141492665.64005     -3309.537 5        33.311                                                                    27172183.979 5 114974355.84505     -2689.321 5        33.126
C06        49.000                                                                                                                                    39909657.411 6 207820073.73006     -1455.621 6        37.622    39909651.456 6 160699645.88406     -1125.664 6        40.813    39909650.937 6 168870811.41206     -1182.894 6        38.195
C16        50.000                                                                                                                                    40487622.114 6 210829684.91206     -1435.926 6        38.378    40487621.996 6 163026893.45906     -1110.531 6        40.005    40487619.911 5 171316386.10905     -1166.563 5        35.548
S48        51.000    77260117.418 6 406004581.92706      -385.549 6        38.730
C19        52.000                                                                                                                                    23141714.066 8 120505031.15408     -2238.179 8        49.897                                                                    23141709.552 8  97920210.75008     -1818.549 8        49.624
C12        53.000                                                                                                                                    25469724.426 6 132627539.92606     -2134.775 6        40.200    25469721.355 7 102556008.25207     -1650.696 7        44.734    25469720.249 7 107770717.06107     -1734.541 7        42.027
C60        54.000                                                                                                                                    40893267.271 6 212942138.70306      -457.574 6        40.255                                                                    40893252.793 6 173032892.41706      -371.726 6        39.171
R16        55.000    22375535.670 7 119526119.04107     -3564.745 7        44.540                                                                    22375535.940 7  92964780.40007     -2772.564 7        42.136
C37        56.000                                                                                                                                    27294992.928 5 142132181.03005     -3464.719 5        33.251                                                                    27294997.771 6 115494052.62306     -2815.335 6        36.420
C02        57.000                                                                                                                                    40853024.121 5 212732419.30705      -479.021 5        34.952    40853019.602 6 164498183.46906      -370.555 6        39.270    40853022.558 5 172862510.48505      -389.127 5        35.714
I03        58.000   128461910.574 6 428326839.16506       905.657 6        40.961
R07        59.000    19787394.926 8 105923503.93008     -1388.861 8        50.737                                                                    19787393.726 7  82384949.91207     -1080.168 7        47.745
G07        60.000    20917295.967 8 109921162.13308       193.043 8        50.220                                    20917291.120 8  85652848.59408       150.422 8        50.361    20917291.297 7  85652849.60307       150.424 7        45.753
> 2025 01 01 05 15  5.0000000  0 56
G16         1.000    23760738.309 6 124863538.53606     -1508.340 6        40.186                                    23760733.093 3  97296248.34403     -1175.323 3        22.743
G29         2.000    25841280.758 6 135796835.51606     -1044.638 6        37.675                                    25841277.517 4 105815701.07304      -813.997 4        26.659    25841277.781 5 105815703.02905      -813.897 5        33.868
G09         3.000    20865336.322 8 109648126.30808     -2164.540 8        48.490                                    20865334.008 8  85440109.15108     -1686.652 8        50.665    20865334.164 7  85440110.14907     -1686.669 7        45.181
E34         4.000    25125828.510 7 132037124.71807     -2535.216 7        46.373                                                                    25125828.510 8  98599158.42008     -1893.211 8        48.467    25125828.265 8 101171309.81608     -1942.617 8        49.348
S21         5.000    38526980.364 7 202460471.80607      -399.265 7        43.710
E05         6.000    21897722.224 8 115073354.88908      -458.478 8        48.534                                                                    21897721.855 8  85931431.97608      -342.347 8        51.260    21897721.659 8  88173113.45708      -351.284 8        51.843
E15         7.000    25553436.557 7 134284237.08507       244.369 7        44.164                                                                    25553436.777 7 100277214.28807       182.469 7        47.278    25553436.447 8 102893139.29808       187.264 8        48.085
R10         8.000    21555203.300 7 114901367.53807      3484.562 7        43.831
E31         9.000    26369167.495 7 138570919.42907         2.839 7        42.639                                                                    26369168.109 7 103478308.66607         2.190 7        45.049    26369167.162 7 106177740.71007         2.264 7        45.266
G04        10.000    22894940.659 7 120313755.72607     -3211.490 7        44.074                                    22894938.225 5  93750984.27805     -2502.462 5        30.008    22894938.235 6  93750979.28206     -2502.552 6        41.271
E09        11.000    25923772.060 7 136230381.33707     -2495.896 7        43.915                                                                    25923772.033 7 101730493.89907     -1863.820 7        46.418    25923771.752 7 104384332.43307     -1912.476 7        47.868
S27        12.000    39164838.421 6 205812599.58506      -414.184 6        37.327
G06        13.000    22830673.636 7 119976018.66207     -3338.781 7        44.066                                    22830672.804 7  93487809.00807     -2601.648 7        42.696    22830673.546 6  93487820.00406     -2601.626 6        41.981
S36        14.000    38294957.738 7 201241861.67507      -399.713 7        45.276
G20        15.000    21832720.940 7 114731734.03607      2038.261 7        46.856                                    21832715.971 5  89401333.56205      1588.254 5        34.471
E36        16.000    27971917.543 6 146993423.69906     -3715.644 6        38.039                                                                    27971919.770 6 109767826.12706     -2774.691 6        41.545    27971919.402 7 112631330.21807     -2846.990 7        42.277
S45        17.000    63480120.506 6 333591158.28206      -440.153 6        37.561
E13        18.000    28867655.621 5 151700568.05005      2292.427 5        35.200                                                                    28867656.447 6 113282881.42806      1711.756 6        38.637    28867656.585 6 116238087.85906      1756.455 6        40.799
E24        19.000    26921536.003 6 141473616.38806      2172.959 6        41.523                                                                    26921535.130 7 105645894.47307      1622.705 7        44.897    26921534.530 7 108401870.82307      1665.096 7        45.541
R23        20.000    21964346.105 7 117494436.41907     -3111.452 7        46.307
G30        21.000    22151131.401 7 116405004.86507      2359.196 7        47.753                                    22151129.672 7  90705206.41307      1838.333 7        46.457    22151129.856 7  90705210.41607      1838.327 7        42.464
I06        22.000    38047316.670 7 149306070.62507      -287.550 7        43.647
S28        23.000    40955690.354 5 215223569.60205      -399.981 5        34.995
S23        25.000    38233237.292 7 200917006.03107      -395.912 7        45.254
E06        26.000    27828682.574 6 146240733.80506     -2862.382 6        38.907                                                                    27828685.142 6 109205730.58506     -2137.414 6        41.890    27828684.301 6 112054575.59006     -2193.180 6        41.938
C34        27.000                                                                                                                                    25692952.310 7 133789948.03607     -1000.492 7        42.038                                                                    25692952.473 6 108715296.98206      -812.941 6        41.206
R09        29.000    20093314.312 8 107297186.39308       361.551 8        50.221                                                                    20093313.156 8  83453371.19408       281.207 8        48.507
C22        30.000                                                                                                                                    21775210.497 8 113389266.11008       542.711 8        51.977                                                                    21775203.936 8  92138054.50908       441.041 8        49.956
I01        31.000   340925586.219 7  34724404.96807     -2877.012 7        42.396
E03        32.000    25564723.983 7 134343550.29207      1594.152 7        44.176                                                                    25564723.824 7 100321501.54307      1190.454 7        46.844    25564723.666 7 102938578.03307      1221.520 7        47.963
G05        33.000    24632185.533 6 129443029.38406      3238.220 6        40.703                                    24632181.596 5 100864695.50505      2523.290 5        32.407    24632182.938 5 100864698.52205      2523.354 5        35.676
R24        34.000    22662122.302 7 121184569.91007       868.803 7        46.004                                                                    22662121.362 7  94254668.52807       675.742 7        43.820
C36        35.000                                                                                                                                    22812901.164 8 118792774.92108      1690.124 8        49.767                                                                    22812905.979 8  96528883.54008      1373.488 8        49.462
G11        36.000    22281966.315 7 117092555.35207     -1176.400 7        46.707                                    22281962.802 5  91240952.31105      -916.674 5        35.205    22281962.878 7  91240952.30007      -916.576 7        44.996
I09        38.000    38286567.985 7 150244700.97807      -753.739 7        42.724
R08        39.000    20441210.761 8 109461772.91308      1680.705 8        50.972                                                                    20441208.843 7  85136936.58707      1307.211 7        46.032
R22        40.000    23892254.646 7 127538489.32207     -4639.873 7        42.701                                                                    23892254.402 6  99196611.84006     -3608.770 6        39.697
S44        42.000    40893706.422 6 214898025.88006      -461.858 6        37.709
C09        43.000                                                                                                                                    39292847.688 6 204608187.87506     -1155.006 6        41.726    39292843.379 7 158216020.85107      -893.145 7        44.385    39292841.809 6 166260893.80206      -938.418 6        41.142
C05        44.000                                                                                                                                    39299163.694 6 204641090.21106      -451.698 6        38.141    39299160.951 7 158241493.84507      -349.335 7        44.311    39299161.616 6 166287750.09006      -366.969 6        39.805
R06        45.000    22818220.176 5 121762416.46305     -3562.650 5        35.876
C44        46.000                                                                                                                                    25874260.132 6 134734084.12706     -2946.458 6        41.824                                                                    25874258.901 6 109482481.37806     -2393.976 6        40.129
C39        47.000                                                                                                                                    41422222.620 5 215696381.70105     -1556.742 5        35.243                                                                    41422220.038 5 175270964.23505     -1264.658 5        34.933
C20        48.000                                                                                                                                    27175363.217 5 141509214.05705     -3309.836 5        33.515                                                                    27175361.845 5 114987802.69405     -2689.630 5        32.826
C06        49.000                                                                                                                                    39911054.565 6 207827351.65406     -1455.632 6        37.977    39911048.908 6 160705273.62606     -1125.576 6        40.892    39911048.573 6 168876725.31106     -1182.848 6        38.015
C16        50.000                                                                                                                                    40489001.206 6 210836864.66506     -1435.930 6        38.465    40489001.212 6 163032445.28306     -1110.484 6        40.155    40488998.641 5 171322220.24005     -1166.685 5        35.367
S48        51.000    77260489.681 6 406006509.52106      -385.573 6        38.447
C19        52.000                                                                                                                                    23143863.702 8 120516224.98108     -2239.500 8        50.093                                                                    23143859.250 8  97929306.64908     -1819.674 8        49.526
C12        53.000                                                                                                                                    25471776.176 6 132638218.85506     -2136.857 6        40.141    25471771.341 7 102564265.87807     -1652.365 7        44.235    25471771.057 7 107779394.56607     -1736.368 7        42.019
C60        54.000                                                                                                                                    40893706.572 6 212944426.55706      -457.625 6        40.257                                                                    40893692.162 6 173034751.46606      -371.781 6        39.138
R16        55.000    22378874.577 7 119543950.17307     -3567.797 7        44.983                                                                    22378874.081 7  92978649.06007     -2775.034 7        42.191
C37        56.000                                                                                                                                    27298320.210 5 142149506.66605     -3465.575 5        33.629                                                                    27298324.995 5 115508131.06905     -2815.740 5        35.676
C02        57.000                                                                                                                                    40853483.500 5 212734813.83105      -478.967 5        35.162    40853479.813 6 164500035.01706      -370.470 6        39.453    40853482.339 5 172864456.20905      -389.058 5        35.705
I03        58.000   128460756.741 6 428322310.52806       905.537 6        41.094
R07        59.000    19788693.677 8 105930452.96608     -1390.867 8        51.224                                                                    19788691.438 7  82390354.71407     -1081.801 7        47.065
G07        60.000    20917113.027 8 109920202.73708       190.586 8        49.941                                    20917108.552 8  85652101.01208       148.509 8        50.303    20917108.652 7  85652102.01707       148.549 7        45.618
> 2025 01 01 05 15 10.0000000  0 56
G16         1.000    23762174.678 6 124871089.60106     -1511.734 6        39.802                                    23762170.098 3  97302132.28003     -1177.980 3        22.362
G29         2.000    25842276.801 6 135802066.86406     -1047.604 6        38.757                                    25842273.092 4 105819777.36504      -816.311 4        27.042    25842273.873 5 105819779.35105      -816.181 5        33.719
G09         3.000    20867396.445 8 109658953.24008     -2165.938 8        48.703                                    20867394.303 8  85448545.71908     -1687.744 8        50.511    20867394.537 7  85448546.72107     -1687.749 7        45.085
E34         4.000    25128241.386 7 132049805.65507     -2536.927 7        46.157                                                                    25128241.594 8  98608627.94708     -1894.452 8        48.386    25128241.367 8 101181026.37608     -1943.887 8        49.279
S21         5.000    38527359.737 7 202462468.31907      -399.092 7        43.545
E05         6.000    21898159.068 8 115075650.18308      -459.469 8        48.394                                                                    21898158.662 8  85933145.99308      -343.041 8        51.209    21898158.437 8  88174872.18808      -352.018 8        51.734
E15         7.000    25553205.356 7 134283021.77907       242.014 7        43.805                                                                    25553205.454 7 100276306.76907       180.662 7        47.331    25553205.172 7 102892208.09407       185.447 7        47.971
R10         8.000    21551935.684 7 114883950.07407      3482.568 7        44.086
E31         9.000    26369165.483 7 138570911.04107         0.602 7        42.254                                                                    26369166.513 7 103478302.40407         0.576 7        45.094    26369165.521 7 106177734.28307         0.547 7        45.296
G04        10.000    22897996.753 7 120329815.32907     -3212.077 7        44.331                                    22897994.137 4  93763498.23604     -2502.916 4        29.991    22897994.630 6  93763493.23806     -2502.875 6        41.602
E09        11.000    25926147.086 7 136242862.28207     -2496.209 7        43.653                                                                    25926147.032 7 101739814.07607     -1864.039 7        46.485    25926146.669 7 104393895.74207     -1912.675 7        47.750
S27        12.000    39165233.940 6 205814670.60406      -413.973 6        37.013
G06        13.000    22833851.295 7 119992717.69707     -3340.551 7        44.555                                    22833850.491 7  93500821.23707     -2603.022 7        42.419    22833851.176 7  93500832.22807     -2602.911 7        42.273
S36        14.000    38295337.974 7 201243860.65107      -399.504 7        45.037
G20        15.000    21830782.358 7 114721547.84707      2036.406 7        46.398                                    21830777.607 5  89393396.26805      1586.807 5        34.310
E36        16.000    27975452.877 6 147012001.34806     -3715.085 6        37.633                                                                    27975455.185 6 109781699.03806     -2774.446 6        41.595    27975454.652 7 112645565.03007     -2846.735 7        42.032
S45        17.000    63480495.725 6 333593359.00806      -439.958 6        37.274
E13        18.000    28865475.501 5 151689109.45505      2291.187 5        35.224                                                                    28865475.854 6 113274324.66706      1711.197 6        37.932    28865476.012 6 116229307.88806      1755.793 6        39.841
E24        19.000    26919469.091 6 141462754.33006      2172.178 6        41.762                                                                    26919468.356 7 105637783.20307      1622.081 7        44.992    26919467.487 7 108393547.95207      1664.357 7        45.621
R23        20.000    21967255.980 7 117510002.24707     -3114.596 7        46.569
G30        21.000    22148888.047 7 116393213.81207      2357.570 7        47.363                                    22148885.928 7  90696018.57907      1837.065 7        46.345    22148886.405 7  90696022.58907      1837.007 7        42.988
I06        22.000    38047683.137 7 149307508.34607      -287.342 7        43.674
S28        23.000    40956071.099 5 215225569.10105      -399.603 5        35.200
S23        25.000    38233612.479 7 200918986.11007      -395.771 7        44.932
E06        26.000    27831406.080 6 146255046.14206     -2862.257 6        38.799                                                                    27831408.697 6 109216418.33106     -2137.469 6        41.859    27831407.841 6 112065542.15806     -2193.187 6        41.797
C34        27.000                                                                                                                                    25693914.392 6 133794956.86206     -1002.804 6        41.790                                                                    25693914.304 6 108719367.07706      -814.965 6        41.447
R09        29.000    20092977.816 8 107295390.05408       357.183 8        50.502                                                                    20092976.742 8  83451974.03508       277.873 8        48.386
C22        30.000                                                                                                                                    21774690.259 8 113386556.60908       541.323 8        52.037                                                                    21774683.623 8  92135852.83108       439.675 8        50.107
I01        31.000   340929251.898 7  34738790.45307     -2877.063 7        42.703
E03        32.000    25563207.763 7 134335581.39907      1593.648 7        44.059                                                                    25563207.472 7 100315550.75007      1190.071 7        46.807    25563207.232 7 102932472.00007      1221.104 7        47.859
G05        33.000    24629105.460 6 129426839.76406      3237.949 6        40.632                                    24629100.804 5 100852080.22705      2523.078 5        32.234    24629101.699 6 100852083.24306      2522.986 6        36.767
R24        34.000    22661312.415 7 121180236.72207       864.779 7        45.348                                                                    22661311.012 7  94251298.29107       672.517 7        43.321
C36        35.000                                                                                                                                    22811279.397 8 118784329.78408      1688.171 8        49.708                                                                    22811284.117 8  96522021.18908      1371.557 8        49.574
G11        36.000    22283087.539 7 117098445.57207     -1179.525 7        46.239                                    22283083.658 5  91245542.09105      -919.110 5        34.976    22283083.812 7  91245542.08507      -919.073 7        45.234
I09        38.000    38287528.271 7 150248469.74207      -753.593 7        42.804
R08        39.000    20439642.482 8 109453373.26608      1679.476 8        50.886                                                                    20439639.795 7  85130403.53107      1306.240 7        46.161
R22        40.000    23896601.046 7 127561689.60907     -4639.981 7        42.246                                                                    23896601.236 6  99214656.48406     -3608.827 6        40.367
S44        42.000    40894147.829 6 214900334.98606      -461.433 6        37.361
C09        43.000                                                                                                                                    39293956.958 6 204613963.52706     -1155.003 6        41.719    39293952.486 7 158220486.95307      -893.129 7        44.471    39293950.876 6 166265586.99806      -938.642 6        41.387
C05        44.000                                                                                                                                    39299597.580 6 204643348.69906      -451.446 6        38.078    39299594.676 7 158243240.24707      -349.144 7        44.399    39299595.570 6 166289585.30506      -367.055 6        39.760
R06        45.000    22821558.303 6 121780231.43606     -3563.260 6        36.817
C44        46.000                                                                                                                                    25877089.456 6 134748818.33006     -2947.093 6        41.487                                                                    25877088.319 6 109494454.13706     -2394.912 6        39.985
C39        47.000                                                                                                                                    41423717.275 5 215704165.32305     -1556.407 5        34.848                                                                    41423714.906 5 175277289.07305     -1265.037 5        34.957
C20        48.000                                                                                                                                    27178541.244 5 141525764.34605     -3309.718 5        32.689                                                                    27178540.285 5 115001251.15505     -2690.012 5        32.934
C06        49.000                                                                                                                                    39912452.381 6 207834630.06206     -1455.351 6        37.675    39912446.638 6 160710901.75506     -1125.448 6        41.061    39912446.240 6 168882639.61806     -1182.674 6        38.009
C16        50.000                                                                                                                                    40490379.737 6 210844044.65406     -1435.662 6        38.610    40490380.243 6 163037997.30006     -1110.336 6        40.257    40490377.637 5 171328054.57105     -1166.739 5        35.586
S48        51.000    77260861.675 6 406008437.86706      -385.308 6        38.456
C19        52.000                                                                                                                                    23146014.800 8 120527426.00908     -2240.722 8        50.280                                                                    23146010.182 8  97938408.41208     -1820.915 8        49.652
C12        53.000                                                                                                                                    25473828.760 6 132648908.65606     -2138.941 6        40.083    25473825.061 7 102572531.90407     -1653.850 7        44.512    25473823.859 7 107788080.90607     -1738.132 7        42.171
C60        54.000                                                                                                                                    40894146.070 6 212946714.68106      -457.427 6        40.379                                                                    40894131.610 6 173036610.73306      -371.748 6        39.571
R16        55.000    22382215.260 7 119561796.71707     -3570.583 7        45.264                                                                    22382215.425 7  92992529.69807     -2777.160 7        42.419
C37        56.000                                                                                                                                    27301648.338 5 142166837.11705     -3466.161 5        33.515                                                                    27301653.061 5 115522213.51205     -2816.881 5        35.605
C02        57.000                                                                                                                                    40853943.469 5 212737208.73405      -478.865 5        34.843    40853939.751 6 164501886.87706      -370.218 6        39.595    40853942.299 5 172866402.24805      -389.245 5        35.843
I03        58.000   128459602.937 6 428317782.18306       905.793 6        41.201
R07        59.000    19789993.197 8 105937413.12808     -1392.834 8        50.557                                                                    19789991.853 7  82395768.17607     -1083.343 7        47.474
G07        60.000    20916932.846 8 109919256.26608       188.261 8        50.076                                    20916928.440 8  85651363.50208       146.698 8        50.105    20916928.692 7  85651364.50307       146.693 7        45.505
> 2025 01 01 05 15 15.0000000  0 56
G16         1.000    23763614.774 6 124878657.63506     -1515.336 6        40.122                                    23763610.291 3  97308029.45403     -1180.779 3        22.248
G29         2.000    25843274.619 6 135807312.49006     -1050.521 6        37.958                                    25843271.476 4 105823864.84004      -818.582 4        27.509    25843272.282 5 105823866.82005      -818.710 5        33.581
G09         3.000    20869458.234 8 109669787.99108     -2167.708 8        48.538                                    20869456.088 8  85456988.37708     -1689.123 8        50.455    20869456.438 7  85456989.38107     -1689.142 7        45.372
E34         4.000    25130656.223 7 132062495.89007     -2538.997 7        46.084                                                                    25130656.462 8  98618104.41808     -1896.047 8        48.205    25130656.287 8 101190750.05908     -1945.497 8        49.073
S21         5.000    38527739.726 7 202464464.72107      -399.286 7        43.399
E05         6.000    21898596.881 8 115077950.87008      -460.700 8        48.410                                                                    21898596.451 8  85934864.03608      -344.016 8        51.056    21898596.265 8  88176635.05108      -352.984 8        51.515
E15         7.000    25552976.561 7 134281818.85707       239.395 7        43.962                                                                    25552976.520 7 100275408.47507       178.695 7        47.071    25552976.323 7 102891286.37807       183.345 7        47.733
R10         8.000    21548670.656 7 114866543.89007      3480.021 7        43.666
E31         9.000    26369165.872 7 138570914.60307        -1.919 7        42.210                                                                    26369167.166 7 103478305.07307        -1.508 7        44.938    26369166.112 7 106177737.01707        -1.502 7        45.102
G04        10.000    22901053.270 7 120345878.47807     -3212.980 7        44.147                                    22901050.714 4  93776014.97304     -2503.620 4        29.716    22901051.294 7  93776009.96207     -2503.668 7        42.154
E09        11.000    25928522.652 7 136255345.29807     -2496.873 7        44.089                                                                    25928522.428 7 101749135.79907     -1864.531 7        46.369    25928522.132 7 104403460.64607     -1913.168 7        47.558
S27        12.000    39165630.640 6 205816741.80706      -414.249 6        37.138
G06        13.000    22837030.724 7 120009425.63207     -3342.517 7        44.588                                    22837029.819 7  93513840.40407     -2604.560 7        42.279    22837030.662 6  93513851.40606     -2604.544 6        41.821
S36        14.000    38295718.420 7 201245859.53307      -399.849 7        45.046
G20        15.000    21828845.717 7 114711371.65307      2034.202 7        46.121                                    21828841.126 5  89385466.76905      1585.097 5        34.257
E36        16.000    27978988.245 6 147030578.58006     -3715.515 6        37.913                                                                    27978990.360 6 109795571.61706     -2774.506 6        41.456    27978989.815 6 112659799.51706     -2846.960 6        41.774
S45        17.000    63480873.054 6 333595559.72106      -440.065 6        37.229
E13        18.000    28863296.002 5 151677656.20405      2290.060 5        35.443                                                                    28863296.334 6 113265771.92406      1710.056 6        38.498    28863296.203 6 116220532.00706      1754.798 6        39.949
E24        19.000    26917403.125 7 141451897.63107      2170.780 7        42.131                                                                    26917402.482 7 105629675.92007      1621.022 7        45.117    26917401.559 7 108385229.17707      1663.310 7        45.520
R23        20.000    21970168.861 7 117525584.64507     -3118.208 7        46.061
G30        21.000    22146645.596 7 116381431.54707      2355.534 7        47.683                                    22146643.861 7  90686837.59707      1835.485 7        46.311    22146644.324 7  90686841.60307      1835.512 7        42.885
I06        22.000    38048049.350 7 149308946.14207      -287.598 7        43.790
S28        23.000    40956453.987 5 215227568.56405      -399.960 5        35.090
S23        25.000    38233990.299 7 200920966.12507      -396.007 7        45.061
E06        26.000    27834129.719 6 146269358.66206     -2862.553 6        38.820                                                                    27834132.129 6 109227106.20206     -2137.664 6        41.726    27834131.413 6 112076508.85206     -2193.397 6        41.573
C34        27.000                                                                                                                                    25694879.145 7 133799978.40907     -1005.615 7        42.309                                                                    25694878.753 6 108723447.51006      -817.152 6        41.333
R09        29.000    20092645.524 8 107293615.93208       352.591 8        49.974                                                                    20092644.759 8  83450594.16508       274.235 8        48.367
C22        30.000                                                                                                                                    21774171.266 8 113383854.66308       539.678 8        52.144                                                                    21774164.741 8  92133657.28908       438.463 8        50.004
I01        31.000   340932918.001 7  34753176.54907     -2877.283 7        42.921
E03        32.000    25561691.983 7 134327615.65307      1592.818 7        44.235                                                                    25561691.638 7 100309602.31507      1189.399 7        46.648    25561691.388 7 102926368.38007      1220.437 7        47.659
G05        33.000    24626025.102 6 129410652.31906      3237.302 6        39.264                                    24626020.585 5 100839466.63805      2522.570 5        32.341    24626021.451 6 100839469.64706      2522.560 6        36.215
R24        34.000    22660504.478 7 121175924.55807       860.373 7        44.859                                                                    22660504.579 7  94247944.39407       669.145 7        43.327
C36        35.000                                                                                                                                    22809659.793 8 118775895.51408      1685.758 8        50.087                                                                    22809664.411 8  96515167.66308      1369.741 8        49.437
G11        36.000    22284211.063 7 117104352.07107     -1182.938 7        46.360                                    22284207.654 5  91250144.55505      -921.771 5        35.000    22284207.923 7  91250144.56007      -921.795 7        45.001
I09        38.000    38288488.711 7 150252238.96207      -753.868 7        42.944
R08        39.000    20438074.998 8 109444980.67008      1677.793 8        50.784                                                                    20438073.107 7  85123875.95207      1304.960 7        46.359
R22        40.000    23900947.181 6 127584890.66106     -4640.294 6        41.967                                                                    23900947.388 6  99232701.73506     -3609.197 6        40.434
S44        42.000    40894584.917 6 214902643.89306      -461.728 6        37.414
C09        43.000                                                                                                                                    39295066.285 6 204619739.81706     -1155.357 6        41.800    39295061.874 7 158224953.54407      -893.557 7        44.482    39295060.077 6 166270280.71006      -938.866 6        41.278
C05        44.000                                                                                                                                    39300030.862 6 204645607.10906      -451.651 6        37.905    39300028.508 7 158244986.59107      -349.291 7        44.384    39300029.169 6 166291420.46806      -367.159 6        39.760
R06        45.000    22824897.107 6 121798051.13206     -3564.226 6        36.166
C44        46.000                                                                                                                                    25879919.631 6 134763557.01706     -2948.261 6        41.979                                                                    25879918.533 6 109506430.54806     -2395.769 6        40.000
C39        47.000                                                                                                                                    41425211.992 5 215711948.12405     -1556.415 5        35.219                                                                    41425209.409 5 175283613.25005     -1264.935 5        34.867
C20        48.000                                                                                                                                    27181721.230 5 141542316.05105     -3310.390 5        32.431                                                                    27181719.042 5 115014700.68105     -2689.809 5        32.527
C06        49.000                                                                                                                                    39913849.580 6 207841908.47606     -1455.718 6        37.913    39913844.464 6 160716529.87306     -1125.710 6        41.018    39913844.063 6 168888553.92806     -1182.970 6        38.048
C16        50.000                                                                                                                                    40491758.482 6 210851224.36806     -1435.920 6        38.856    40491758.598 6 163043549.09706     -1110.481 6        40.367    40491756.103 5 171333888.67805     -1166.848 5        35.443
S48        51.000    77261232.931 6 406010366.03706      -385.857 6        38.327
C19        52.000                                                                                                                                    23148167.068 8 120538633.71908     -2242.202 8        50.262                                                                    23148162.533 8  97947515.60308     -1822.048 8        49.599
C12        53.000                                                                                                                                    25475882.915 6 132659608.76506     -2141.113 6        39.901    25475879.858 7 102580805.90807     -1655.613 7        44.205    25475878.765 7 107796775.64007     -1739.822 7        42.017
C60        54.000                                                                                                                                    40894585.335 6 212949002.58606      -457.553 6        40.319                                                                    40894571.046 6 173038469.83006      -371.881 6        39.024
R16        55.000    22385559.664 7 119579658.05807     -3573.809 7        45.383                                                                    22385558.898 7  93006421.83407     -2779.560 7        42.463
C37        56.000                                                                                                                                    27304977.382 5 142184171.85305     -3467.281 5        33.784                                                                    27304982.057 5 115536299.38705     -2817.605 5        35.419
C02        57.000                                                                                                                                    40854403.890 5 212739603.52405      -479.116 5        35.033    40854399.465 6 164503738.63206      -370.358 6        39.513    40854402.344 5 172868348.17605      -389.036 5        35.729
I03        58.000   128458448.716 6 428313253.77606       905.552 6        41.318
R07        59.000    19791295.236 8 105944383.68408     -1395.190 8        50.887                                                                    19791294.488 7  82401189.71507     -1085.194 7        47.800
G07        60.000    20916755.317 8 109918322.32008       185.503 8        50.042                                    20916750.733 8  85650635.75108       144.550 8        50.117    20916751.077 7  85650636.75607       144.541 7        45.755
> 2025 01 01 05 15 20.0000000  0 56
G16         1.000    23765058.389 6 124886243.10406     -1518.788 6        40.107                                    23765053.820 3  97313940.19903     -1183.470 3        22.267
G29         2.000    25844274.771 6 135812572.68406     -1053.485 6        37.837                                    25844272.449 4 105827963.64404      -820.885 4        27.605    25844272.733 5 105827965.61405      -820.749 5        33.180
G09         3.000    20871521.795 8 109680631.00708     -2169.376 8        48.356                                    20871519.456 8  85465437.47708     -1690.425 8        50.364    20871520.163 7  85465438.47107     -1690.428 7        45.604
E34         4.000    25133072.801 7 132075195.83907     -2540.895 7        46.073                                                                    25133073.168 8  98627588.13908     -1897.414 8        48.228    25133072.990 8 101200481.18008     -1946.918 8        49.007
S21         5.000    38528119.984 7 202466461.52707      -399.273 7        43.604
E05         6.000    21899035.852 8 115080257.37708      -461.805 8        48.326                                                                    21899035.342 8  85936586.43208      -344.865 8        51.123    21899035.123 8  88178402.37808      -353.840 8        51.525
E15         7.000    25552750.064 7 134280628.74407       236.845 7        43.913                                                                    25552750.095 7 100274519.74907       176.806 7        47.089    25552749.834 7 102890374.46307       181.446 7        47.680
R10         8.000    21545406.775 7 114849149.35407      3477.826 7        44.256
E31         9.000    26369168.917 6 138570930.55306        -4.338 6        41.874                                                                    26369170.068 7 103478316.97707        -3.171 7        44.947    26369169.041 7 106177749.23607        -3.343 7        44.968
G04        10.000    22904110.654 7 120361945.60607     -3213.717 7        43.416                                    22904108.213 4  93788534.80304     -2504.190 4        29.365    22904108.711 7  93788529.80307     -2504.199 7        42.339
E09        11.000    25930898.535 7 136267830.82107     -2497.272 7        44.111                                                                    25930898.314 7 101758459.38707     -1864.809 7        46.305    25930898.054 7 104413027.45607     -1913.505 7        47.488
S27        12.000    39166023.616 6 205818813.47206      -414.308 6        37.161
G06        13.000    22840211.978 7 120026142.88707     -3344.211 7        44.324                                    22840210.918 7  93526866.83607     -2605.879 7        42.165    22840211.795 7  93526877.83707     -2605.871 7        42.138
S36        14.000    38296100.556 7 201247858.33507      -399.886 7        44.989
G20        15.000    21826911.362 7 114701205.89107      2032.183 7        46.240                                    21826906.707 5  89377545.39505      1583.517 5        34.181
E36        16.000    27982523.362 6 147049155.76606     -3715.472 6        37.989                                                                    27982525.498 6 109809444.17606     -2774.448 6        41.652    27982524.829 6 112674033.96206     -2846.829 6        41.576
S45        17.000    63481250.995 6 333597760.72306      -440.209 6        37.096
E13        18.000    28861117.607 5 151666208.72005      2289.046 5        35.410                                                                    28861118.325 6 113257223.45106      1709.473 6        39.222    28861117.906 6 116211760.54506      1753.828 6        40.551
E24        19.000    26915337.964 6 141441046.68806      2169.708 6        41.959                                                                    26915337.603 7 105621572.94507      1620.183 7        45.255    26915336.690 7 108376914.81807      1662.469 7        45.676
R23        20.000    21973084.799 7 117541183.95207     -3121.491 7        46.479
G30        21.000    22144405.282 7 116369658.45807      2353.805 7        47.438                                    22144403.524 7  90677663.76807      1834.136 7        46.208    22144403.898 7  90677667.78707      1834.011 7        42.445
I06        22.000    38048415.876 7 149310384.33907      -287.619 7        43.956
S28        23.000    40956828.060 5 215229568.16105      -400.038 5        35.186
S23        25.000    38234366.233 7 200922946.24807      -395.915 7        44.974
