     3.04           OBSERVATION DATA    M                   RINEX VERSION / TYPE
ssrcrin-15.6.1x                         20250101 180000 UTC PGM / RUN BY / DATE 
(00000000023479385599111004) Septentrio proprietary         COMMENT             
rref                                                        MARKER NAME         
01                                                          MARKER NUMBER       
geodetic                                                    MARKER TYPE         
NFB                 CLIMERS@TUW                             OBSERVER / AGENCY   
3297213             SEPT ASTERX SB3 PROB4.14.4              REC # / TYPE / VERS 
Unknown             Unknown                                 ANT # / TYPE        
  4127831.7689  1207192.9708  4695247.8047                  APPROX POSITION XYZ 
        0.0000        0.0000        0.0000                  ANTENNA: DELTA H/E/N
G   23 X1  C1C L1C D1C S1C C1W S1W C2W L2W D2W S2W C2L L2L  SYS / # / OBS TYPES 
       D2L S2L C5Q L5Q D5Q S5Q C1L L1L D1L S1L              SYS / # / OBS TYPES 
E   21 X1  C1C L1C D1C S1C C6C L6C D6C S6C C5Q L5Q D5Q S5Q  SYS / # / OBS TYPES 
       C7Q L7Q D7Q S7Q C8Q L8Q D8Q S8Q                      SYS / # / OBS TYPES 
S    9 X1  C1C L1C D1C S1C C5I L5I D5I S5I                  SYS / # / OBS TYPES 
R   17 X1  C1C L1C D1C S1C C2P L2P D2P S2P C2C L2C D2C S2C  SYS / # / OBS TYPES 
       C3Q L3Q D3Q S3Q                                      SYS / # / OBS TYPES 
C   25 X1  C1P L1P D1P S1P C5P L5P D5P S5P C2I L2I D2I S2I  SYS / # / OBS TYPES 
       C7I L7I D7I S7I C6I L6I D6I S6I C7D L7D D7D S7D      SYS / # / OBS TYPES 
J   17 X1  C1C L1C D1C S1C C2L L2L D2L S2L C5Q L5Q D5Q S5Q  SYS / # / OBS TYPES 
       C1L L1L D1L S1L                                      SYS / # / OBS TYPES 
I    5 X1  C5A L5A D5A S5A                                  SYS / # / OBS TYPES 
SEPTENTRIO RECEIVERS OUTPUT ALIGNED CARRIER PHASES.         COMMENT             
NO FURTHER PHASE SHIFT APPLIED IN THE RINEX ENCODER.        COMMENT             
G L1C                                                       SYS / PHASE SHIFT   
G L2W                                                       SYS / PHASE SHIFT   
G L2L  0.00000                                              SYS / PHASE SHIFT   
G L5Q  0.00000                                              SYS / PHASE SHIFT   
G L1L  0.00000                                              SYS / PHASE SHIFT   
E L1C  0.00000                                              SYS / PHASE SHIFT   
E L6C  0.00000                                              SYS / PHASE SHIFT   
E L5Q  0.00000                                              SYS / PHASE SHIFT   
E L7Q  0.00000                                              SYS / PHASE SHIFT   
E L8Q  0.00000                                              SYS / PHASE SHIFT   
S L1C                                                       SYS / PHASE SHIFT   
S L5I                                                       SYS / PHASE SHIFT   
R L1C                                                       SYS / PHASE SHIFT   
R L2P  0.00000                                              SYS / PHASE SHIFT   
R L2C                                                       SYS / PHASE SHIFT   
R L3Q  0.00000                                              SYS / PHASE SHIFT   
C L1P  0.00000                                              SYS / PHASE SHIFT   
C L5P  0.00000                                              SYS / PHASE SHIFT   
C L2I                                                       SYS / PHASE SHIFT   
C L7I                                                       SYS / PHASE SHIFT   
C L6I                                                       SYS / PHASE SHIFT   
C L7D                                                       SYS / PHASE SHIFT   
J L1C                                                       SYS / PHASE SHIFT   
J L2L  0.00000                                              SYS / PHASE SHIFT   
J L5Q  0.00000                                              SYS / PHASE SHIFT   
J L1L  0.00000                                              SYS / PHASE SHIFT   
I L5A                                                       SYS / PHASE SHIFT   
  2025     1     1    18     0    0.0000000     GPS         TIME OF FIRST OBS   
 C1C    0.000 C2C    0.000 C2P    0.000                     GLONASS COD/PHS/BIS 
DBHZ                                                        SIGNAL STRENGTH UNIT
    18                                                      LEAP SECONDS        
 24 R01  1 R02 -4 R03  5 R04  6 R05  1 R06 -4 R07  5 R08  6 GLONASS SLOT / FRQ #
    R09 -2 R10 -7 R11  0 R12 -1 R13 -2 R14 -7 R15  0 R16 -1 GLONASS SLOT / FRQ #
    R17  4 R18 -3 R19  3 R20  2 R21  4 R22 -3 R23  3 R24  2 GLONASS SLOT / FRQ #
                                                            END OF HEADER       
> 2025 01 01 18 00  0.0000000  0 53
G05         3.000    23688392.327 6 124483482.40806     -2677.616 6        41.507                                    23688388.805 5  97000173.91705     -2086.446 5        35.343    23688389.416 6  97000172.89906     -2086.410 6        39.027
G29         4.000    22648586.792 7 119019489.07107     -3156.049 7        45.151                                    22648582.609 7  92742624.04907     -2459.260 7        42.256    22648582.642 6  92742627.03806     -2459.215 6        41.342
S21         5.000    38582064.526 7 202749907.01007      -553.994 7        42.013
E13         6.000    23879961.821 8 125490391.55608       855.847 8        48.316                                                                    23879962.171 8  93710564.20508       639.121 8        50.209    23879961.769 8  96155157.23308       655.761 8        51.174
G23         7.000    23052188.208 7 121140172.13707      2654.151 7        43.374                                    23052185.772 5  94394971.89005      2068.165 5        30.204    23052185.637 7  94394970.90707      2068.115 7        43.115
E15         8.000    24219848.936 7 127276490.10107     -2011.147 7        46.536                                                                    24219849.176 8  95044304.31808     -1501.783 8        49.880    24219848.689 8  97523696.86508     -1540.987 8        50.722
E30        10.000                                                                                                                                    28805902.448 3                     -2664.030 3        20.929    28805900.983 3                     -2735.430 3        19.910
G26        11.000    20656174.746 8 108549316.80008      -869.664 8        50.364                                    20656173.158 8  84584069.27208      -677.661 8        50.730    20656173.450 7  84584089.28007      -677.674 7        45.735
S27        12.000    39357004.018 5 206822430.80405      -531.107 5        35.300
R15        13.000    22112242.072 7 118161410.53707     -4786.690 7        47.763                                                                    22112242.595 7  91903459.31207     -3722.927 7        43.917
S36        14.000    38353300.193 7 201548459.11607      -552.932 7        43.949
G27        15.000    23475754.945 7 123366197.17307      2618.344 7        42.292                                    23475752.595 6  96129660.66706      2040.261 6        36.397    23475752.529 6  96129574.67806      2040.256 6        38.252
S45        17.000    63564932.095 6 334036261.86306      -608.753 6        36.941
G31        18.000    23814021.217 7 125143809.89907     -3659.686 7        44.087                                    23814017.919 6  97514807.54406     -2851.700 6        37.437    23814018.810 6  97514786.54606     -2851.767 6        39.186
G16        19.000    21311149.380 7 111991111.90807      1448.420 7        47.632                                    21311144.635 5  87265922.43905      1128.641 5        35.986
E21        20.000    24018234.357 7 126217055.39307       367.189 7        47.937                                                                    24018233.486 8  94253215.00908       274.144 8        50.606    24018233.192 8  96711968.99208       281.362 8        51.424
E26        21.000    27770392.160 6 145934666.59706      2402.568 6        39.754                                                                    27770395.268 6 108977360.83906      1793.994 6        41.111    27770393.979 6 111820226.66106      1840.895 6        41.402
I06        22.000    38862482.866 6 152504941.01706      -398.289 6        41.638
S28        23.000    41057196.008 5 215756999.24605      -549.666 5        34.195
E34        24.000    28276145.580 6 148592450.61206     -3461.773 6        37.554                                                                    28276146.893 6 110962079.32606     -2585.165 6        40.574    28276146.304 6 113856722.38806     -2652.597 6        41.271
S23        25.000    38306722.708 7 201303141.79507      -555.490 7        44.518
C13        26.000                                                                                                                                    37802511.669 7 196847801.44007      -463.351 7        44.381    37802513.618 7 152215318.11607      -358.333 7        44.936    37802511.628 7 159955050.48707      -376.434 7        43.596
G18        27.000    20659873.350 8 108568717.52308      -837.048 8        50.091                                    20659869.066 7  84599173.66507      -652.245 7        42.851    20659869.302 8  84599164.66308      -652.204 8        49.768
I02        29.000    38952700.256 6 152858866.52006     -1002.389 6        40.703
G28        30.000    25194279.924 6 132396935.31206     -4039.060 6        38.847                                    25194283.253 3 103166517.83203     -3147.287 3        20.214    25194283.603 6 103166514.80306     -3147.422 6        38.315
R02        31.000    23416420.550 7 124954543.80407      2260.896 7        43.672                                                                    23416421.520 6  97186887.02506      1758.526 6        40.648
C12        32.000                                                                                                                                    26569686.331 5 138355589.77205     -3446.387 5        35.305    26569683.173 6 106985443.52406     -2664.945 6        41.375    26569682.236 6 112425340.42306     -2800.459 6        38.339
R17        33.000    20990553.826 8 112325056.90008     -3449.893 8        50.365                                                                    20990551.894 7  87364100.68507     -2683.307 7        45.571
E09        35.000    29183713.320 5 153361474.23705      -883.727 5        33.066                                                                    29183717.717 6 114523202.20306      -660.292 6        38.012    29183716.990 6 117510782.03506      -677.609 6        39.030
R18        36.000    19398565.358 8 103551264.45208      -512.859 8        51.677                                                                    19398564.759 7  80540078.50407      -398.940 7        47.700
E27        37.000    24510399.324 7 128803253.70307     -2451.011 7        47.724                                                                    24510398.976 8  96184400.31208     -1830.300 8        49.217    24510398.672 8  98693538.68708     -1878.080 8        50.013
R16        38.000    19598363.493 8 104691059.20008     -1467.374 8        52.660                                                                    19598362.670 8  81426435.29508     -1141.241 8        48.008
C22        39.000                                                                                                                                    26627274.952 6 138655201.99106     -1878.477 6        37.962                                                                    26627270.427 6 112668687.34506     -1526.481 6        40.148
R09        40.000    21702729.210 7 115891428.94007      2665.036 7        47.478                                                                    21702728.573 7  90137801.73807      2072.832 7        45.958
C34        41.000                                                                                                                                    23742447.435 7 123633490.30407     -2983.330 7        46.007                                                                    23742446.836 7 100462477.11907     -2424.054 7        45.567
S44        42.000    40658944.798 6 213664383.91506      -502.396 6        37.474
C38        43.000                                                                                                                                    38947582.169 7 202810442.61507     -1175.402 7        43.384                                                                    38947579.662 7 164800161.26207      -954.923 7        42.946
C05        44.000                                                                                                                                    39477016.959 6 205567206.98706      -483.619 6        38.315    39477013.250 7 158957624.19007      -374.058 7        42.654    39477014.998 6 167040294.42806      -392.923 6        39.928
C08        45.000                                                                                                                                    37872710.030 7 197213332.98607      -726.316 7        42.218    37872703.133 7 152497935.04907      -561.702 7        45.383    37872702.883 7 160252039.45407      -590.187 7        42.707
C21        46.000                                                                                                                                    25642842.558 7 133529018.80807       564.205 7        42.322                                                                    25642837.633 7 108503240.76407       458.594 7        42.751
R19        47.000    21327857.520 6 114090011.67106      2171.105 6        38.733                                                                    21327856.629 7  88736840.36507      1688.483 7        42.595
C43        48.000                                                                                                                                    21659289.831 8 112785931.87908      -851.197 8        51.276                                                                    21659288.400 8  91647934.81308      -691.505 8        49.741
C42        50.000                                                                                                                                    26148060.154 6 136159822.13606      2299.543 6        41.018                                                                    26148069.439 7 110641049.86307      1868.621 7        42.127
S48        51.000    77314731.657 6 406292228.48806      -593.963 6        37.803
R01        52.000    23143188.444 6 123713639.61906      -842.155 6        40.956                                                                    23143188.380 5  96221710.79005      -654.868 5        35.348
C37        53.000                                                                                                                                    23992866.329 7 124937176.96607       692.982 7        46.403                                                                    23992869.332 7 101521713.93907       563.270 7        47.408
C60        54.000                                                                                                                                    40658948.163 6 211721999.71306      -497.808 6        40.014                                                                    40658932.729 6 172041433.95506      -404.512 6        40.458
C25        55.000                                                                                                                                    25560677.826 7 133101323.08907     -4014.924 7        42.095                                                                    25560677.904 6 108155800.06606     -3262.254 6        41.805
C23        56.000                                                                                                                                    23193952.370 8 120777350.65708     -2347.679 8        49.017                                                                    23193944.424 8  98141601.25508     -1907.572 8        49.303
C02        57.000                                                                                                                                    40822897.704 5 212575574.37905      -463.384 5        34.157    40822892.730 6 164376907.82906      -358.457 6        38.697    40822895.609 5 172735066.62505      -376.476 5        35.167
I03        58.000   113070036.689 6 367925842.01906      1040.632 6        40.706
C11        59.000                                                                                                                                    22326604.717 7 116260804.53307     -2066.520 7        47.774    22326601.140 8  89900381.16308     -1597.990 8        51.452    22326599.927 8  94471537.75008     -1679.193 8        48.662
C28        60.000                                                                                                                                    24283462.288 7 126450658.85507      1971.998 7        45.291                                                                    24283461.620 7 102751651.13207      1602.483 7        44.321
> 2025 01 01 18 00  5.0000000  0 53
G05         3.000    23690941.668 6 124496877.47706     -2680.218 6        41.418                                    23690937.755 5  97010611.61905     -2088.479 5        35.629    23690938.342 6  97010610.64506     -2088.824 6        38.769
G29         4.000    22651590.112 7 119035271.90607     -3156.970 7        45.475                                    22651585.939 7  92754922.35907     -2459.975 7        42.400    22651585.995 6  92754925.35606     -2459.992 6        40.760
S21         5.000    38582593.756 7 202752677.39207      -554.050 7        42.053
E13         6.000    23879148.382 8 125486116.84208       854.183 8        48.305                                                                    23879148.709 8  93707372.04608       637.846 8        50.282    23879148.307 8  96151881.80308       654.498 8        51.068
G23         7.000    23049663.768 7 121126904.73607      2652.889 7        43.496                                    23049661.076 5  94384633.66705      2067.185 5        30.347    23049660.787 7  94384632.66107      2067.197 7        42.906
E15         8.000    24221763.099 7 127286549.46107     -2012.578 7        46.556                                                                    24221763.394 8  95051816.18108     -1502.860 8        49.915    24221762.911 8  97531404.69008     -1542.089 8        50.740
E30        10.000                                                                                                                                    28809298.753 3                     -2666.837 3        18.836    28809297.484 3                     -2735.454 3        18.746
G26        11.000    20657003.824 8 108553673.15808      -872.685 8        50.191                                    20657002.157 8  84587463.83308      -680.015 8        50.880    20657002.266 7  84587483.83907      -680.059 7        45.795
S27        12.000    39357506.650 5 206825086.63505      -530.818 5        35.200
R15        13.000    22116722.674 8 118185347.76908     -4788.186 8        48.436                                                                    22116721.887 7  91922077.15007     -3724.174 7        43.079
S36        14.000    38353826.673 7 201551223.78707      -552.813 7        43.856
G27        15.000    23473263.845 7 123353106.71707      2617.886 7        42.226                                    23473261.526 6  96119460.33506      2039.908 6        36.503    23473261.905 6  96119374.34706      2039.784 6        38.393
S45        17.000    63565462.510 6 334039304.69406      -608.252 6        36.650
G31        18.000    23817503.408 7 125162110.81207     -3660.630 7        44.057                                    23817500.553 6  97529067.98106     -2852.438 6        37.675    23817501.186 6  97529046.98006     -2852.533 6        39.577
G16        19.000    21309772.537 7 111983875.92907      1446.070 7        47.597                                    21309767.675 6  87260284.01606      1126.807 6        36.144
E21        20.000    24017885.563 7 126215223.82007       365.515 7        47.870                                                                    24017884.971 8  94251847.26408       272.990 8        50.687    24017884.638 8  96710565.56708       280.151 8        51.482
E26        21.000    27768106.032 6 145922655.27806      2402.211 6        38.994                                                                    27768109.308 6 108968391.43506      1793.739 6        41.285    27768108.067 6 111811023.25306      1840.583 6        41.187
I06        22.000    38862990.241 6 152506932.29906      -398.128 6        41.969
S28        23.000    41057718.464 5 215759746.52705      -549.455 5        34.357
E34        24.000    28279439.177 6 148609759.78206     -3461.694 6        37.660                                                                    28279440.852 6 110975004.98806     -2585.130 6        40.582    28279440.186 6 113869985.25106     -2652.565 6        41.251
S23        25.000    38307248.996 7 201305919.11307      -555.454 7        44.644
C13        26.000                                                                                                                                    37802957.412 7 196850120.48907      -464.166 7        44.528    37802958.748 7 152217111.32907      -358.946 7        44.873    37802956.887 7 159956934.89807      -377.117 7        43.632
G18        27.000    20660670.801 8 108572909.42808      -839.625 8        49.747                                    20660666.759 7  84602440.08307      -654.252 7        42.988    20660667.106 8  84602431.07908      -654.295 8        49.953
I02        29.000    38953977.273 6 152863878.04506     -1002.312 6        40.684
G28        30.000    25198122.776 6 132417129.83706     -4038.587 6        38.075                                    25198126.121 3 103182253.73303     -3146.937 3        20.119    25198126.563 6 103182250.68106     -3146.934 6        38.393
R02        31.000    23414303.200 7 124943245.28207      2258.520 7        43.539                                                                    23414303.545 6  97178099.29006      1756.762 6        40.646
C12        32.000                                                                                                                                    26572995.369 5 138372821.54605     -3446.089 5        35.343    26572992.616 6 106998768.23306     -2664.800 6        41.626    26572991.512 6 112439342.66506     -2800.083 6        38.541
R17        33.000    20993777.742 8 112342309.25308     -3450.977 8        50.650                                                                    20993776.131 7  87377519.17207     -2684.083 7        46.072
E09        35.000    29184555.807 5 153365899.94305      -886.549 5        33.587                                                                    29184560.358 6 114526506.99106      -661.668 6        38.165    29184559.222 6 117514173.04106      -678.925 6        39.501
R18        36.000    19399046.988 8 103553835.56508      -515.474 8        51.614                                                                    19399046.171 7  80542078.25507      -400.971 7        47.523
E27        37.000    24512732.065 7 128815512.76307     -2452.500 7        47.524                                                                    24512731.866 8  96193554.79408     -1831.425 8        49.310    24512731.439 8  98702931.98308     -1879.202 8        50.048
R16        38.000    19599738.713 8 104698406.91108     -1471.666 8        52.862                                                                    19599738.161 8  81432150.18708     -1144.695 8        48.185
C22        39.000                                                                                                                                    26629079.469 6 138664601.51406     -1880.862 6        37.633                                                                    26629075.414 6 112676325.28906     -1528.372 6        40.091
R09        40.000    21700235.827 8 115878110.35308      2662.604 8        48.440                                                                    21700234.180 7  90127442.83907      2070.766 7        45.914
C34        41.000                                                                                                                                    23745312.209 7 123648408.27807     -2983.861 7        45.567                                                                    23745311.715 7 100474599.19507     -2424.479 7        45.543
S44        42.000    40659421.634 6 213666895.78206      -502.280 6        37.395
C38        43.000                                                                                                                                    38948710.942 7 202816321.25907     -1175.977 7        43.433                                                                    38948708.650 7 164804938.16207      -955.429 7        42.952
C05        44.000                                                                                                                                    39477481.520 6 205569625.22106      -483.420 6        38.291    39477477.462 7 158959494.11907      -373.850 7        42.707    39477479.380 6 167042259.45906      -392.827 6        39.940
C08        45.000                                                                                                                                    37873407.898 7 197216967.16107      -727.289 7        42.138    37873401.259 7 152500745.21707      -562.380 7        45.419    37873400.850 7 160254992.52507      -590.892 7        42.736
C21        46.000                                                                                                                                    25642302.125 7 133526203.89907       561.848 7        42.658                                                                    25642297.151 7 108500953.42007       456.603 7        42.688
R19        47.000    21325828.761 6 114079161.37906      2169.061 6        39.595                                                                    21325828.240 7  88728401.24007      1687.154 7        42.827
C43        48.000                                                                                                                                    21660107.735 8 112790191.62208      -852.620 8        51.288                                                                    21660106.510 8  91651396.21708      -692.701 8        49.748
C42        50.000                                                                                                                                    26145852.214 6 136148326.24106      2299.061 6        40.749                                                                    26145861.771 7 110631708.50507      1868.264 7        42.220
S48        51.000    77315266.928 6 406295196.26206      -593.362 6        37.887
R01        52.000    23143979.588 6 123717860.56906      -846.037 6        40.582                                                                    23143979.749 5  96224993.76005      -658.246 5        35.638
C37        53.000                                                                                                                                    23992202.125 7 124933718.01307       690.615 7        46.482                                                                    23992205.020 7 101518903.26307       561.283 7        47.352
C60        54.000                                                                                                                                    40659425.911 6 211724488.75706      -497.712 6        39.844                                                                    40659410.660 6 172043456.51206      -404.372 6        40.420
C25        55.000                                                                                                                                    25564533.307 6 133121397.38806     -4014.866 6        41.790                                                                    25564533.006 6 108172112.06506     -3262.383 6        41.657
C23        56.000                                                                                                                                    23196207.745 8 120789094.81908     -2349.845 8        48.944                                                                    23196199.810 8  98151144.35608     -1909.368 8        49.272
C02        57.000                                                                                                                                    40823343.637 5 212577891.89505      -463.310 5        34.243    40823338.032 6 164378699.86706      -358.388 6        38.697    40823340.799 5 172736949.80805      -376.559 5        35.276
I03        58.000   113068710.568 6 367920638.83606      1040.695 6        41.032
C11        59.000                                                                                                                                    22328589.529 8 116271140.32608     -2067.726 8        48.026    22328586.036 8  89908373.45508     -1598.881 8        51.522    22328584.833 8  94479936.43208     -1680.071 8        48.652
C28        60.000                                                                                                                                    24281569.414 7 126440800.85507      1971.293 7        45.350                                                                    24281568.512 7 102743640.71007      1601.892 7        44.361
> 2025 01 01 18 00 10.0000000  0 53
G05         3.000    23693493.514 6 124510286.73106     -2683.038 6        41.738                                    23693489.505 5  97021060.40305     -2090.683 5        35.890    23693489.745 6  97021059.38506     -2090.343 6        38.850
G29         4.000    22654594.394 7 119051059.83707     -3157.850 7        45.986                                    22654590.162 7  92767224.63407     -2460.660 7        42.559    22654590.803 6  92767227.63906     -2460.642 6        40.756
S21         5.000    38583121.922 6 202755447.71906      -553.888 6        41.874
E13         6.000    23878336.617 8 125481851.13608       852.506 8        48.280                                                                    23878336.961 8  93704186.62008       636.607 8        50.336    23878336.594 8  96148613.27708       653.198 8        51.189
G23         7.000    23047140.271 7 121113644.21007      2651.704 7        44.123                                    23047137.543 5  94374300.79205      2066.262 5        30.415    23047137.377 7  94374299.79307      2066.321 7        42.798
E15         8.000    24223678.761 7 127296616.48607     -2013.936 7        46.581                                                                    24223679.087 8  95059333.76308     -1503.877 8        49.971    24223678.664 8  97539118.38108     -1543.142 8        50.770
E30        10.000                                                                                                                                    28812695.214 3                     -2667.719 3        21.810    28812695.229 3                     -2733.888 3        20.024
G26        11.000    20657835.641 8 108558045.00008      -875.634 8        50.100                                    20657834.093 8  84590870.46308      -682.312 8        51.040    20657834.075 7  84590890.46007      -682.250 7        45.898
S27        12.000    39358014.175 5 206827742.20305      -530.803 5        35.152
R15        13.000    22121202.753 7 118209293.02807     -4789.614 7        47.656                                                                    22121203.292 7  91940701.23207     -3725.243 7        43.456
S36        14.000    38354352.513 7 201553988.63907      -552.758 7        43.689
G27        15.000    23470773.167 7 123340019.62407      2617.428 7        42.093                                    23470771.136 6  96109262.61506      2039.551 6        36.760    23470772.155 6  96109176.60706      2039.721 6        38.435
S45        17.000    63565991.038 6 334042347.42806      -608.145 6        36.635
G31        18.000    23820987.582 7 125180417.50807     -3661.593 7        44.218                                    23820984.287 6  97543332.92806     -2853.190 6        37.898    23820984.996 6  97543311.92306     -2853.115 6        40.060
G16        19.000    21308397.920 7 111976652.55007      1443.691 7        47.482                                    21308393.107 6  87254655.40906      1124.955 6        36.340
E21        20.000    24017538.719 8 126213401.24708       363.924 8        48.060                                                                    24017538.159 8  94250486.26008       271.726 8        50.699    24017537.829 8  96709169.06008       278.813 8        51.527
E26        21.000    27765820.432 6 145910646.55906      2401.752 6        38.640                                                                    27765824.178 6 108959423.98906      1793.491 6        41.361    27765822.915 6 111801821.86506      1840.278 6        41.302
I06        22.000    38863497.340 6 152508923.24906      -398.003 6        41.909
S28        23.000    41058238.849 5 215762493.66005      -548.831 5        34.010
E34        24.000    28282733.139 6 148627069.34306     -3461.633 6        37.569                                                                    28282734.649 6 110987930.98006     -2584.910 6        40.715    28282734.083 6 113883248.44006     -2652.517 6        41.089
S23        25.000    38307778.860 7 201308696.26307      -555.151 7        44.388
C13        26.000                                                                                                                                    37803403.617 7 196852444.20007      -464.865 7        44.728    37803404.796 7 152218908.17407      -359.543 7        44.703    37803403.247 7 159958823.09707      -377.820 7        43.759
G18        27.000    20661471.070 8 108577114.98308      -842.169 8        49.909                                    20661467.049 7  84605717.13807      -656.234 7        43.151    20661467.445 8  84605708.13908      -656.281 8        50.086
I02        29.000    38955254.133 6 152868889.97806     -1002.263 6        40.672
G28        30.000    25201965.820 6 132437323.46506     -4038.217 6        37.645                                    25201968.734 3 103197988.92303     -3146.630 3        20.119    25201968.886 6 103197985.87606     -3146.707 6        38.165
R02        31.000    23412188.684 7 124931959.91307      2256.172 7        43.826                                                                    23412189.690 6  97169321.81306      1754.777 6        40.708
C12        32.000                                                                                                                                    26576304.114 5 138390052.89905     -3446.067 5        35.514    26576301.919 7 107012092.61107     -2664.662 7        42.197    26576300.677 6 112453344.55006     -2800.081 6        38.838
R17        33.000    20997002.443 8 112359567.90508     -3452.088 8        50.462                                                                    20997001.171 7  87390942.57607     -2684.972 7        46.124
E09        35.000    29185399.696 5 153370336.91905      -888.297 5        33.120                                                                    29185404.512 6 114529820.21306      -663.325 6        37.943    29185403.933 6 117517572.69406      -680.649 6        39.616
R18        36.000    19399530.907 8 103556420.55208      -518.103 8        51.708                                                                    19399530.738 7  80544088.80107      -402.920 7        47.711
E27        37.000    24515066.270 7 128827779.82407     -2453.943 7        47.524                                                                    24515066.207 8  96202715.26308     -1832.513 8        49.415    24515065.769 8  98712331.41808     -1880.298 8        50.170
R16        38.000    19601118.285 8 104705777.09008     -1475.991 8        52.661                                                                    19601117.753 7  81437882.55207     -1147.972 7        47.978
C22        39.000                                                                                                                                    26630886.850 6 138674013.44206     -1883.230 6        38.117                                                                    26630882.863 6 112683973.28106     -1530.297 6        40.377
R09        40.000    21697743.950 8 115864805.46108      2659.911 8        48.316                                                                    21697742.062 7  90117094.61907      2068.807 7        45.880
C34        41.000                                                                                                                                    23748177.426 7 123663329.47207     -2984.230 7        45.710                                                                    23748177.265 7 100486723.87207     -2424.896 7        45.716
S44        42.000    40659902.494 6 213669407.64506      -502.196 6        37.142
C38        43.000                                                                                                                                    38949840.569 7 202822203.67307     -1176.528 7        43.638                                                                    38949838.157 7 164809718.11407      -955.908 7        42.914
C05        44.000                                                                                                                                    39477945.357 6 205572043.29606      -483.295 6        38.375    39477942.006 7 158961363.91307      -373.671 7        42.565    39477943.709 6 167044224.32606      -392.695 6        40.045
C08        45.000                                                                                                                                    37874106.811 7 197220606.18707      -727.913 7        42.205    37874100.192 7 152503559.14207      -563.021 7        45.425    37874099.728 7 160257949.51307      -591.492 7        42.792
C21        46.000                                                                                                                                    25641764.204 7 133523401.51807       559.538 7        42.766                                                                    25641759.197 7 108498676.24807       454.663 7        42.781
R19        47.000    21323802.752 6 114068321.30306      2167.312 6        39.943                                                                    21323802.143 7  88719970.09507      1685.626 7        42.971
C43        48.000                                                                                                                                    21660927.547 8 112794459.39508      -854.064 8        51.541                                                                    21660926.073 8  91654864.12908      -693.940 8        49.807
C42        50.000                                                                                                                                    26143645.881 6 136136833.79706      2298.486 6        40.546                                                                    26143654.742 7 110622369.96207      1867.642 7        42.178
S48        51.000    77315806.126 6 406298163.98906      -593.023 6        37.607
R01        52.000    23144770.607 6 123722102.84706      -850.298 6        39.907                                                                    23144772.781 5  96228293.25405      -661.125 5        34.448
C37        53.000                                                                                                                                    23991540.540 7 124930271.85407       688.222 7        46.628                                                                    23991543.253 7 101516102.96707       559.289 7        47.384
C60        54.000                                                                                                                                    40659904.160 6 211726977.76406      -497.584 6        40.129                                                                    40659888.636 6 172045479.02106      -404.291 6        40.350
C25        55.000                                                                                                                                    25568388.755 6 133141472.77306     -4014.865 6        41.480                                                                    25568388.343 6 108188424.93706     -3262.416 6        41.466
C23        56.000                                                                                                                                    23198465.263 8 120800850.65008     -2352.051 8        49.422                                                                    23198457.339 8  98160696.92008     -1911.183 8        49.306
C02        57.000                                                                                                                                    40823788.344 5 212580209.27705      -463.164 5        33.982    40823782.904 6 164380491.82306      -358.132 6        38.733    40823785.842 5 172738832.86905      -376.372 5        35.281
I03        58.000   113067384.837 6 367915435.55406      1040.908 6        41.178
C11        59.000                                                                                                                                    22330575.827 8 116281482.20708     -2068.708 8        48.272    22330572.148 8  89916370.45408     -1599.654 8        51.359    22330570.898 8  94488340.04408     -1680.964 8        48.754
C28        60.000                                                                                                                                    24279677.089 7 126430947.18207      1970.514 7        45.729                                                                    24279676.183 7 102735633.79807      1601.223 7        44.354
> 2025 01 01 18 00 15.0000000  0 53
G05         3.000    23696047.729 6 124523709.92006     -2685.924 6        41.709                                    23696043.906 5  97031520.01405     -2092.920 5        35.900    23696044.230 6  97031518.98506     -2092.850 6        38.583
G29         4.000    22657599.459 7 119066852.75407     -3158.997 7        46.047                                    22657595.379 7  92779530.80207     -2461.556 7        42.737    22657596.055 6  92779533.80706     -2461.639 6        41.514
S21         5.000    38583649.305 7 202758217.98307      -554.056 7        42.154
E13         6.000    23877526.446 8 125477594.33208       850.509 8        48.258                                                                    23877526.938 8  93701007.83808       635.052 8        50.200    23877526.538 8  96145351.57108       651.635 8        51.141
G23         7.000    23044617.819 7 121100390.46007      2650.126 7        43.645                                    23044615.301 5  94363973.20405      2065.046 5        30.460    23044615.159 7  94363972.21207      2065.046 7        42.567
E15         8.000    24225595.614 7 127306691.01607     -2015.589 7        46.654                                                                    24225596.215 8  95066856.95908     -1505.214 8        49.885    24225595.723 8  97546837.83208     -1544.480 8        50.840
E30        10.000                                                                                                                                                                                                    28816094.020 3                     -2732.947 3        20.214
G26        11.000    20658670.423 8 108562432.21808      -878.953 8        50.099                                    20658668.954 8  84594289.07408      -684.899 8        51.114    20658669.247 7  84594309.08107      -684.925 7        46.033
S27        12.000    39358521.856 5 206830397.59905      -531.250 5        35.214
R15        13.000    22125684.722 7 118233246.38707     -4791.419 7        47.598                                                                    22125685.455 7  91959331.61207     -3726.663 7        43.553
S36        14.000    38354879.319 7 201556753.90307      -552.893 7        43.829
G27        15.000    23468283.474 7 123326935.79607      2616.376 7        42.362                                    23468281.314 6  96099067.43306      2038.737 6        36.839    23468281.747 6  96098981.42206      2038.664 6        38.261
S45        17.000    63566518.435 6 334045389.70006      -608.462 6        36.832
G31        18.000    23824472.216 7 125198729.88807     -3663.059 7        42.838                                    23824469.094 6  97557602.30506     -2854.327 6        37.856    23824469.705 6  97557581.29606     -2854.379 6        39.970
G16        19.000    21307025.600 7 111969441.66507      1441.004 7        47.653                                    21307020.958 6  87249036.53806      1122.861 6        36.378
E21        20.000    24017193.449 8 126211587.58008       361.831 8        48.086                                                                    24017193.005 8  94249131.89308       270.181 8        50.616    24017192.675 8  96707779.36108       277.199 8        51.509
E26        21.000    27763536.152 6 145898640.35206      2401.131 6        38.982                                                                    27763539.413 6 108950458.41006      1792.939 6        41.273    27763538.233 6 111792622.39206      1839.663 6        41.518
I06        22.000    38864004.749 6 152510913.79206      -397.956 6        41.704
S28        23.000    41058767.989 5 215765240.43205      -549.122 5        34.114
E34        24.000    28286027.083 6 148644379.16506     -3462.062 6        37.463                                                                    28286028.559 6 111000857.17106     -2585.283 6        40.644    28286028.026 6 113896511.83406     -2652.672 6        41.077
S23        25.000    38308307.795 7 201311473.10207      -555.306 7        44.548
C13        26.000                                                                                                                                    37803850.867 7 196854772.41307      -466.022 7        44.945    37803851.724 7 152220708.48707      -360.338 7        44.682    37803850.288 7 159960714.97407      -378.711 7        43.733
G18        27.000    20662273.964 8 108581334.07508      -845.167 8        49.773                                    20662269.911 7  84609004.74007      -658.571 7        43.245    20662270.225 8  84608995.73708      -658.610 8        50.018
I02        29.000    38956531.677 6 152873902.32106     -1002.629 6        40.408
G28        30.000    25205808.679 6 132457516.09306     -4038.476 6        37.819                                    25205811.364 3 103213723.32903     -3146.864 3        20.190    25205811.655 6 103213720.27406     -3146.682 6        37.520
R02        31.000    23410075.816 7 124920687.37707      2253.218 7        43.816                                                                    23410075.948 6  97160554.28406      1752.523 6        40.286
C12        32.000                                                                                                                                    26579613.187 5 138407283.78705     -3446.323 5        35.643    26579611.608 7 107025416.64607     -2664.770 7        42.614    26579609.769 6 112467346.07306     -2800.109 6        39.309
R17        33.000    21000229.134 8 112376832.64308     -3453.557 8        50.711                                                                    21000227.763 7  87404370.72307     -2686.088 7        46.041
E09        35.000    29186246.093 5 153374785.45105      -890.977 5        32.701                                                                    29186251.059 6 114533142.05506      -665.104 6        37.490    29186250.265 6 117520981.21306      -682.356 6        39.652
R18        36.000    19400018.149 8 103559019.34908      -521.152 8        51.731                                                                    19400017.734 7  80546110.09107      -405.358 7        47.498
E27        37.000    24517402.225 7 128840054.79207     -2455.766 7        47.388                                                                    24517402.047 8  96211881.62908     -1833.884 8        49.326    24517401.568 8  98721736.90608     -1881.681 8        50.107
R16        38.000    19602502.188 8 104713169.56208     -1480.732 8        52.550                                                                    19602501.632 7  81443632.24707     -1151.644 7        47.738
C22        39.000                                                                                                                                    26632697.056 6 138683437.71706     -1886.123 6        38.153                                                                    26632692.723 6 112691631.34006     -1532.581 6        40.400
R09        40.000    21695254.291 7 115851514.23307      2656.895 7        47.977                                                                    21695253.007 7  90106757.00807      2066.433 7        45.657
C34        41.000                                                                                                                                    23751043.487 7 123678253.78307     -2985.219 7        46.133                                                                    23751043.369 7 100498851.11707     -2425.655 7        45.840
S44        42.000    40660379.925 6 213671919.34206      -502.293 6        37.448
C38        43.000                                                                                                                                    38950970.797 7 202828089.72107     -1177.547 7        43.829                                                                    38950968.564 7 164814501.03807      -956.823 7        42.993
C05        44.000                                                                                                                                    39478409.807 6 205574461.09006      -483.568 6        38.598    39478406.308 7 158963233.51407      -373.895 7        42.717    39478407.962 6 167046189.00006      -392.763 6        40.062
C08        45.000                                                                                                                                    37874806.658 7 197224250.01307      -729.271 7        42.299    37874799.938 7 152506376.76407      -563.940 7        45.532    37874799.440 7 160260910.43207      -592.495 7        42.823
C21        46.000                                                                                                                                    25641228.182 7 133520611.58507       556.743 7        42.713                                                                    25641223.488 7 108496409.21607       452.418 7        43.101
R19        47.000    21321777.703 6 114057491.44606      2165.103 6        38.928                                                                    21321777.016 7  88711546.88607      1683.879 7        42.734
C43        48.000                                                                                                                                    21661748.701 8 112798735.06308      -855.906 8        51.722                                                                    21661747.092 8  91658338.48108      -695.484 8        49.882
C42        50.000                                                                                                                                    26141439.358 6 136125344.70906      2297.401 6        40.329                                                                    26141448.411 7 110613034.15507      1866.978 7        42.222
S48        51.000    77316339.849 6 406301131.20206      -593.659 6        37.947
R01        52.000    23145568.395 6 123726366.47606      -854.893 6        40.744                                                                    23145569.642 5  96231609.31905      -664.786 5        33.904
C37        53.000                                                                                                                                    23990880.811 7 124926838.37607       685.502 7        46.691                                                                    23990883.911 7 101513313.01307       557.007 7        47.439
C60        54.000                                                                                                                                    40660382.208 6 211729466.63206      -497.823 6        40.212                                                                    40660366.599 6 172047501.45706      -404.410 6        40.551
C25        55.000                                                                                                                                    25572243.749 6 133161549.13806     -4015.360 6        41.142                                                                    25572243.830 6 108204738.62706     -3262.818 6        41.733
C23        56.000                                                                                                                                    23200725.280 8 120812618.06008     -2354.631 8        49.629                                                                    23200717.177 8  98170258.92308     -1913.308 8        49.411
C02        57.000                                                                                                                                    40824232.783 5 212582526.44705      -463.208 5        34.343    40824227.934 6 164382283.62306      -358.396 6        38.910    40824230.835 5 172740715.80505      -376.468 5        35.348
I03        58.000   113066058.944 6 367910232.11306      1040.667 6        40.837
C11        59.000                                                                                                                                    22332562.942 8 116291830.06208     -2070.181 8        48.247    22332559.039 8  89924372.08208     -1600.835 8        51.181    22332558.054 8  94496748.55208     -1682.152 8        48.848
C28        60.000                                                                                                                                    24277785.998 7 126421097.70507      1969.470 7        45.902                                                                    24277784.560 7 102727630.31407      1600.374 7        44.322
> 2025 01 01 18 00 20.0000000  0 52
G05         3.000    23698604.631 6 124537147.16306     -2688.897 6        41.864                                    23698600.981 5  97041990.52305     -2095.238 5        35.781    23698601.338 6  97041989.51806     -2095.275 6        38.655
G29         4.000    22660605.554 7 119082650.81807     -3160.106 7        45.887                                    22660601.669 7  92791840.98307     -2462.419 7        42.855    22660602.497 6  92791843.99706     -2462.526 6        41.690
S21         5.000    38584174.032 7 202760987.82907      -553.977 7        42.246
E13         6.000    23876718.306 8 125473346.47608       848.635 8        48.224                                                                    23876718.526 8  93697835.73208       633.741 8        50.340    23876718.198 8  96142096.71708       650.248 8        51.094
G23         7.000    23042096.955 7 121087143.55607      2648.607 7        43.391                                    23042094.308 5  94353650.94905      2063.848 5        30.370    23042094.432 7  94353649.94907      2063.799 7        42.504
E15         8.000    24227514.449 7 127316773.13207     -2017.224 7        46.447                                                                    24227514.800 8  95074385.81808     -1506.363 8        49.902    24227514.315 8  97554563.09008     -1545.612 8        50.704
G26        11.000    20659508.231 8 108566834.83808      -882.195 8        50.059                                    20659506.757 8  84597719.68508      -687.424 8        51.152    20659507.044 7  84597739.68207      -687.408 7        45.863
S27        12.000    39359022.830 5 206833052.28605      -531.067 5        35.276
R15        13.000    22130169.584 8 118257207.61108     -4793.130 8        48.481                                                                    22130169.472 7  91977968.11007     -3728.017 7        43.445
S36        14.000    38355406.036 7 201559518.16607      -552.770 7        44.107
G27        15.000    23465794.679 7 123313855.23007      2615.733 7        42.599                                    23465792.136 6  96088874.78906      2038.237 6        36.862    23465792.790 6  96088788.79206      2038.263 6        38.541
S45        17.000    63567044.432 6 334048431.79006      -608.647 6        37.028
G31        18.000    23827957.388 7 125217047.93807     -3664.262 7        42.690                                    23827955.014 6  97571876.09906     -2855.268 6        37.856    23827955.347 6  97571855.08706     -2855.198 6        39.535
G16        19.000    21305655.781 7 111962243.33007      1438.349 7        47.311                                    21305651.153 6  87243427.44506      1120.793 6        36.427
E21        20.000    24016850.077 7 126209782.85507       360.077 7        47.986                                                                    24016849.583 8  94247784.21608       268.864 8        50.650    24016849.275 8  96706396.52808       275.879 8        51.425
E26        21.000    27761252.236 6 145886636.69606      2400.441 6        39.234                                                                    27761255.117 6 108941494.74206      1792.395 6        41.282    27761254.150 6 111783424.87406      1839.228 6        41.857
I06        22.000    38864511.746 6 152512903.97406      -397.952 6        41.702
S28        23.000    41059286.836 5 215767987.19005      -549.451 5        34.219
E34        24.000    28289321.138 6 148661689.25206     -3462.092 6        36.771                                                                    28289322.551 6 111013783.60206     -2585.375 6        40.439    28289321.957 6 113909775.46006     -2652.853 6        40.498
S23        25.000    38308835.983 7 201314249.72207      -555.336 7        44.772
C13        26.000                                                                                                                                    37804298.956 7 196857105.15507      -467.020 7        45.103    37804299.631 7 152222512.31107      -361.214 7        44.524    37804298.207 7 159962610.51207      -379.568 7        43.708
G18        27.000    20663079.477 8 108585566.71308      -847.958 8        49.452                                    20663075.358 7  84612302.89707      -660.747 7        43.304    20663075.550 8  84612293.89408      -660.742 8        49.916
