     3.04           OBSERVATION DATA    M                   RINEX VERSION / TYPE
ssrcrin-15.6.1x                         20250101 223000 UTC PGM / RUN BY / DATE 
(00000000023479385599111004) Septentrio proprietary         COMMENT             
rref                                                        MARKER NAME         
01                                                          MARKER NUMBER       
geodetic                                                    MARKER TYPE         
NFB                 CLIMERS@TUW                             OBSERVER / AGENCY   
3297213             SEPT ASTERX SB3 PROB4.14.4              REC # / TYPE / VERS 
Unknown             Unknown                                 ANT # / TYPE        
  4127832.0684  1207193.5550  4695247.3880                  APPROX POSITION XYZ 
        0.0000        0.0000        0.0000                  ANTENNA: DELTA H/E/N
G   23 X1  C1C L1C D1C S1C C1W S1W C2W L2W D2W S2W C2L L2L  SYS / # / OBS TYPES 
       D2L S2L C5Q L5Q D5Q S5Q C1L L1L D1L S1L              SYS / # / OBS TYPES 
E   21 X1  C1C L1C D1C S1C C6C L6C D6C S6C C5Q L5Q D5Q S5Q  SYS / # / OBS TYPES 
       C7Q L7Q D7Q S7Q C8Q L8Q D8Q S8Q                      SYS / # / OBS TYPES 
S    9 X1  C1C L1C D1C S1C C5I L5I D5I S5I                  SYS / # / OBS TYPES 
R   17 X1  C1C L1C D1C S1C C2P L2P D2P S2P C2C L2C D2C S2C  SYS / # / OBS TYPES 
       C3Q L3Q D3Q S3Q                                      SYS / # / OBS TYPES 
C   25 X1  C1P L1P D1P S1P C5P L5P D5P S5P C2I L2I D2I S2I  SYS / # / OBS TYPES 
       C7I L7I D7I S7I C6I L6I D6I S6I C7D L7D D7D S7D      SYS / # / OBS TYPES 
J   17 X1  C1C L1C D1C S1C C2L L2L D2L S2L C5Q L5Q D5Q S5Q  SYS / # / OBS TYPES 
       C1L L1L D1L S1L                                      SYS / # / OBS TYPES 
I    5 X1  C5A L5A D5A S5A                                  SYS / # / OBS TYPES 
SEPTENTRIO RECEIVERS OUTPUT ALIGNED CARRIER PHASES.         COMMENT             
NO FURTHER PHASE SHIFT APPLIED IN THE RINEX ENCODER.        COMMENT             
G L1C                                                       SYS / PHASE SHIFT   
G L2W                                                       SYS / PHASE SHIFT   
G L2L  0.00000                                              SYS / PHASE SHIFT   
G L5Q  0.00000                                              SYS / PHASE SHIFT   
G L1L  0.00000                                              SYS / PHASE SHIFT   
E L1C  0.00000                                              SYS / PHASE SHIFT   
E L6C  0.00000                                              SYS / PHASE SHIFT   
E L5Q  0.00000                                              SYS / PHASE SHIFT   
E L7Q  0.00000                                              SYS / PHASE SHIFT   
E L8Q  0.00000                                              SYS / PHASE SHIFT   
S L1C                                                       SYS / PHASE SHIFT   
S L5I                                                       SYS / PHASE SHIFT   
R L1C                                                       SYS / PHASE SHIFT   
R L2P  0.00000                                              SYS / PHASE SHIFT   
R L2C                                                       SYS / PHASE SHIFT   
R L3Q  0.00000                                              SYS / PHASE SHIFT   
C L1P  0.00000                                              SYS / PHASE SHIFT   
C L5P  0.00000                                              SYS / PHASE SHIFT   
C L2I                                                       SYS / PHASE SHIFT   
C L7I                                                       SYS / PHASE SHIFT   
C L6I                                                       SYS / PHASE SHIFT   
C L7D                                                       SYS / PHASE SHIFT   
J L1C                                                       SYS / PHASE SHIFT   
J L2L  0.00000                                              SYS / PHASE SHIFT   
J L5Q  0.00000                                              SYS / PHASE SHIFT   
J L1L  0.00000                                              SYS / PHASE SHIFT   
I L5A                                                       SYS / PHASE SHIFT   
  2025     1     1    22    30    0.0000000     GPS         TIME OF FIRST OBS   
 C1C    0.000 C2C    0.000 C2P    0.000                     GLONASS COD/PHS/BIS 
DBHZ                                                        SIGNAL STRENGTH UNIT
    18                                                      LEAP SECONDS        
 24 R01  1 R02 -4 R03  5 R04  6 R05  1 R06 -4 R07  5 R08  6 GLONASS SLOT / FRQ #
    R09 -2 R10 -7 R11  0 R12 -1 R13 -2 R14 -7 R15  0 R16 -1 GLONASS SLOT / FRQ #
    R17  4 R18 -3 R19  3 R20  2 R21  4 R22 -3 R23  3 R24  2 GLONASS SLOT / FRQ #
                                                            END OF HEADER       
> 2025 01 01 22 30  0.0000000  0 52
G10         1.000    22166102.266 7 116483756.26407     -3000.300 7        46.129                                    22166100.132 7  90766625.66207     -2337.897 7        45.314    22166099.701 7  90766602.66907     -2337.833 7        42.597
G14         2.000    23921875.697 6 125710344.52106       315.859 6        40.141                                    23921872.581 4  97956112.41904       246.100 4        24.331    23921872.595 6  97956108.43106       246.084 6        39.967
C33         3.000                                                                                                                                    23306629.894 8 121363770.68608     -2427.498 8        48.423                                                                    23306641.390 8  98618064.89508     -1972.645 8        48.456
E31         4.000    26046420.143 7 136874907.75707     -1374.702 7        42.756                                                                    26046419.905 7 102211794.68707     -1026.464 7        44.473    26046419.673 7 104878185.78907     -1053.279 7        45.430
S21         5.000    38403072.374 7 201809237.36507      -501.140 7        42.542
E13         6.000    26284180.569 6 138124641.55106     -2682.671 6        41.569                                                                    26284181.463 7 103145229.76207     -2003.225 7        44.257    26284180.778 7 105835944.68707     -2055.454 7        44.945
G23         7.000    25479438.579 5 133895463.15105     -3977.227 5        30.792                                    25479436.678 1 104334160.63101     -3099.106 1         4.143    25479436.821 4 104334159.56604     -3099.387 4        28.682
G03         8.000    23939168.868 6 125801257.88806      3085.249 6        38.955                                    23939168.123 5  98026990.43905      2404.082 5        33.395    23939168.938 6  98026988.45906      2404.186 6        38.012
G02         9.000    21775596.301 7 114431583.77107      1385.454 7        46.839                                    21775589.896 6  89167462.62906      1079.574 6        36.960
R12        10.000    23282018.796 7 124368385.29607       -18.402 7        44.685                                                                    23282019.241 7  96730997.05907       -14.369 7        42.262
C30        11.000                                                                                                                                    24097611.037 7 125482594.78007      2220.649 7        45.713                                                                    24097611.054 7 101964889.43107      1804.358 7        45.065
S27        12.000    39085883.438 5 205397735.63905      -471.194 5        35.490
R20        13.000    19363074.327 6 103543110.75206      -668.341 6        38.958                                                                    19363075.933 7  80533597.88907      -519.906 7        47.173
S36        14.000    38171422.575 7 200592716.28807      -500.408 7        43.702
G27        15.000    22638345.548 7 118965582.30907     -3951.835 7        44.948                                    22638342.955 7  92700610.39807     -3079.354 7        43.681    22638344.274 7  92700524.39707     -3079.368 7        42.148
S45        17.000    63377806.737 6 333052765.12706      -542.958 6        37.592
E08        18.000    26197520.965 6 137668948.07906     -1717.629 6        41.979                                                                    26197519.149 7 102804737.48607     -1282.637 7        44.426    26197518.735 7 105486595.72207     -1316.144 7        45.377
E26        21.000    23385653.224 8 122892785.54408      -864.042 8        48.243                                                                    23385650.643 8  91770783.96208      -645.235 8        50.313    23385650.509 8  94164779.93808      -662.070 8        51.402
I06        22.000    38395945.702 6 150674169.81006      -268.625 6        41.981
S28        23.000    40856531.829 5 214702523.84005      -492.812 5        34.257
G08        24.000    20718000.675 8 108873842.81308     -2243.145 8        49.589                                    20717998.311 8  84836761.42508     -1747.906 8        49.611    20717998.936 7  84836762.43207     -1747.942 7        44.609
S23        25.000    38125596.304 7 200351348.94907      -498.417 7        44.739
C13        26.000                                                                                                                                    40009540.078 6 208340368.46006     -1427.397 6        38.730    40009542.292 6 161102098.18406     -1103.728 6        40.644    40009540.087 6 169293701.17706     -1160.076 6        38.051
E24        27.000    28213819.693 6 148264645.44006      1026.701 6        38.111                                                                    28213819.393 6 110717114.07106       766.684 6        41.564    28213818.808 7 113605383.62007       786.725 7        42.627
R21        29.000    21211148.258 8 113505139.31408      2592.186 8        48.716                                                                    21211146.432 7  88281777.57307      2016.155 7        44.129
C14        30.000                                                                                                                                    25230886.219 6 131383873.82906     -3460.721 6        40.646    25230881.996 7 101594340.82307     -2676.123 7        45.890    25230880.296 7 106760146.32607     -2812.180 7        42.506
R05        31.000    19354753.945 8 103462292.41708       337.385 8        52.227                                                                    19354752.463 7  80470682.23507       262.413 7        47.705
E29        33.000    27075846.023 6 142284594.14306      2658.360 6        39.489                                                                    27075845.486 7 106251491.83707      1984.991 7        44.008    27075845.152 7 109023265.05607      2036.763 7        44.322
C16        35.000                                                                                                                                    41045050.788 6 213732354.99906      1386.646 6        37.667    41045051.411 6 165271419.86206      1072.292 6        38.405    41045049.450 5 173675040.61105      1126.789 5        34.786
C32        36.000                                                                                                                                    25291758.806 7 131700864.44407      2896.549 7        43.141                                                                    25291759.359 7 107017758.01707      2353.491 7        43.826
G32        37.000    21906062.918 8 115117177.90508       333.308 8        48.749                                    21906060.767 8  89701699.22708       259.721 8        48.389    21906061.224 7  89701708.23407       259.692 7        45.035
E07        38.000    24880031.610 7 130745464.63407      1031.103 7        45.136                                                                    24880031.960 8  97634637.57608       769.983 8        48.480    24880031.559 8 100181620.56608       790.071 8        49.047
C41        39.000                                                                                                                                    22149499.325 8 115338286.93708       651.206 8        51.173                                                                    22149504.142 8  93721835.37808       529.041 8        49.990
C39        40.000                                                                                                                                    40453665.978 6 210652875.31906      1201.176 6        40.534                                                                    40453661.680 6 171172710.69406       975.810 6        39.766
E33        41.000    24687884.701 7 129735796.19807      1233.164 7        45.449                                                                    24687882.540 8  96880659.67008       920.889 8        48.239    24687882.258 8  99407977.19408       944.847 8        49.042
S44        42.000    40459235.163 6 212614893.68106      -539.557 6        37.614
R06        43.000    22784672.364 6 121583417.29906      3923.490 6        37.656
C05        44.000                                                                                                                                    39116472.196 6 203689771.68606      -458.350 6        38.486    39116466.586 7 157505876.29107      -354.649 7        42.919    39116468.826 6 165514727.80606      -372.690 6        39.844
C08        45.000                                                                                                                                    40775533.991 5 212329080.37205     -1549.100 5        34.819    40775527.150 6 164186386.43006     -1198.165 6        39.946    40775526.579 5 172534819.71105     -1258.959 5        35.586
R11        46.000    23341031.827 7 124727408.19507     -3387.163 7        43.316                                                                    23341030.080 6  97010208.74706     -2634.485 6        39.925
R19        47.000    22982449.962 5 122940968.53705     -3903.333 5        34.162                                                                    22982449.916 6  95620917.17306     -3035.863 6        38.330
I05        49.000  -496982441.486 6-874480646.39706       294.123 6        37.240
C06        50.000                                                                                                                                    40837217.125 5 212650111.87405      1462.807 5        35.129    40837213.005 6 164434532.63006      1131.238 6        40.007    40837211.894 5 172795610.50005      1188.857 5        35.929
S48        51.000    77158667.053 6 405472395.47206      -522.166 6        38.586
G21        52.000    20665220.180 7 108596537.99707        93.940 7        45.651                                    20665214.935 6  84620700.81406        73.199 6        37.527
C60        54.000                                                                                                                                    40459232.832 6 210682050.46706      -534.595 6        40.574                                                                    40459216.718 6 171196394.18406      -434.433 6        40.362
C27        55.000                                                                                                                                    21379486.464 8 111328615.51508      -102.771 8        51.587                                                                    21379484.576 8  90463623.63308       -83.629 8        49.334
R04        56.000    21097417.578 8 112975734.75908     -3584.416 8        49.049                                                                    21097416.256 7  87870009.01407     -2787.923 7        45.579
C02        57.000                                                                                                                                    40486287.686 5 210822774.84705      -491.669 5        33.766    40486280.654 6 163021537.85106      -379.983 6        40.491    40486284.025 6 171310778.13306      -399.431 6        36.261
I03        58.000   107040156.646 6 344263332.12806       982.753 6        39.781
C36        59.000                                                                                                                                    26779747.435 6 139449185.28806     -2291.505 6        37.720                                                                    26779752.368 6 113313917.17106     -1862.303 6        38.129
C28        60.000                                                                                                                                    22628935.063 8 117835115.11808     -2596.342 8        49.277                                                                    22628933.551 7  95750819.03707     -2109.835 7        47.725
> 2025 01 01 22 30  5.0000000  0 52
G10         1.000    22168957.854 7 116498762.39007     -3001.939 7        46.825                                    22168955.648 7  90778318.75007     -2339.174 7        45.166    22168955.583 6  90778295.75306     -2339.170 6        41.986
G14         2.000    23921577.128 6 125708774.48506       312.372 6        39.375                                    23921573.930 4  97954889.03604       243.410 4        24.376    23921574.071 6  97954885.04506       243.288 6        39.802
C33         3.000                                                                                                                                    23308962.077 8 121375914.86708     -2429.975 8        48.612                                                                    23308973.607 8  98627933.03608     -1974.683 8        48.282
E31         4.000    26047729.072 7 136881787.86207     -1377.225 7        43.075                                                                    26047729.169 7 102216932.43307     -1028.446 7        44.489    26047728.882 7 104883457.56007     -1055.334 7        45.544
S21         5.000    38403546.979 7 201811742.97107      -501.411 7        42.347
E13         6.000    26286733.829 6 138138057.39406     -2683.408 6        41.826                                                                    26286734.370 7 103155248.09107     -2003.873 7        44.433    26286733.707 7 105846224.37807     -2056.234 7        45.121
G23         7.000    25483223.918 5 133915350.51205     -3977.192 5        30.747                                    25483220.963 1 104349657.23901     -3099.086 1         3.600    25483220.530 4 104349656.20704     -3099.073 4        29.327
G03         8.000    23936234.300 6 125785834.36006      3084.353 6        40.300                                    23936233.116 5  98014972.13605      2403.387 5        33.174    23936234.042 6  98014970.14506      2403.214 6        36.907
G02         9.000    21774279.003 7 114424660.67807      1383.966 7        47.138                                    21774272.413 6  89162068.01406      1078.416 6        36.817
R12        10.000    23282037.906 7 124368489.03807       -22.922 7        45.573                                                                    23282038.847 7  96731077.74807       -17.946 7        42.163
C30        11.000                                                                                                                                    24095479.510 7 125471494.92907      2219.520 7        46.186                                                                    24095479.470 7 101955869.88207      1803.461 7        44.935
S27        12.000    39086335.166 5 205400092.82905      -471.881 5        35.833
R20        13.000    19363701.233 6 103546460.86106      -671.355 6        38.931                                                                    19363702.517 7  80536203.53107      -522.289 7        46.848
S36        14.000    38171898.476 7 200595219.90007      -500.689 7        43.973
G27        15.000    22642106.264 7 118985346.01107     -3953.476 7        44.710                                    22642104.006 7  92716010.68507     -3080.629 7        43.609    22642105.105 7  92715924.68207     -3080.743 7        42.011
S45        17.000    63378283.023 6 333055480.87706      -543.369 6        38.102
E08        18.000    26199156.752 6 137677542.96806     -1720.211 6        41.940                                                                    26199154.707 7 102811155.73707     -1284.513 7        44.444    26199154.229 7 105493181.41107     -1318.097 7        45.407
E26        21.000    23386476.151 8 122897109.70608      -865.501 8        48.307                                                                    23386473.507 8  91774013.04408      -646.316 8        50.355    23386473.347 8  94168093.25708      -663.150 8        51.550
I06        22.000    38396288.347 6 150675514.04306      -268.953 6        41.580
S28        23.000    40856999.534 5 214704989.31005      -493.031 5        34.152
G08        24.000    20720136.519 8 108885066.74508     -2246.300 8        49.671                                    20720134.168 8  84845507.34708     -1750.364 8        49.474    20720134.943 7  84845508.35207     -1750.482 7        44.558
S23        25.000    38126070.211 7 200353842.76207      -498.785 7        44.618
C13        26.000                                                                                                                                    40010910.676 6 208347506.28006     -1427.429 6        38.607    40010913.067 6 161107617.60706     -1103.823 6        40.803    40010910.693 6 169299501.22506     -1159.984 6        37.875
E24        27.000    28212843.963 6 148259518.13906      1024.677 6        37.750                                                                    28212843.601 6 110713285.25306       765.028 6        41.425    28212843.202 7 113601454.91807       785.136 7        42.459
R21        29.000    21208726.593 8 113492182.24108      2590.802 8        48.761                                                                    21208725.316 7  88271699.85307      2015.063 7        44.406
C14        30.000                                                                                                                                    25234209.267 6 131401181.62706     -3462.248 6        40.825    25234205.801 7 101607724.30707     -2677.144 7        45.640    25234204.335 7 106774210.32607     -2813.368 7        42.563
R05        31.000    19354440.628 8 103460617.94108       332.574 8        52.218                                                                    19354439.181 7  80469379.86807       258.717 7        47.133
E29        33.000    27073317.164 6 142271305.10206      2657.502 6        38.961                                                                    27073316.729 7 106241568.22607      1984.508 7        44.060    27073316.222 7 109013082.56007      2036.333 7        44.400
C16        35.000                                                                                                                                    41043719.539 6 213725423.58406      1385.732 6        37.558    41043720.729 6 165266060.05106      1071.685 6        38.649    41043718.641 5 173669408.25105      1126.135 5        35.286
C32        36.000                                                                                                                                    25288978.258 7 131686385.34007      2895.381 7        43.046                                                                    25288978.966 7 107005992.55007      2352.634 7        43.685
G32        37.000    21905747.307 8 115115520.37208       329.814 8        48.864                                    21905745.383 8  89700407.64908       256.997 8        48.284    21905745.689 7  89700416.65007       257.060 7        45.196
E07        38.000    24879052.234 7 130740315.97907      1028.591 7        45.440                                                                    24879052.206 8  97630792.80908       768.049 8        48.549    24879051.803 8 100177675.50008       788.090 8        49.149
C41        39.000                                                                                                                                    22148875.848 8 115335039.01708       648.229 8        51.305                                                                    22148880.431 8  93719196.17408       526.584 8        49.801
C39        40.000                                                                                                                                    40452512.887 6 210646872.83606      1200.022 6        40.343                                                                    40452508.951 6 171167833.15906       975.025 6        39.366
E33        41.000    24686711.829 7 129729633.15507      1232.217 7        45.375                                                                    24686709.736 8  96876057.40708       920.134 8        48.359    24686709.510 8  99403254.86608       944.199 8        49.285
S44        42.000    40459747.070 6 212617592.47606      -539.758 6        37.316
R06        43.000    22780997.159 6 121563803.55006      3922.129 6        37.161
C05        44.000                                                                                                                                    39116912.495 6 203692065.68906      -459.054 6        38.895    39116907.533 7 157507650.13107      -354.787 7        43.318    39116909.585 6 165516591.84406      -372.923 6        39.835
C08        45.000                                                                                                                                    40777021.038 5 212336827.60105     -1549.165 5        34.848    40777014.843 6 164192377.07906     -1197.993 6        39.970    40777014.572 5 172541114.98905     -1259.200 5        35.243
R11        46.000    23344202.408 7 124744351.57307     -3389.894 7        44.045                                                                    23344201.127 6  97023386.92206     -2636.733 6        40.002
R19        47.000    22986100.331 5 122960488.97605     -3904.721 5        35.210                                                                    22986098.589 6  95636099.70706     -3037.010 6        37.512
I05        49.000  -496982816.314 6-874482116.31806       293.747 6        37.323
C06        50.000                                                                                                                                    40835812.975 5 212642799.69205      1462.334 5        35.390    40835808.627 6 164428878.39406      1130.606 6        39.778    40835807.715 5 172789668.79305      1187.829 5        35.990
S48        51.000    77159147.725 6 405475006.17706      -522.025 6        38.285
G21        52.000    20665131.905 7 108596073.65107        91.903 7        45.792                                    20665126.598 6  84620338.98506        71.615 6        37.452
C60        54.000                                                                                                                                    40459746.715 6 210684724.73806      -534.906 6        40.596                                                                    40459730.234 6 171198567.24206      -434.781 6        40.284
C27        55.000                                                                                                                                    21379586.409 8 111329135.78108      -105.222 8        51.610                                                                    21379584.570 8  90464046.38308       -85.579 8        49.172
R04        56.000    21100766.256 8 112993665.43608     -3587.722 8        49.788                                                                    21100764.630 7  87883955.09107     -2790.424 7        44.999
C02        57.000                                                                                                                                    40486758.745 5 210825234.09905      -491.769 5        33.425    40486753.327 6 163023439.51506      -380.472 6        40.837    40486756.663 6 171312776.47506      -399.738 6        36.208
I03        58.000   107038904.923 6 344258419.61606       982.358 6        39.622
C36        59.000                                                                                                                                    26781949.321 6 139460648.53706     -2293.662 6        37.206                                                                    26781953.467 6 113323232.01206     -1863.854 6        37.860
C28        60.000                                                                                                                                    22631428.885 8 117848102.24308     -2598.304 8        49.497                                                                    22631427.515 7  95761372.13107     -2111.434 7        47.425
> 2025 01 01 22 30 10.0000000  0 52
G10         1.000    22171814.900 7 116513775.33207     -3003.152 7        46.797                                    22171812.487 7  90790017.14307     -2340.119 7        45.305    22171812.426 7  90789994.14207     -2340.150 7        42.224
G14         2.000    23921281.099 6 125707219.97206       309.587 6        39.874                                    23921278.088 4  97953677.73904       241.239 4        24.271    23921278.247 6  97953673.74006       240.934 6        40.060
C33         3.000                                                                                                                                    23311296.725 8 121388069.71808     -2431.958 8        48.764                                                                    23311307.757 8  98637809.83808     -1976.182 8        48.487
E31         4.000    26049040.543 7 136888679.72507     -1379.455 7        42.588                                                                    26049040.665 7 102222078.96107     -1030.124 7        44.465    26049040.471 7 104888738.34507     -1057.056 7        45.436
S21         5.000    38404022.778 7 201814248.66307      -500.878 7        42.277
E13         6.000    26289287.342 6 138151475.90406     -2683.890 6        41.712                                                                    26289287.800 7 103165268.40607     -2004.242 7        44.569    26289287.199 7 105856506.08307     -2056.573 7        44.886
G23         7.000    25487007.515 4 133935237.54804     -3977.526 4        29.886                                    25487005.271 1 104365153.61801     -3099.496 1         4.429    25487006.002 4 104365152.67304     -3099.764 4        27.760
G03         8.000    23933300.150 6 125770415.10806      3083.341 6        40.207                                    23933298.739 5  98002957.15805      2402.597 5        33.210    23933298.946 6  98002955.16506      2402.764 6        37.251
G02         9.000    21772962.757 7 114417743.44707      1382.910 7        47.235                                    21772956.114 6  89156677.96806      1077.588 6        36.972
R12        10.000    23282062.150 7 124368613.98707       -27.020 7        45.439                                                                    23282062.351 6  96731174.92806       -20.903 6        41.864
C30        11.000                                                                                                                                    24093348.670 7 125460399.42907      2218.679 7        46.065                                                                    24093348.690 7 101946853.87207      1802.858 7        45.228
S27        12.000    39086784.456 5 205402450.42305      -471.656 5        35.657
R20        13.000    19364330.550 6 103549824.70006      -674.120 6        39.225                                                                    19364331.419 7  80538819.84307      -524.301 7        47.003
S36        14.000    38172378.701 7 200597723.58707      -500.573 7        43.628
G27        15.000    22645868.608 7 119005116.67007     -3954.707 7        45.145                                    22645866.429 7  92731416.39207     -3081.588 7        43.898    22645867.080 6  92731330.38906     -3081.580 6        41.919
S45        17.000    63378754.587 6 333058196.67906      -543.161 6        37.792
E08        18.000    26200794.174 7 137686149.27707     -1722.500 7        42.209                                                                    26200792.406 7 102817582.54507     -1286.239 7        44.477    26200791.911 7 105499775.86807     -1319.716 7        45.383
E26        21.000    23387300.089 8 122901439.43108      -866.474 8        48.253                                                                    23387297.462 8  91777246.28208      -646.981 8        50.349    23387297.271 8  94171410.84408      -663.889 8        51.501
I06        22.000    38396630.691 6 150676858.38506      -268.855 6        41.573
S28        23.000    40857466.246 5 214707454.94805      -493.197 5        33.605
G08        24.000    20722274.881 8 108896304.72608     -2248.940 8        49.773                                    20722272.681 8  84854264.21308     -1752.420 8        49.651    20722273.712 7  84854265.21507     -1752.498 7        44.936
S23        25.000    38126544.302 7 200356336.78207      -498.698 7        44.342
C13        26.000                                                                                                                                    40012281.554 6 208354643.33306     -1427.288 6        39.030    40012283.634 6 161113136.42906     -1103.777 6        40.744    40012281.196 6 169305300.67306     -1159.990 6        37.955
E24        27.000    28211870.147 6 148254401.42206      1022.228 6        37.342                                                                    28211869.900 6 110709464.34106       763.431 6        41.476    28211869.298 7 113597534.32407       783.331 7        42.455
R21        29.000    21206305.752 8 113479230.73508      2589.701 8        48.517                                                                    21206304.960 7  88261626.47107      2014.274 7        44.036
C14        30.000                                                                                                                                    25237534.745 6 131418495.06206     -3463.274 6        40.451    25237530.687 7 101621112.15407     -2677.971 7        45.663    25237529.801 7 106788278.89007     -2814.108 7        43.177
R05        31.000    19354131.656 8 103458965.97708       328.150 8        52.096                                                                    19354130.213 8  80468095.01608       255.198 8        48.009
E29        33.000    27070788.548 6 142258017.49106      2657.335 6        38.796                                                                    27070788.102 7 106231645.70107      1984.398 7        44.134    27070787.731 7 109002901.18807      2036.221 7        44.351
C16        35.000                                                                                                                                    41042389.006 6 213718494.44306      1385.878 6        37.614    41042390.178 6 165260702.02706      1071.397 6        38.772    41042387.872 5 173663777.77305      1126.069 5        35.248
C32        36.000                                                                                                                                    25286198.563 7 131671910.29507      2894.716 7        43.450                                                                    25286199.326 7 106994230.39707      2352.138 7        44.065
G32        37.000    21905435.094 8 115113878.50108       326.832 8        48.791                                    21905432.969 8  89699128.26708       254.673 8        48.448    21905433.189 7  89699137.26507       254.714 7        45.421
E07        38.000    24878074.231 7 130735178.18307      1026.514 7        45.406                                                                    24878074.510 8  97626956.14408       766.565 8        48.585    24878074.103 8 100173738.75008       786.561 8        49.119
C41        39.000                                                                                                                                    22148254.516 8 115331804.31808       645.691 8        51.242                                                                    22148259.215 8  93716567.70408       524.681 8        50.110
C39        40.000                                                                                                                                    40451360.996 6 210640873.85106      1199.534 6        40.133                                                                    40451356.876 6 171162958.47706       974.743 6        39.775
E33        41.000    24685539.862 7 129723473.49507      1231.615 7        45.422                                                                    24685537.632 8  96871457.65708       919.800 8        48.370    24685537.351 8  99398535.12908       943.695 8        49.125
S44        42.000    40460262.380 6 212620291.60306      -539.802 6        37.490
R06        43.000    22777322.387 6 121544195.37806      3921.134 6        36.476
C05        44.000                                                                                                                                    39117352.923 6 203694359.95206      -458.705 6        38.189    39117348.256 7 157509424.23107      -354.824 7        43.359    39117350.210 6 165518456.11406      -372.714 6        40.141
C08        45.000                                                                                                                                    40778508.074 5 212344573.79305     -1549.071 5        34.624    40778502.638 6 164198366.94106     -1197.743 6        39.456    40778501.782 5 172547409.38805     -1258.712 5        35.476
R11        46.000    23347376.016 7 124761307.73807     -3392.564 7        43.932                                                                    23347374.573 6  97036575.05206     -2638.674 6        40.617
R19        47.000    22989750.619 5 122980015.66105     -3905.858 5        35.329                                                                    22989748.450 6  95651287.12106     -3037.787 6        37.682
I05        49.000  -496983190.351 6-874483585.51706       293.934 6        37.463
C06        50.000                                                                                                                                    40834409.216 5 212635489.53505      1461.927 5        35.890    40834404.781 6 164423225.73306      1130.499 6        40.029    40834404.020 6 172783728.67506      1187.934 6        36.200
S48        51.000    77159623.443 6 405477617.17906      -522.427 6        38.093
G21        52.000    20665044.910 7 108595617.79607        90.332 7        45.705                                    20665039.826 6  84619983.77506        70.389 6        37.546
C60        54.000                                                                                                                                    40460260.495 6 210687399.32306      -534.892 6        40.465                                                                    40460244.042 6 171200740.56606      -434.649 6        40.505
C27        55.000                                                                                                                                    21379688.326 8 111329666.69208      -107.212 8        51.487                                                                    21379686.478 8  90464477.78408       -87.090 8        49.420
R04        56.000    21104118.339 8 113011611.00908     -3590.538 8        49.675                                                                    21104115.596 7  87897912.74807     -2792.650 7        45.124
C02        57.000                                                                                                                                    40487231.243 5 210827693.70805      -491.837 5        33.754    40487225.316 6 163025341.45706      -380.441 6        40.672    40487229.018 6 171314775.11406      -399.784 6        36.144
I03        58.000   107037652.943 6 344253507.46306       982.598 6        39.799
C36        59.000                                                                                                                                    26784152.938 6 139472120.43706     -2295.259 6        37.735                                                                    26784156.288 6 113332553.83006     -1864.909 6        38.180
C28        60.000                                                                                                                                    22633924.542 8 117861097.83008     -2599.865 8        49.024                                                                    22633923.116 7  95771932.09107     -2112.587 7        47.628
> 2025 01 01 22 30 15.0000000  0 52
G10         1.000    22174672.821 7 116528794.51907     -3004.573 7        46.892                                    22174670.547 7  90801720.40507     -2341.228 7        45.217    22174670.866 7  90801697.41407     -2341.198 7        42.438
G14         2.000    23920988.261 6 125705680.43706       306.383 6        40.212                                    23920985.071 4  97952478.09704       238.743 4        24.150    23920985.034 6  97952474.08006       238.816 6        39.574
C33         3.000                                                                                                                                    23313632.795 8 121400234.69408     -2434.087 8        48.788                                                                    23313643.861 8  98647694.87608     -1977.863 8        48.482
E31         4.000    26050354.322 7 136895582.80807     -1381.820 7        42.301                                                                    26050354.261 7 102227233.85707     -1031.822 7        44.521    26050354.035 7 104894027.71407     -1058.787 7        45.463
S21         5.000    38404504.832 7 201816754.04907      -500.969 7        42.385
E13         6.000    26291841.052 6 138164896.49806     -2684.428 6        41.414                                                                    26291841.745 7 103175290.27907     -2004.615 7        44.521    26291841.110 7 105866789.38307     -2056.765 7        44.898
G23         7.000    25490792.001 5 133955123.52805     -3977.020 5        30.158                                    25490789.354 1 104380649.20801     -3099.096 1         4.429    25490788.808 4 104380648.21704     -3099.420 4        28.616
G03         8.000    23930366.512 6 125754999.57106      3082.619 6        40.396                                    23930365.158 5  97990945.07405      2402.036 5        33.293    23930365.932 6  97990943.09206      2401.983 6        38.495
G02         9.000    21771647.443 7 114410831.53107      1381.779 7        47.282                                    21771640.787 6  89151292.06206      1076.713 6        36.915
R12        10.000    23282088.287 7 124368759.50107       -31.272 7        44.754                                                                    23282089.028 6  96731288.12106       -24.323 6        41.225
C30        11.000                                                                                                                                    24091218.436 7 125449307.71407      2217.881 7        46.149                                                                    24091218.576 7 101937840.94607      1802.252 7        45.276
S27        12.000    39087232.817 5 205404807.80205      -471.269 5        35.162
R20        13.000    19364961.397 6 103553201.57106      -676.889 6        39.315                                                                    19364962.660 7  80541446.29807      -526.348 7        46.929
S36        14.000    38172849.393 7 200600226.71607      -500.687 7        43.786
G27        15.000    22649632.290 7 119024893.71807     -3956.050 7        45.493                                    22649629.974 7  92746827.07407     -3082.636 7        43.850    22649630.074 6  92746741.09706     -3082.649 6        41.738
S45        17.000    63379225.418 6 333060912.18706      -543.154 6        37.747
E08        18.000    26202434.130 7 137694766.48707     -1724.622 7        42.135                                                                    26202432.292 7 102824017.47407     -1287.861 7        44.488    26202431.638 7 105506378.66207     -1321.464 7        45.418
E26        21.000    23388124.766 8 122905774.19008      -867.557 8        48.111                                                                    23388122.351 8  91780483.27408      -647.803 8        50.402    23388122.128 8  94174732.27708      -664.728 8        51.485
I06        22.000    38396973.546 7 150678202.42507      -268.862 7        42.104
S28        23.000    40857937.430 5 214709920.03405      -493.037 5        34.257
G08        24.000    20724415.943 8 108907556.18408     -2251.731 8        50.083                                    20724413.761 8  84863031.57808     -1754.596 8        49.545    20724414.726 7  84863032.58007     -1754.592 7        44.727
S23        25.000    38127019.720 7 200358830.44607      -498.852 7        44.542
C13        26.000                                                                                                                                    40013652.647 6 208361779.09706     -1427.098 6        39.165    40013653.666 6 161118654.25106     -1103.431 6        40.749    40013651.735 6 169311099.06206     -1159.572 6        37.803
E24        27.000    28210898.371 6 148249294.58406      1020.136 6        37.611                                                                    28210898.090 6 110705650.79306       761.935 6        41.924    28210897.477 7 113593621.29707       781.846 7        42.724
R21        29.000    21203886.752 8 113466284.31308      2588.744 8        49.030                                                                    21203885.495 7  88251557.01807      2013.464 7        44.161
C14        30.000                                                                                                                                    25240859.947 6 131435813.58706     -3464.403 6        40.312    25240856.672 7 101634503.92507     -2678.830 7        45.384    25240855.884 7 106802351.60607     -2815.017 7        43.554
R05        31.000    19353826.346 8 103457336.25508       323.696 8        52.306                                                                    19353825.922 8  80466827.45608       251.760 8        48.162
E29        33.000    27068260.135 6 142244730.83606      2657.206 6        37.977                                                                    27068259.714 7 106221723.86507      1984.309 7        44.221    27068259.388 7 108992720.52007      2036.005 7        44.360
C16        35.000                                                                                                                                    41041058.151 6 213711567.08106      1385.089 6        37.766    41041059.591 6 165255345.33506      1071.057 6        39.135    41041057.551 5 173658148.72805      1125.455 5        35.457
C32        36.000                                                                                                                                    25283419.285 7 131657438.80207      2893.921 7        43.757                                                                    25283420.020 7 106982471.13807      2351.511 7        43.981
G32        37.000    21905125.245 8 115112251.74008       323.778 8        48.825                                    21905123.452 8  89697860.66408       252.294 8        48.405    21905123.325 7  89697869.66507       252.318 7        45.327
E07        38.000    24877098.499 7 130730050.69107      1024.496 7        45.317                                                                    24877098.759 8  97623127.17308       765.010 8        48.556    24877098.335 8 100169809.89508       784.932 8        49.028
C41        39.000                                                                                                                                    22147635.675 8 115328582.29008       643.067 8        51.270                                                                    22147640.445 8  93713949.54808       522.545 8        50.035
C39        40.000                                                                                                                                    40450209.512 6 210634877.84506      1198.815 6        40.539                                                                    40450205.292 6 171158086.23606       974.080 6        39.877
E33        41.000    24684368.446 7 129717316.62707      1231.083 7        45.141                                                                    24684366.039 8  96866860.00008       919.312 8        48.362    24684365.696 8  99393817.53208       943.236 8        49.157
S44        42.000    40460778.365 6 212622990.50806      -539.693 6        37.123
R06        43.000    22773647.863 6 121524592.60806      3919.983 6        36.609
C05        44.000                                                                                                                                    39117793.605 6 203696654.01506      -458.861 6        38.336    39117788.568 7 157511198.14307      -354.784 7        43.363    39117790.548 6 165520320.23606      -372.849 6        39.877
C08        45.000                                                                                                                                    40779995.324 5 212352318.33805     -1549.050 5        34.643    40779989.911 6 164204355.46506     -1197.465 6        39.456    40779988.978 5 172553702.46505     -1258.780 5        35.314
R11        46.000    23350550.491 7 124778276.07307     -3394.988 7        43.403                                                                    23350548.758 6  97049772.64706     -2640.442 6        39.195
R19        47.000    22993402.074 5 122999548.02005     -3906.884 5        35.190                                                                    22993402.095 6  95666478.97906     -3038.786 6        38.048
I05        49.000  -496983564.805 6-874485054.37106       293.776 6        37.418
C06        50.000                                                                                                                                    40833005.610 6 212628180.89406      1461.590 6        36.042    40833001.452 6 164417574.23606      1130.208 6        40.207    40833000.619 6 172777789.81406      1187.715 6        36.355
S48        51.000    77160101.934 6 405480227.69206      -522.086 6        38.186
G21        52.000    20664959.836 7 108595169.88607        88.736 7        45.732                                    20664954.588 6  84619634.75306        69.142 6        37.482
C60        54.000                                                                                                                                    40460774.057 6 210690073.71406      -534.995 6        40.565                                                                    40460757.715 6 171202913.72406      -434.664 6        40.577
C27        55.000                                                                                                                                    21379792.246 8 111330207.72108      -109.257 8        51.430                                                                    21379790.373 8  90464917.42008       -88.776 8        49.349
R04        56.000    21107471.465 8 113029570.99008     -3593.528 8        48.982                                                                    21107469.714 7  87911881.62507     -2794.934 7        45.108
C02        57.000                                                                                                                                    40487703.818 5 210830153.15405      -491.860 5        33.766    40487697.421 6 163027243.25506      -380.271 6        40.713    40487701.051 6 171316773.63706      -399.910 6        36.370
I03        58.000   107036401.290 6 344248595.34706       982.295 6        39.844
C36        59.000                                                                                                                                    26786356.537 6 139483600.37106     -2296.961 6        37.985                                                                    26786361.333 6 113341882.24006     -1866.516 6        38.249
C28        60.000                                                                                                                                    22636421.654 8 117874101.31008     -2601.562 8        48.776                                                                    22636420.365 7  95782498.48907     -2113.995 7        47.604
> 2025 01 01 22 30 20.0000000  0 52
G10         1.000    22177532.022 7 116543820.23007     -3005.849 7        47.583                                    22177529.877 7  90813428.75307     -2342.220 7        45.257    22177530.336 7  90813405.75707     -2342.152 7        42.662
G14         2.000    23920697.909 6 125704156.16106       303.217 6        40.567                                    23920694.818 4  97951290.35104       236.261 4        24.286    23920694.786 6  97951286.35406       236.251 6        39.267
C33         3.000                                                                                                                                    23315970.888 8 121412410.04108     -2436.169 8        48.651                                                                    23315981.973 8  98657588.34708     -1979.490 8        48.456
E31         4.000    26051670.157 7 136902497.38107     -1384.204 7        42.694                                                                    26051670.114 7 102232397.35007     -1033.683 7        44.569    26051669.820 7 104899325.90407     -1060.557 7        45.263
S21         5.000    38404980.702 7 201819259.23007      -501.157 7        42.749
E13         6.000    26294395.470 6 138178319.48106     -2684.998 6        41.738                                                                    26294395.992 7 103185313.93707     -2005.039 7        44.859    26294395.676 7 105877074.53307     -2057.337 7        44.885
G23         7.000    25494575.857 4 133975008.93604     -3977.136 4        29.517                                    25494573.505 1 104396144.24101     -3098.994 1         3.200    25494572.984 4 104396143.31304     -3099.115 4        29.791
G03         8.000    23927433.703 6 125739588.06506      3081.574 6        40.889                                    23927432.404 5  97978936.14005      2401.225 5        33.593    23927432.099 6  97978934.13906      2401.411 6        37.773
G02         9.000    21770333.146 7 114403925.24407      1380.638 7        47.490                                    21770326.577 6  89145910.54106      1075.826 6        36.904
R12        10.000    23282118.806 7 124368925.91907       -35.412 7        44.181                                                                    23282120.519 6  96731417.56106       -27.671 6        41.638
C30        11.000                                                                                                                                    24089089.099 7 125438220.07507      2216.953 7        46.092                                                                    24089089.387 7 101928831.34007      1801.585 7        45.112
S27        12.000    39087677.529 5 205407164.58105      -471.245 5        34.976
R20        13.000    19365595.321 6 103556591.95706      -679.432 6        39.198                                                                    19365596.622 7  80544083.27307      -528.476 7        46.968
S36        14.000    38173332.199 7 200602729.55907      -500.672 7        43.951
G27        15.000    22653396.998 7 119044677.43007     -3957.388 7        45.427                                    22653394.736 7  92762242.95807     -3083.684 7        43.752    22653395.142 7  92762156.97507     -3083.700 7        42.099
S45        17.000    63379698.547 6 333063627.70506      -543.363 6        37.796
E08        18.000    26204075.816 7 137703394.86207     -1726.984 7        42.493                                                                    26204074.159 7 102830460.73407     -1289.560 7        44.688    26204073.565 7 105512990.01807     -1323.271 7        45.341
E26        21.000    23388950.557 8 122910114.23108      -868.607 8        48.200                                                                    23388948.201 8  91783724.22508      -648.661 8        50.506    23388947.985 8  94178057.77308      -665.560 8        51.369
I06        22.000    38397315.642 7 150679546.38307      -268.854 7        42.135
S28        23.000    40858408.059 5 214712385.07105      -493.113 5        34.095
G08        24.000    20726559.569 8 108918821.41608     -2254.517 8        50.039                                    20726557.452 8  84871809.68408     -1756.767 8        49.524    20726558.384 7  84871810.68907     -1756.755 7        45.175
S23        25.000    38127496.270 7 200361324.03507      -498.565 7        44.566
C13        26.000                                                                                                                                    40015022.981 6 208368913.83006     -1426.977 6        39.372    40015023.762 6 161124171.28706     -1103.432 6        40.472    40015021.786 6 169316896.63106     -1159.468 6        37.807
E24        27.000    28209928.849 6 148244197.94606      1018.238 6        37.539                                                                    28209928.392 6 110701844.88406       760.330 6        41.843    28209927.834 7 113589716.10907       780.203 7        42.482
R21        29.000    21201468.857 8 113453343.25608      2587.617 8        49.373                                                                    21201467.225 7  88241491.76107      2012.558 7        43.276
C14        30.000                                                                                                                                    25244186.502 6 131453137.47006     -3465.449 6        40.484    25244183.928 7 101647899.84807     -2679.651 7        45.613    25244182.736 7 106816428.67807     -2815.643 7        43.575
R05        31.000    19353525.927 8 103455728.95308       319.135 8        52.188                                                                    19353524.951 8  80465577.32508       248.182 8        48.277
E29        33.000    27065731.881 6 142231445.38906      2657.095 6        38.279                                                                    27065731.529 7 106211802.94507      1984.051 7        44.367    27065731.193 7 108982540.78507      2035.846 7        44.122
C16        35.000                                                                                                                                    41039728.602 6 213704641.71706      1384.943 6        37.531    41039729.550 6 165249990.23206      1070.801 6        39.420    41039727.602 5 173652521.33105      1125.408 5        35.505
