     3.04           OBSERVATION DATA    M                   RINEX VERSION / TYPE
ssrcrin-15.6.1x                         20250101 030000 UTC PGM / RUN BY / DATE 
(00000000023479385599111004) Septentrio proprietary         COMMENT             
rref                                                        MARKER NAME         
01                                                          MARKER NUMBER       
geodetic                                                    MARKER TYPE         
NFB                 CLIMERS@TUW                             OBSERVER / AGENCY   
3297213             SEPT ASTERX SB3 PROB4.14.4              REC # / TYPE / VERS 
Unknown             Unknown                                 ANT # / TYPE        
  4127831.6676  1207193.3975  4695247.2085                  APPROX POSITION XYZ 
        0.0000        0.0000        0.0000                  ANTENNA: DELTA H/E/N
G   23 X1  C1C L1C D1C S1C C1W S1W C2W L2W D2W S2W C2L L2L  SYS / # / OBS TYPES 
       D2L S2L C5Q L5Q D5Q S5Q C1L L1L D1L S1L              SYS / # / OBS TYPES 
E   21 X1  C1C L1C D1C S1C C6C L6C D6C S6C C5Q L5Q D5Q S5Q  SYS / # / OBS TYPES 
       C7Q L7Q D7Q S7Q C8Q L8Q D8Q S8Q                      SYS / # / OBS TYPES 
S    9 X1  C1C L1C D1C S1C C5I L5I D5I S5I                  SYS / # / OBS TYPES 
R   17 X1  C1C L1C D1C S1C C2P L2P D2P S2P C2C L2C D2C S2C  SYS / # / OBS TYPES 
       C3Q L3Q D3Q S3Q                                      SYS / # / OBS TYPES 
C   25 X1  C1P L1P D1P S1P C5P L5P D5P S5P C2I L2I D2I S2I  SYS / # / OBS TYPES 
       C7I L7I D7I S7I C6I L6I D6I S6I C7D L7D D7D S7D      SYS / # / OBS TYPES 
J   17 X1  C1C L1C D1C S1C C2L L2L D2L S2L C5Q L5Q D5Q S5Q  SYS / # / OBS TYPES 
       C1L L1L D1L S1L                                      SYS / # / OBS TYPES 
I    5 X1  C5A L5A D5A S5A                                  SYS / # / OBS TYPES 
SEPTENTRIO RECEIVERS OUTPUT ALIGNED CARRIER PHASES.         COMMENT             
NO FURTHER PHASE SHIFT APPLIED IN THE RINEX ENCODER.        COMMENT             
G L1C                                                       SYS / PHASE SHIFT   
G L2W                                                       SYS / PHASE SHIFT   
G L2L  0.00000                                              SYS / PHASE SHIFT   
G L5Q  0.00000                                              SYS / PHASE SHIFT   
G L1L  0.00000                                              SYS / PHASE SHIFT   
E L1C  0.00000                                              SYS / PHASE SHIFT   
E L6C  0.00000                                              SYS / PHASE SHIFT   
E L5Q  0.00000                                              SYS / PHASE SHIFT   
E L7Q  0.00000                                              SYS / PHASE SHIFT   
E L8Q  0.00000                                              SYS / PHASE SHIFT   
S L1C                                                       SYS / PHASE SHIFT   
S L5I                                                       SYS / PHASE SHIFT   
R L1C                                                       SYS / PHASE SHIFT   
R L2P  0.00000                                              SYS / PHASE SHIFT   
R L2C                                                       SYS / PHASE SHIFT   
R L3Q  0.00000                                              SYS / PHASE SHIFT   
C L1P  0.00000                                              SYS / PHASE SHIFT   
C L5P  0.00000                                              SYS / PHASE SHIFT   
C L2I                                                       SYS / PHASE SHIFT   
C L7I                                                       SYS / PHASE SHIFT   
C L6I                                                       SYS / PHASE SHIFT   
C L7D                                                       SYS / PHASE SHIFT   
J L1C                                                       SYS / PHASE SHIFT   
J L2L  0.00000                                              SYS / PHASE SHIFT   
J L5Q  0.00000                                              SYS / PHASE SHIFT   
J L1L  0.00000                                              SYS / PHASE SHIFT   
I L5A                                                       SYS / PHASE SHIFT   
  2025     1     1     3     0    0.0000000     GPS         TIME OF FIRST OBS   
 C1C    0.000 C2C    0.000 C2P    0.000                     GLONASS COD/PHS/BIS 
DBHZ                                                        SIGNAL STRENGTH UNIT
    18                                                      LEAP SECONDS        
 24 R01  1 R02 -4 R03  5 R04  6 R05  1 R06 -4 R07  5 R08  6 GLONASS SLOT / FRQ #
    R09 -2 R10 -7 R11  0 R12 -1 R13 -2 R14 -7 R15  0 R16 -1 GLONASS SLOT / FRQ #
    R17  4 R18 -3 R19  3 R20  2 R21  4 R22 -3 R23  3 R24  2 GLONASS SLOT / FRQ #
                                                            END OF HEADER       
> 2025 01 01 03 00  0.0000000  0 55
G28         1.000    25540821.898 6 134217899.95206     -3694.839 6        36.223                                    25540820.983 2 104585348.05902     -2879.088 2        17.774    25540820.690 6 104585354.03106     -2879.055 6        36.896
G31         2.000    23211353.738 7 121976505.88507     -2835.481 7        43.016                                    23211348.930 6  95046616.78406     -2209.462 6        37.849    23211349.557 6  95046615.79406     -2209.472 6        39.568
G09         3.000    20603314.349 8 108271192.38008      1235.635 8        49.634                                    20603311.866 8  84367173.86208       962.832 8        51.695    20603312.008 7  84367174.86607       962.881 7        44.790
E34         4.000    24720858.257 7 129909000.10207      1198.773 7        46.239                                                                    24720858.226 8  97009976.23208       895.174 8        48.610    24720858.008 8  99540670.48908       918.545 8        49.538
S21         5.000    38539025.417 7 202523777.99407      -376.875 7        43.001
E05         6.000    23348728.311 7 122698434.97107      1603.555 7        45.707                                                                    23348728.454 8  91625483.08608      1197.475 8        48.919    23348728.122 8  94015705.29108      1228.674 8        49.858
E15         7.000    28892005.351 6 151828502.03406      2642.403 6        37.467                                                                    28892008.396 6 113378440.86806      1973.243 6        38.045    28892008.204 6 116336138.18706      2024.863 6        38.447
E04         8.000    26384434.031 6 138651160.39906     -2878.207 6        41.437                                                                    26384432.324 7 103538209.01007     -2149.303 7        44.757    26384432.018 7 106239197.72907     -2205.418 7        45.336
R14         9.000    24562951.239 6 130934347.12606     -3422.880 6        41.309                                                                    24562951.967 6 101837812.55206     -2662.163 6        38.520
G04        10.000    20162093.359 8 105952560.78108      -632.592 8        49.265                                    20162089.584 7  82560446.79107      -492.930 7        42.696    20162089.693 8  82560441.79408      -492.930 8        49.072
E09        11.000    23621530.222 8 124132029.37408      -969.681 8        48.604                                                                    23621529.435 8  92696013.58208      -724.102 8        50.916    23621528.946 8  95114169.63908      -743.007 8        51.237
S27        12.000    39167607.750 5 205827184.43005      -374.029 5        35.948
G06        13.000    21831105.071 7 114723261.04407      1506.481 7        46.175                                    21831103.269 7  89394753.97307      1173.879 7        46.607    21831104.245 7  89394764.97107      1173.875 7        43.903
S36        14.000    38306486.807 7 201302447.55007      -377.401 7        44.334
E21        15.000    28918241.542 5 151966396.03805      -699.047 5        31.947                                                                    28918242.228 6 113481442.33406      -522.054 6        36.832    28918241.392 6 116441822.20906      -535.548 6        36.994
E36        16.000    23899147.053 8 125590891.05308     -1739.087 8        48.238                                                                    23899147.368 8  93785422.17208     -1298.656 8        50.279    23899146.988 8  96231993.21008     -1332.538 8        51.002
S45        17.000    63498783.310 6 333689421.56906      -416.797 6        37.955
G03        18.000    21090445.967 7 110831096.21007     -2424.668 7        47.780                                    21090444.119 8  86361912.00108     -1889.351 8        48.444    21090444.603 7  86361921.00507     -1889.313 7        44.263
R21        19.000    21057871.881 8 112684956.39008     -3960.025 8        50.214                                                                    21057870.326 7  87643862.87607     -3080.006 7        45.482
R05        21.000    23437218.963 7 125285405.38407     -3820.856 7        43.081                                                                    23437218.409 6  97444208.56306     -2971.733 6        40.782
I06        22.000    38141184.781 7 149674428.66907      -215.146 7        43.606
S28        23.000    40971358.870 5 215305945.69405      -371.935 5        34.529
S23        25.000    38251349.313 7 201012207.41007      -372.704 7        44.479
E06        26.000    24408332.999 7 128266717.00307     -2080.651 7        46.434                                                                    24408332.568 8  95783586.95808     -1553.743 8        48.938    24408332.530 8  98282287.71108     -1594.206 8        50.044
R15        27.000    22340056.621 7 119378504.66607      -505.425 7        46.784                                                                    22340055.880 7  92849962.51907      -392.993 7        42.057
G26        28.000    24704296.699 6 129821960.70006      1254.446 6        37.369                                    24704295.820 4 101159971.20504       977.482 4        29.791    24704296.088 6 101159972.21106       977.639 6        36.215
C22        30.000                                                                                                                                    24698076.301 7 128609385.71107      2177.939 7        44.599                                                                    24698071.105 7 104505645.65207      1769.722 7        43.809
I01        31.000   335830444.716 7  14729990.14107     -2657.942 7        42.476
G02        32.000    24867998.010 6 130682234.97406     -3927.064 6        40.861                                    24867992.169 3 101830304.73503     -3060.047 3        23.848
G19        33.000    23142496.714 7 121614667.49507     -2549.054 7        42.279                                    23142491.016 4  94764695.38604     -1986.278 4        28.929
G17        34.000    24406951.519 7 128259429.59507     -3200.514 7        42.254                                    24406947.418 5  99942418.78105     -2493.907 5        33.210    24406948.159 5  99942418.79105     -2494.014 5        35.638
E11        35.000    26878115.989 6 141245509.52306     -3482.144 6        36.684                                                                    26878112.849 6 105475557.86806     -2600.358 6        40.934    26878112.584 6 108227087.05906     -2668.095 6        41.395
G11        36.000    24891381.233 6 130805109.59506      3071.228 6        38.811                                    24891378.469 3 101926056.30403      2393.154 3        22.343    24891379.214 6 101926056.30906      2393.002 6        38.492
C35        37.000                                                                                                                                    23458719.282 7 122155721.79007     -1873.410 7        46.740                                                                    23458718.124 7  99261528.81607     -1522.199 7        46.936
I09        38.000    37550182.788 7 147354978.73807      -550.486 7        43.435
C29        39.000                                                                                                                                    25671717.731 6 133679354.42206     -3763.460 6        40.806                                                                    25671717.121 7 108625415.50107     -3057.996 7        42.195
R22        40.000    20277879.802 8 108244736.23708       378.313 8        51.780                                                                    20277878.064 7  84190365.89207       294.282 7        47.653
S44        42.000    40794652.926 6 214377526.50806      -454.635 6        38.580
C09        43.000                                                                                                                                    38560895.321 7 200796725.84307      -413.583 7        42.468    38560891.745 7 155268757.13207      -319.781 7        46.366    38560889.744 7 163163769.07007      -335.871 7        42.199
C05        44.000                                                                                                                                    39242466.203 6 204345847.92606      -403.689 6        38.871    39242461.246 7 158013195.35507      -312.160 7        44.062    39242462.175 6 166047842.79006      -328.030 6        39.685
R06        45.000    19629510.496 6 104746887.39006     -1130.664 6        41.723
C44        46.000                                                                                                                                    24387815.978 7 126993794.60107       752.565 7        44.123                                                                    24387814.485 7 103192864.85207       611.556 7        43.685
C39        47.000                                                                                                                                    39661237.087 6 206526479.43406     -1329.785 6        40.338                                                                    39661233.107 6 167819670.82306     -1080.438 6        41.449
C20        48.000                                                                                                                                    23288057.878 8 121267073.57608     -2312.851 8        49.483                                                                    23288052.228 8  98539422.30308     -1879.329 8        48.546
C06        49.000                                                                                                                                    38548352.607 6 200731412.64106      -907.710 6        40.446    38548346.542 7 155218245.24707      -701.895 7        44.445    38548346.353 6 163110695.05006      -737.510 6        40.830
C16        50.000                                                                                                                                    39084999.926 7 203525870.35907      -982.283 7        42.193    39084999.257 7 157379122.66007      -759.527 7        43.088    39084997.241 6 165381440.07606      -798.074 6        39.234
S48        51.000    77284721.636 6 406134282.44406      -368.597 6        37.505
C19        52.000                                                                                                                                    22067395.784 8 114910784.91508        88.704 8        50.696                                                                    22067391.136 8  93374429.28908        72.134 8        49.685
C60        54.000                                                                                                                                    40794651.989 6 212428659.31206      -450.412 6        39.658                                                                    40794636.779 6 172615655.02506      -366.129 6        39.375
R16        55.000    22552851.188 7 120473292.32107      2839.474 7        46.285                                                                    22552851.885 7  93701467.38307      2208.534 7        43.350
C37        56.000                                                                                                                                    24847329.823 7 129386583.74307        74.729 7        44.044                                                                    24847333.037 7 105137216.49807        60.693 7        45.050
C02        57.000                                                                                                                                    40740839.012 5 212148275.36305      -446.489 5        34.248    40740831.583 6 164046496.13506      -345.144 6        39.165    40740834.842 5 172387853.57805      -362.827 5        35.810
I03        58.000   130980031.053 6 438208522.93906       948.182 6        40.870
R07        59.000    20776098.774 8 111216108.88508      1794.969 8        50.892                                                                    20776097.424 7  86501419.87907      1396.097 7        46.555
G07        60.000    24499212.537 6 128744239.86006      3033.596 6        41.139                                    24499208.903 5 100320176.52505      2363.837 5        33.251    24499209.309 6 100320177.53406      2363.811 6        36.178
> 2025 01 01 03 00  5.0000000  0 55
G28         1.000    25544338.508 5 134236378.26405     -3696.372 5        35.986                                    25544337.020 2 104599746.71702     -2880.269 2        17.094    25544337.559 6 104599752.71006     -2880.342 6        36.155
G31         2.000    23214052.765 7 121990690.70107     -2838.453 7        42.718                                    23214048.243 6  95057669.88606     -2211.780 6        37.660    23214048.894 6  95057668.88506     -2211.802 6        39.363
G09         3.000    20602139.592 8 108265020.30108      1233.245 8        49.783                                    20602137.358 8  84362364.45108       960.969 8        51.655    20602137.576 7  84362365.45307       960.934 7        44.742
E34         4.000    24719718.696 7 129903011.11007      1196.755 7        46.351                                                                    24719718.550 8  97005503.93308       893.646 8        48.633    24719718.352 8  99536081.52008       917.066 8        49.510
S21         5.000    38539384.202 7 202525662.90707      -377.036 7        42.967
E05         6.000    23347203.446 7 122690420.73007      1602.025 7        45.713                                                                    23347203.388 8  91619498.42708      1196.384 8        48.874    23347203.075 8  94009564.50408      1227.581 8        49.774
E15         7.000    28889491.005 5 151815290.43605      2642.047 5        35.962                                                                    28889494.323 6 113368575.11306      1972.898 6        38.871    28889493.791 6 116326015.05506      2024.355 6        39.958
E04         8.000    26387173.251 6 138665553.59706     -2878.962 6        41.313                                                                    26387171.262 7 103548957.17007     -2149.831 7        44.621    26387171.063 7 106250226.27307     -2205.950 7        45.407
R14         9.000    24566162.912 6 130951468.07206     -3425.452 6        41.504                                                                    24566164.622 6 101851128.86406     -2664.406 6        38.324
G04        10.000    20162696.374 8 105955730.33508      -635.265 8        49.395                                    20162692.726 7  82562916.57507      -495.012 7        42.660    20162692.841 8  82562911.57508      -494.995 8        48.819
E09        11.000    23622453.647 8 124136881.99708      -971.454 8        48.531                                                                    23622452.896 8  92699637.28608      -725.420 8        50.762    23622452.323 8  95117887.87208      -744.319 8        51.206
S27        12.000    39167964.693 5 205829054.53205      -374.579 5        35.995
G06        13.000    21829672.682 7 114715735.69707      1503.575 7        46.361                                    21829671.250 7  89388890.06707      1171.617 7        46.601    21829671.989 7  89388901.06807      1171.647 7        43.892
S36        14.000    38306846.468 7 201304334.83407      -377.504 7        44.295
E21        15.000    28918907.094 5 151969897.03305      -701.579 5        31.743                                                                    28918908.488 6 113484056.69506      -523.840 6        36.820    28918907.402 6 116444504.78406      -537.597 6        37.293
E36        16.000    23900802.878 8 125599592.17108     -1741.452 8        48.160                                                                    23900803.104 8  93791919.75708     -1300.391 8        50.272    23900802.795 8  96238660.29508     -1334.295 8        50.976
S45        17.000    63499136.832 6 333691505.57806      -416.946 6        37.955
G03        18.000    21092753.622 7 110843224.15007     -2426.553 7        47.340                                    21092751.999 8  86371362.33808     -1890.817 8        48.390    21092752.663 7  86371371.32907     -1890.769 7        44.331
R21        19.000    21061573.266 8 112704764.10708     -3963.095 8        50.278                                                                    21061572.182 7  87659268.87907     -3082.442 7        45.007
R05        21.000    23440793.525 7 125304509.68407     -3820.962 7        44.164                                                                    23440792.527 6  97459067.45006     -2971.837 6        41.030
I06        22.000    38141459.201 7 149675504.90107      -215.338 7        43.714
S28        23.000    40971712.589 5 215307806.18005      -372.176 5        34.952
S23        25.000    38251705.263 7 201014071.62207      -373.025 7        44.444
E06        26.000    24410313.281 7 128277123.33207     -2081.874 7        46.497                                                                    24410312.819 8  95791357.90908     -1554.672 8        48.810    24410312.793 8  98290261.39208     -1595.274 8        50.014
R15        27.000    22340531.422 7 119381043.08407      -509.996 7        47.118                                                                    22340531.264 7  92851936.86207      -396.673 7        42.275
G26        28.000    24703103.910 6 129815695.05906      1251.867 6        38.291                                    24703103.596 5 101155088.89205       975.482 5        30.317    24703104.196 6 101155089.89406       975.375 6        36.204
C22        30.000                                                                                                                                    24695985.912 7 128598498.15907      2177.078 7        44.712                                                                    24695980.231 7 104496798.61807      1769.233 7        44.101
I01        31.000   335833831.868 7  14743280.92107     -2658.199 7        42.451
G02        32.000    24871735.091 6 130701871.52206     -3927.516 6        40.949                                    24871728.836 3 101845605.94003     -3060.405 3        23.752
G19        33.000    23144923.381 7 121627419.11107     -2551.675 7        42.961                                    23144917.609 4  94774631.71004     -1988.319 4        28.967
G17        34.000    24409996.565 7 128275434.56207     -3201.444 7        42.110                                    24409993.169 5  99954890.17705     -2494.634 5        33.162    24409993.413 5  99954890.17405     -2494.751 5        35.986
E11        35.000    26881429.565 6 141262922.05506     -3482.989 6        36.703                                                                    26881426.428 6 105488560.72906     -2600.913 6        40.977    26881426.150 6 108240429.13206     -2668.878 6        41.471
G11        36.000    24888459.403 6 130789757.21306      3069.911 6        38.964                                    24888457.002 3 101914093.43503      2392.126 3        22.629    24888456.945 6 101914093.44606      2392.111 6        39.432
C35        37.000                                                                                                                                    23460519.600 7 122165095.57507     -1876.101 7        46.656                                                                    23460518.307 7  99269145.78507     -1524.377 7        46.962
I09        38.000    37550884.216 7 147357731.76507      -550.809 7        43.530
C29        39.000                                                                                                                                    25675331.539 6 133698172.13006     -3763.737 6        40.808                                                                    25675330.984 7 108640706.39907     -3058.204 7        42.207
R22        40.000    20277527.869 8 108242856.23508       373.605 8        51.910                                                                    20277525.805 7  84188903.66707       290.572 7        47.902
S44        42.000    40795087.237 6 214379799.95606      -454.801 6        38.480
C09        43.000                                                                                                                                    38561292.990 7 200798795.34507      -414.352 7        42.500    38561289.104 7 155270357.39807      -320.372 7        46.203    38561287.130 7 163165450.72207      -336.642 7        42.209
C05        44.000                                                                                                                                    39242854.246 6 204347866.79806      -403.892 6        38.862    39242848.846 7 158014756.47107      -312.353 7        44.050    39242850.017 6 166049483.27006      -328.075 6        39.676
R06        45.000    19630570.846 6 104752546.32506     -1133.101 6        41.990
C44        46.000                                                                                                                                    24387094.565 7 126990038.69707       749.774 7        44.209                                                                    24387093.304 7 103189812.87707       609.308 7        43.632
C39        47.000                                                                                                                                    39662514.350 6 206533129.51606     -1330.338 6        40.298                                                                    39662510.120 6 167825074.57506     -1080.990 6        41.330
C20        48.000                                                                                                                                    23290279.215 8 121278640.45808     -2313.975 8        49.698                                                                    23290273.474 8  98548821.34708     -1880.201 8        48.598
C06        49.000                                                                                                                                    38549224.708 6 200735953.51206      -908.689 6        40.451    38549218.512 7 155221756.53707      -702.701 7        44.190    38549218.432 6 163114384.86706      -738.177 6        40.875
C16        50.000                                                                                                                                    39085943.537 7 203530783.46507      -983.083 7        42.260    39085942.948 7 157382921.78307      -760.195 7        42.773    39085940.683 6 165385432.37006      -798.743 6        39.048
S48        51.000    77285071.902 6 406136125.39406      -368.754 6        37.270
C19        52.000                                                                                                                                    22067311.322 8 114910345.44508        87.026 8        50.680                                                                    22067306.806 8  93374072.18408        70.829 8        49.811
C60        54.000                                                                                                                                    40795084.699 6 212430912.10306      -450.791 6        39.658                                                                    40795069.252 6 172617485.57806      -366.043 6        39.231
R16        55.000    22550195.262 7 120459102.12307      2836.691 7        47.292                                                                    22550195.858 7  93690430.56007      2206.350 7        43.191
C37        56.000                                                                                                                                    24847260.032 7 129386217.24207        71.839 7        44.072                                                                    24847262.576 7 105136918.69007        58.481 7        45.112
C02        57.000                                                                                                                                    40741265.958 5 212150507.90005      -446.790 5        34.281    40741260.416 6 164048222.48306      -345.391 6        39.018    40741263.523 5 172389667.69705      -362.940 5        35.686
I03        58.000   130978823.081 6 438203782.71006       947.839 6        41.156
R07        59.000    20774422.759 8 111207138.94308      1792.956 8        50.503                                                                    20774421.974 7  86494443.26107      1394.515 7        46.767
G07        60.000    24496326.301 6 128729073.06606      3033.019 6        41.173                                    24496322.712 5 100308358.25105      2363.389 5        33.323    24496322.792 6 100308359.26106      2363.310 6        36.246
> 2025 01 01 03 00 10.0000000  0 55
G28         1.000    25547855.355 6 134254862.44606     -3697.447 6        36.026                                    25547854.188 2 104614149.99102     -2881.120 2        16.528    25547854.371 6 104614155.98406     -2881.134 6        36.907
G31         2.000    23216754.990 7 122004888.50407     -2840.870 7        42.916                                    23216749.957 6  95068733.10606     -2213.663 6        37.656    23216750.614 6  95068732.11906     -2213.853 6        38.913
G09         3.000    20600967.490 8 108258859.01308      1231.107 8        49.557                                    20600964.903 8  84357563.45008       959.302 8        51.660    20600965.269 7  84357564.45207       959.330 7        45.037
E34         4.000    24718580.675 7 129897030.87507      1195.146 7        46.082                                                                    24718580.539 8  97001038.17208       892.463 8        48.690    24718580.331 8  99531499.26408       915.745 8        49.573
S21         5.000    38539742.988 7 202527547.40107      -376.905 7        43.162
E05         6.000    23345679.300 7 122682412.31207      1601.066 7        45.899                                                                    23345679.393 8  91613518.11508      1195.621 8        48.939    23345679.131 8  94003428.18808      1226.822 8        49.854
E15         7.000    28886977.242 6 151802079.46306      2642.115 6        37.066                                                                    28886980.561 6 113358709.72506      1973.035 6        38.835    28886979.567 6 116315892.32506      2024.421 6        40.358
E04         8.000    26389912.459 6 138679948.47706     -2879.178 6        41.211                                                                    26389910.491 7 103559706.59807     -2150.042 7        44.697    26389910.378 7 106261256.12507     -2206.165 7        45.518
R14         9.000    24569377.143 6 130968601.71506     -3428.109 6        41.604                                                                    24569378.700 6 101864455.05206     -2666.217 6        38.697
G04        10.000    20163301.829 8 105958911.72108      -637.442 8        49.018                                    20163298.121 7  82565395.57607      -496.708 7        42.646    20163298.111 8  82565390.57608      -496.747 8        48.744
E09        11.000    23623378.542 8 124141741.91208      -972.758 8        48.468                                                                    23623377.704 8  92703266.44308      -726.431 8        50.842    23623377.152 8  95121611.70208      -745.311 8        51.275
S27        12.000    39168318.461 5 205830923.94605      -373.809 5        35.743
G06        13.000    21828243.600 7 114708223.37507      1501.125 7        46.122                                    21828241.681 7  89383036.30807      1169.705 7        46.622    21828242.557 7  89383047.31507      1169.696 7        43.964
S36        14.000    38307203.514 7 201306220.47907      -377.138 7        44.393
E21        15.000    28919575.095 5 151973409.30405      -704.103 5        30.875                                                                    28919576.850 6 113486679.48906      -525.518 6        36.669    28919576.222 6 116447195.97406      -538.927 6        37.070
E36        16.000    23902460.575 8 125608303.43008     -1743.268 8        48.331                                                                    23902460.768 8  93798424.92308     -1301.805 8        50.361    23902460.531 8  96245335.16208     -1335.741 8        50.984
S45        17.000    63499489.549 6 333693589.09806      -416.693 6        37.875
G03        18.000    21095063.049 7 110855360.19307     -2428.038 7        47.868                                    21095061.413 8  86380818.98808     -1891.978 8        48.341    21095061.594 7  86380827.98807     -1892.022 7        44.187
R21        19.000    21065277.761 8 112724585.59908     -3965.694 8        50.388                                                                    21065276.715 7  87674685.58007     -3084.429 7        46.164
R05        21.000    23444367.448 7 125323613.71807     -3820.882 7        43.947                                                                    23444366.814 6  97473926.12306     -2971.792 6        41.149
I06        22.000    38141733.372 7 149676580.89407      -215.217 7        43.687
S28        23.000    40972067.430 5 215309666.36005      -372.035 5        34.586
S23        25.000    38252059.048 7 201015935.47107      -372.717 7        44.491
E06        26.000    24412294.432 7 128287534.73107     -2082.892 7        46.322                                                                    24412294.090 8  95799132.65008     -1555.346 8        48.927    24412293.989 8  98298238.95108     -1595.930 8        50.028
R15        27.000    22341011.155 7 119383602.90607      -514.146 7        47.506                                                                    22341010.804 7  92853927.82507      -399.860 7        42.899
G26        28.000    24701914.575 6 129809440.64406      1249.776 6        38.348                                    24701913.519 5 101150215.33105       973.836 5        30.777    24701913.807 6 101150216.33506       973.830 6        36.435
C22        30.000                                                                                                                                    24693895.499 7 128587613.15207      2176.766 7        45.117                                                                    24693889.967 7 104487953.67607      1768.778 7        43.879
I01        31.000   335837218.916 7  14756571.85507     -2658.207 7        42.423
G02        32.000    24875471.838 6 130721509.21806     -3927.707 6        40.789                                    24875465.860 3 101860908.04103     -3060.552 3        23.333
G19        33.000    23147352.937 7 121640182.38407     -2553.962 7        42.550                                    23147346.353 4  94784577.12004     -1990.108 4        29.005
G17        34.000    24413042.546 7 128291442.50807     -3201.868 7        42.030                                    24413039.677 5  99967363.89705     -2494.960 5        33.425    24413039.526 6  99967363.89006     -2495.040 6        36.775
E11        35.000    26884743.468 6 141280337.51306     -3483.515 6        36.968                                                                    26884740.490 6 105501565.79906     -2601.430 6        40.920    26884740.330 6 108253773.44606     -2669.213 6        41.688
G11        36.000    24885539.227 6 130774409.18706      3068.914 6        39.297                                    24885536.250 3 101902133.96003      2391.356 3        22.343    24885536.402 6 101902133.95206      2391.435 6        38.459
C35        37.000                                                                                                                                    23462322.051 7 122174481.24707     -1878.306 7        46.959                                                                    23462320.710 7  99276772.40907     -1526.260 7        46.815
I09        38.000    37551585.929 7 147360484.99507      -550.735 7        43.482
C29        39.000                                                                                                                                    25678945.686 6 133716989.91606     -3763.610 6        41.130                                                                    25678944.653 7 108655997.38307     -3058.301 7        42.004
R22        40.000    20277179.801 8 108240998.34808       369.295 8        51.781                                                                    20277177.789 7  84187458.64507       287.243 7        47.501
S44        42.000    40795517.103 6 214382072.87606      -454.566 6        38.631
C09        43.000                                                                                                                                    38561690.873 7 200800867.96907      -414.870 7        42.514    38561687.170 7 155271960.10007      -320.793 7        46.239    38561685.230 7 163167134.90007      -337.139 7        42.045
C05        44.000                                                                                                                                    39243242.002 6 204349885.24206      -403.691 6        39.141    39243236.665 7 158016317.26607      -312.115 7        44.134    39243237.564 6 166051123.43706      -328.032 6        39.691
R06        45.000    19631634.013 7 104758215.54007     -1134.823 7        42.195
C44        46.000                                                                                                                                    24386375.855 7 126986295.59907       747.259 7        44.230                                                                    24386374.370 7 103186771.28807       607.288 7        43.511
C39        47.000                                                                                                                                    39663791.872 6 206539781.37006     -1330.422 6        40.293                                                                    39663787.524 6 167830479.74106     -1081.202 6        41.170
C20        48.000                                                                                                                                    23292501.319 8 121290211.47408     -2314.665 8        49.393                                                                    23292495.623 8  98558223.73708     -1880.826 8        48.522
C06        49.000                                                                                                                                    38550097.016 6 200740497.09106      -909.035 6        40.563    38550091.082 7 155225269.92207      -702.947 7        44.098    38550090.913 6 163118076.90406      -738.677 6        40.839
C16        50.000                                                                                                                                    39086887.663 7 203535698.98107      -983.369 7        42.191    39086886.952 7 157386722.78307      -760.465 7        43.098    39086884.586 6 165389426.65106      -798.981 6        39.102
S48        51.000    77285430.924 6 406137967.62106      -368.628 6        37.694
C19        52.000                                                                                                                                    22067228.429 8 114909912.75508        85.792 8        50.673                                                                    22067223.658 8  93373720.58708        69.736 8        49.780
C60        54.000                                                                                                                                    40795517.217 6 212433164.34106      -450.344 6        39.580                                                                    40795502.024 6 172619315.71906      -365.967 6        39.165
R16        55.000    22547541.782 7 120444923.62607      2834.506 7        46.983                                                                    22547541.621 7  93679402.83807      2204.652 7        43.416
C37        56.000                                                                                                                                    24847191.858 7 129385863.86107        69.302 7        44.230                                                                    24847194.718 7 105136631.54007        56.380 7        44.992
C02        57.000                                                                                                                                    40741695.623 5 212152739.98305      -446.422 5        34.443    40741688.766 6 164049948.46106      -345.217 6        39.240    40741692.280 5 172391481.44605      -362.619 5        35.867
I03        58.000   130977614.972 6 438199042.21406       948.155 6        41.287
R07        59.000    20772748.561 8 111198177.60808      1791.472 8        50.041                                                                    20772747.690 7  86487473.34107      1393.340 7        46.667
G07        60.000    24493440.569 6 128713907.35206      3032.984 6        41.299                                    24493436.691 5 100296540.82205      2363.358 5        33.413    24493437.180 5 100296541.83905      2363.276 5        35.948
> 2025 01 01 03 00 15.0000000  0 55
G28         1.000    25551374.486 5 134273353.31905     -3698.923 5        35.895                                    25551372.894 2 104628558.44602     -2882.250 2        16.868    25551372.717 6 104628564.42006     -2881.991 6        36.129
G31         2.000    23219459.254 7 122019100.36107     -2843.647 7        42.957                                    23219454.412 6  95079807.28606     -2215.829 6        37.732    23219455.226 6  95079806.27906     -2215.679 6        39.372
G09         3.000    20599797.320 8 108252709.51908      1228.748 8        49.481                                    20599794.693 8  84352771.64008       957.464 8        51.745    20599795.181 7  84352772.63807       957.476 7        44.862
E34         4.000    24717444.493 7 129891060.39707      1193.280 7        45.881                                                                    24717444.421 8  96996579.69708       891.085 8        48.599    24717444.213 8  99526924.47708       914.297 8        49.302
S21         5.000    38540103.467 7 202529432.20307      -376.808 7        42.919
E05         6.000    23344156.577 7 122674410.71907      1599.727 7        45.699                                                                    23344156.734 8  91607542.90808      1194.611 8        48.863    23344156.483 8  93997297.10008      1225.830 8        49.569
E15         7.000    28884463.592 5 151788870.16505      2641.638 5        34.676                                                                    28884466.097 6 113348845.69206      1972.828 6        37.577    28884465.837 6 116305770.97806      2024.242 6        39.462
E04         8.000    26392652.094 6 138694346.06306     -2879.823 6        41.154                                                                    26392650.368 7 103570458.04607     -2150.574 7        44.581    26392650.036 7 106272288.03307     -2206.604 7        45.236
R14         9.000    24572593.395 7 130985749.14307     -3430.750 7        42.011                                                                    24572595.743 6 101877791.93806     -2668.427 6        39.117
G04        10.000    20163909.548 8 105962105.94208      -640.021 8        48.955                                    20163905.971 7  82567884.58107      -498.717 7        42.688    20163906.098 8  82567879.58008      -498.662 8        48.805
E09        11.000    23624304.922 8 124146610.11208      -974.419 8        48.319                                                                    23624304.023 8  92706901.79208      -727.594 8        50.771    23624303.610 8  95125341.89008      -746.598 8        51.023
S27        12.000    39168673.257 5 205832794.11405      -373.877 5        35.752
G06        13.000    21826816.547 7 114700725.07407      1498.400 7        46.133                                    21826814.804 7  89377193.47807      1167.585 7        46.686    21826815.448 7  89377204.47907      1167.606 7        43.803
S36        14.000    38307561.422 7 201308106.39607      -376.875 7        44.448
E21        15.000    28920245.717 5 151976933.68205      -706.128 5        30.551                                                                    28920247.383 6 113489311.31506      -527.248 6        36.336    28920247.225 6 116449896.47706      -540.844 6        37.319
E36        16.000    23904120.363 7 125617025.84807     -1745.506 7        47.987                                                                    23904120.571 8  93804938.41608     -1303.487 8        50.240    23904120.358 8  96252018.57008     -1337.435 8        50.763
S45        17.000    63499844.950 6 333694072.98516      -416.707 6        37.577
G03        18.000    21097374.344 7 110867505.32207     -2429.896 7        47.839                                    21097372.522 8  86390282.72608     -1893.427 8        48.395    21097372.827 7  86390291.72607     -1893.435 7        43.973
R21        19.000    21068984.754 8 112744421.88108     -3968.629 8        50.954                                                                    21068983.559 7  87690113.80007     -3086.672 7        45.585
R05        21.000    23447940.393 7 125342718.51707     -3820.875 7        43.230                                                                    23447939.484 6  97488785.40706     -2971.666 6        40.465
I06        22.000    38142007.850 7 149677657.37407      -215.208 7        43.697
S28        23.000    40972420.465 5 215311527.05205      -371.629 5        34.333
S23        25.000    38252414.677 7 201017799.65907      -372.747 7        44.480
E06        26.000    24414276.916 7 128297952.16707     -2083.972 7        46.163                                                                    24414276.393 8  95806911.91008     -1556.176 8        48.795    24414276.366 8  98306221.15008     -1596.828 8        49.728
R15        27.000    22341494.328 7 119386185.21407      -518.580 7        47.889                                                                    22341494.003 7  92855936.28907      -403.387 7        42.722
G26        28.000    24700726.114 6 129803198.50406      1247.206 6        39.354                                    24700725.735 5 101145351.33105       971.845 5        31.283    24700725.459 5 101145352.32605       971.866 5        35.938
C22        30.000                                                                                                                                    24691805.732 7 128576731.68207      2176.089 7        44.886                                                                    24691800.378 7 104479111.59007      1768.175 7        43.809
I01        31.000   335840605.785 7  14769863.67807     -2658.343 7        42.504
G02        32.000    24879208.941 6 130741148.99306     -3927.970 6        40.818                                    24879203.108 3 101876211.74903     -3060.756 3        23.295
G19        33.000    23149783.705 7 121652958.27607     -2556.342 7        42.423                                    23149777.668 4  94794532.36404     -1991.956 4        29.109
G17        34.000    24416089.530 6 128307454.41906     -3202.691 6        41.936                                    24416086.909 5  99979840.70105     -2495.605 5        33.461    24416086.875 6  99979840.72506     -2495.551 6        36.442
E11        35.000    26888058.348 6 141297756.90006     -3484.323 6        36.420                                                                    26888055.223 6 105514573.76506     -2601.835 6        40.739    26888055.220 6 108267120.77006     -2669.877 6        41.628
G11        36.000    24882619.605 6 130759066.52106      3068.113 6        38.465                                    24882616.517 3 101890178.64103      2390.743 3        22.381    24882617.077 6 101890178.64006      2390.693 6        38.745
C35        37.000                                                                                                                                    23464127.014 7 122183879.80307     -1880.936 7        47.101                                                                    23464125.655 7  99284409.49607     -1528.337 7        46.730
I09        38.000    37552287.756 7 147363239.17407      -550.797 7        43.329
C29        39.000                                                                                                                                    25682559.576 6 133735808.79606     -3763.798 6        41.075                                                                    25682558.619 6 108671289.24106     -3058.291 6        41.673
R22        40.000    20276835.825 8 108239163.58808       364.726 8        51.639                                                                    20276834.294 7  84186031.60607       283.717 7        47.800
S44        42.000    40795951.373 6 214384346.26106      -454.588 6        38.348
C09        43.000                                                                                                                                    38562089.829 7 200802944.61007      -415.671 7        42.694    38562086.013 7 155273565.88407      -321.381 7        46.293    38562084.101 7 163168822.34007      -337.755 7        42.045
C05        44.000                                                                                                                                    39243629.630 6 204351904.26506      -403.839 6        39.141    39243624.239 7 158017878.50007      -312.136 7        44.048    39243625.271 6 166052764.04906      -328.080 6        39.637
R06        45.000    19632698.493 7 104763895.86807     -1137.171 7        42.284
C44        46.000                                                                                                                                    24385659.589 7 126982566.26307       744.642 7        44.033                                                                    24385658.151 7 103183740.90507       605.119 7        43.335
C39        47.000                                                                                                                                    39665069.615 6 206546435.93606     -1331.080 6        40.422                                                                    39665065.356 6 167835887.13106     -1081.744 6        40.844
C20        48.000                                                                                                                                    23294724.238 8 121301787.59008     -2315.661 8        49.198                                                                    23294718.623 8  98567630.27908     -1881.620 8        48.335
C06        49.000                                                                                                                                    38550970.199 6 200745044.43206      -909.585 6        40.627    38550964.265 7 155228786.19907      -703.522 7        43.905    38550964.384 6 163121771.96306      -739.049 6        40.763
C16        50.000                                                                                                                                    39087832.410 7 203540617.95307      -983.960 7        42.474    39087831.522 7 157390526.45407      -760.974 7        43.081    39087829.035 6 165393423.70306      -799.648 6        38.943
S48        51.000    77285776.889 6 406139810.45906      -368.721 6        37.747
C19        52.000                                                                                                                                    22067146.842 8 114909487.82208        84.311 8        50.762                                                                    22067142.113 8  93373375.29108        68.571 8        49.560
C60        54.000                                                                                                                                    40795949.739 6 212435417.07206      -450.564 6        39.652                                                                    40795934.689 6 172621146.23806      -366.113 6        39.279
R16        55.000    22544889.219 7 120430758.09007      2832.026 7        46.489                                                                    22544889.934 7  93668385.22107      2202.631 7        43.710
C37        56.000                                                                                                                                    24847126.577 7 129385524.56407        66.532 7        44.573                                                                    24847129.622 7 105136355.83807        54.011 7        44.805
C02        57.000                                                                                                                                    40742124.447 5 212154972.65505      -446.472 5        34.548    40742117.952 6 164051674.91306      -345.329 6        39.102    40742120.939 5 172393295.66905      -362.825 5        35.876
I03        58.000   130976407.191 6 438194302.20506       948.071 6        41.030
R07        59.000    20771076.643 8 111189225.42408      1789.567 8        49.617                                                                    20771075.232 7  86480510.52707      1391.928 7        46.422
G07        60.000    24490554.899 6 128698743.73606      3032.712 6        41.216                                    24490551.073 5 100284725.02005      2363.155 5        33.539    24490551.472 5 100284726.04405      2363.059 5        35.871
> 2025 01 01 03 00 20.0000000  0 55
G28         1.000    25554894.423 5 134291850.03405     -3699.731 5        35.105                                    25554892.750 2 104642971.47302     -2882.885 2        16.453    25554892.927 6 104642977.49106     -2883.027 6        36.200
G31         2.000    23222166.159 7 122033325.25207     -2846.229 7        42.696                                    23222161.434 6  95090891.61806     -2217.841 6        37.773    23222161.832 6  95090890.62206     -2217.810 6        39.871
G09         3.000    20598629.176 8 108246570.91308      1226.674 8        49.477                                    20598626.553 8  84347988.31108       955.848 8        51.718    20598626.669 7  84347989.31307       955.877 7        45.023
E34         4.000    24716310.200 7 129885098.76007      1191.504 7        45.854                                                                    24716309.942 8  96992127.83308       889.700 8        48.573    24716309.721 8  99522356.47408       912.980 8        49.279
S21         5.000    38540467.288 7 202531316.56907      -376.761 7        42.991
E05         6.000    23342635.089 7 122666415.04907      1598.534 7        45.407                                                                    23342635.247 8  91601572.11408      1193.752 8        48.877    23342634.936 8  93991170.55308      1224.908 8        49.591
E15         7.000    28881950.380 5 151775661.69905      2641.703 5        33.742                                                                    28881952.477 6 113338982.24806      1972.689 6        38.237    28881952.664 6 116295650.22406      2024.035 6        38.598
E04         8.000    26395392.070 6 138708745.36806     -2879.961 6        41.118                                                                    26395390.564 7 103581210.78107     -2150.656 7        44.748    26395390.152 7 106283321.27807     -2206.735 7        45.387
R14         9.000    24575813.426 6 131002909.27406     -3433.319 6        41.897                                                                    24575814.562 6 101891138.70906     -2670.364 6        39.435
G04        10.000    20164519.663 8 105965312.07208      -642.323 8        49.059                                    20164516.074 7  82570382.86507      -500.512 7        42.654    20164516.341 8  82570377.86008      -500.518 8        48.970
E09        11.000    23625232.794 8 124151485.67308      -975.741 8        48.367                                                                    23625231.829 8  92710542.64108      -728.682 8        50.806    23625231.368 8  95129077.71508      -747.667 8        51.018
S27        12.000    39169030.120 5 205834664.24205      -374.030 5        35.924
G06        13.000    21825392.228 7 114693239.88707      1495.762 7        46.277                                    21825390.427 7  89371360.86807      1165.529 7        46.667    21825391.128 7  89371371.86707      1165.518 7        44.196
S36        14.000    38307917.390 7 201309990.61207      -376.609 7        44.391
E21        15.000    28920919.042 5 151980469.32905      -708.158 5        30.430                                                                    28920920.227 6 113491951.61706      -528.800 6        36.786    28920919.835 6 116452605.66606      -542.727 6        37.845
E36        16.000    23905781.967 7 125625758.49207     -1747.533 7        47.800                                                                    23905782.348 8  93811459.53608     -1304.959 8        50.263    23905782.119 8  96258709.81208     -1339.002 8        50.737
S45        17.000    63500198.914 6 333696156.34806      -416.519 6        37.690
G03        18.000    21099686.960 7 110879658.65607     -2431.498 7        47.378                                    21099685.174 8  86399752.85108     -1894.678 8        48.359    21099685.716 7  86399761.85007     -1894.692 7        44.160
R21        19.000    21072693.685 8 112764271.93808     -3971.218 8        50.349                                                                    21072692.741 7  87705552.72907     -3088.814 7        45.883
R05        21.000    23451513.223 7 125361823.03907     -3820.900 7        42.478                                                                    23451513.516 6  97503644.50106     -2971.885 6        40.615
I06        22.000    38142282.029 7 149678733.68607      -215.170 7        43.627
S28        23.000    40972779.608 5 215313386.95405      -372.073 5        34.381
S23        25.000    38252767.009 7 201019663.23507      -372.612 7        44.491
E06        26.000    24416260.455 7 128308374.75007     -2084.972 7        46.114                                                                    24416259.794 8  95814695.00808     -1556.955 8        48.838    24416259.746 8  98314207.28408     -1597.575 8        49.695
