     3.04           OBSERVATION DATA    M                   RINEX VERSION / TYPE
ssrcrin-15.6.1x                         20250101 210000 UTC PGM / RUN BY / DATE 
(00000000023479385599111004) Septentrio proprietary         COMMENT             
rref                                                        MARKER NAME         
01                                                          MARKER NUMBER       
geodetic                                                    MARKER TYPE         
NFB                 CLIMERS@TUW                             OBSERVER / AGENCY   
3297213             SEPT ASTERX SB3 PROB4.14.4              REC # / TYPE / VERS 
Unknown             Unknown                                 ANT # / TYPE        
  4127831.5779  1207193.3558  4695247.7747                  APPROX POSITION XYZ 
        0.0000        0.0000        0.0000                  ANTENNA: DELTA H/E/N
G   23 X1  C1C L1C D1C S1C C1W S1W C2W L2W D2W S2W C2L L2L  SYS / # / OBS TYPES 
       D2L S2L C5Q L5Q D5Q S5Q C1L L1L D1L S1L              SYS / # / OBS TYPES 
E   21 X1  C1C L1C D1C S1C C6C L6C D6C S6C C5Q L5Q D5Q S5Q  SYS / # / OBS TYPES 
       C7Q L7Q D7Q S7Q C8Q L8Q D8Q S8Q                      SYS / # / OBS TYPES 
S    9 X1  C1C L1C D1C S1C C5I L5I D5I S5I                  SYS / # / OBS TYPES 
R   17 X1  C1C L1C D1C S1C C2P L2P D2P S2P C2C L2C D2C S2C  SYS / # / OBS TYPES 
       C3Q L3Q D3Q S3Q                                      SYS / # / OBS TYPES 
C   25 X1  C1P L1P D1P S1P C5P L5P D5P S5P C2I L2I D2I S2I  SYS / # / OBS TYPES 
       C7I L7I D7I S7I C6I L6I D6I S6I C7D L7D D7D S7D      SYS / # / OBS TYPES 
J   17 X1  C1C L1C D1C S1C C2L L2L D2L S2L C5Q L5Q D5Q S5Q  SYS / # / OBS TYPES 
       C1L L1L D1L S1L                                      SYS / # / OBS TYPES 
I    5 X1  C5A L5A D5A S5A                                  SYS / # / OBS TYPES 
SEPTENTRIO RECEIVERS OUTPUT ALIGNED CARRIER PHASES.         COMMENT             
NO FURTHER PHASE SHIFT APPLIED IN THE RINEX ENCODER.        COMMENT             
G L1C                                                       SYS / PHASE SHIFT   
G L2W                                                       SYS / PHASE SHIFT   
G L2L  0.00000                                              SYS / PHASE SHIFT   
G L5Q  0.00000                                              SYS / PHASE SHIFT   
G L1L  0.00000                                              SYS / PHASE SHIFT   
E L1C  0.00000                                              SYS / PHASE SHIFT   
E L6C  0.00000                                              SYS / PHASE SHIFT   
E L5Q  0.00000                                              SYS / PHASE SHIFT   
E L7Q  0.00000                                              SYS / PHASE SHIFT   
E L8Q  0.00000                                              SYS / PHASE SHIFT   
S L1C                                                       SYS / PHASE SHIFT   
S L5I                                                       SYS / PHASE SHIFT   
R L1C                                                       SYS / PHASE SHIFT   
R L2P  0.00000                                              SYS / PHASE SHIFT   
R L2C                                                       SYS / PHASE SHIFT   
R L3Q  0.00000                                              SYS / PHASE SHIFT   
C L1P  0.00000                                              SYS / PHASE SHIFT   
C L5P  0.00000                                              SYS / PHASE SHIFT   
C L2I                                                       SYS / PHASE SHIFT   
C L7I                                                       SYS / PHASE SHIFT   
C L6I                                                       SYS / PHASE SHIFT   
C L7D                                                       SYS / PHASE SHIFT   
J L1C                                                       SYS / PHASE SHIFT   
J L2L  0.00000                                              SYS / PHASE SHIFT   
J L5Q  0.00000                                              SYS / PHASE SHIFT   
J L1L  0.00000                                              SYS / PHASE SHIFT   
I L5A                                                       SYS / PHASE SHIFT   
  2025     1     1    21     0    0.0000000     GPS         TIME OF FIRST OBS   
 C1C    0.000 C2C    0.000 C2P    0.000                     GLONASS COD/PHS/BIS 
DBHZ                                                        SIGNAL STRENGTH UNIT
    18                                                      LEAP SECONDS        
 24 R01  1 R02 -4 R03  5 R04  6 R05  1 R06 -4 R07  5 R08  6 GLONASS SLOT / FRQ #
    R09 -2 R10 -7 R11  0 R12 -1 R13 -2 R14 -7 R15  0 R16 -1 GLONASS SLOT / FRQ #
    R17  4 R18 -3 R19  3 R20  2 R21  4 R22 -3 R23  3 R24  2 GLONASS SLOT / FRQ #
                                                            END OF HEADER       
> 2025 01 01 21 00  0.0000000  0 53
G10         1.000    20745502.550 8 109018453.08608      -630.173 8        51.475                                    20745500.431 8  84949506.17408      -491.043 8        52.795    20745500.548 7  84949483.18207      -491.093 7        45.917
G15         2.000    24980538.517 5 131273612.85705     -3315.078 5        35.562                                    24980535.765 4 102291113.15904     -2583.181 4        24.376    24980536.231 5 102291116.17105     -2583.274 5        33.587
C33         3.000                                                                                                                                    22817564.901 8 118817075.50108       474.004 8        50.003                                                                    22817576.230 8  96548665.65108       385.158 8        49.004
E31         4.000    26557667.893 6 139561525.87706      1145.622 6        40.260                                                                    26557668.660 7 104218033.02607       855.445 7        44.008    26557668.192 7 106936761.06907       877.802 7        44.552
S21         5.000    38478924.884 7 202207831.06807      -515.681 7        42.036
E13         6.000    24414706.553 7 128300496.02107     -2080.282 7        45.276                                                                    24414706.730 8  95809019.32808     -1553.487 8        48.664    24414706.412 8  98308354.60208     -1594.000 8        49.783
G23         7.000    22221279.987 7 116773737.55407     -3167.446 7        45.011                                    22221275.721 5  90992559.99605     -2468.140 5        33.281    22221276.169 7  90992558.99807     -2468.209 7        43.809
E15         8.000    28803620.444 5 151364342.30705     -2996.220 5        33.701                                                                    28803622.907 6 113031977.57306     -2237.484 6        37.134    28803622.181 6 115980614.77506     -2295.822 6        37.180
G02         9.000    24289905.023 6 127644347.72206      2242.742 6        41.042                                    24289898.761 3  99463119.19603      1747.591 3        23.390
S27        12.000    39193968.400 6 205965629.58906      -483.289 6        36.170
R20        13.000    20518781.657 6 109723198.68606      1533.991 6        39.877                                                                    20518783.952 7  85340332.58807      1193.085 7        47.191
S36        14.000    38248066.243 7 200995459.62607      -514.475 7        43.604
G27        15.000    20273885.146 8 106540266.71708     -1543.570 8        50.327                                    20273882.822 8  83018547.73908     -1202.781 8        52.724    20273883.170 7  83018461.73507     -1202.785 7        46.010
S45        17.000    63458463.670 6 333477944.25406      -560.291 6        37.531
E08        18.000    26359461.993 7 138519944.22607       846.256 7        42.163                                                                    26359460.817 7 103440218.97607       631.866 7        44.668    26359460.331 7 106138655.29807       648.324 7        45.511
G16        19.000    23691391.843 6 124499347.59406     -4173.406 6        41.213                                    23691388.131 4  97012593.79304     -3251.980 4        25.594
E21        20.000    26520679.593 6 139367470.55706     -3545.114 6        41.514                                                                    26520680.020 7 104073323.47007     -2647.349 7        44.126    26520679.559 7 106788254.97407     -2716.289 7        45.478
E26        21.000    23668955.781 7 124381549.00807       252.356 7        47.999                                                                    23668953.440 8  92882522.46008       188.428 8        50.424    23668953.108 8  95305520.36508       193.355 8        51.080
I06        22.000    38607039.138 6 151502530.64206      -296.425 6        40.682
S28        23.000    40940657.690 5 215144602.88505      -507.568 5        33.401
G08        24.000    20634936.461 8 108437338.13408       864.753 8        49.102                                    20634934.668 8  84496627.48608       673.837 8        50.066    20634935.494 7  84496628.48607       673.901 7        45.980
S23        25.000    38203458.830 7 200760521.55407      -514.105 7        43.900
C13        26.000                                                                                                                                    39041767.107 6 203300925.55806     -1548.137 6        40.286    39041769.545 7 157205281.53407     -1197.121 7        42.076    39041767.856 6 165198741.19906     -1257.929 6        40.136
G18        27.000    25134719.796 6 132084167.44806     -3674.831 6        36.340                                    25134717.809 3 102922893.91903     -2863.506 3        18.955    25134716.898 6 102922884.91706     -2863.633 6        37.372
R21        29.000    24685919.904 6 132099335.83506      2879.091 6        40.293                                                                    24685917.745 5 102743928.13405      2239.423 5        33.515
C14        30.000                                                                                                                                    23226047.276 7 120944156.34307     -1225.950 7        45.825    23226042.693 8  93521690.51608      -948.037 8        50.988    23226041.294 8  98277021.86508      -996.211 8        48.227
R05        31.000    22353387.072 7 119491673.91707      3818.573 7        46.722                                                                    22353386.790 6  92937971.76906      2970.010 6        41.969
E03        32.000    27647913.591 6 145290769.21506     -1577.320 6        37.471                                                                    27647915.425 6 108496364.26606     -1177.879 6        41.199    27647915.124 6 111326697.77206     -1208.633 6        41.762
R03        34.000    21687152.732 7 116093058.10307     -2920.977 7        47.268                                                                    21687151.793 7  90294622.88907     -2271.936 7        44.224
R10        35.000    21929726.658 7 116897835.32407     -2888.709 7        43.118
R18        36.000    23293596.360 7 124343184.49407     -3706.434 7        42.199                                                                    23293598.185 7  96711565.69007     -2882.787 7        42.281
G32        37.000    24223004.602 7 127292759.49507      2581.234 7        42.068                                    24223003.840 6  99189158.56906      2011.352 6        37.682    24223004.135 6  99189167.57306      2011.325 6        39.823
E07        38.000    27418877.825 6 144087163.44706      2414.875 6        37.958                                                                    27418880.494 7 107597586.07907      1803.356 7        43.092    27418879.522 7 110404473.06407      1850.431 7        43.204
C41        39.000                                                                                                                                    24666430.930 7 128444584.27907      2759.151 7        43.839                                                                    24666436.973 7 104371770.17307      2242.016 7        45.270
R09        40.000    23450331.209 7 125223485.45507     -4623.374 7        43.700                                                                    23450331.997 7  97396057.64207     -3596.036 7        42.334
E33        41.000    26847842.847 6 141086437.70806      1777.449 6        40.441                                                                    26847841.874 7 105356783.57307      1327.175 7        42.709    26847841.552 7 108105217.89607      1361.887 7        43.488
S44        42.000    40510205.919 6 212882752.19106      -524.619 6        37.357
C38        43.000                                                                                                                                    41130424.889 6 214177050.11406     -1743.284 6        37.682                                                                    41130423.839 6 174036455.34506     -1416.510 6        36.272
C05        44.000                                                                                                                                    39241378.660 6 204340180.42406      -455.208 6        37.856    39241373.850 7 158008810.67007      -352.053 7        42.690    39241376.086 6 166043235.81106      -369.809 6        39.883
C08        45.000                                                                                                                                    39641265.695 6 206422650.19606     -1749.005 6        37.739    39641259.539 6 159619160.07006     -1352.587 6        41.175    39641258.708 6 167735361.45206     -1421.304 6        38.003
R11        46.000    22471129.468 7 120078906.17807       807.785 7        45.571                                                                    22471128.785 7  93394704.95007       628.396 7        44.126
R19        47.000    20416373.305 6 109214194.38106     -2268.347 6        40.415                                                                    20416372.573 7  84944539.91507     -1764.275 7        44.873
C43        48.000                                                                                                                                    25051482.711 7 130449949.28607     -3249.819 7        44.742                                                                    25051481.332 7 106001392.31507     -2640.762 7        42.739
C42        50.000                                                                                                                                    24724564.870 7 128747335.71607     -2660.758 7        43.604                                                                    24724572.517 7 104617803.40207     -2162.087 7        44.963
S48        51.000    77229769.254 6 405846428.73106      -547.368 6        37.425
G21        52.000    22212460.675 6 116727335.57106      1694.025 6        41.790                                    22212455.734 4  90956385.60604      1320.017 4        28.303
C37        53.000                                                                                                                                    26751549.112 6 139302309.95506     -3446.416 6        39.417                                                                    26751555.204 6 113194549.87606     -2800.769 6        39.216
C60        54.000                                                                                                                                    40510207.469 6 210947473.81806      -519.815 6        40.174                                                                    40510191.238 6 171412070.05906      -422.427 6        39.207
C27        55.000                                                                                                                                    22833658.450 8 118900866.47708      1550.790 8        48.572                                                                    22833656.546 7  96616697.18107      1260.101 7        47.572
R04        56.000    20228240.173 8 108321325.27408       960.816 8        51.640                                                                    20228238.302 7  84249911.94907       747.246 7        46.438
C02        57.000                                                                                                                                    40584568.477 5 211334540.98905      -472.812 5        33.994    40584561.932 6 163417264.98706      -365.459 6        39.829    40584565.496 5 171726627.67305      -384.064 5        35.343
I03        58.000   109016227.307 6 352017841.55806      1018.754 6        39.913
C28        60.000                                                                                                                                    21502370.117 8 111968798.27908      -727.395 8        50.879                                                                    21502368.837 8  90983956.20108      -591.080 8        48.669
> 2025 01 01 21 00  5.0000000  0 53
G10         1.000    20746103.330 8 109021610.79308      -633.162 8        51.606                                    20746101.319 8  84951966.72508      -493.371 8        52.716    20746101.077 7  84951943.73007      -493.422 7        45.654
G15         2.000    24983693.436 5 131290194.77305     -3317.640 5        35.000                                    24983691.210 4 102304034.15604     -2585.182 4        24.331    24983690.911 5 102304037.15505     -2585.081 5        33.665
C33         3.000                                                                                                                                    22817111.002 8 118814712.18708       471.122 8        50.066                                                                    22817122.404 8  96546745.28108       382.819 8        49.165
E31         4.000    26556578.750 6 139555802.52906      1143.558 6        40.415                                                                    26556579.558 7 104213759.10007       853.978 7        44.126    26556579.066 7 106932375.65107       876.169 7        44.560
S21         5.000    38479414.070 6 202210408.65006      -515.492 6        41.909
E13         6.000    24416686.263 7 128310898.91107     -2081.127 7        45.275                                                                    24416686.270 8  95816787.71908     -1554.028 8        48.594    24416685.953 8  98316325.65008     -1594.569 8        49.721
G23         7.000    22224294.358 7 116789579.45407     -3169.422 7        45.034                                    22224290.301 5  91004904.33105     -2469.681 5        33.126    22224290.633 7  91004903.33007     -2469.671 7        43.382
E15         8.000    28806470.466 5 151379322.76605     -2996.100 5        33.132                                                                    28806473.603 6 113043164.26306     -2237.444 6        36.885    28806472.860 6 115992093.29006     -2295.588 6        36.979
G02         9.000    24287770.748 6 127633135.15506      2242.077 6        40.682                                    24287765.140 3  99454382.14203      1747.069 3        23.638
S27        12.000    39194422.153 6 205968045.75206      -483.247 6        36.310
R20        13.000    20517349.178 6 109715531.90406      1532.573 6        39.808                                                                    20517349.990 7  85334369.54307      1192.005 7        47.219
S36        14.000    38248557.138 7 200998031.81207      -514.581 7        43.719
G27        15.000    20275355.263 8 106547991.30908     -1546.438 8        50.315                                    20275352.743 8  83024566.90008     -1205.015 8        52.617    20275353.283 7  83024480.90007     -1205.007 7        46.299
S45        17.000    63458944.615 6 333479144.31316      -560.266 6        37.773
E08        18.000    26358657.374 7 138515718.15607       844.170 7        42.190                                                                    26358656.477 7 103437063.14907       630.304 7        44.631    26358656.080 7 106135417.14307       646.805 7        45.577
G16        19.000    23695362.950 6 124520215.80506     -4174.150 6        41.380                                    23695359.232 4  97028854.72204     -3252.584 4        25.293
E21        20.000    26524052.872 6 139385197.37606     -3545.955 6        41.912                                                                    26524053.510 7 104086561.01507     -2647.920 7        44.372    26524052.858 7 106801837.85307     -2716.946 7        45.290
E26        21.000    23668716.025 8 124380289.65308       251.215 8        48.103                                                                    23668713.807 8  92881582.03308       187.590 8        50.359    23668713.443 8  95304555.40608       192.517 8        51.166
I06        22.000    38607417.386 6 151504012.84706      -296.484 6        40.617
S28        23.000    40941138.778 5 215147141.43405      -507.812 5        33.653
G08        24.000    20634114.960 8 108433020.05808       862.249 8        48.934                                    20634112.963 8  84493262.75108       671.884 8        49.994    20634114.023 7  84493263.74707       671.970 7        45.977
S23        25.000    38203948.661 7 200763091.84407      -514.178 7        44.044
C13        26.000                                                                                                                                    39043254.072 6 203308666.03806     -1548.190 6        40.298    39043256.049 7 157211266.97307     -1197.224 7        42.121    39043254.236 6 165205030.98406     -1257.926 6        40.267
G18        27.000    25138216.327 6 132102542.11706     -3675.080 6        36.862                                    25138214.278 3 102937211.79903     -2863.678 3        18.657    25138214.296 6 102937202.79506     -2863.683 6        37.493
R21        29.000    24683229.395 6 132084939.26706      2879.370 6        40.646                                                                    24683229.325 5 102732730.85205      2239.561 5        35.381
C14        30.000                                                                                                                                    23227224.992 7 120950292.76507     -1228.861 7        45.539    23227221.280 8  93526435.58708      -950.203 8        51.091    23227219.769 8  98282008.21908      -998.513 8        48.273
R05        31.000    22349815.648 7 119472583.91407      3817.264 7        46.614                                                                    22349815.434 7  92923123.99307      2969.004 7        42.106
E03        32.000    27649415.603 6 145298660.74906     -1579.576 6        37.716                                                                    27649417.088 6 108502257.26006     -1179.580 6        40.949    27649416.847 6 111332744.49906     -1210.234 6        41.862
R03        34.000    21689883.080 7 116107671.76007     -2924.666 7        47.042                                                                    21689881.891 7  90305989.07107     -2274.783 7        44.256
R10        35.000    21932437.422 7 116912287.29807     -2892.267 7        43.325
R18        36.000    23297067.866 6 124361717.78106     -3707.047 6        41.793                                                                    23297069.692 6  96725980.46906     -2883.328 6        41.650
G32        37.000    24220549.092 7 127279855.39807      2580.372 7        42.015                                    24220548.204 6  99179103.43806      2010.680 6        37.490    24220548.940 6  99179112.42506      2010.798 6        39.814
E07        38.000    27416580.520 6 144075089.21506      2414.690 6        38.036                                                                    27416582.903 7 107588569.61907      1803.112 7        43.240    27416581.824 7 110395221.39207      1850.155 7        43.168
C41        39.000                                                                                                                                    24663782.589 7 128430790.54007      2758.114 7        43.827                                                                    24663788.017 7 104360561.64907      2241.205 7        45.558
R09        40.000    23454659.673 7 125246603.75307     -4624.169 7        43.554                                                                    23454662.057 6  97414038.51306     -3596.645 6        41.507
E33        41.000    26846151.844 6 141077551.62906      1776.812 6        40.627                                                                    26846150.990 7 105350147.87107      1326.824 7        42.580    26846150.608 7 108098409.08307      1361.522 7        43.577
S44        42.000    40510705.725 6 212885375.28406      -524.793 6        37.414
C38        43.000                                                                                                                                    41132098.516 6 214185765.83006     -1743.352 6        37.671                                                                    41132097.430 6 174043537.56606     -1416.474 6        36.465
C05        44.000                                                                                                                                    39241815.323 6 204342456.12606      -455.392 6        38.123    39241810.938 7 158010570.37507      -352.046 7        42.804    39241813.133 6 166045085.01606      -370.064 6        39.985
C08        45.000                                                                                                                                    39642945.145 6 206431395.41606     -1749.135 6        37.701    39642939.360 6 159625922.41606     -1352.484 6        41.759    39642938.053 6 167742467.65406     -1421.471 6        38.054
R11        46.000    22470375.287 7 120074877.05007       803.564 7        45.077                                                                    22470373.943 7  93391571.19307       624.988 7        43.678
R19        47.000    20418494.267 6 109225540.05606     -2270.101 6        40.400                                                                    20418493.665 7  84953364.32707     -1765.665 7        44.784
C43        48.000                                                                                                                                    25054603.656 7 130466199.65107     -3250.457 7        44.470                                                                    25054602.070 7 106014597.07807     -2641.239 7        42.639
C42        50.000                                                                                                                                    24727120.166 7 128760644.55007     -2662.996 7        43.738                                                                    24727128.405 7 104628617.93107     -2163.825 7        45.106
S48        51.000    77230261.312 6 405849165.36906      -547.438 6        37.724
G21        52.000    22210849.734 6 116718868.40506      1692.589 6        41.573                                    22210844.541 4  90949787.81404      1318.895 4        28.152
C37        53.000                                                                                                                                    26754858.299 6 139319541.59306     -3446.579 6        39.928                                                                    26754864.390 6 113208551.97206     -2800.650 6        39.811
C60        54.000                                                                                                                                    40510706.613 6 210950073.06906      -519.956 6        40.272                                                                    40510690.164 6 171414182.17106      -422.436 6        39.447
C27        55.000                                                                                                                                    22832169.435 8 118893114.86308      1549.753 8        48.520                                                                    22832167.911 7  96610398.37007      1259.261 7        47.578
R04        56.000    20227345.209 8 108316531.89808       956.344 8        51.258                                                                    20227343.470 7  84246183.76607       743.793 7        46.644
C02        57.000                                                                                                                                    40585022.395 5 211336904.32405      -472.858 5        34.319    40585015.753 6 163419092.48806      -365.778 6        39.799    40585019.307 5 171728548.09505      -384.116 5        35.838
I03        58.000   109014928.990 6 352012747.64406      1018.604 6        39.952
C28        60.000                                                                                                                                    21503069.099 8 111972439.02608      -729.091 8        50.836                                                                    21503068.026 8  90986914.61708      -592.454 8        48.773
> 2025 01 01 21 00 10.0000000  0 53
G10         1.000    20746707.257 8 109024783.34608      -636.058 8        51.547                                    20746705.037 8  84954438.84308      -495.628 8        52.672    20746705.248 7  84954415.84907      -495.630 7        45.857
G15         2.000    24986850.819 5 131306788.36205     -3319.828 5        34.524                                    24986848.873 4 102316964.24204     -2586.892 4        24.226    24986848.295 5 102316967.25605     -2586.931 5        33.365
C33         3.000                                                                                                                                    22816660.121 8 118812363.40308       468.242 8        50.194                                                                    22816671.370 8  96544836.71008       380.410 8        49.302
E31         4.000    26555491.704 6 139550089.44606      1141.525 6        40.131                                                                    26555492.385 7 104209492.84007       852.454 7        43.977    26555491.835 7 106927998.10007       874.716 7        44.564
S21         5.000    38479904.665 7 202212986.49107      -515.383 7        42.345
E13         6.000    24418666.711 7 128321305.69407     -2081.753 7        45.464                                                                    24418666.702 8  95824559.02408     -1554.619 8        48.608    24418666.286 8  98324299.68308     -1595.162 8        49.721
G23         7.000    22227310.775 7 116805430.87407     -3171.303 7        44.922                                    22227306.737 5  91017256.09305     -2471.145 5        33.108    22227307.413 7  91017255.09507     -2471.088 7        43.471
E15         8.000    28809321.314 5 151394302.92105     -2996.115 5        32.623                                                                    28809324.360 6 113054350.65206     -2237.162 6        37.059    28809323.566 6 116003571.52806     -2295.752 6        36.370
G02         9.000    24285637.971 6 127621925.65706      2241.556 6        40.145                                    24285632.104 3  99445647.47103      1746.663 3        23.352
S27        12.000    39194882.726 6 205970462.34906      -483.443 6        36.280
R20        13.000    20515916.678 6 109707872.46406      1531.002 6        40.186                                                                    20515917.965 7  85328412.19007      1190.878 7        47.454
S36        14.000    38249047.130 7 201000604.41407      -514.760 7        44.029
G27        15.000    20276827.834 8 106555730.27208     -1549.280 8        50.295                                    20276825.418 8  83030597.25808     -1207.230 8        52.587    20276825.935 7  83030511.25607     -1207.240 7        46.039
S45        17.000    63459429.795 6 333481944.77206      -560.099 6        37.588
E08        18.000    26357855.595 6 138511502.99506       841.977 6        41.692                                                                    26357854.272 7 103433915.46507       628.747 7        44.564    26357853.937 7 106132187.35207       645.055 7        45.430
G16        19.000    23699335.078 6 124541087.93106     -4174.897 6        41.697                                    23699330.972 4  97045118.70004     -3253.167 4        25.474
E21        20.000    26527426.807 6 139402928.10206     -3546.656 6        41.869                                                                    26527427.697 7 104099801.47607     -2648.378 7        44.450    26527426.942 7 106815423.73107     -2717.489 7        45.198
E26        21.000    23668477.393 8 124379035.97408       250.050 8        48.055                                                                    23668475.240 8  92880645.83908       186.763 8        50.339    23668474.861 8  95303594.79208       191.636 8        51.052
I06        22.000    38607794.548 6 151505495.17206      -296.580 6        40.615
S28        23.000    40941620.001 5 215149680.12105      -507.897 5        33.880
G08        24.000    20633295.474 8 108428714.80808       859.752 8        49.026                                    20633293.708 8  84489908.00708       669.936 8        49.944    20633294.620 7  84489909.00607       669.878 7        45.598
S23        25.000    38204436.966 7 200765662.37807      -514.321 7        44.178
C13        26.000                                                                                                                                    39044740.718 6 203316407.03006     -1548.159 6        40.627    39044742.514 7 157217252.78607     -1197.269 7        42.193    39044740.799 6 165211321.18706     -1258.199 6        40.448
G18        27.000    25141713.558 6 132120917.86006     -3675.118 6        37.350                                    25141711.163 3 102951530.51603     -2863.721 3        18.746    25141710.917 6 102951521.50306     -2863.959 6        37.493
R21        29.000    24680538.138 6 132070541.93106      2879.364 6        39.294                                                                    24680537.655 5 102721532.96405      2239.642 5        32.928
C14        30.000                                                                                                                                    23228406.111 7 120956443.87607     -1231.752 7        45.448    23228402.449 8  93531192.01708      -952.479 8        51.015    23228401.027 8  98287006.51308     -1000.897 8        48.431
R05        31.000    22346245.541 7 119453500.99507      3815.833 7        46.337                                                                    22346246.051 7  92908281.73207      2967.957 7        43.058
E03        32.000    27650920.099 6 145306563.90006     -1581.844 6        37.490                                                                    27650921.105 6 108508158.96006     -1181.196 6        41.166    27650920.863 6 111338800.14906     -1212.079 6        41.983
R03        34.000    21692616.138 7 116122304.35107     -2928.508 7        46.934                                                                    21692615.056 7  90317369.96207     -2277.677 7        43.568
R10        35.000    21935151.269 7 116926756.78107     -2895.746 7        43.613
R18        36.000    23300540.880 7 124380254.51307     -3707.824 7        42.023                                                                    23300542.751 6  96740397.90806     -2883.770 6        41.788
G32        37.000    24218094.172 7 127266955.48907      2579.528 7        42.138                                    24218093.310 6  99169051.55706      2010.021 6        37.395    24218093.871 6  99169060.54206      2010.136 6        39.550
E07        38.000    27414283.050 6 144063016.95906      2414.186 6        37.845                                                                    27414285.567 7 107579554.61607      1802.828 7        43.227    27414284.501 7 110385971.21207      1849.811 7        43.149
C41        39.000                                                                                                                                    24661134.972 7 128417002.27507      2757.058 7        44.218                                                                    24661140.034 7 104349357.58107      2240.274 7        45.463
R09        40.000    23458990.294 7 125269725.11407     -4624.634 7        44.113                                                                    23458991.039 6  97432021.74706     -3597.015 6        41.430
E33        41.000    26844461.856 6 141068668.11306      1776.453 6        40.582                                                                    26844460.593 7 105343514.08407      1326.484 7        42.700    26844460.111 7 108091602.24307      1361.174 7        43.245
S44        42.000    40511205.970 6 212887998.82406      -524.715 6        37.508
C38        43.000                                                                                                                                    41133772.166 6 214194481.08706     -1742.918 6        37.803                                                                    41133771.057 6 174050619.44506     -1416.497 6        36.321
C05        44.000                                                                                                                                    39242252.920 6 204344732.19106      -455.311 6        38.156    39242247.985 7 158012330.38607      -352.191 7        42.690    39242250.288 6 166046934.51706      -370.114 6        40.193
C08        45.000                                                                                                                                    39644624.021 6 206440140.78006     -1749.131 6        37.679    39644618.579 6 159632684.88906     -1352.466 6        41.790    39644617.283 6 167749573.99406     -1421.527 6        38.327
R11        46.000    22469625.697 7 120070869.41107       799.214 7        45.136                                                                    22469624.312 7  93388454.15907       621.601 7        44.494
R19        47.000    20420616.159 6 109236894.71406     -2271.912 6        40.737                                                                    20420615.996 7  84962195.73707     -1767.025 7        44.784
C43        48.000                                                                                                                                    25057724.986 7 130482453.75707     -3251.215 7        44.188                                                                    25057723.428 7 106027804.88407     -2641.976 7        42.542
C42        50.000                                                                                                                                    24729678.420 7 128773964.33307     -2665.083 7        44.354                                                                    24729686.300 7 104639441.35907     -2165.760 7        45.148
S48        51.000    77230761.481 6 405851902.47606      -547.396 6        37.648
G21        52.000    22209239.561 6 116710408.17606      1691.299 6        41.325                                    22209234.636 4  90943195.43004      1317.899 4        28.009
C37        53.000                                                                                                                                    26758167.799 6 139336773.30806     -3446.465 6        40.048                                                                    26758173.574 6 113222554.14606     -2800.576 6        39.532
C60        54.000                                                                                                                                    40511205.655 6 210952672.75706      -519.945 6        40.338                                                                    40511189.510 6 171416294.64906      -422.628 6        39.535
C27        55.000                                                                                                                                    22830682.043 8 118885368.50808      1548.728 8        48.664                                                                    22830680.313 7  96604103.82707      1258.417 7        47.853
R04        56.000    20226454.271 8 108311760.97508       951.833 8        51.246                                                                    20226452.717 7  84242473.05007       740.338 7        46.488
C02        57.000                                                                                                                                    40585476.475 5 211339268.13505      -472.884 5        34.186    40585470.065 6 163420920.32206      -365.628 6        39.733    40585473.150 5 171730468.90205      -384.450 5        35.519
I03        58.000   109013631.328 6 352007654.15406      1018.606 6        39.979
C28        60.000                                                                                                                                    21503770.010 8 111976088.45208      -730.775 8        50.877                                                                    21503768.808 8  90989880.08808      -593.861 8        48.917
> 2025 01 01 21 00 15.0000000  0 53
G10         1.000    20747313.588 8 109027970.09908      -638.911 8        51.490                                    20747311.461 8  84956922.02708      -497.852 8        52.767    20747311.505 7  84956899.02707      -497.844 7        45.997
G15         2.000    24990010.421 5 131323392.84105     -3322.096 5        33.347                                    24990008.508 3 102329902.80803     -2588.647 3        23.867    24990009.439 5 102329905.80405     -2588.683 5        33.371
C33         3.000                                                                                                                                    22816211.500 8 118810028.49408       465.421 8        50.026                                                                    22816222.952 8  96542939.40208       378.132 8        49.369
E31         4.000    26554406.377 6 139544386.00206      1139.648 6        40.472                                                                    26554407.064 7 104205233.79307       850.954 7        43.964    26554406.592 7 106923627.94307       873.184 7        44.667
S21         5.000    38480396.343 6 202215564.24506      -515.759 6        41.924
E13         6.000    24420647.745 7 128331715.71107     -2082.603 7        45.946                                                                    24420647.650 8  95832332.72808     -1555.090 8        48.411    24420647.243 8  98332276.18208     -1595.692 8        49.783
G23         7.000    22230329.041 7 116821291.16407     -3173.096 7        44.564                                    22230324.962 5  91029614.75105     -2472.543 5        33.251    22230325.543 7  91029613.75307     -2472.520 7        43.884
E15         8.000    28812172.126 5 151409281.96305     -2995.768 5        33.216                                                                    28812174.871 6 113065536.26206     -2237.052 6        36.847    28812174.106 6 116015048.95606     -2295.476 6        36.374
G02         9.000    24283505.310 6 127610718.61106      2240.908 6        40.973                                    24283499.511 3  99436914.72803      1746.163 3        23.448
S27        12.000    39195343.920 6 205972878.93706      -483.450 6        36.393
R20        13.000    20514485.969 6 109700219.73506      1529.782 6        40.131                                                                    20514486.877 7  85322460.08207      1189.834 7        47.360
S36        14.000    38249536.669 7 201003177.59107      -514.835 7        43.805
G27        15.000    20278303.205 8 106563482.93208     -1552.062 8        50.494                                    20278300.705 8  83036638.29008     -1209.397 8        52.708    20278300.935 7  83036552.28907     -1209.361 7        45.868
S45        17.000    63459922.040 6 333484744.81506      -560.253 6        37.406
E08        18.000    26357055.494 7 138507298.08707       839.734 7        42.245                                                                    26357054.078 7 103430775.43607       627.185 7        44.345    26357053.636 7 106128965.40507       643.509 7        45.466
G16        19.000    23703307.544 6 124561963.25006     -4175.624 6        41.826                                    23703303.306 4  97061385.18204     -3253.734 4        25.564
E21        20.000    26530801.451 6 139420662.06706     -3547.264 6        41.764                                                                    26530802.370 7 104113044.36607     -2648.922 7        44.363    26530801.625 7 106829012.07807     -2718.056 7        45.225
E26        21.000    23668239.517 8 124377787.28908       248.999 8        48.274                                                                    23668237.618 8  92879713.38008       185.978 8        50.252    23668237.256 8  95302638.01008       190.825 8        51.186
I06        22.000    38608172.027 6 151506977.10106      -296.405 6        40.694
S28        23.000    40942100.544 5 215152218.46605      -507.635 5        33.629
G08        24.000    20632478.745 8 108424421.74408       857.229 8        48.802                                    20632476.765 8  84486562.75708       667.972 8        50.039    20632477.683 7  84486563.76507       667.933 7        45.403
S23        25.000    38204925.590 7 200768232.45807      -514.037 7        44.089
C13        26.000                                                                                                                                    39046227.372 6 203324147.93906     -1548.251 6        40.498    39046228.995 6 157223238.51806     -1197.264 6        41.962    39046227.422 6 165217611.29206     -1258.208 6        40.608
G18        27.000    25145209.716 6 132139293.98806     -3675.656 6        37.989                                    25145207.891 3 102965849.53603     -2864.133 3        19.313    25145207.872 6 102965840.51806     -2863.996 6        37.573
R21        29.000    24677847.599 6 132056143.25906      2879.630 6        38.357                                                                    24677846.838 5 102710333.92105      2239.899 5        32.096
C14        30.000                                                                                                                                    23229590.264 7 120962608.98907     -1234.581 7        45.508    23229586.086 8  93535959.26808      -954.618 8        50.800    23229585.056 8  98292016.17508     -1003.293 8        48.529
R05        31.000    22342676.803 7 119434424.20807      3814.544 7        46.500                                                                    22342677.839 7  92893444.25607      2966.793 7        43.702
E03        32.000    27652425.840 6 145314477.95906     -1584.085 6        37.459                                                                    27652427.151 6 108514068.79806     -1182.924 6        41.180    27652427.006 7 111344864.16507     -1213.740 7        42.224
R03        34.000    21695353.367 7 116136955.09107     -2932.159 7        47.152                                                                    21695352.024 7  90328764.97107     -2280.600 7        44.033
R10        35.000    21937869.951 7 116941243.32707     -2899.119 7        43.217
R18        36.000    23304014.734 7 124398793.92507     -3708.295 7        42.404                                                                    23304016.094 7  96754817.46307     -2884.223 7        42.398
G32        37.000    24215640.045 7 127254059.10407      2578.744 7        42.415                                    24215639.127 6  99159002.42506      2009.412 6        37.614    24215639.879 6  99159011.41206      2009.505 6        39.808
E07        38.000    27411985.689 6 144050945.95706      2413.845 6        38.123                                                                    27411988.610 7 107570540.56107      1802.687 7        43.039    27411987.605 7 110376722.00507      1849.663 7        43.259
C41        39.000                                                                                                                                    24658488.046 7 128403218.82107      2756.054 7        44.683                                                                    24658492.886 7 104338157.40207      2239.476 7        45.500
R09        40.000    23463321.539 7 125292848.91607     -4624.940 7        45.251                                                                    23463321.428 6  97450006.92406     -3597.294 6        40.605
E33        41.000    26842771.393 6 141059786.50906      1776.041 6        40.846                                                                    26842770.474 7 105336881.71807      1326.195 7        42.595    26842770.021 7 108084796.86307      1360.817 7        43.558
S44        42.000    40511706.658 6 212890622.15406      -524.639 6        37.361
C38        43.000                                                                                                                                    41135445.450 6 214203195.31906     -1742.935 6        38.339                                                                    41135444.497 6 174057700.46806     -1416.231 6        36.677
C05        44.000                                                                                                                                    39242690.008 6 204347007.97506      -455.390 6        37.807    39242684.970 7 158014090.13907      -351.984 7        42.599    39242687.313 6 166048783.76706      -370.168 6        40.365
C08        45.000                                                                                                                                    39646303.560 6 206448885.66106     -1748.914 6        37.493    39646297.875 6 159639447.00306     -1352.515 6        41.530    39646296.587 6 167756679.93306     -1421.379 6        38.381
R11        46.000    22468879.595 7 120066882.63007       795.152 7        44.799                                                                    22468878.271 7  93385353.32307       618.492 7        42.495
R19        47.000    20422741.269 6 109248257.77306     -2273.688 6        39.706                                                                    20422740.326 7  84971033.65907     -1768.419 7        44.581
C43        48.000                                                                                                                                    25060847.030 7 130498710.94907     -3251.898 7        43.695                                                                    25060845.450 7 106041015.16707     -2642.356 7        42.574
C42        50.000                                                                                                                                    24732238.491 7 128787294.42007     -2667.109 7        44.105                                                                    24732246.219 7 104650273.14707     -2167.391 7        45.242
S48        51.000    77231260.491 6 405853038.95516      -547.283 6        37.410
G21        52.000    22207630.738 6 116701954.19206      1690.002 6        40.815                                    22207625.849 4  90936607.91004      1316.885 4        28.246
C37        53.000                                                                                                                                    26761476.872 6 139354004.44606     -3446.386 6        40.422                                                                    26761482.466 6 113236555.84606     -2800.517 6        39.616
C60        54.000                                                                                                                                    40511704.738 6 210955272.24006      -520.096 6        40.241                                                                    40511688.646 6 171418406.93506      -422.606 6        39.526
C27        55.000                                                                                                                                    22829195.462 8 118877626.75308      1547.689 8        48.660                                                                    22829193.579 7  96597813.01607      1257.611 7        47.883
R04        56.000    20225567.972 8 108307011.81408       947.497 8        51.183                                                                    20225565.718 7  84238779.25907       736.973 7        46.938
C02        57.000                                                                                                                                    40585930.336 5 211341631.73905      -472.791 5        33.988    40585923.725 6 163422748.00606      -365.697 6        39.498    40585927.091 5 171732389.51605      -384.405 5        35.724
I03        58.000   109012333.004 6 352002560.57206      1018.701 6        39.958
C28        60.000                                                                                                                                    21504472.357 8 111979745.91708      -732.468 8        50.756                                                                    21504471.190 8  90992852.06908      -595.234 8        49.026
> 2025 01 01 21 00 20.0000000  0 53
G10         1.000    20747922.882 8 109031171.05208      -641.818 8        51.762                                    20747920.590 8  84959416.27508      -500.117 8        52.706    20747920.405 7  84959393.27907      -500.132 7        45.592
G15         2.000    24993172.214 5 131340008.28505     -3324.313 5        33.174                                    24993170.236 3 102342849.90003     -2590.383 3        22.895    24993170.298 5 102342852.90705     -2590.272 5        33.329
C33         3.000                                                                                                                                    22815765.855 8 118807707.45108       462.658 8        49.775                                                                    22815777.187 8  96541053.36508       375.819 8        49.428
E31         4.000    26553322.870 6 139538692.22006      1137.589 6        40.617                                                                    26553323.643 7 104200981.95507       849.492 7        44.065    26553323.050 7 106919265.18107       871.596 7        44.838
S21         5.000    38480884.787 6 202218141.83306      -516.060 6        41.476
E13         6.000    24422628.985 7 128342128.94807     -2083.112 7        45.636                                                                    24422629.282 8  95840108.84508     -1555.565 8        48.485    24422628.807 8  98340255.15708     -1596.156 8        49.919
G23         7.000    22233349.109 7 116837160.32307     -3174.906 7        44.272                                    22233344.809 5  91041980.32805     -2473.954 5        33.150    22233345.106 7  91041979.31907     -2473.922 7        44.143
E15         8.000    28815022.466 5 151424260.04305     -2995.863 5        33.138                                                                    28815025.076 6 113076721.14206     -2237.134 6        37.350    28815024.463 6 116026525.59606     -2295.250 6        36.586
G02         9.000    24281373.019 6 127599513.98206      2240.577 6        39.955                                    24281367.053 3  99428183.85603      1745.893 3        23.181
S27        12.000    39195800.593 6 205975294.98406      -483.344 6        36.287
R20        13.000    20513055.311 6 109692573.81606      1528.242 6        40.117                                                                    20513057.265 7  85316513.24907      1188.654 7        47.020
S36        14.000    38250025.494 7 201005751.21207      -514.783 7        43.359
G27        15.000    20279781.253 8 106571249.30808     -1554.868 8        50.529                                    20279778.599 8  83042690.01108     -1211.586 8        52.614    20279779.367 7  83042604.01907     -1211.632 7        45.801
S45        17.000    63460405.673 6 333487544.45706      -560.044 6        37.350
E08        18.000    26356257.198 7 138503103.43207       837.653 7        42.330                                                                    26356255.809 7 103427643.07307       625.558 7        44.361    26356255.436 7 106125751.32907       641.853 7        45.600
G16        19.000    23707280.463 6 124582841.75006     -4176.265 6        41.750                                    23707276.330 4  97077654.13404     -3254.222 4        25.444
E21        20.000    26534176.690 6 139438399.26206     -3548.084 6        41.616                                                                    26534177.514 7 104126289.65807     -2649.461 7        44.507    26534176.942 7 106842602.90207     -2718.650 7        45.193
E26        21.000    23668002.999 8 124376543.64408       248.060 8        48.246                                                                    23668000.970 8  92878784.68508       185.203 8        50.284    23668000.608 8  95301685.08108       190.077 8        51.270
I06        22.000    38608550.293 6 151508458.67006      -296.490 6        40.875
S28        23.000    40942585.907 5 215154756.13805      -507.604 5        33.192
G08        24.000    20631663.919 8 108420140.84608       854.833 8        48.776                                    20631662.138 8  84483226.99308       666.104 8        49.921    20631663.236 7  84483227.98507       666.095 7        45.386
S23        25.000    38205414.991 7 200770802.02707      -513.987 7        43.831
C13        26.000                                                                                                                                    39047713.846 6 203331888.71506     -1548.323 6        40.937    39047715.328 6 157229224.17206     -1197.408 6        41.774    39047714.108 6 165223901.30106     -1258.262 6        40.555
G18        27.000    25148706.785 6 132157670.49806     -3675.628 6        37.648                                    25148704.937 3 102980168.86203     -2864.137 3        19.164    25148704.457 6 102980159.83506     -2864.147 6        37.353
R21        29.000    24675157.218 6 132041743.11506      2879.872 6        39.135                                                                    24675157.522 5 102699133.87505      2239.893 5        33.509
C14        30.000                                                                                                                                    23230776.954 7 120968788.10707     -1237.357 7        45.451    23230772.770 8  93540737.36008      -956.856 8        50.705    23230771.611 8  98297037.21208     -1005.616 8        48.618
R05        31.000    22339109.691 7 119415354.06107      3813.211 7        46.849                                                                    22339109.946 7  92878611.90407      2965.898 7        43.139
E03        32.000    27653934.132 6 145322403.04006     -1586.611 6        37.629                                                                    27653935.361 6 108519986.88206     -1184.548 6        41.440    27653935.192 7 111350936.64007     -1215.403 7        42.313
