     3.04           OBSERVATION DATA    M                   RINEX VERSION / TYPE
ssrcrin-15.6.1x                         20250101 054500 UTC PGM / RUN BY / DATE 
(00000000023479385599111004) Septentrio proprietary         COMMENT             
rref                                                        MARKER NAME         
01                                                          MARKER NUMBER       
geodetic                                                    MARKER TYPE         
NFB                 CLIMERS@TUW                             OBSERVER / AGENCY   
3297213             SEPT ASTERX SB3 PROB4.14.4              REC # / TYPE / VERS 
Unknown             Unknown                                 ANT # / TYPE        
  4127831.9127  1207192.9228  4695247.6003                  APPROX POSITION XYZ 
        0.0000        0.0000        0.0000                  ANTENNA: DELTA H/E/N
G   23 X1  C1C L1C D1C S1C C1W S1W C2W L2W D2W S2W C2L L2L  SYS / # / OBS TYPES 
       D2L S2L C5Q L5Q D5Q S5Q C1L L1L D1L S1L              SYS / # / OBS TYPES 
E   21 X1  C1C L1C D1C S1C C6C L6C D6C S6C C5Q L5Q D5Q S5Q  SYS / # / OBS TYPES 
       C7Q L7Q D7Q S7Q C8Q L8Q D8Q S8Q                      SYS / # / OBS TYPES 
S    9 X1  C1C L1C D1C S1C C5I L5I D5I S5I                  SYS / # / OBS TYPES 
R   17 X1  C1C L1C D1C S1C C2P L2P D2P S2P C2C L2C D2C S2C  SYS / # / OBS TYPES 
       C3Q L3Q D3Q S3Q                                      SYS / # / OBS TYPES 
C   25 X1  C1P L1P D1P S1P C5P L5P D5P S5P C2I L2I D2I S2I  SYS / # / OBS TYPES 
       C7I L7I D7I S7I C6I L6I D6I S6I C7D L7D D7D S7D      SYS / # / OBS TYPES 
J   17 X1  C1C L1C D1C S1C C2L L2L D2L S2L C5Q L5Q D5Q S5Q  SYS / # / OBS TYPES 
       C1L L1L D1L S1L                                      SYS / # / OBS TYPES 
I    5 X1  C5A L5A D5A S5A                                  SYS / # / OBS TYPES 
SEPTENTRIO RECEIVERS OUTPUT ALIGNED CARRIER PHASES.         COMMENT             
NO FURTHER PHASE SHIFT APPLIED IN THE RINEX ENCODER.        COMMENT             
G L1C                                                       SYS / PHASE SHIFT   
G L2W                                                       SYS / PHASE SHIFT   
G L2L  0.00000                                              SYS / PHASE SHIFT   
G L5Q  0.00000                                              SYS / PHASE SHIFT   
G L1L  0.00000                                              SYS / PHASE SHIFT   
E L1C  0.00000                                              SYS / PHASE SHIFT   
E L6C  0.00000                                              SYS / PHASE SHIFT   
E L5Q  0.00000                                              SYS / PHASE SHIFT   
E L7Q  0.00000                                              SYS / PHASE SHIFT   
E L8Q  0.00000                                              SYS / PHASE SHIFT   
S L1C                                                       SYS / PHASE SHIFT   
S L5I                                                       SYS / PHASE SHIFT   
R L1C                                                       SYS / PHASE SHIFT   
R L2P  0.00000                                              SYS / PHASE SHIFT   
R L2C                                                       SYS / PHASE SHIFT   
R L3Q  0.00000                                              SYS / PHASE SHIFT   
C L1P  0.00000                                              SYS / PHASE SHIFT   
C L5P  0.00000                                              SYS / PHASE SHIFT   
C L2I                                                       SYS / PHASE SHIFT   
C L7I                                                       SYS / PHASE SHIFT   
C L6I                                                       SYS / PHASE SHIFT   
C L7D                                                       SYS / PHASE SHIFT   
J L1C                                                       SYS / PHASE SHIFT   
J L2L  0.00000                                              SYS / PHASE SHIFT   
J L5Q  0.00000                                              SYS / PHASE SHIFT   
J L1L  0.00000                                              SYS / PHASE SHIFT   
I L5A                                                       SYS / PHASE SHIFT   
  2025     1     1     5    45    0.0000000     GPS         TIME OF FIRST OBS   
 C1C    0.000 C2C    0.000 C2P    0.000                     GLONASS COD/PHS/BIS 
DBHZ                                                        SIGNAL STRENGTH UNIT
    18                                                      LEAP SECONDS        
 24 R01  1 R02 -4 R03  5 R04  6 R05  1 R06 -4 R07  5 R08  6 GLONASS SLOT / FRQ #
    R09 -2 R10 -7 R11  0 R12 -1 R13 -2 R14 -7 R15  0 R16 -1 GLONASS SLOT / FRQ #
    R17  4 R18 -3 R19  3 R20  2 R21  4 R22 -3 R23  3 R24  2 GLONASS SLOT / FRQ #
                                                            END OF HEADER       
> 2025 01 01 05 45  0.0000000  0 56
G16         1.000    24178623.765 6 127059536.54006     -2657.555 6        38.820                                    24178619.946 3  99007413.33503     -2070.812 3        18.209
R01         2.000    23483115.602 6 125530706.79906      3150.771 6        39.712                                                                    23483115.566 5  97635062.15505      2450.715 5        32.431
G09         3.000    21399037.638 7 112452735.63907     -2698.961 7        46.224                                    21399035.859 7  87625516.60007     -2103.081 7        46.192    21399035.696 7  87625517.59307     -2103.047 7        43.079
E34         4.000    25797776.730 7 135568230.00807     -3116.893 7        44.135                                                                    25797777.276 7 101236020.60607     -2327.494 7        46.133    25797777.152 7 103876959.95707     -2388.200 7        46.738
S21         5.000    38365128.425 7 201609929.94607      -407.066 7        43.850
E05         6.000    21822855.555 8 114679924.75108      -853.644 8        48.742                                                                    21822855.159 8  85637636.11508      -637.504 8        51.040    21822854.878 8  87871653.43308      -654.148 8        51.764
E15         7.000    25328233.928 7 133100789.39807      -684.121 7        44.393                                                                    25328234.251 7  99393470.81507      -510.868 7        47.189    25328233.827 7 101986341.64907      -524.193 7        47.976
R10         8.000    20249154.211 8 107939391.85908      2415.274 8        48.204
E31         9.000    26220169.711 7 137787931.82007      -885.591 7        42.218                                                                    26220170.532 7 102893609.49407      -661.275 7        44.349    26220170.244 7 105577788.59307      -678.511 7        45.397
G04        10.000    23733893.096 6 124722443.74206     -3439.982 6        39.622                                    23733892.635 4  97186316.72504     -2680.497 4        24.256    23733892.740 6  97186311.70906     -2680.514 6        40.603
E09        11.000    26503290.195 6 139275749.34606     -2645.684 6        41.988                                                                    26503291.527 7 104004626.40607     -1975.695 7        44.579    26503291.235 7 106717790.82307     -2027.238 7        45.457
S27        12.000    39008665.170 6 204991835.44506      -425.243 6        37.335
G06        13.000    23763643.160 6 124878799.42706     -3816.598 6        40.403                                    23763642.561 5  97308155.79605     -2973.969 5        35.543    23763643.245 6  97308166.79206     -2974.048 6        39.682
S36        14.000    38133288.836 7 200392290.76607      -407.297 7        44.823
G20        15.000    20978266.786 7 110241547.14507      1166.881 7        47.846                                    20978261.881 6  85902486.75506       909.260 6        37.081
R11        16.000    23840030.502 7 127393894.72807      4222.855 7        42.959                                                                    23840030.873 6  99084138.98806      3284.530 6        40.010
S45        17.000    63317229.362 6 332735210.73306      -448.553 6        37.149
E13        18.000    27866769.361 6 146440865.09506      1778.133 6        38.318                                                                    27866770.853 6 109355178.29806      1327.770 6        41.635    27866770.447 7 112207923.21707      1362.457 7        42.252
E24        19.000    25961543.518 7 136428820.75607      1656.322 7        43.520                                                                    25961543.100 7 101878676.44907      1236.789 7        46.708    25961542.465 7 104536377.61307      1269.140 7        47.513
R23        20.000    22882497.930 7 122405928.12407     -4057.050 7        42.973
G30        21.000    21165929.811 8 111227735.76508      1630.097 8        49.391                                    21165927.837 8  86670971.03008      1270.207 8        48.726    21165928.299 7  86670975.03507      1270.121 7        43.818
I06        22.000    37883639.529 7 148663759.56007      -306.668 7        43.917
S28        23.000    40794247.864 5 214375148.84205      -408.879 5        35.367
S23        25.000    38070270.264 7 200060596.59807      -403.971 7        45.067
E06        26.000    28510889.842 5 149825665.20205     -2882.445 5        35.919                                                                    28510899.326 6 111882762.50006     -2152.596 6        38.634    28510898.029 6 114801446.30306     -2208.574 6        38.405
C34        27.000                                                                                                                                    25890541.633 6 134818845.92906     -1856.096 6        41.187                                                                    25890541.603 6 109551360.77106     -1508.373 6        39.375
G13        28.000    24431990.853 6 128390982.78906      2914.321 6        38.658                                    24431986.425 2 100044901.38702      2270.913 2        14.905
R09        29.000    19946678.399 8 106514158.40108     -1265.673 8        49.775                                                                    19946677.281 8  82844349.44708      -984.440 8        48.470
C22        30.000                                                                                                                                    21391271.260 8 111389991.30308       -70.493 8        51.932                                                                    21391264.543 8  90513479.58908       -57.299 8        49.273
I01        31.000   341954867.671 6  38763512.00506     -2933.200 6        41.721
E03        32.000    24763592.427 7 130133575.94107      1339.407 7        45.576                                                                    24763591.980 8  97177690.17708      1000.235 8        48.668    24763591.651 8  99712754.11908      1026.363 8        49.276
G05        33.000    23272217.274 7 122296352.52707      2923.750 7        42.698                                    23272212.822 6  95295858.16306      2278.246 6        36.930    23272213.117 6  95295861.16506      2278.371 6        39.153
R24        34.000    22333496.780 7 119427263.30307      -704.112 7        45.979                                                                    22333495.305 6  92887875.05606      -547.659 6        41.704
C36        35.000                                                                                                                                    22078121.874 8 114966582.10208       809.884 8        51.294                                                                    22078126.454 8  93419787.96808       658.062 8        49.960
G11        36.000    22577431.571 7 118645228.22007     -2272.451 7        44.951                                    22577428.040 5  92450825.95505     -1770.740 5        32.545    22577428.130 7  92450825.95407     -1770.743 7        43.456
I09        38.000    38342561.424 7 150464417.36007      -800.851 7        42.379
R08        39.000    19676337.904 8 105365913.57208      1065.434 8        50.578                                                                    19676335.695 7  81951268.32007       828.659 7        46.726
E25        40.000    27779354.573 6 145981506.63206      2728.487 6        37.422                                                                    27779357.888 6 109012171.00106      2037.511 6        39.471    27779357.425 6 111855958.38106      2090.603 6        40.639
S44        42.000    40752098.895 6 214153847.29106      -462.983 6        37.161
C09        43.000                                                                                                                                    39399962.702 6 205165963.55406     -1197.954 6        38.985    39399960.341 7 158647326.40007      -926.452 7        44.709    39399958.376 6 166714130.61306      -973.505 6        39.769
C05        44.000                                                                                                                                    39157229.909 6 203901981.88206      -462.786 6        39.670    39157225.346 7 157669964.90807      -357.875 7        43.189    39157227.554 6 165687161.22306      -375.985 6        39.970
R06        45.000    23772396.523 5 126854029.40405     -3876.875 5        31.789
C44        46.000                                                                                                                                    26632308.604 6 138681432.33906     -3140.445 6        38.748                                                                    26632306.839 6 112690023.83506     -2552.088 6        36.212
R17        47.000    24159490.986 6 129282321.32506      2463.072 6        41.035                                                                    24159491.702 6 100552920.33506      1915.707 6        38.237
C06        49.000                                                                                                                                    40114128.034 6 208884790.81006     -1455.167 6        37.304    40114124.061 6 161522948.00806     -1125.240 6        40.443    40114122.945 6 169735977.49006     -1182.335 6        36.692
C16        50.000                                                                                                                                    40682315.626 6 211843485.04406     -1418.575 6        37.675    40682317.014 6 163810822.97006     -1097.049 6        39.147    40682314.128 5 172140177.69705     -1152.609 5        34.062
S48        51.000    77095803.278 6 405140285.54006      -392.679 6        38.574
C19        52.000                                                                                                                                    23700237.312 8 123413399.58208     -2720.058 8        48.160                                                                    23700233.646 7 100283496.20407     -2210.282 7        47.591
C12        53.000                                                                                                                                    26025011.078 6 135519050.77106     -2764.888 6        39.559    26025007.576 7 104791906.25007     -2138.103 7        43.026    26025006.415 6 110120305.16406     -2246.777 6        40.012
C60        54.000                                                                                                                                    40752102.314 6 212207012.88706      -458.726 6        40.984                                                                    40752089.822 6 172435533.95206      -372.746 6        39.291
R16        55.000    23433668.708 6 125178457.62306     -4412.637 6        41.516                                                                    23433670.268 6  97361039.46306     -3432.141 6        38.868
C11        56.000                                                                                                                                    25894121.322 6 134837488.74306      -593.481 6        39.123    25894117.986 7 104264880.04707      -458.745 7        43.335    25894116.745 6 109566481.79506      -482.132 6        40.796
C02        57.000                                                                                                                                    40720153.099 5 212040479.22805      -485.341 5        35.214    40720152.014 6 163963119.81406      -375.207 6        40.303    40720153.794 5 172300243.11805      -394.243 5        35.581
I03        58.000   127748504.760 6 425527229.22406       898.957 6        40.498
R07        59.000    20085709.504 8 107520397.14708     -2168.259 8        50.183                                                                    20085708.562 7  83626975.98307     -1686.465 7        46.439
G07        60.000    20706467.780 8 108813252.82008      -701.117 8        49.100                                    20706463.265 8  84789542.39808      -546.327 8        49.482    20706463.257 7  84789543.39807      -546.313 7        45.372
> 2025 01 01 05 45  5.0000000  0 56
G16         1.000    24181153.627 6 127072831.71106     -2660.447 6        38.336                                    24181150.160 3  99017773.19803     -2073.088 3        18.269
R01         2.000    23480168.744 6 125514952.79506      3150.963 6        40.246                                                                    23480170.080 5  97622809.04605      2450.810 5        32.623
G09         3.000    21401606.335 7 112466234.06107     -2700.430 7        46.233                                    21401604.534 7  87636034.84007     -2104.230 7        46.167    21401604.875 7  87636035.83907     -2104.179 7        43.101
E34         4.000    25800742.696 7 135583817.45007     -3118.174 7        43.867                                                                    25800743.464 7 101247660.57207     -2328.551 7        46.085    25800743.341 7 103888903.58307     -2389.328 7        46.812
S21         5.000    38365514.183 7 201611965.16707      -407.055 7        43.852
E05         6.000    21823668.173 8 114684195.94708      -854.803 8        48.827                                                                    21823667.961 8  85640825.64008      -638.321 8        50.985    21823667.742 8  87874926.16208      -654.952 8        51.733
E15         7.000    25328886.086 7 133104216.41207      -686.811 7        44.295                                                                    25328886.418 7  99396029.94707      -512.769 7        47.161    25328886.010 7 101988967.55007      -526.235 7        47.912
R10         8.000    20246890.227 7 107927324.45607      2411.722 7        47.751
E31         9.000    26221013.448 7 137792365.70507      -888.045 7        42.195                                                                    26221014.283 7 102896920.51507      -663.057 7        44.275    26221013.847 7 105581185.98807      -680.459 7        45.384
G04        10.000    23737166.492 6 124739645.66806     -3440.600 6        39.456                                    23737166.234 4  97199720.77804     -2680.983 4        24.226    23737166.034 6  97199715.75906     -2680.941 6        40.636
E09        11.000    26505807.565 7 139288978.96407     -2646.084 7        42.112                                                                    26505809.119 7 104014505.64307     -1975.998 7        44.557    26505808.781 7 106727927.78307     -2027.541 7        45.342
S27        12.000    39009069.937 6 204993962.52306      -425.369 6        37.539
G06        13.000    23767275.034 6 124897885.03206     -3817.658 6        40.746                                    23767274.489 5  97323027.68705     -2974.798 5        35.743    23767275.437 6  97323038.66706     -2974.623 6        39.607
S36        14.000    38133676.293 7 200394327.67107      -407.485 7        44.822
G20        15.000    20977157.968 7 110235719.84607      1164.101 7        47.657                                    20977152.972 6  85897946.00206       907.092 6        37.180
R11        16.000    23836078.976 7 127372780.85807      4222.895 7        42.745                                                                    23836078.813 6  99067717.09006      3284.277 6        40.207
S45        17.000    63317615.013 6 332737452.92706      -448.506 6        36.945
E13        18.000    27865077.888 6 146431978.36306      1776.437 6        38.712                                                                    27865079.668 6 109348542.09906      1326.419 6        41.900    27865079.361 7 112201113.89607      1361.234 7        42.305
E24        19.000    25959968.359 7 136420543.70607      1654.562 7        43.560                                                                    25959967.943 7 101872495.53607      1235.434 7        46.795    25959967.515 7 104530035.45407      1267.754 7        47.555
R23        20.000    22886291.772 7 122426218.19207     -4058.883 7        42.419
G30        21.000    21164379.825 8 111219591.45208      1627.759 8        49.152                                    21164378.026 8  86664624.81108      1268.382 8        48.738    21164378.336 7  86664628.80907      1268.408 7        43.803
I06        22.000    37884030.420 7 148665293.15107      -306.704 7        43.907
S28        23.000    40794636.756 5 214377193.21205      -408.980 5        35.205
S23        25.000    38070654.327 7 200062616.06707      -403.891 7        45.258
E06        26.000    28513632.257 5 149840078.04205     -2882.783 5        35.667                                                                    28513642.081 6 111893525.21006     -2152.682 6        39.174    28513640.639 6 114812489.80506     -2208.769 6        38.465
C34        27.000                                                                                                                                    25892325.011 6 134828131.74606     -1858.286 6        40.665                                                                    25892324.783 6 109558906.26006     -1509.992 6        39.778
G13        28.000    24429217.283 6 128376411.72706      2914.037 6        37.671                                    24429213.581 2 100033547.32502      2270.677 2        14.857
R09        29.000    19947865.521 8 106520497.86908     -1270.100 8        49.829                                                                    19947864.323 8  82849280.13608      -987.840 8        48.270
C22        30.000                                                                                                                                    21391339.666 8 111390348.30508       -72.299 8        51.765                                                                    21391333.144 8  90513769.69708       -58.657 8        49.686
I01        31.000   341958605.256 6  38778178.42506     -2933.443 6        41.607
E03        32.000    24762318.555 7 130126880.70007      1338.661 7        45.676                                                                    24762317.881 8  97172690.49108       999.610 8        48.583    24762317.607 8  99707624.01308      1025.687 8        49.290
G05        33.000    23269435.687 7 122281736.81207      2922.584 7        42.828                                    23269431.531 6  95284469.29806      2277.337 6        37.025    23269432.135 6  95284472.31006      2277.189 6        39.459
R24        34.000    22334157.117 7 119430794.68707      -708.380 7        45.481                                                                    22334155.901 7  92890621.71807      -550.979 7        42.692
C36        35.000                                                                                                                                    22077345.661 8 114962539.36208       807.234 8        51.325                                                                    22077350.103 8  93416502.92608       656.029 8        50.368
G11        36.000    22579595.231 7 118656597.59307     -2275.244 7        44.397                                    22579591.563 5  92459685.20305     -1772.912 5        32.533    22579591.795 7  92459685.19307     -1772.869 7        43.898
I09        38.000    38343581.996 7 150468422.32307      -801.033 7        42.328
R08        39.000    19675343.840 8 105360591.64508      1063.429 8        50.843                                                                    19675341.719 7  81947129.04507       827.099 7        46.983
E25        40.000    27776758.478 6 145967863.81106      2728.452 6        37.686                                                                    27776761.759 6 109001983.18106      2037.650 6        39.610    27776761.289 6 111845504.79106      2090.669 6        40.887
S44        42.000    40752534.471 6 214156161.83906      -462.955 6        36.968
C09        43.000                                                                                                                                    39401113.424 6 205171954.40406     -1198.160 6        39.063    39401110.949 7 158651958.89007      -926.620 7        44.543    39401108.788 6 166718998.67106      -973.459 6        40.155
C05        44.000                                                                                                                                    39157674.531 6 203904295.74806      -462.647 6        39.312    39157669.731 7 157671754.14007      -357.928 7        43.202    39157671.868 6 165689041.45606      -376.004 6        40.436
R06        45.000    23776028.345 5 126873416.88705     -3877.554 5        31.449
C44        46.000                                                                                                                                    26635324.285 6 138697135.59806     -3140.936 6        38.886                                                                    26635322.853 6 112702784.01906     -2552.074 6        36.805
R17        47.000    24157191.708 6 129270014.20906      2459.905 6        41.135                                                                    24157191.311 6 100543348.11006      1913.341 6        37.486
C06        49.000                                                                                                                                    40115524.806 6 208892066.43406     -1455.161 6        37.146    40115521.154 6 161528573.97306     -1125.081 6        40.365    40115520.098 6 169741889.53506     -1182.326 6        36.907
C16        50.000                                                                                                                                    40683677.938 6 211850577.94006     -1418.632 6        37.694    40683679.301 6 163816307.63406     -1096.936 6        39.081    40683676.128 5 172145941.26705     -1152.382 5        34.862
S48        51.000    77096183.375 6 405142248.50106      -392.539 6        38.679
C19        52.000                                                                                                                                    23702850.024 8 123427003.39008     -2721.383 8        48.496                                                                    23702845.967 7 100294550.43107     -2211.253 7        47.888
C12        53.000                                                                                                                                    26027666.857 6 135532879.25606     -2766.253 6        39.012    26027663.032 7 104802599.29807     -2139.114 7        42.790    26027661.766 6 110131541.94506     -2247.866 6        40.222
C60        54.000                                                                                                                                    40752542.541 6 212209306.38306      -458.663 6        40.794                                                                    40752530.331 6 172437397.60806      -372.626 6        39.408
R16        55.000    23437800.669 6 125200525.08206     -4414.297 6        41.645                                                                    23437800.554 6  97378203.03206     -3433.429 6        38.955
C11        56.000                                                                                                                                    25894690.930 6 134840462.61506      -596.326 6        39.075    25894688.832 7 104267179.66707      -460.930 7        43.826    25894687.929 6 109568898.35506      -484.425 6        41.249
C02        57.000                                                                                                                                    40720618.885 5 212042905.75305      -485.430 5        35.448    40720618.297 6 163964996.13506      -375.407 6        40.162    40720619.652 5 172302214.88005      -394.539 5        35.548
I03        58.000   127747359.094 6 425522734.00206       899.002 6        40.436
R07        59.000    20087736.406 8 107531244.15908     -2170.408 8        50.627                                                                    20087735.015 7  83635412.53407     -1688.042 7        46.764
G07        60.000    20707135.910 8 108816764.20108      -703.414 8        48.915                                    20707131.473 8  84792278.53608      -548.111 8        49.484    20707131.659 7  84792279.53407      -548.088 7        45.527
> 2025 01 01 05 45 10.0000000  0 56
G16         1.000    24183686.128 6 127086141.17806     -2663.400 6        38.892                                    24183682.806 2  99028144.16802     -2075.370 2        17.924
R01         2.000    23477223.406 6 125499198.55606      3150.873 6        40.672                                                                    23477224.392 5  97610555.80205      2450.393 5        34.181
G09         3.000    21404176.270 7 112479739.20607     -2701.706 7        46.183                                    21404174.438 7  87646558.31707     -2105.222 7        46.375    21404174.634 7  87646559.30907     -2105.197 7        43.041
E34         4.000    25803710.318 7 135599411.31607     -3119.376 7        44.006                                                                    25803710.951 7 101259305.32907     -2329.442 7        45.943    25803710.770 7 103900852.11107     -2390.172 7        46.851
S21         5.000    38365902.745 7 201614000.40807      -407.042 7        43.873
E05         6.000    21824481.955 8 114688472.41108      -855.785 8        48.743                                                                    21824481.740 8  85644019.09808      -639.081 8        50.905    21824481.478 8  87878202.92808      -655.754 8        51.849
E15         7.000    25329540.148 7 133107656.31407      -689.240 7        44.304                                                                    25329540.954 7  99398598.70207      -514.718 7        47.195    25329540.601 7 101991603.30707      -528.103 7        47.953
R10         8.000    20244629.523 7 107915274.97707      2408.081 7        47.437
E31         9.000    26221859.289 6 137796811.81806      -890.392 6        41.781                                                                    26221860.322 7 102900240.64907      -664.901 7        44.176    26221859.967 7 105584592.73907      -682.325 7        45.440
G04        10.000    23740440.133 6 124756850.06606     -3440.956 6        39.517                                    23740440.191 3  97213126.76403     -2681.257 3        23.848    23740439.752 6  97213121.75306     -2681.478 6        40.112
E09        11.000    26508325.722 7 139302210.37407     -2646.516 7        42.047                                                                    26508326.974 7 104024386.19907     -1976.224 7        44.521    26508326.787 7 106738066.10107     -2027.841 7        45.511
S27        12.000    39009475.830 6 204996089.60006      -425.412 6        37.490
G06        13.000    23770907.900 6 124916974.60806     -3818.312 6        41.099                                    23770907.150 6  97337902.67106     -2975.309 6        36.197    23770907.893 6  97337913.66806     -2975.255 6        39.105
S36        14.000    38134062.977 7 200396365.10007      -407.463 7        44.910
G20        15.000    20976051.404 7 110229906.36707      1161.335 7        47.610                                    20976046.719 6  85893416.01706       904.936 6        37.440
R11        16.000    23832127.904 7 127351667.64007      4222.499 7        42.737                                                                    23832128.294 6  99051295.72006      3284.192 6        40.081
S45        17.000    63317998.302 6 332739695.22606      -448.301 6        36.919
E13        18.000    27863388.213 6 146423100.13706      1774.881 6        38.012                                                                    27863390.335 6 109341912.23606      1325.352 6        41.323    27863389.955 7 112194311.10307      1359.906 7        42.154
E24        19.000    25958394.832 7 136412275.27607      1652.918 7        43.683                                                                    25958394.501 7 101866321.04307      1234.340 7        46.690    25958394.124 7 104523699.89707      1266.526 7        47.762
R23        20.000    22890087.009 7 122446517.39107     -4060.706 7        43.833
G30        21.000    21162832.191 8 111211458.17308      1625.570 8        49.100                                    21162830.335 8  86658287.19008      1266.677 8        49.000    21162830.829 7  86658291.19807      1266.603 7        43.611
I06        22.000    37884421.012 7 148666826.94007      -306.764 7        43.882
S28        23.000    40795027.585 5 214379237.53705      -408.747 5        35.500
S23        25.000    38071038.489 7 200064635.67907      -403.888 7        45.109
E06        26.000    28516375.239 6 149854490.93306     -2882.588 6        36.155                                                                    28516384.870 6 111904287.95506     -2152.334 6        39.045    28516383.415 6 114823533.33906     -2208.678 6        38.916
C34        27.000                                                                                                                                    25894109.738 6 134837428.08606     -1860.380 6        41.132                                                                    25894110.075 6 109566460.28806     -1511.751 6        39.544
G13        28.000    24426445.398 6 128361842.40006      2913.796 6        38.006                                    24426441.085 2 100022194.60702      2270.477 2        14.762
R09        29.000    19949056.404 8 106526859.19308     -1274.446 8        49.285                                                                    19949055.302 7  82854227.83207      -991.255 7        47.816
C22        30.000                                                                                                                                    21391410.125 8 111390714.47208       -74.102 8        51.874                                                                    21391403.470 8  90514067.21908       -60.286 8        49.587
I01        31.000   341962342.810 6  38792845.50406     -2933.544 6        41.661
E03        32.000    24761045.145 7 130120189.05707      1337.984 7        45.851                                                                    24761044.471 8  97167693.48408       999.145 8        48.533    24761044.146 8  99702496.65108      1025.175 8        49.404
G05        33.000    23266655.674 7 122267127.40707      2921.332 7        43.126                                    23266651.496 6  95273085.35006      2276.362 6        37.327    23266651.773 6  95273088.35406      2276.288 6        39.550
R24        34.000    22334821.098 7 119434347.81007      -712.784 7        46.062                                                                    22334820.442 7  92893385.25107      -554.422 7        42.442
C36        35.000                                                                                                                                    22076571.726 8 114958509.72308       804.636 8        51.332                                                                    22076576.278 8  93413228.49608       653.821 8        50.284
G11        36.000    22581761.377 7 118667980.48607     -2277.904 7        44.901                                    22581757.617 5  92468554.98005     -1774.991 5        32.856    22581757.660 7  92468554.96707     -1774.883 7        43.579
I09        38.000    38344602.946 7 150472427.86607      -801.126 7        42.281
R08        39.000    19674352.415 8 105355279.48508      1061.502 8        51.071                                                                    19674349.359 7  81942997.35307       825.630 7        46.148
E25        40.000    27774162.132 6 145954220.10506      2728.904 6        37.516                                                                    27774165.595 6 108991794.69006      2037.812 6        39.748    27774164.973 6 111835050.50506      2090.949 6        41.173
S44        42.000    40752980.900 6 214158476.28306      -462.806 6        37.051
C09        43.000                                                                                                                                    39402263.955 6 205177945.45606     -1198.144 6        39.084    39402261.503 7 158656591.52807      -926.585 7        44.644    39402259.306 6 166723866.86806      -973.549 6        39.907
C05        44.000                                                                                                                                    39158119.418 6 203906609.69506      -462.650 6        39.673    39158114.081 7 157673543.40307      -357.800 7        43.230    39158116.249 6 165690921.70406      -376.151 6        40.293
R06        45.000    23779664.143 5 126892808.04405     -3878.368 5        31.072
C44        46.000                                                                                                                                    26638340.590 6 138712839.39206     -3140.697 6        38.874                                                                    26638338.552 6 112715544.61106     -2552.238 6        36.851
R17        47.000    24154894.878 6 129257721.88606      2457.162 6        40.899                                                                    24154894.845 6 100533787.46306      1911.189 6        38.417
C06        49.000                                                                                                                                    40116922.371 6 208899341.74806     -1455.153 6        37.206    40116918.048 6 161534199.69606     -1125.203 6        40.346    40116917.301 6 169747801.28706     -1182.157 6        36.801
C16        50.000                                                                                                                                    40685039.885 6 211857670.29806     -1418.447 6        38.081    40685041.562 6 163821791.85306     -1096.739 6        39.111    40685038.143 5 172151704.33805     -1152.526 5        34.629
S48        51.000    77096561.674 6 405144211.54806      -392.882 6        38.447
C19        52.000                                                                                                                                    23705463.906 8 123440613.49508     -2722.627 8        48.377                                                                    23705459.632 7 100305609.73207     -2212.348 7        47.753
C12        53.000                                                                                                                                    26030323.370 6 135546714.38606     -2767.708 6        38.841    26030318.466 6 104813297.48606     -2140.024 6        41.702    26030318.793 6 110142784.11006     -2249.034 6        40.186
C60        54.000                                                                                                                                    40752983.322 6 212211599.79706      -458.582 6        40.737                                                                    40752970.651 6 172439261.15706      -372.736 6        39.432
R16        55.000    23441933.051 6 125222600.76106     -4416.173 6        41.561                                                                    23441933.552 6  97395372.94406     -3434.493 6        39.333
C11        56.000                                                                                                                                    25895264.748 6 134843449.95306      -598.647 6        39.090    25895263.284 7 104269489.68207      -463.156 7        44.187    25895261.419 6 109571325.79906      -486.500 6        41.235
C02        57.000                                                                                                                                    40721084.998 5 212045332.26405      -485.329 5        34.905    40721084.084 6 163966872.43506      -375.219 6        40.131    40721085.836 6 172304186.55306      -394.365 6        36.045
I03        58.000   127746213.657 6 425518238.74506       899.109 6        40.591
R07        59.000    20089764.537 8 107542101.99108     -2172.656 8        49.813                                                                    20089763.069 7  83643857.50707     -1689.883 7        46.002
G07        60.000    20707806.606 8 108820287.38308      -705.732 8        49.117                                    20707801.917 8  84795023.87308      -549.921 8        49.764    20707802.176 7  84795024.87307      -550.002 7        45.849
> 2025 01 01 05 45 15.0000000  0 56
G16         1.000    24186222.087 6 127099465.36306     -2666.197 6        39.216                                    24186218.382 3  99038526.65103     -2077.558 3        18.358
R01         2.000    23474275.044 6 125483444.53806      3150.769 6        40.589                                                                    23474275.862 5  97598302.62705      2450.939 5        34.552
G09         3.000    21406747.557 7 112493251.54207     -2702.999 7        46.319                                    21406745.684 7  87657087.40407     -2106.230 7        46.448    21406746.100 7  87657088.40407     -2106.289 7        42.978
E34         4.000    25806679.117 7 135615012.10207     -3120.778 7        43.960                                                                    25806679.689 7 101270955.26207     -2330.457 7        46.059    25806679.493 7 103912805.95407     -2391.197 7        46.839
S21         5.000    38366288.480 7 201616036.34507      -407.163 7        43.812
E05         6.000    21825297.046 8 114692754.65208      -856.998 8        48.830                                                                    21825296.618 8  85647216.87108      -639.947 8        50.951    21825296.417 8  87881484.12508      -656.648 8        51.884
E15         7.000    25330197.605 7 133111109.60207      -691.847 7        44.292                                                                    25330198.086 7  99401177.45707      -516.670 7        47.154    25330197.698 7 101994249.33807      -530.105 7        47.958
R10         8.000    20242372.751 7 107903244.10907      2404.417 7        47.464
E31         9.000    26222707.873 6 137801270.62206      -892.945 6        41.809                                                                    26222708.849 7 102903570.26707      -666.759 7        44.304    26222708.421 7 105588009.21407      -684.226 7        45.508
G04        10.000    23743714.276 6 124774057.51006     -3441.585 6        39.547                                    23743714.684 3  97226535.11203     -2681.755 3        23.371    23743714.485 6  97226530.10606     -2681.930 6        39.739
E09        11.000    26510844.027 7 139315444.04607     -2646.891 7        42.106                                                                    26510845.266 7 104034268.47007     -1976.556 7        44.670    26510845.011 7 106748206.16607     -2028.058 7        45.637
S27        12.000    39009881.290 6 204998216.96006      -425.499 6        37.467
G06        13.000    23774541.360 6 124936068.65006     -3819.052 6        41.197                                    23774540.652 6  97352781.13906     -2975.885 6        36.359    23774541.433 6  97352792.14306     -2976.035 6        39.021
S36        14.000    38134451.288 7 200398403.33507      -407.436 7        44.874
G20        15.000    20974947.875 7 110224107.19007      1158.469 7        47.754                                    20974943.176 6  85888897.17706       902.703 6        37.516
R11        16.000    23828176.941 7 127330555.58307      4222.342 7        42.813                                                                    23828177.687 6  99034875.22506      3284.202 6        40.007
S45        17.000    63318381.981 6 332741938.13206      -448.562 6        37.028
E13        18.000    27861700.623 6 146414231.04006      1772.960 6        38.300                                                                    27861702.707 6 109335289.22206      1324.014 6        41.626    27861702.386 7 112187515.30107      1358.519 7        42.612
E24        19.000    25956823.166 7 136404016.00107      1651.033 7        43.496                                                                    25956822.733 7 101860153.40707      1232.945 7        46.750    25956822.477 7 104517371.36507      1265.042 7        47.889
R23        20.000    22893883.792 7 122466826.36407     -4062.688 7        43.405
G30        21.000    21161286.796 8 111203336.44408      1623.319 8        49.547                                    21161284.826 8  86651958.56508      1264.923 8        49.117    21161285.138 7  86651962.56307      1264.890 7        43.877
I06        22.000    37884812.188 7 148668361.28507      -306.800 7        44.035
S28        23.000    40795417.694 5 214381282.20605      -408.702 5        35.138
S23        25.000    38071424.019 7 200066655.73907      -403.933 7        45.123
E06        26.000    28519118.073 6 149868904.38706     -2882.850 6        36.000                                                                    28519127.703 6 111915051.13506     -2152.544 6        39.399    28519126.315 6 114834577.30306     -2208.832 6        39.207
C34        27.000                                                                                                                                    25895898.211 6 134846735.45106     -1862.469 6        41.392                                                                    25895897.439 6 109574023.28706     -1513.552 6        39.913
G13        28.000    24423674.078 6 128347275.19606      2913.183 6        37.966                                    24423669.050 2 100010843.53102      2270.027 2        14.762
R09        29.000    19950251.565 8 106533243.09308     -1278.958 8        49.698                                                                    19950251.179 8  82859193.08908      -994.724 8        48.311
C22        30.000                                                                                                                                    21391482.310 8 111391090.29208       -76.046 8        51.777                                                                    21391475.609 8  90514372.59608       -61.863 8        49.821
I01        31.000   341966081.091 6  38807513.65306     -2933.657 6        41.962
E03        32.000    24759772.090 7 130113501.51207      1337.199 7        45.856                                                                    24759771.963 8  97162699.54808       998.528 8        48.643    24759771.568 8  99697372.43208      1024.585 8        49.431
G05        33.000    23263876.848 7 122252524.88407      2919.927 7        43.712                                    23263872.727 6  95261706.76406      2275.269 6        37.474    23263873.357 6  95261709.76906      2275.071 6        40.205
R24        34.000    22335489.946 7 119437923.21907      -717.228 7        45.260                                                                    22335489.099 7  92896166.12907      -557.808 7        42.326
C36        35.000                                                                                                                                    22075800.165 8 114954493.67408       801.968 8        51.097                                                                    22075805.047 8  93409965.11908       651.583 8        50.423
G11        36.000    22583930.202 7 118679377.38407     -2280.720 7        45.509                                    22583926.377 5  92477435.67505     -1777.184 5        32.892    22583926.601 7  92477435.67707     -1777.200 7        43.958
I09        38.000    38345623.611 7 150476434.38507      -801.418 7        42.402
R08        39.000    19673362.269 8 105349977.59708      1059.470 8        51.183                                                                    19673359.605 7  81938873.66307       824.011 7        46.637
E25        40.000    27771565.543 6 145940576.02306      2728.931 6        37.512                                                                    27771569.237 6 108981605.92606      2037.959 6        40.117    27771568.508 6 111824595.94806      2091.073 6        41.333
S44        42.000    40753419.678 6 214160791.16506      -462.936 6        37.157
C09        43.000                                                                                                                                    39403414.912 6 205183937.26506     -1198.347 6        39.426    39403412.332 7 158661224.76807      -926.761 7        44.620    39403409.984 6 166728735.69006      -973.863 6        40.100
C05        44.000                                                                                                                                    39158563.749 6 203908924.19406      -462.961 6        39.453    39158558.685 7 157675333.08907      -357.882 7        43.026    39158560.679 6 165692802.37906      -376.191 6        40.491
R06        45.000    23783300.174 5 126912203.32205     -3879.551 5        32.269
C44        46.000                                                                                                                                    26641355.878 6 138728544.24606     -3140.931 6        39.042                                                                    26641354.439 6 112728306.08006     -2552.336 6        36.926
R17        47.000    24152599.249 6 129245444.66206      2454.047 6        40.889                                                                    24152600.213 6 100524238.49306      1908.663 6        38.432
C06        49.000                                                                                                                                    40118319.644 6 208906617.22206     -1454.975 6        36.733    40118314.991 6 161539825.53406     -1125.228 6        40.300    40118314.479 6 169753713.20406     -1182.386 6        37.059
C16        50.000                                                                                                                                    40686402.572 6 211864762.59006     -1418.240 6        38.099    40686403.332 6 163827276.05306     -1096.674 6        39.123    40686400.528 5 172157467.39605     -1152.470 5        34.952
S48        51.000    77096941.221 6 405146175.33006      -392.757 6        38.592
C19        52.000                                                                                                                                    23708078.606 7 123454230.40907     -2723.966 7        47.719                                                                    23708074.643 8 100316674.57508     -2213.615 8        48.013
C12        53.000                                                                                                                                    26032981.701 6 135560556.64806     -2769.146 6        38.420    26032977.560 7 104824001.18807     -2141.135 7        42.171    26032977.030 6 110154032.08206     -2250.271 6        40.229
C60        54.000                                                                                                                                    40753424.063 6 212213893.62006      -458.716 6        40.749                                                                    40753411.272 6 172441125.05406      -372.795 6        39.760
R16        55.000    23446066.998 6 125244685.34806     -4417.612 6        41.940                                                                    23446068.391 6  97412549.84006     -3436.008 6        39.865
C11        56.000                                                                                                                                    25895841.328 6 134846451.37806      -601.672 6        38.634    25895839.669 7 104271810.57807      -465.102 7        43.725    25895837.773 6 109573764.71906      -488.946 6        41.185
C02        57.000                                                                                                                                    40721550.289 5 212047759.21005      -485.309 5        35.048    40721550.295 6 163968749.08906      -375.454 6        40.267    40721551.851 6 172306158.63306      -394.395 6        36.068
I03        58.000   127745067.983 6 425513743.91306       898.936 6        40.627
R07        59.000    20091794.802 8 107552970.99108     -2174.758 8        50.579                                                                    20091793.682 7  83652311.17407     -1691.512 7        46.265
G07        60.000    20708479.367 8 108823822.86908      -708.284 8        49.580                                    20708474.704 8  84797778.79608      -551.909 8        49.917    20708475.068 7  84797779.79307      -551.839 7        46.048
> 2025 01 01 05 45 20.0000000  0 56
G16         1.000    24188760.298 6 127112802.97206     -2669.166 6        38.856                                    24188756.416 3  99048919.57703     -2079.878 3        18.687
R01         2.000    23471327.488 6 125467689.38606      3150.965 6        40.241                                                                    23471329.842 5  97586048.63705      2450.719 5        34.243
G09         3.000    21409319.762 7 112506769.72407     -2704.419 7        46.367                                    21409318.060 7  87667621.03707     -2107.334 7        46.671    21409318.374 7  87667622.03207     -2107.280 7        43.310
E34         4.000    25809648.818 7 135630618.42607     -3121.944 7        44.114                                                                    25809649.459 7 101282609.33107     -2331.365 7        45.917    25809649.180 7 103924764.04707     -2392.151 7        46.763
S21         5.000    38366676.380 7 201618071.41407      -407.004 7        43.505
E05         6.000    21826112.788 8 114697041.30608      -857.913 8        48.959                                                                    21826112.340 8  85650417.93908      -640.642 8        50.824    21826112.144 8  87884768.70008      -657.353 8        51.816
E15         7.000    25330857.132 7 133114574.92807      -694.365 7        44.161                                                                    25330857.597 7  99403765.19907      -518.591 7        47.044    25330857.148 7 101996904.58207      -532.047 7        47.922
R10         8.000    20240118.587 7 107891230.29307      2400.910 7        47.197
E31         9.000    26223558.691 6 137805740.76106      -895.323 6        41.752                                                                    26223559.471 7 102906908.35707      -668.571 7        44.071    26223559.166 7 105591434.38107      -685.959 7        45.281
G04        10.000    23746989.557 6 124791266.57106     -3441.986 6        39.441                                    23746989.441 3  97239944.71803     -2682.058 3        23.295    23746988.977 6  97239939.70706     -2682.191 6        39.180
E09        11.000    26513362.206 7 139328678.63707     -2647.157 7        42.193                                                                    26513363.709 7 104044151.42007     -1976.779 7        44.533    26513363.425 7 106758346.93107     -2028.319 7        45.416
S27        12.000    39010286.915 6 205000342.90406      -425.246 6        37.365
G06        13.000    23778175.062 6 124955165.79506     -3819.855 6        41.004                                    23778174.744 6  97367662.02106     -2976.509 6        36.431    23778175.678 6  97367673.02006     -2976.504 6        38.919
S36        14.000    38134839.975 7 200400441.03407      -407.473 7        44.769
G20        15.000    20973846.792 7 110218320.96607      1155.833 7        47.898                                    20973842.089 6  85884388.42906       900.652 6        37.856
R11        16.000    23824226.107 7 127309443.31407      4222.284 7        42.648                                                                    23824226.220 6  99018454.58606      3284.266 6        40.029
S45        17.000    63318768.678 6 332742580.06716      -448.401 6        36.745
E13        18.000    27860014.366 6 146405369.61406      1771.492 6        37.679                                                                    27860016.472 6 109328671.95606      1322.656 6        40.956    27860015.994 7 112180725.39807      1357.298 7        42.226
E24        19.000    25955252.525 7 136395764.52907      1649.415 7        43.496                                                                    25955252.413 7 101853991.58007      1231.705 7        46.503    25955252.191 7 104511048.79407      1263.835 7        47.732
R23        20.000    22897681.807 7 122487143.76007     -4064.355 7        43.960
G30        21.000    21159743.381 8 111195224.90708      1621.167 8        49.729                                    21159741.249 8  86645637.88608      1263.248 8        49.350    21159741.584 7  86645641.88107      1263.238 7        43.566
I06        22.000    37885203.113 7 148669895.18707      -306.753 7        43.837
S28        23.000    40795801.882 5 214383326.27605      -408.979 5        35.086
S23        25.000    38071806.642 7 200068674.87607      -404.044 7        44.947
E06        26.000    28521860.768 6 149883317.02306     -2882.674 6        36.178                                                                    28521870.367 6 111925813.70106     -2152.657 6        39.165    28521869.209 6 114845620.64106     -2208.757 6        39.300
C34        27.000                                                                                                                                    25897687.516 6 134856052.47606     -1864.514 6        40.925                                                                    25897686.405 6 109581594.14206     -1515.167 6        39.601
G13        28.000    24420901.174 6 128332708.87006      2912.899 6        38.090                                    24420897.226 2  99999493.15402      2269.781 2        15.429
R09        29.000    19951451.450 8 106539648.24108     -1283.265 8        49.853                                                                    19951450.342 7  82864174.85807      -998.038 7        47.910
C22        30.000                                                                                                                                    21391555.928 8 111391474.42408       -77.790 8        51.884                                                                    21391549.399 8  90514684.73908       -63.214 8        49.916
I01        31.000   341969818.579 7  38822181.90807     -2933.736 7        42.047
