     3.04           OBSERVATION DATA    M                   RINEX VERSION / TYPE
ssrcrin-15.6.1x                         20250101 134500 UTC PGM / RUN BY / DATE 
(00000000023479385599111004) Septentrio proprietary         COMMENT             
rref                                                        MARKER NAME         
01                                                          MARKER NUMBER       
geodetic                                                    MARKER TYPE         
NFB                 CLIMERS@TUW                             OBSERVER / AGENCY   
3297213             SEPT ASTERX SB3 PROB4.14.4              REC # / TYPE / VERS 
Unknown             Unknown                                 ANT # / TYPE        
  4127832.0357  1207194.1031  4695247.7631                  APPROX POSITION XYZ 
        0.0000        0.0000        0.0000                  ANTENNA: DELTA H/E/N
G   23 X1  C1C L1C D1C S1C C1W S1W C2W L2W D2W S2W C2L L2L  SYS / # / OBS TYPES 
       D2L S2L C5Q L5Q D5Q S5Q C1L L1L D1L S1L              SYS / # / OBS TYPES 
E   21 X1  C1C L1C D1C S1C C6C L6C D6C S6C C5Q L5Q D5Q S5Q  SYS / # / OBS TYPES 
       C7Q L7Q D7Q S7Q C8Q L8Q D8Q S8Q                      SYS / # / OBS TYPES 
S    9 X1  C1C L1C D1C S1C C5I L5I D5I S5I                  SYS / # / OBS TYPES 
R   17 X1  C1C L1C D1C S1C C2P L2P D2P S2P C2C L2C D2C S2C  SYS / # / OBS TYPES 
       C3Q L3Q D3Q S3Q                                      SYS / # / OBS TYPES 
C   25 X1  C1P L1P D1P S1P C5P L5P D5P S5P C2I L2I D2I S2I  SYS / # / OBS TYPES 
       C7I L7I D7I S7I C6I L6I D6I S6I C7D L7D D7D S7D      SYS / # / OBS TYPES 
J   17 X1  C1C L1C D1C S1C C2L L2L D2L S2L C5Q L5Q D5Q S5Q  SYS / # / OBS TYPES 
       C1L L1L D1L S1L                                      SYS / # / OBS TYPES 
I    5 X1  C5A L5A D5A S5A                                  SYS / # / OBS TYPES 
SEPTENTRIO RECEIVERS OUTPUT ALIGNED CARRIER PHASES.         COMMENT             
NO FURTHER PHASE SHIFT APPLIED IN THE RINEX ENCODER.        COMMENT             
G L1C                                                       SYS / PHASE SHIFT   
G L2W                                                       SYS / PHASE SHIFT   
G L2L  0.00000                                              SYS / PHASE SHIFT   
G L5Q  0.00000                                              SYS / PHASE SHIFT   
G L1L  0.00000                                              SYS / PHASE SHIFT   
E L1C  0.00000                                              SYS / PHASE SHIFT   
E L6C  0.00000                                              SYS / PHASE SHIFT   
E L5Q  0.00000                                              SYS / PHASE SHIFT   
E L7Q  0.00000                                              SYS / PHASE SHIFT   
E L8Q  0.00000                                              SYS / PHASE SHIFT   
S L1C                                                       SYS / PHASE SHIFT   
S L5I                                                       SYS / PHASE SHIFT   
R L1C                                                       SYS / PHASE SHIFT   
R L2P  0.00000                                              SYS / PHASE SHIFT   
R L2C                                                       SYS / PHASE SHIFT   
R L3Q  0.00000                                              SYS / PHASE SHIFT   
C L1P  0.00000                                              SYS / PHASE SHIFT   
C L5P  0.00000                                              SYS / PHASE SHIFT   
C L2I                                                       SYS / PHASE SHIFT   
C L7I                                                       SYS / PHASE SHIFT   
C L6I                                                       SYS / PHASE SHIFT   
C L7D                                                       SYS / PHASE SHIFT   
J L1C                                                       SYS / PHASE SHIFT   
J L2L  0.00000                                              SYS / PHASE SHIFT   
J L5Q  0.00000                                              SYS / PHASE SHIFT   
J L1L  0.00000                                              SYS / PHASE SHIFT   
I L5A                                                       SYS / PHASE SHIFT   
  2025     1     1    13    45    0.0000000     GPS         TIME OF FIRST OBS   
 C1C    0.000 C2C    0.000 C2P    0.000                     GLONASS COD/PHS/BIS 
DBHZ                                                        SIGNAL STRENGTH UNIT
    18                                                      LEAP SECONDS        
 24 R01  1 R02 -4 R03  5 R04  6 R05  1 R06 -4 R07  5 R08  6 GLONASS SLOT / FRQ #
    R09 -2 R10 -7 R11  0 R12 -1 R13 -2 R14 -7 R15  0 R16 -1 GLONASS SLOT / FRQ #
    R17  4 R18 -3 R19  3 R20  2 R21  4 R22 -3 R23  3 R24  2 GLONASS SLOT / FRQ #
                                                            END OF HEADER       
> 2025 01 01 13 45  0.0000000  0 56
G19         1.000    24298586.118 6 127690053.75006     -4152.009 6        38.168                                    24298588.605 3  99498822.79903     -3235.335 3        20.881
G25         2.000    20139675.409 8 105834815.13608       799.400 8        49.311                                    20139680.787 8  82468765.87008       622.909 8        49.904    20139681.568 7  82468775.87307       622.952 7        45.011
G24         3.000    22680963.028 7 119189216.44407     -4105.053 7        44.166                                    22680970.813 7  92874730.56607     -3198.735 7        42.102    22680971.211 6  92874727.54406     -3198.635 6        41.352
G29         4.000    22739277.243 7 119495898.47907      2653.989 7        45.475                                    22739283.907 6  93113808.33406      2068.037 6        41.554    22739284.162 6  93113811.34006      2068.153 6        40.572
S21         5.000    38341457.713 7 201485309.34407      -617.753 7        42.971
G06         6.000    22954939.385 7 120629136.07507     -1596.162 7        42.760                                    22954946.967 6  93996819.54006     -1243.764 6        39.760    22954948.053 6  93996810.54306     -1243.718 6        41.089
E19         7.000    27719826.988 5 145668588.70505      1542.345 5        33.527                                                                    27719840.703 6 108778484.12906      1151.696 6        36.420    27719838.805 6 111616186.58906      1181.568 6        37.081
G03         8.000    25343604.105 6 133181518.72306     -1102.854 6        37.293                                    25343606.643 4 103777799.39504      -859.367 4        26.970    25343606.583 5 103777805.37205      -859.310 5        34.386
G11         9.000    22573905.091 7 118626840.54807       822.004 7        45.478                                    22573909.707 5  92436599.58305       640.522 5        33.162    22573909.608 7  92436599.59007       640.503 7        43.748
E30        10.000    23495804.793 8 123471431.09608      -759.326 8        48.986                                                                    23495811.514 8  92202800.65408      -567.012 8        51.120    23495810.281 8  94608079.83208      -581.852 8        51.513
C26        11.000                                                                                                                                    25020373.091 7 130287557.33007     -3463.143 7        44.039                                                                    25020381.836 7 105869307.35507     -2813.946 7        43.575
S27        12.000    39133458.212 6 205647549.63206      -630.709 6        36.548
R15        13.000    22801709.795 7 121845467.07907      2826.319 7        45.029                                                                    22801726.541 6  94768772.86406      2198.309 6        41.726
S36        14.000    38113734.933 7 200289367.59307      -618.264 7        44.837
G12        15.000    20348220.920 8 106930762.28208     -1753.906 8        49.117                                    20348222.033 8  83322746.41308     -1366.678 8        50.117    20348222.705 7  83322746.41307     -1366.723 7        46.017
E29        16.000    25701788.681 7 135063731.14107      -448.808 7        43.443                                                                    25701802.044 7 100859285.24507      -335.176 7        45.661    25701800.423 7 103490395.44707      -343.901 7        46.502
S45        17.000    63311828.591 6 332706641.70406      -682.514 6        36.295
C35        19.000                                                                                                                                    24039885.232 7 125182100.74307     -2945.986 7        45.737                                                                    24039891.373 7 101720781.40907     -2393.808 7        45.258
E11        20.000    28471727.000 5 149620135.42505     -2929.760 5        32.168                                                                    28471725.591 5 111729439.57505     -2188.068 5        34.776    28471725.194 5 114644105.18505     -2245.083 5        34.724
R14        21.000    19489753.039 8 103891441.59808       706.757 8        52.498                                                                    19489759.410 7  80804530.00807       549.644 7        47.700
I06        22.000    38446527.505 6 150872439.35106      -556.867 6        41.225
S28        23.000    40815256.142 5 214485394.94205      -624.241 5        34.881
E34        24.000    25696040.846 7 135033778.02707      1761.750 7        44.361                                                                    25696052.541 7 100837057.80307      1315.556 7        47.056    25696050.390 7 103467574.38407      1349.924 7        47.108
S23        25.000    38055752.373 7 199984134.58907      -622.800 7        45.520
E08        26.000    28488478.628 3                     -3778.105 3        20.857                                                                    28488505.803 4 111794499.24504     -2818.806 4        28.559    28488502.010 4 114710888.44804     -2892.356 4        29.886
C07        27.000                                                                                                                                    40715759.811 6 212017585.77306     -1531.084 6        36.733    40715762.717 6 163945444.04906     -1184.074 6        38.829    40715759.343 6 172281642.59006     -1244.057 6        36.684
R24        28.000    20591994.035 8 110114870.58408      2656.492 8        50.316                                                                    20592001.179 7  85645050.79307      2066.179 7        45.797
I02        29.000    37070975.461 6 145474445.44906      -709.181 6        41.893
G28        30.000    23682280.655 6 124451194.61006      2695.874 6        40.434                                    23682292.163 4  96974998.43904      2100.669 4        26.647    23682292.844 6  96974995.46606      2100.651 6        41.185
E07        31.000    25647959.224 7 134780794.35907     -3028.493 7        44.075                                                                    25647973.086 7 100647972.78807     -2261.592 7        46.473    25647971.222 7 103273572.47107     -2320.580 7        47.038
C12        32.000                                                                                                                                    22495239.064 7 117138779.05907      1343.328 7        47.188    22495243.383 8  90579233.91208      1038.697 8        51.824    22495240.802 8  95184923.09708      1091.597 8        49.290
R23        34.000    20213461.067 7 108128524.25507     -1889.736 7        47.975
C24        35.000                                                                                                                                    21425172.333 8 111566535.72608     -1527.879 8        51.384                                                                    21425173.743 8  90656971.75408     -1241.408 8        50.033
R05        36.000    22107238.050 7 118175780.56907     -1231.987 7        46.293                                                                    22107250.533 7  91914511.04807      -958.221 7        42.762
E27        37.000    25347306.989 7 133201072.32107      1319.723 7        44.697                                                                    25347319.408 7  99468437.35507       985.433 7        46.889    25347317.759 8 102063251.88008      1011.214 8        48.052
R04        38.000    22716626.571 7 121646310.44707     -4104.483 7        44.992                                                                    22716641.489 6  94613756.42006     -3192.349 6        41.805
R06        39.000    24507405.806 5 130776206.61005      2291.249 5        31.215
C32        40.000                                                                                                                                    26510854.720 6 138048836.59806      -466.731 6        40.513                                                                    26510867.975 6 112175990.02006      -379.140 6        41.399
C34        41.000                                                                                                                                    23618821.258 7 122989569.10807      2472.286 7        46.825                                                                    23618828.922 7  99939203.47507      2009.043 7        45.666
S44        42.000    40633940.844 6 213532791.93206      -537.970 6        37.645
R22        43.000    23377217.615 7 124789314.67407     -4527.913 7        42.423                                                                    23377223.854 6  97058445.82806     -3521.529 6        40.296
C05        44.000                                                                                                                                    39365610.437 6 204986913.36306      -599.980 6        38.829    39365617.235 7 158508860.35607      -464.054 7        42.550    39365615.867 6 166568722.93306      -487.563 6        39.294
C40        45.000                                                                                                                                    41410132.050 4                     -1751.658 4        25.233                                                                    41410130.947 4                     -1423.607 4        28.692
G32        46.000    22801812.100 7 119824233.12607     -1252.544 7        46.063                                    22801821.988 7  93369533.33807      -976.005 7        42.703    22801822.708 6  93369535.33706      -976.120 6        41.752
E36        47.000    25914313.129 7 136180733.80807      -803.164 7        42.973                                                                    25914324.277 7 101693521.96807      -599.843 7        45.547    25914322.800 7 104346379.26407      -615.463 7        46.118
C41        48.000                                                                                                                                    26232773.288 6 136600826.78706     -2705.026 6        40.670                                                                    26232794.984 6 110999411.19606     -2197.984 6        40.844
C10        49.000                                                                                                                                    39598973.836 6 206202211.51706     -1345.548 6        38.733    39598980.636 6 159448635.46306     -1040.549 6        41.425    39598976.124 6 167556182.42706     -1093.346 6        38.685
C44        50.000                                                                                                                                    21807203.392 8 113555861.90608      -290.783 8        50.592                                                                    21807206.852 8  92273469.67008      -236.205 8        49.168
S48        51.000    77051698.092 6 404910240.99206      -635.978 6        38.045
E02        53.000    25629019.637 7 134681429.92807     -2729.453 7        43.759                                                                    25629028.616 7 100573854.42407     -2038.325 7        46.262    25629027.148 7 103197503.76107     -2091.416 7        46.803
C60        54.000                                                                                                                                    40633945.667 6 211591602.18506      -533.095 6        40.007                                                                    40633940.848 6 171935432.71906      -433.294 6        39.673
C25        55.000                                                                                                                                    22485056.560 8 117085669.44108      1408.483 8        48.936                                                                    22485061.359 8  95141751.39208      1144.569 8        48.416
C02        57.000                                                                                                                                    40823995.868 5 212581098.85805      -552.510 5        33.102    40824003.396 6 164381129.19406      -427.347 6        36.964    40824003.440 5 172739515.05605      -448.753 5        33.527
I03        58.000   118409604.777 5 388879185.59205       921.755 5        33.132
C11        59.000                                                                                                                                    25772944.494 6 134206484.39706      2935.895 6        40.091    25772960.124 7 103777038.99807      2270.346 7        43.426    25772953.675 6 109053808.13506      2385.769 6        40.675
R13        60.000    20762503.521 7 110870662.20707     -3066.341 7        44.919
> 2025 01 01 13 45  5.0000000  0 56
G19         1.000    24302536.764 6 127710815.54806     -4152.780 6        37.992                                    24302539.324 3  99515000.87603     -3235.944 3        20.405
G25         2.000    20138915.630 8 105830822.78208       797.437 8        49.376                                    20138921.054 8  82465654.95308       621.375 8        49.798    20138921.703 7  82465664.96007       621.349 7        44.950
G24         3.000    22684869.417 7 119209744.55407     -4106.411 7        44.415                                    22684877.146 7  92890726.46807     -3199.797 7        42.028    22684877.389 6  92890723.46006     -3199.789 6        40.689
G29         4.000    22736752.829 7 119482632.20207      2652.450 7        45.518                                    22736759.386 6  93103471.00906      2066.835 6        41.514    22736759.618 6  93103474.03306      2066.825 6        40.377
S21         5.000    38342042.798 7 201488397.61107      -617.782 7        42.973
G06         6.000    22956460.017 7 120637125.18707     -1599.547 7        42.654                                    22956467.193 6  94003044.82206     -1246.401 6        39.595    22956468.643 6  94003035.83306     -1246.427 6        41.142
E19         7.000    27718360.078 5 145660881.48405      1540.499 5        33.916                                                                    27718373.851 6 108772728.72106      1150.409 6        36.431    27718372.136 6 111610281.03706      1180.514 6        37.384
G03         8.000    25344654.673 6 133187040.51106     -1106.038 6        36.673                                    25344657.421 4 103782102.05104      -861.848 4        26.659    25344658.501 5 103782108.07005      -862.094 5        33.623
G11         9.000    22573124.304 7 118622737.77707       819.048 7        45.431                                    22573128.877 5  92433402.63105       638.219 5        33.078    22573129.099 7  92433402.64407       638.093 7        43.649
E30        10.000    23496527.788 8 123475230.20208      -760.493 8        48.865                                                                    23496534.493 8  92205637.65208      -567.901 8        51.111    23496533.207 8  94610990.83708      -582.732 8        51.467
C26        11.000                                                                                                                                    25023698.422 7 130304874.46607     -3463.925 7        43.752                                                                    25023707.465 7 105883378.93207     -2814.731 7        43.513
S27        12.000    39134057.606 5 205650703.38505      -631.023 5        35.752
R15        13.000    22799064.582 7 121831335.68407      2826.137 7        45.445                                                                    22799081.597 7  94757781.87507      2197.917 7        42.246
S36        14.000    38114323.912 7 200292458.80707      -618.322 7        44.897
G12        15.000    20349890.876 8 106939536.84508     -1756.027 8        49.414                                    20349891.777 8  83329583.73208     -1368.334 8        50.042    20349891.927 7  83329583.73407     -1368.329 7        45.535
E29        16.000    25702217.342 7 135065981.18707      -451.319 7        43.069                                                                    25702230.195 7 100860965.48207      -337.083 7        45.753    25702228.721 7 103492119.51707      -345.752 7        46.592
S45        17.000    63312426.385 6 332710053.45006      -682.515 6        36.427
C35        19.000                                                                                                                                    24042715.459 7 125196835.64907     -2947.950 7        45.958                                                                    24042721.056 7 101732754.72507     -2395.457 7        45.267
E11        20.000    28474515.243 5 149634790.35905     -2931.767 5        32.461                                                                    28474514.450 5 111740383.24305     -2189.471 5        34.495    28474513.862 5 114655334.34005     -2246.630 5        34.310
R14        21.000    19489091.005 8 103887912.85308       704.608 8        52.600                                                                    19489097.862 8  80801785.43708       547.981 8        48.083
I06        22.000    38447236.418 6 150875222.71606      -556.764 6        41.347
S28        23.000    40815848.426 5 214488514.01805      -623.535 5        34.905
E34        24.000    25694365.107 7 135024972.78007      1760.186 7        44.017                                                                    25694376.813 7 100830482.48707      1314.381 7        47.211    25694374.835 7 103460827.54307      1348.638 7        47.088
S23        25.000    38056343.321 7 199987248.28707      -622.854 7        45.511
E08        26.000    28492068.866 3                     -3776.057 3        19.701                                                                    28492096.674 4 111808591.07104     -2818.598 4        28.265    28492092.740 4 114725347.91804     -2892.056 4        29.554
C07        27.000                                                                                                                                    40717229.230 6 212025241.23106     -1530.956 6        36.336    40717233.679 6 163951363.76306     -1184.182 6        39.036    40717229.339 6 172287863.28206     -1243.740 6        36.703
R24        28.000    20589511.924 8 110101595.90808      2653.240 8        50.631                                                                    20589518.519 7  85634726.06707      2063.582 7        45.865
I02        29.000    37071878.750 7 145477991.30507      -709.286 7        42.082
G28        30.000    23679716.750 6 124437718.24606      2694.715 6        40.622                                    23679727.495 4  96964497.43204      2099.771 4        26.455    23679727.793 6  96964494.45306      2099.661 6        40.810
E07        31.000    25650841.181 7 134795940.69007     -3030.007 7        43.964                                                                    25650855.307 7 100659283.32507     -2262.753 7        46.481    25650853.531 7 103285178.06707     -2321.745 7        47.134
C12        32.000                                                                                                                                    22493950.729 7 117132068.44807      1340.795 7        47.203    22493954.433 8  90574044.84408      1036.825 8        51.806    22493952.081 8  95179470.17808      1089.576 8        49.231
R23        34.000    20215229.562 7 108137984.05607     -1894.304 7        47.922
C24        35.000                                                                                                                                    21426640.414 8 111574179.77908     -1529.833 8        51.379                                                                    21426641.729 8  90663183.17608     -1243.087 8        50.029
R05        36.000    22108392.729 7 118181951.62107     -1236.547 7        46.970                                                                    22108405.460 7  91919310.72007      -961.849 7        42.976
E27        37.000    25346051.798 7 133194475.26407      1318.963 7        44.567                                                                    25346063.995 7  99463510.99207       984.958 7        46.901    25346062.314 7 102058197.00807      1010.676 7        47.952
R04        38.000    22720461.381 7 121666837.60307     -4106.523 7        46.395                                                                    22720474.697 6  94629721.92106     -3193.974 6        41.783
R06        39.000    24505258.534 5 130764756.23905      2288.367 5        31.245
C32        40.000                                                                                                                                    26511304.466 6 138051176.55006      -469.411 6        40.565                                                                    26511317.508 6 112177891.34506      -381.521 6        41.235
C34        41.000                                                                                                                                    23616447.488 7 122977210.86307      2470.895 7        46.416                                                                    23616455.720 7  99929161.41707      2007.797 7        45.688
S44        42.000    40634452.715 6 213535482.22306      -538.006 6        37.361
R22        43.000    23381460.435 7 124811958.33007     -4529.798 7        42.836                                                                    23381465.302 6  97076057.62406     -3523.078 6        39.577
C05        44.000                                                                                                                                    39366186.556 6 204989913.50706      -600.101 6        38.598    39366193.377 7 158511180.25907      -464.082 7        42.718    39366192.134 6 166571160.79506      -487.589 6        38.952
C40        45.000                                                                                                                                    41411814.597 4                     -1751.614 4        27.078                                                                    41411812.667 4                     -1423.657 4        29.346
G32        46.000    22803005.409 7 119830504.01207     -1255.885 7        45.752                                    22803015.280 7  93374419.72607      -978.605 7        42.614    22803015.796 6  93374421.72506      -978.647 6        41.137
E36        47.000    25915078.683 7 136184756.15307      -805.878 7        42.969                                                                    25915089.719 7 101696525.68407      -601.802 7        45.624    25915088.181 7 104349461.34007      -617.548 7        46.080
C41        48.000                                                                                                                                    26235371.202 6 136614356.21606     -2706.858 6        39.982                                                                    26235393.021 6 111010404.92906     -2199.405 6        40.687
C10        49.000                                                                                                                                    39600265.725 6 206208939.12406     -1345.554 6        38.598    39600272.826 6 159453837.66506     -1040.476 6        41.809    39600267.931 6 167561649.16006     -1093.498 6        38.468
C44        50.000                                                                                                                                    21807484.053 8 113557322.78708      -293.702 8        50.542                                                                    21807487.339 8  92274656.75608      -238.642 8        49.119
S48        51.000    77052286.178 6 404913420.26206      -635.912 6        38.120
E02        53.000    25631616.857 7 134695078.22407     -2729.961 7        43.446                                                                    25631625.822 7 100584046.31807     -2038.679 7        46.247    25631624.282 7 103207961.53607     -2091.762 7        46.926
C60        54.000                                                                                                                                    40634457.717 6 211594268.04706      -533.410 6        39.883                                                                    40634452.934 6 171937598.93006      -433.196 6        39.619
C25        55.000                                                                                                                                    22483704.546 8 117078629.86008      1407.216 8        48.925                                                                    22483709.497 8  95136031.16808      1143.468 8        48.428
C02        57.000                                                                                                                                    40824526.364 5 212583861.72205      -552.456 5        33.251    40824534.361 6 164383265.61806      -427.252 6        37.168    40824533.931 5 172741760.09605      -449.070 5        33.497
I03        58.000   118408429.950 5 388874576.79105       921.609 5        33.269
C11        59.000                                                                                                                                    25770124.713 6 134191804.74806      2935.664 6        39.727    25770140.873 7 103765687.85607      2270.034 7        43.372    25770134.741 6 109041879.79106      2385.508 6        40.746
R13        60.000    20765375.751 7 110885998.72407     -3068.355 7        44.643
> 2025 01 01 13 45 10.0000000  0 56
G19         1.000    24306488.338 6 127731580.58806     -4153.512 6        37.811                                    24306490.651 3  99531181.48803     -3236.511 3        20.762
G25         2.000    20138157.938 8 105826840.49608       795.454 8        49.559                                    20138163.239 8  82462551.88608       619.831 8        49.901    20138163.943 7  82462561.90107       619.813 7        45.204
G24         3.000    22688777.347 7 119230279.20307     -4107.617 7        44.161                                    22688784.710 7  92906727.46907     -3200.739 7        42.172    22688785.194 6  92906724.47906     -3200.748 6        40.961
G29         4.000    22734229.570 7 119469373.21407      2651.037 7        45.440                                    22734236.246 6  93093139.36306      2065.733 6        41.611    22734236.621 6  93093142.38906      2065.685 6        40.265
S21         5.000    38342632.011 7 201491486.40107      -617.807 7        43.094
G06         6.000    22957983.071 7 120645130.84307     -1602.750 7        42.449                                    22957990.608 6  94009283.00206     -1248.902 6        39.691    22957991.839 6  94009274.00106     -1248.882 6        41.564
E19         7.000    27716894.250 5 145653182.38805      1538.976 5        33.563                                                                    27716908.571 6 108766979.37506      1149.270 6        36.223    27716907.017 6 111604381.72806      1179.249 6        37.142
G03         8.000    25345708.350 5 133192577.89605     -1109.180 5        35.505                                    25345711.181 4 103786416.87104      -864.292 4        26.263    25345711.732 5 103786422.89405      -864.412 5        33.419
G11         9.000    22572346.373 7 118618649.62407       816.153 7        45.535                                    22572350.882 5  92430217.07005       635.953 5        33.311    22572350.951 7  92430217.07207       636.153 7        43.970
E30        10.000    23497251.829 8 123479034.77608      -761.527 8        48.782                                                                    23497258.475 8  92208478.73408      -568.628 8        51.254    23497257.187 8  94613906.03208      -583.477 8        51.636
C26        11.000                                                                                                                                    25027025.004 7 130322195.54307     -3464.544 7        43.621                                                                    25027033.729 7 105897453.69907     -2815.287 7        43.448
S27        12.000    39134657.559 6 205653856.52506      -630.513 6        36.110
R15        13.000    22796421.920 7 121817205.45507      2825.914 7        45.568                                                                    22796437.207 6  94746791.74606      2197.946 6        41.871
S36        14.000    38114912.186 7 200295550.11407      -618.055 7        44.888
G12        15.000    20351562.581 8 106948321.48108     -1757.917 8        49.241                                    20351563.426 8  83336428.89908     -1369.807 8        50.124    20351563.880 7  83336428.90407     -1369.894 7        45.583
E29        16.000    25702648.034 7 135068243.55307      -453.738 7        42.976                                                                    25702660.741 7 100862654.91007      -338.795 7        45.801    25702659.105 7 103493853.02207      -347.651 7        46.624
S45        17.000    63313018.378 6 332713465.28606      -682.442 6        36.397
C35        19.000                                                                                                                                    24045546.889 7 125211579.87307     -2949.735 7        45.788                                                                    24045552.441 7 101744735.61207     -2396.967 7        45.354
E11        20.000    28477305.371 5 149649453.20705     -2933.154 5        31.645                                                                    28477304.622 5 111751332.85405     -2190.651 5        34.410    28477303.705 5 114666569.58805     -2247.649 5        34.657
R14        21.000    19488431.086 8 103884394.87308       702.508 8        52.817                                                                    19488438.101 8  80799049.23908       546.422 8        48.333
I06        22.000    38447946.040 6 150878005.97306      -556.558 6        41.137
S28        23.000    40816443.380 5 214491633.14505      -624.031 5        35.095
E34        24.000    25692690.837 7 135016175.54407      1758.705 7        43.602                                                                    25692702.616 7 100823913.15207      1313.296 7        47.344    25692700.725 7 103454086.83107      1347.508 7        47.372
S23        25.000    38056936.763 7 199990362.21807      -622.793 7        45.387
E08        26.000    28495659.003 3                     -3772.882 3        20.024                                                                    28495687.251 4 111822681.17004     -2817.495 4        28.133    28495683.523 4 114739805.58804     -2891.409 4        29.915
C07        27.000                                                                                                                                    40718699.663 6 212032896.38206     -1531.048 6        36.442    40718703.867 6 163957283.23506     -1184.014 6        39.393    40718699.457 6 172294083.74606     -1244.107 6        36.707
R24        28.000    20587032.904 8 110088336.86208      2650.269 8        50.633                                                                    20587039.360 7  85624413.50007      2061.291 7        46.096
I02        29.000    37072782.295 7 145481537.69607      -709.242 7        42.027
G28        30.000    23677153.986 6 124424247.11206      2693.711 6        40.770                                    23677163.785 4  96954000.45704      2099.003 4        26.383    23677164.769 6  96953997.44206      2099.040 6        40.770
E07        31.000    25653725.161 7 134811094.23407     -3031.420 7        43.812                                                                    25653738.987 7 100670599.24807     -2263.744 7        46.600    25653737.040 7 103296789.19707     -2322.776 7        47.144
C12        32.000                                                                                                                                    22492664.525 7 117125369.73107      1338.579 7        47.059    22492668.111 8  90568864.98908      1035.057 8        52.166    22492665.684 8  95174026.93408      1087.629 8        49.323
R23        34.000    20217002.023 7 108147466.26007     -1898.725 7        47.769
C24        35.000                                                                                                                                    21428110.307 8 111581833.12808     -1531.593 8        51.152                                                                    21428111.434 8  90669402.14208     -1244.595 8        50.111
R05        36.000    22109550.848 7 118188144.72507     -1240.813 7        47.133                                                                    22109563.974 7  91924127.55807      -965.072 7        43.397
E27        37.000    25344797.058 7 133187881.29207      1318.495 7        44.700                                                                    25344809.163 7  99458586.94407       984.573 7        47.121    25344807.528 8 102053144.50808      1010.288 8        48.192
R04        38.000    22724297.000 7 121687374.95007     -4108.482 7        46.281                                                                    22724309.841 7  94645695.34907     -3195.478 7        42.214
R06        39.000    24503115.889 5 130753319.62005      2285.845 5        31.275
C32        40.000                                                                                                                                    26511756.135 6 138053530.25406      -472.056 6        40.555                                                                    26511769.709 6 112179803.82606      -383.702 6        41.645
C34        41.000                                                                                                                                    23614075.479 7 122964859.05507      2469.745 7        46.338                                                                    23614083.948 7  99919124.58207      2006.812 7        46.017
S44        42.000    40634964.049 6 213538172.54306      -538.008 6        37.259
R22        43.000    23385703.813 7 124834611.08307     -4531.455 7        42.929                                                                    23385709.330 6  97093676.42706     -3524.425 6        39.787
C05        44.000                                                                                                                                    39366762.407 6 204992913.59506      -600.032 6        38.583    39366769.264 7 158513500.10207      -463.932 7        42.808    39366768.092 6 166573598.59906      -487.583 6        39.108
C40        45.000                                                                                                                                    41413494.049 4                     -1751.369 4        26.838                                                                    41413494.301 4                     -1423.248 4        29.441
G32        46.000    22804201.921 7 119836790.53507     -1258.953 7        45.907                                    22804211.547 7  93379318.30107      -980.999 7        42.705    22804212.513 6  93379320.29906      -981.004 6        41.285
E36        47.000    25915846.336 7 136188791.42507      -808.416 7        42.787                                                                    25915857.593 7 101699539.04107      -603.586 7        45.690    25915855.915 7 104352553.31007      -619.308 7        46.221
C41        48.000                                                                                                                                    26237970.833 6 136627893.86706     -2708.353 6        39.396                                                                    26237992.749 6 111021405.34406     -2200.728 6        40.717
C10        49.000                                                                                                                                    39601557.704 6 206215666.73306     -1345.616 6        38.357    39601564.697 7 159459039.88407     -1040.433 7        42.108    39601559.963 6 167567115.88806     -1093.421 6        38.556
C44        50.000                                                                                                                                    21807767.338 8 113558797.69808      -296.359 8        50.661                                                                    21807770.569 8  92275855.24708      -240.892 8        49.240
S48        51.000    77052879.320 6 404916599.50106      -635.856 6        37.732
E02        53.000    25634214.411 7 134708728.88007     -2730.387 7        43.281                                                                    25634223.418 7 100594239.96807     -2038.853 7        46.348    25634221.937 7 103218421.11507     -2092.046 7        46.892
C60        54.000                                                                                                                                    40634969.695 6 211596933.88806      -533.107 6        39.871                                                                    40634964.859 6 171939765.15906      -433.372 6        39.871
C25        55.000                                                                                                                                    22482354.003 8 117071596.38108      1406.105 8        48.860                                                                    22482358.742 8  95130315.90508      1142.542 8        48.508
C02        57.000                                                                                                                                    40825058.505 5 212586624.48805      -552.425 5        33.012    40825064.593 6 164385401.98906      -427.292 6        37.180    40825064.404 5 172744005.10005      -449.070 5        32.790
I03        58.000   118407255.350 5 388869967.75905       922.217 5        33.078
C11        59.000                                                                                                                                    25767305.043 6 134177126.32706      2935.436 6        39.078    25767321.909 7 103754337.66607      2269.892 7        43.594    25767315.901 6 109029952.45306      2385.205 6        41.194
R13        60.000    20768249.363 7 110901344.71107     -3070.191 7        44.874
> 2025 01 01 13 45 15.0000000  0 56
G19         1.000    24310440.631 6 127752349.16806     -4154.102 6        37.898                                    24310442.604 3  99547364.83403     -3236.969 3        20.429
G25         2.000    20137402.331 8 105822868.56308       793.434 8        49.329                                    20137407.396 8  82459456.88608       618.256 8        49.831    20137408.065 7  82459466.89607       618.197 7        44.838
G24         3.000    22692686.053 7 119250820.62907     -4109.084 7        43.757                                    22692693.663 7  92922733.75107     -3201.878 7        42.144    22692694.414 6  92922730.74006     -3201.829 6        41.702
G29         4.000    22731707.855 7 119456121.76907      2649.469 7        44.990                                    22731714.514 6  93082813.59606      2064.512 6        41.421    22731715.339 6  93082816.60806      2064.506 6        40.248
S21         5.000    38343220.530 7 201494575.49107      -617.877 7        42.626
G06         6.000    22959509.988 7 120653153.26507     -1606.012 7        42.235                                    22959517.260 6  94015534.24906     -1251.444 6        39.574    22959518.262 6  94015525.25706     -1251.560 6        40.858
E19         7.000    27715430.934 5 145645491.66205      1537.051 5        32.952                                                                    27715445.241 6 108761236.27506      1147.912 6        36.011    27715443.542 6 111598488.80106      1177.858 6        36.949
G03         8.000    25346764.810 5 133198131.13705     -1112.596 5        35.138                                    25346767.687 4 103790744.07304      -866.946 4        25.669    25346767.368 5 103790750.05405      -866.715 5        33.305
G11         9.000    22571571.272 7 118614576.35007       813.086 7        45.699                                    22571575.788 5  92427043.10305       633.570 5        33.263    22571576.207 7  92427043.11707       633.487 7        44.262
E30        10.000    23497976.922 8 123482845.05808      -762.671 8        48.864                                                                    23497983.560 8  92211324.07108      -569.478 8        51.303    23497982.269 8  94616825.59808      -584.376 8        51.688
C26        11.000                                                                                                                                    25030352.245 7 130339520.82407     -3465.488 7        43.156                                                                    25030360.783 7 105911531.86007     -2815.952 7        43.391
S27        12.000    39135258.831 6 205657010.59706      -630.989 6        36.378
R15        13.000    22793776.841 7 121803076.58307      2825.588 7        44.880                                                                    22793792.935 7  94735802.68007      2197.678 7        42.023
S36        14.000    38115499.547 7 200298640.58107      -618.098 7        44.587
G12        15.000    20353236.042 8 106957116.42708     -1760.054 8        49.531                                    20353237.047 8  83343282.10408     -1371.470 8        50.044    20353237.521 7  83343282.10007     -1371.442 7        45.573
E29        16.000    25703080.742 7 135070518.48207      -456.317 7        43.179                                                                    25703093.538 7 100864353.71207      -340.686 7        45.956    25703092.000 7 103495596.13707      -349.612 7        46.702
S45        17.000    63313613.779 6 332716877.32106      -682.361 6        36.325
C35        19.000                                                                                                                                    24048379.716 7 125226333.66307     -2951.877 7        45.338                                                                    24048385.779 7 101756724.24007     -2398.535 7        45.521
E11        20.000    28480096.891 5 149664123.95705     -2934.923 5        30.626                                                                    28480096.298 5 111762288.24605     -2191.717 5        34.043    28480095.463 5 114677810.76405     -2248.769 5        34.224
R14        21.000    19487773.434 8 103880887.95608       700.214 8        52.612                                                                    19487779.638 7  80796321.64207       544.622 7        47.984
I06        22.000    38448655.136 6 150880789.34206      -556.813 6        41.118
S28        23.000    40817034.453 5 214494752.45605      -624.044 5        35.124
E34        24.000    25691018.374 7 135007386.58107      1756.877 7        43.312                                                                    25691029.965 7 100817349.99607      1311.940 7        47.338    25691028.136 7 103447352.44707      1346.222 7        47.441
S23        25.000    38057529.240 7 199993476.48007      -622.925 7        45.448
E08        26.000    28499252.027 3                     -3773.437 3        20.024                                                                    28499277.425 4 111836769.76904     -2817.334 4        28.133    28499273.807 4 114754261.74704     -2891.103 4        29.062
C07        27.000                                                                                                                                    40720169.881 6 212040551.41406     -1531.222 6        36.416    40720173.905 6 163963202.58406     -1184.014 6        39.441    40720169.587 6 172300304.06506     -1244.165 6        36.764
R24        28.000    20584555.454 8 110075093.57008      2647.028 8        50.799                                                                    20584562.674 7  85614113.17707      2058.861 7        46.368
I02        29.000    37073686.545 6 145485084.96606      -709.566 6        41.888
G28        30.000    23674591.045 6 124410781.64806      2692.565 6        40.968                                    23674601.455 4  96943507.89104      2098.093 4        26.443    23674602.607 6  96943504.89106      2098.120 6        40.582
E07        31.000    25656609.928 7 134826255.23507     -3033.007 7        43.731                                                                    25656624.041 7 100681920.73307     -2264.857 7        46.599    25656622.204 7 103308406.02807     -2323.963 7        47.230
C12        32.000                                                                                                                                    22491379.698 7 117118683.15907      1336.075 7        47.145    22491384.289 8  90563694.51308      1033.118 8        52.107    22491381.581 8  95168593.54108      1085.645 8        49.449
R23        34.000    20218778.519 7 108156971.24607     -1903.285 7        47.595
C24        35.000                                                                                                                                    21429581.681 8 111589495.99208     -1533.526 8        51.167                                                                    21429583.017 8  90675628.83508     -1246.146 8        50.214
R05        36.000    22110713.589 7 118194360.08807     -1245.316 7        47.185                                                                    22110726.469 7  91928961.72707      -968.536 7        43.524
E27        37.000    25343542.624 7 133181290.68307      1317.728 7        44.381                                                                    25343555.020 7  99453665.39207       984.067 7        47.123    25343553.415 8 102048094.56608      1009.727 8        48.236
R04        38.000    22728132.899 7 121707922.54107     -4110.604 7        46.230                                                                    22728147.072 6  94661676.76306     -3197.195 6        41.578
R06        39.000    24500975.272 5 130741897.45905      2283.304 5        31.781
C32        40.000                                                                                                                                    26512210.338 6 138055897.89006      -474.917 6        39.601                                                                    26512224.394 6 112181727.59806      -385.966 6        41.692
C34        41.000                                                                                                                                    23611704.917 7 122952513.95107      2468.339 7        46.276                                                                    23611713.154 7  99909093.18107      2005.704 7        46.079
S44        42.000    40635477.888 6 213540863.09906      -538.081 6        37.448
R22        43.000    23389948.597 7 124857273.16907     -4533.475 7        42.971                                                                    23389954.696 6  97111302.55206     -3525.976 6        39.583
C05        44.000                                                                                                                                    39367338.638 6 204995913.81306      -600.209 6        38.513    39367345.562 7 158515820.06707      -463.952 7        42.819    39367344.162 6 166576036.52406      -487.623 6        39.492
C40        45.000                                                                                                                                    41415175.280 4                     -1751.107 4        26.910                                                                    41415175.769 4                     -1423.046 4        29.327
G32        46.000    22805401.427 7 119843092.96407     -1262.229 7        45.779                                    22805410.858 7  93384229.26507      -983.551 7        42.648    22805411.776 6  93384231.24906      -983.452 6        41.714
E36        47.000    25916616.580 7 136192839.87107      -810.994 7        42.891                                                                    25916627.951 7 101702562.24007      -605.660 7        45.583    25916626.360 7 104355655.36707      -621.425 7        46.247
C41        48.000                                                                                                                                    26240572.788 6 136641439.95106     -2710.123 6        40.184                                                                    26240594.003 6 111032412.61006     -2202.161 6        40.846
C10        49.000                                                                                                                                    39602849.105 6 206222394.58106     -1345.637 6        38.123    39602856.671 7 159464242.32007     -1040.580 7        42.347    39602852.060 6 167572582.84106     -1093.515 6        38.637
C44        50.000                                                                                                                                    21808053.232 8 113560286.90708      -299.335 8        50.705                                                                    21808056.595 8  92277065.34208      -243.247 8        49.304
S48        51.000    77053471.909 6 404919779.09706      -635.931 6        37.943
E02        53.000    25636812.558 7 134722382.13507     -2730.902 7        43.517                                                                    25636821.688 7 100604435.56607     -2039.342 7        46.392    25636820.097 7 103228882.68207     -2092.509 7        47.028
C60        54.000                                                                                                                                    40635481.656 6 211599599.99006      -533.350 6        39.958                                                                    40635476.734 6 171941931.55606      -433.338 6        39.823
C25        55.000                                                                                                                                    22481004.452 8 117064569.27808      1404.797 8        48.747                                                                    22481009.294 8  95124605.81208      1141.482 8        48.587
C02        57.000                                                                                                                                    40825588.781 5 212589387.43105      -552.662 5        33.096    40825595.414 6 164387538.46806      -427.306 6        37.233    40825595.231 5 172746250.19805      -448.830 5        33.455
I03        58.000   118406080.612 5 388865358.79705       921.678 5        32.772
C11        59.000                                                                                                                                    25764486.417 6 134162449.38806      2935.166 6        38.967    25764503.072 7 103742988.63307      2269.651 7        43.960    25764497.355 6 109018026.30106      2385.105 6        41.716
R13        60.000    20771125.278 7 110916700.30707     -3072.124 7        44.179
> 2025 01 01 13 45 20.0000000  0 56
G19         1.000    24314393.377 6 127773121.39606     -4154.562 6        38.222                                    24314395.326 3  99563551.09103     -3237.322 3        20.595
G25         2.000    20136648.103 8 105818907.10608       791.453 8        49.198                                    20136653.543 8  82456370.05108       616.718 8        49.791    20136654.524 7  82456380.05307       616.710 7        44.766
G24         3.000    22696596.142 7 119271368.89407     -4110.186 7        44.071                                    22696604.017 7  92938745.35807     -3202.735 7        42.116    22696604.560 7  92938742.34807     -3202.771 7        42.097
G29         4.000    22729187.647 7 119442877.98607      2648.170 7        45.416                                    22729194.232 6  93072493.80206      2063.504 6        41.337    22729195.104 6  93072496.80906      2063.580 6        40.665
S21         5.000    38343807.108 7 201497664.90307      -617.719 7        42.747
G06         6.000    22961039.927 6 120661192.56406     -1609.294 6        41.361                                    22961047.141 6  94021798.64806     -1253.997 6        39.471    22961048.162 6  94021789.65006     -1253.994 6        41.051
E19         7.000    27713969.500 5 145637809.34505      1535.763 5        33.269                                                                    27713983.603 6 108755499.41506      1146.904 6        36.280    27713981.681 6 111592602.27506      1176.982 6        36.817
G03         8.000    25347824.353 5 133203700.29705     -1115.005 5        35.681                                    25347827.412 4 103795083.66704      -868.847 4        25.338    25347827.339 5 103795089.66705      -868.833 5        33.982
G11         9.000    22570799.106 7 118610518.05807       810.326 7        45.496                                    22570803.602 5  92423880.82105       631.420 5        33.257    22570804.225 7  92423880.82707       631.349 7        44.358
E30        10.000    23498702.967 8 123486661.16508      -763.599 8        49.092                                                                    23498709.718 8  92214173.76608      -570.264 8        51.216    23498708.476 8  94619749.63008      -585.115 8        51.702
C26        11.000                                                                                                                                    25033680.373 7 130356850.36007     -3466.272 7        43.249                                                                    25033688.520 7 105925613.52307     -2816.643 7        43.382
S27        12.000    39135860.407 6 205660164.85206      -630.622 6        36.231
R15        13.000    22791132.760 7 121788949.12107      2825.498 7        45.047                                                                    22791149.703 7  94724814.72807      2197.542 7        42.106
S36        14.000    38116088.003 7 200301730.94707      -617.913 7        44.483
G12        15.000    20354911.655 8 106965921.80708     -1761.886 8        49.563                                    20354912.649 8  83350143.43808     -1372.899 8        50.009    20354913.356 7  83350143.44907     -1372.977 7        45.479
