     3.04           OBSERVATION DATA    M                   RINEX VERSION / TYPE
ssrcrin-15.6.1x                         20250101 231500 UTC PGM / RUN BY / DATE 
(00000000023479385599111004) Septentrio proprietary         COMMENT             
rref                                                        MARKER NAME         
01                                                          MARKER NUMBER       
geodetic                                                    MARKER TYPE         
NFB                 CLIMERS@TUW                             OBSERVER / AGENCY   
3297213             SEPT ASTERX SB3 PROB4.14.4              REC # / TYPE / VERS 
Unknown             Unknown                                 ANT # / TYPE        
  4127831.7262  1207193.3121  4695247.1434                  APPROX POSITION XYZ 
        0.0000        0.0000        0.0000                  ANTENNA: DELTA H/E/N
G   23 X1  C1C L1C D1C S1C C1W S1W C2W L2W D2W S2W C2L L2L  SYS / # / OBS TYPES 
       D2L S2L C5Q L5Q D5Q S5Q C1L L1L D1L S1L              SYS / # / OBS TYPES 
E   21 X1  C1C L1C D1C S1C C6C L6C D6C S6C C5Q L5Q D5Q S5Q  SYS / # / OBS TYPES 
       C7Q L7Q D7Q S7Q C8Q L8Q D8Q S8Q                      SYS / # / OBS TYPES 
S    9 X1  C1C L1C D1C S1C C5I L5I D5I S5I                  SYS / # / OBS TYPES 
R   17 X1  C1C L1C D1C S1C C2P L2P D2P S2P C2C L2C D2C S2C  SYS / # / OBS TYPES 
       C3Q L3Q D3Q S3Q                                      SYS / # / OBS TYPES 
C   25 X1  C1P L1P D1P S1P C5P L5P D5P S5P C2I L2I D2I S2I  SYS / # / OBS TYPES 
       C7I L7I D7I S7I C6I L6I D6I S6I C7D L7D D7D S7D      SYS / # / OBS TYPES 
J   17 X1  C1C L1C D1C S1C C2L L2L D2L S2L C5Q L5Q D5Q S5Q  SYS / # / OBS TYPES 
       C1L L1L D1L S1L                                      SYS / # / OBS TYPES 
I    5 X1  C5A L5A D5A S5A                                  SYS / # / OBS TYPES 
SEPTENTRIO RECEIVERS OUTPUT ALIGNED CARRIER PHASES.         COMMENT             
NO FURTHER PHASE SHIFT APPLIED IN THE RINEX ENCODER.        COMMENT             
G L1C                                                       SYS / PHASE SHIFT   
G L2W                                                       SYS / PHASE SHIFT   
G L2L  0.00000                                              SYS / PHASE SHIFT   
G L5Q  0.00000                                              SYS / PHASE SHIFT   
G L1L  0.00000                                              SYS / PHASE SHIFT   
E L1C  0.00000                                              SYS / PHASE SHIFT   
E L6C  0.00000                                              SYS / PHASE SHIFT   
E L5Q  0.00000                                              SYS / PHASE SHIFT   
E L7Q  0.00000                                              SYS / PHASE SHIFT   
E L8Q  0.00000                                              SYS / PHASE SHIFT   
S L1C                                                       SYS / PHASE SHIFT   
S L5I                                                       SYS / PHASE SHIFT   
R L1C                                                       SYS / PHASE SHIFT   
R L2P  0.00000                                              SYS / PHASE SHIFT   
R L2C                                                       SYS / PHASE SHIFT   
R L3Q  0.00000                                              SYS / PHASE SHIFT   
C L1P  0.00000                                              SYS / PHASE SHIFT   
C L5P  0.00000                                              SYS / PHASE SHIFT   
C L2I                                                       SYS / PHASE SHIFT   
C L7I                                                       SYS / PHASE SHIFT   
C L6I                                                       SYS / PHASE SHIFT   
C L7D                                                       SYS / PHASE SHIFT   
J L1C                                                       SYS / PHASE SHIFT   
J L2L  0.00000                                              SYS / PHASE SHIFT   
J L5Q  0.00000                                              SYS / PHASE SHIFT   
J L1L  0.00000                                              SYS / PHASE SHIFT   
I L5A                                                       SYS / PHASE SHIFT   
  2025     1     1    23    15    0.0000000     GPS         TIME OF FIRST OBS   
 C1C    0.000 C2C    0.000 C2P    0.000                     GLONASS COD/PHS/BIS 
DBHZ                                                        SIGNAL STRENGTH UNIT
    18                                                      LEAP SECONDS        
 24 R01  1 R02 -4 R03  5 R04  6 R05  1 R06 -4 R07  5 R08  6 GLONASS SLOT / FRQ #
    R09 -2 R10 -7 R11  0 R12 -1 R13 -2 R14 -7 R15  0 R16 -1 GLONASS SLOT / FRQ #
    R17  4 R18 -3 R19  3 R20  2 R21  4 R22 -3 R23  3 R24  2 GLONASS SLOT / FRQ #
                                                            END OF HEADER       
> 2025 01 01 23 15  0.0000000  0 53
G10         1.000    23546943.146 7 123740120.90507     -3471.189 7        42.076                                    23546941.099 6  96420935.14406     -2704.821 6        38.108    23546941.233 6  96420912.15806     -2704.919 6        39.312
G14         2.000    23881987.546 6 125500742.85206     -1308.378 6        39.568                                    23881984.200 4  97792789.05204     -1019.515 4        24.060    23881984.352 6  97792785.07206     -1019.691 6        38.682
C33         3.000                                                                                                                                    24508493.841 7 127622186.21707     -3276.474 7        44.786                                                                    24508504.743 7 103703539.75207     -2662.370 7        45.324
E31         4.000    26742602.525 6 140533372.38506     -2440.947 6        40.627                                                                    26742602.373 7 104943765.30207     -1822.769 7        42.400    26742602.171 7 107681425.17107     -1870.374 7        43.507
S21         5.000    38356264.444 7 201563270.23007      -485.393 7        42.654
E13         6.000    27423987.449 6 144114364.19706     -2917.700 6        38.541                                                                    27423988.028 7 107618074.20907     -2178.724 7        42.299    27423987.773 7 110425472.07607     -2235.634 7        42.686
G03         8.000    22193138.954 7 116625828.67507      2486.478 7        44.011                                    22193137.390 7  90877309.66007      1937.513 7        42.372    22193137.640 7  90877307.67707      1937.465 7        42.011
G02         9.000    20937869.446 8 110029300.51608       663.395 8        48.948                                    20937862.750 6  85737112.45706       516.930 6        41.569
R12        10.000    23549118.228 7 125795189.64907     -2168.670 7        42.718                                                                    23549119.071 6  97840734.63406     -1686.885 6        40.770
C30        11.000                                                                                                                                    22795159.129 8 118700390.91008      1569.449 8        48.426                                                                    22795159.491 8  96453793.79608      1275.314 8        48.236
S27        12.000    39024502.052 6 205075156.24206      -458.399 6        36.601
R20        13.000    19781683.088 6 105781598.23306     -2198.872 6        39.264                                                                    19781683.605 7  82274643.91407     -1710.268 7        46.788
S36        14.000    38124300.535 7 200345050.78407      -484.748 7        44.287
G27        15.000    24499718.571 6 128747162.81006     -4359.453 6        39.099                                    24499716.586 5 100322620.61605     -3396.977 5        35.086    24499717.138 6 100322534.61706     -3397.039 6        38.387
S45        17.000    63328374.452 6 332793989.07306      -527.044 6        38.174
E08        18.000    27058478.019 6 142193302.93106     -2737.898 6        39.520                                                                    27058476.444 7 106183312.58907     -2044.556 7        42.197    27058476.445 7 108953307.75107     -2097.934 7        43.092
E12        19.000    28480307.726 5 149665027.94405      2056.177 5        32.677                                                                    28480303.655 6 111762832.88506      1535.359 6        36.287    28480303.378 6 114678384.63806      1575.785 6        36.280
G17        20.000    24450954.672 6 128490645.26006      2631.587 6        40.953                                    24450951.020 5 100122567.54005      2050.583 5        34.267    24450951.407 6 100122566.55506      2050.514 6        37.365
E26        21.000    23678011.275 7 124429138.00707     -1450.634 7        47.890                                                                    23678008.725 8  92918060.31808     -1083.245 8        50.448    23678008.515 8  95341985.22708     -1111.513 8        51.439
I06        22.000    38275553.112 7 150201726.19107      -254.587 7        43.369
S28        23.000    40805564.839 5 214434719.05005      -477.217 5        34.576
G08        24.000    21912180.709 7 115149300.14707     -3486.355 7        46.544                                    21912178.967 7  89726727.41907     -2716.641 7        45.731    21912179.419 7  89726728.42707     -2716.755 7        43.287
S23        25.000    38077417.585 7 200098170.03707      -482.229 7        45.136
C13        26.000                                                                                                                                    40416896.990 6 210461582.31906     -1300.923 6        38.504    40416898.229 6 162742355.74606     -1005.968 6        38.745    40416896.664 6 171017361.54106     -1057.073 6        37.297
E24        27.000    27689394.339 6 145508781.49706      -186.034 6        39.027                                                                    27689393.532 7 108659166.31107      -138.991 7        42.269    27689392.751 7 111493749.95307      -142.515 7        42.743
R21        29.000    19802748.684 8 105968513.47208      1680.730 8        52.166                                                                    19802747.254 7  82419958.25607      1307.221 7        46.316
C14        30.000                                                                                                                                    26827204.708 6 139696306.25806     -3770.057 6        36.851    26827201.044 7 108022037.45407     -2915.346 7        42.777    26827199.329 6 113514675.80306     -3063.470 6        40.010
R05        31.000    19486119.117 8 104164516.63708     -1990.699 8        50.946                                                                    19486118.106 7  81016856.49707     -1548.379 7        47.829
R13        32.000    23784340.222 6 127007065.19206       448.415 6        36.234
E29        33.000    25482264.056 7 133910278.64707      2296.300 7        44.173                                                                    25482262.416 7  99997948.45307      1714.700 7        47.118    25482262.486 7 102606585.30107      1759.435 7        47.938
C16        35.000                                                                                                                                    40092522.135 6 208772304.79206      1106.834 6        38.928    40092522.527 6 161435998.79906       855.773 6        41.502    40092519.138 5 169644597.05205       899.338 5        35.805
C32        36.000                                                                                                                                    23632202.516 8 123059133.19108      2277.671 8        48.023                                                                    23632202.485 7  99995646.37707      1850.810 7        47.798
G32        37.000    21869519.281 8 114925139.34308     -1356.449 8        48.538                                    21869516.771 8  89552058.87908     -1056.974 8        48.132    21869517.177 7  89552067.88307     -1057.081 7        44.650
E07        38.000    24362725.967 7 128027007.11707      -214.615 7        46.550                                                                    24362725.938 8  95604621.36608      -160.198 8        49.492    24362725.641 8  98098647.32208      -164.417 8        50.179
C41        39.000                                                                                                                                    21874917.339 8 113908467.41408      -740.378 8        50.958                                                                    21874922.061 8  92559990.05808      -601.588 8        50.421
C39        40.000                                                                                                                                    39629850.283 7 206363052.62907       799.765 7        42.000                                                                    39629845.863 6 167686878.99706       649.848 6        41.659
E33        41.000    23847565.848 7 125319891.90007       846.166 7        47.414                                                                    23847563.722 8  93583069.19508       631.889 8        50.508    23847563.361 8  96024362.58208       648.321 8        51.073
S44        42.000    40435536.923 6 212490382.61206      -536.411 6        37.769
R06        43.000    20722855.778 7 110581189.94807      2895.044 7        42.679
C05        44.000                                                                                                                                    39052837.323 6 203358413.74506      -453.789 6        38.177    39052832.173 7 157249650.43607      -351.105 7        43.371    39052834.632 6 165245473.19106      -368.882 6        40.436
C08        45.000                                                                                                                                    41237511.794 5 214734731.90705     -1390.675 5        30.875    41237506.608 6 166046589.91006     -1075.594 6        36.208    41237505.414 5 174489609.53405     -1130.235 5        32.563
R22        48.000    23991234.869 7 128066853.67307      3433.342 7        42.946                                                                    23991234.476 6  99607545.45006      2670.435 6        39.444
I05        49.000  -497471290.095 6-876398991.12906       259.020 6        38.351
C06        50.000                                                                                                                                    39838540.622 6 207449752.70906      1207.784 6        37.607    39838536.315 6 160413287.91406       933.963 6        41.888    39838535.048 6 168569895.03406       981.319 6        38.691
S48        51.000    77112680.184 6 405230901.06806      -499.408 6        38.498
G21        52.000    20550164.141 7 107991913.67407      -827.215 7        44.673                                    20550158.298 6  84149565.30706      -644.582 6        37.796
C09        53.000                                                                                                                                    40913461.927 6 213047135.85206      1380.263 6        37.474    40913459.157 6 164741546.13806      1067.168 6        41.242    40913457.349 6 173118225.55606      1121.467 6        37.732
C60        54.000                                                                                                                                    40435538.544 6 210558671.37406      -531.300 6        41.068                                                                    40435522.180 6 171096139.70206      -431.764 6        40.608
C27        55.000                                                                                                                                    21437598.777 8 111631223.60408     -1302.114 8        51.974                                                                    21437596.997 8  90709517.79008     -1058.024 8        49.606
R04        56.000    22912520.710 7 122695519.72207     -4629.577 7        44.319                                                                    22912519.905 6  95429839.12706     -3600.828 6        40.029
C02        57.000                                                                                                                                    40441347.674 5 210588768.66705      -492.610 5        33.503    40441341.107 6 162840590.80406      -381.082 6        40.751    40441344.509 6 171120630.01306      -400.223 6        36.526
I03        58.000   106068474.816 6 340450254.17506       969.365 6        39.492
C28        60.000                                                                                                                                    23884625.457 7 124373822.47807     -3365.358 7        45.348                                                                    23884624.822 7 101064053.27907     -2734.583 7        44.837
> 2025 01 01 23 15  5.0000000  0 53
G10         1.000    23550245.951 7 123757478.95207     -3472.009 7        42.360                                    23550244.304 6  96434460.88606     -2705.463 6        37.996    23550243.776 6  96434437.89506     -2705.402 6        39.273
G14         2.000    23883234.444 6 125507292.57006     -1311.389 6        40.040                                    23883230.339 4  97797892.73604     -1021.864 4        24.075    23883230.728 6  97797888.74506     -1022.084 6        39.303
C33         3.000                                                                                                                                    24511640.624 7 127638572.31307     -3277.946 7        44.743                                                                    24511651.346 7 103716854.79107     -2663.552 7        45.502
E31         4.000    26744925.934 6 140545581.81706     -2442.874 6        40.739                                                                    26744925.650 7 104952882.72007     -1824.152 7        42.580    26744925.579 7 107690780.43007     -1871.783 7        43.649
S21         5.000    38356726.162 7 201565697.75207      -485.761 7        42.491
E13         6.000    27426763.752 6 144128954.07806     -2918.461 6        38.907                                                                    27426764.354 7 107628969.24407     -2179.306 7        42.472    27426763.947 7 110436651.33107     -2236.134 7        42.573
G03         8.000    22190774.481 7 116613400.49907      2484.773 7        43.970                                    22190772.425 7  90867625.37207      1936.183 7        42.391    22190772.886 6  90867623.37206      1936.220 6        41.723
G02         9.000    20937239.293 8 110025988.43408       661.488 8        48.897                                    20937232.479 6  85734531.61406       515.444 6        41.600
R12        10.000    23551149.263 7 125806042.36607     -2172.580 7        44.129                                                                    23551150.792 6  97849175.64106     -1689.694 6        40.424
C30        11.000                                                                                                                                    22793653.079 8 118692548.54608      1567.492 8        48.573                                                                    22793653.375 8  96447421.22508      1273.827 8        48.387
S27        12.000    39024939.967 6 205077448.23506      -458.725 6        36.718
R20        13.000    19783740.546 6 105792601.01606     -2202.176 6        39.228                                                                    19783741.531 7  82283201.63107     -1712.787 7        47.250
S36        14.000    38124758.591 7 200347474.43807      -484.953 7        44.215
G27        15.000    24503867.083 6 128768961.60706     -4359.850 6        39.312                                    24503864.807 5 100339606.68405     -3397.288 5        35.148    24503865.858 6 100339520.67706     -3397.252 6        38.535
S45        17.000    63328828.215 6 332796625.63806      -527.358 6        37.909
E08        18.000    27061083.919 6 142206997.22106     -2739.878 6        39.667                                                                    27061082.222 7 106193538.83407     -2045.945 7        42.220    27061082.231 7 108963800.75807     -2099.228 7        43.092
E12        19.000    28478351.870 5 149654747.56105      2056.217 5        33.713                                                                    28478347.335 6 111755155.96306      1535.324 6        36.408    28478347.020 6 114670507.46706      1575.211 6        36.125
G17        20.000    24448451.314 6 128477490.79006      2630.147 6        41.349                                    24448447.654 5 100112317.33305      2049.469 5        34.248    24448447.885 6 100112316.35106      2049.534 6        37.323
E26        21.000    23679392.230 8 124436394.81608     -1452.149 8        48.049                                                                    23679389.688 8  92923479.35608     -1084.355 8        50.509    23679389.461 8  95347545.63108     -1112.675 8        51.544
I06        22.000    38275877.369 7 150202999.23507      -254.638 7        43.602
S28        23.000    40806023.475 5 214437105.74305      -477.506 5        34.533
G08        24.000    21915498.989 7 115166737.11207     -3488.372 7        46.930                                    21915497.023 7  89740314.66307     -2718.212 7        45.743    21915497.497 7  89740315.67107     -2718.304 7        42.677
S23        25.000    38077877.554 7 200100582.36007      -482.579 7        45.046
C13        26.000                                                                                                                                    40418145.888 6 210468087.46006     -1301.037 6        38.150    40418146.953 6 162747385.93606     -1006.097 6        38.480    40418145.781 6 171022647.49606     -1057.148 6        37.611
E24        27.000    27689573.114 6 145509718.51706      -188.603 6        39.462                                                                    27689571.750 7 108659866.04107      -141.045 7        42.711    27689571.067 7 111494467.93607      -144.688 7        42.868
R21        29.000    19801179.789 8 105960116.41508      1678.014 8        52.023                                                                    19801178.190 7  82413427.21907      1305.154 7        46.391
C14        30.000                                                                                                                                    26830823.790 6 139715157.58406     -3770.622 6        36.960    26830821.270 7 108036614.47607     -2915.620 7        42.626    26830819.581 6 113529994.03606     -3063.800 6        39.973
R05        31.000    19487983.047 8 104174480.79008     -1994.983 8        50.770                                                                    19487982.388 8  81024606.39108     -1551.606 8        48.041
R13        32.000    23783921.449 6 127004834.28306       443.910 6        37.214
E29        33.000    25480080.291 7 133898800.98707      2294.853 7        44.123                                                                    25480078.224 7  99989377.47307      1713.607 7        47.222    25480078.466 8 102597790.73208      1758.364 8        48.097
C16        35.000                                                                                                                                    40091460.188 6 208766773.37706      1105.769 6        38.781    40091460.231 6 161431721.54406       855.072 6        41.392    40091457.107 5 169640102.31305       898.668 5        35.976
C32        36.000                                                                                                                                    23630016.834 8 123047749.47008      2275.761 8        48.361                                                                    23630016.370 7  99986396.16607      1849.349 7        47.938
G32        37.000    21870811.415 8 114931930.11908     -1359.870 8        48.350                                    21870809.016 8  89557350.39408     -1059.640 8        48.108    21870809.362 7  89557359.39707     -1059.608 7        44.546
E07        38.000    24362931.080 7 128028086.78907      -217.339 7        46.666                                                                    24362931.385 8  95605427.61808      -162.319 8        49.630    24362931.059 8  98099474.59808      -166.495 8        50.272
C41        39.000                                                                                                                                    21875629.662 8 113912176.29408      -743.175 8        51.071                                                                    21875634.361 8  92563003.82108      -603.802 8        50.558
C39        40.000                                                                                                                                    39629082.589 7 206359056.83107       798.549 7        42.387                                                                    39629078.453 7 167683632.09107       648.874 7        42.078
E33        41.000    23846761.250 7 125315664.05707       844.949 7        47.896                                                                    23846759.107 8  93579912.03308       630.960 8        50.635    23846758.844 8  96021123.05408       647.459 8        51.080
S44        42.000    40436048.320 6 212493064.78506      -536.655 6        37.724
R06        43.000    20720145.324 7 110566721.84707      2892.052 7        42.258
C05        44.000                                                                                                                                    39053273.252 6 203360683.88206      -454.183 6        38.264    39053268.076 7 157251405.82007      -351.174 7        43.306    39053270.562 6 165247317.82706      -369.018 6        40.789
C08        45.000                                                                                                                                    41238846.331 4 214741686.90404     -1391.052 4        29.763    41238842.106 5 166051967.93305     -1075.683 5        35.914    41238841.367 5 174495261.03105     -1130.472 5        32.641
R22        48.000    23988019.244 7 128049686.87007      3433.229 7        43.338                                                                    23988019.277 6  99594193.51606      2670.302 6        40.746
I05        49.000  -497471620.990 6-876400285.99906       258.749 6        38.402
C06        50.000                                                                                                                                    39837381.672 6 207443716.67506      1206.802 6        37.966    39837377.012 6 160408620.45706       933.119 6        41.809    39837375.730 6 168564990.25606       980.450 6        38.706
S48        51.000    77113138.767 6 405233399.41306      -499.882 6        38.372
G21        52.000    20550951.856 7 107996054.77507      -829.300 7        44.394                                    20550946.328 6  84152792.13906      -646.209 6        37.826
C09        53.000                                                                                                                                    40912137.525 6 213040236.77306      1379.653 6        37.350    40912133.876 6 164736211.32906      1066.652 6        41.120    40912132.301 6 173112619.48206      1121.121 6        37.924
C60        54.000                                                                                                                                    40436049.195 6 210561329.17306      -531.848 6        41.237                                                                    40436032.575 6 171098299.38106      -432.071 6        40.863
C27        55.000                                                                                                                                    21438850.504 8 111637740.96508     -1304.798 8        51.977                                                                    21438848.537 8  90714813.67508     -1060.168 8        49.742
R04        56.000    22916844.207 7 122718671.05707     -4630.958 7        43.972                                                                    22916843.150 6  95447845.68006     -3601.846 6        39.631
C02        57.000                                                                                                                                    40441820.432 5 210591232.85405      -493.044 5        33.479    40441814.531 6 162842496.24906      -381.221 6        40.815    40441817.764 6 171122632.37306      -400.700 6        36.726
I03        58.000   106067240.823 6 340445408.23106       969.070 6        39.685
C28        60.000                                                                                                                                    23887857.667 7 124390653.19507     -3366.918 7        46.008                                                                    23887856.862 7 101077729.61307     -2735.801 7        45.153
> 2025 01 01 23 15 10.0000000  0 53
G10         1.000    23553550.117 7 123774839.48407     -3472.445 7        42.565                                    23553547.796 6  96447988.57806     -2705.801 6        37.690    23553547.359 6  96447965.58706     -2705.788 6        38.754
G14         2.000    23884483.133 6 125513856.31006     -1314.158 6        39.919                                    23884479.254 3  97803007.34303     -1024.011 3        23.771    23884480.055 6  97803003.34206     -1024.023 6        38.508
C33         3.000                                                                                                                                    24514788.060 7 127654963.78007     -3278.944 7        45.053                                                                    24514799.235 7 103730174.20307     -2664.407 7        45.556
E31         4.000    26747251.105 6 140557799.16906     -2444.279 6        40.412                                                                    26747250.711 7 104962006.07507     -1825.321 7        42.512    26747250.503 7 107700141.78807     -1872.967 7        43.585
S21         5.000    38357188.966 7 201568125.07007      -485.532 7        42.406
E13         6.000    27429540.446 6 144143546.01006     -2918.734 6        38.613                                                                    27429540.990 7 107639865.81207     -2179.460 7        42.320    27429540.609 7 110447832.16007     -2236.468 7        42.451
G03         8.000    22188411.059 7 116600979.37007      2483.488 7        44.179                                    22188408.788 7  90857946.57407      1935.184 7        42.364    22188409.508 6  90857944.58606      1935.064 6        41.695
G02         9.000    20936610.302 8 110022684.31508       659.913 8        49.041                                    20936603.715 6  85731956.97706       514.220 6        41.490
R12        10.000    23553185.565 7 125816912.75207     -2175.948 7        43.858                                                                    23553185.053 6  97857630.37106     -1692.354 6        39.652
C30        11.000                                                                                                                                    22792148.521 8 118684714.36008      1565.940 8        48.695                                                                    22792148.851 8  96441055.31808      1272.472 8        48.361
S27        12.000    39025376.138 6 205079740.71106      -458.555 6        36.401
R20        13.000    19785800.655 6 105803618.24406     -2205.081 6        38.889                                                                    19785801.452 7  82291770.59207     -1714.994 7        46.495
S36        14.000    38125217.607 7 200349898.29107      -484.823 7        44.054
G27        15.000    24508015.352 6 128790761.34006     -4360.026 6        39.598                                    24508013.226 5 100356593.48205     -3397.421 5        35.114    24508013.673 6 100356507.48506     -3397.518 6        38.459
S45        17.000    63329286.212 6 332799261.94606      -527.245 6        37.921
E08        18.000    27063691.318 6 142220699.05606     -2741.121 6        39.435                                                                    27063689.564 7 106203770.72207     -2046.967 7        42.028    27063689.334 7 108974299.56907     -2100.400 7        42.891
E12        19.000    28476393.765 5 149644466.51905      2056.569 5        34.038                                                                    28476390.743 6 111747478.56906      1535.458 6        36.117    28476390.667 6 114662629.80406      1575.548 6        36.408
G17        20.000    24445949.365 6 128464341.38706      2629.266 6        41.569                                    24445945.307 5 100102071.06305      2048.778 5        34.109    24445945.146 6 100102070.06306      2048.722 6        37.486
E26        21.000    23680774.179 8 124443657.29608     -1453.155 8        48.116                                                                    23680771.642 8  92928902.63908     -1085.141 8        50.475    23680771.484 8  95353110.39208     -1113.482 8        51.458
I06        22.000    38276201.746 7 150204272.17407      -254.646 7        43.867
S28        23.000    40806473.079 5 214439492.28105      -477.572 5        34.633
G08        24.000    21918818.936 7 115184182.98807     -3490.159 7        46.751                                    21918816.796 7  89753908.85407     -2719.604 7        45.664    21918817.800 7  89753909.86807     -2719.626 7        42.627
S23        25.000    38078333.025 7 200102994.36407      -482.434 7        44.868
C13        26.000                                                                                                                                    40419393.835 6 210474591.41106     -1300.736 6        37.380    40419396.184 6 162752415.18106     -1005.839 6        38.378    40419394.803 6 171027932.45506     -1056.776 6        37.645
E24        27.000    27689753.682 6 145510667.42406      -190.975 6        39.258                                                                    27689752.298 7 108660574.64307      -142.660 7        42.303    27689751.564 7 111495195.02507      -146.396 7        42.629
R21        29.000    19799612.850 8 105951731.35308      1675.757 8        52.209                                                                    19799611.081 7  82406905.49407      1303.397 7        46.341
C14        30.000                                                                                                                                    26834444.487 6 139734009.53706     -3770.493 6        37.066    26834441.487 7 108051191.99607     -2915.693 7        42.717    26834439.946 6 113545312.80506     -3064.037 6        40.107
R05        31.000    19489850.758 8 104184464.27708     -1998.714 8        50.688                                                                    19489850.221 8  81032371.33408     -1554.583 8        48.294
R13        32.000    23783507.400 6 127002623.23506       440.253 6        36.711
E29        33.000    25477897.029 7 133887328.89907      2293.824 7        44.224                                                                    25477895.094 7  99980810.65407      1712.873 7        47.005    25477895.268 8 102589000.42308      1757.624 8        48.034
C16        35.000                                                                                                                                    40090398.302 6 208761245.15206      1105.214 6        39.183    40090398.396 6 161427446.77206       854.694 6        41.285    40090395.284 6 169635610.19006       898.084 6        36.174
C32        36.000                                                                                                                                    23627831.834 8 123036373.32008      2274.388 8        48.245                                                                    23627831.723 8  99977152.12308      1848.110 8        48.034
G32        37.000    21872106.392 8 114938736.06208     -1362.725 8        48.047                                    21872104.132 8  89562653.73108     -1061.865 8        48.072    21872104.505 7  89562662.74107     -1061.963 7        44.318
E07        38.000    24363139.047 7 128029178.56307      -219.627 7        46.390                                                                    24363139.153 8  95606242.89508      -164.010 8        49.567    24363138.803 8  98100311.15508      -168.342 8        50.267
C41        39.000                                                                                                                                    21876344.209 8 113915897.53108      -745.563 8        51.176                                                                    21876348.963 8  92566027.63608      -605.781 8        50.597
C39        40.000                                                                                                                                    39628315.774 7 206355065.25607       797.846 7        42.282                                                                    39628311.886 7 167680388.61107       648.302 7        42.057
E33        41.000    23845957.574 7 125311440.51607       844.192 7        47.784                                                                    23845955.434 8  93576758.09408       630.372 8        50.574    23845955.157 8  96017886.83908       646.850 8        51.145
S44        42.000    40436555.558 6 212495746.93906      -536.650 6        37.728
R06        43.000    20717435.847 7 110552267.15907      2889.425 7        42.770
C05        44.000                                                                                                                                    39053709.222 6 203362953.98206      -454.104 6        38.267    39053704.055 7 157253161.20207      -351.080 7        43.412    39053706.482 6 165249162.48106      -369.044 6        40.608
C08        45.000                                                                                                                                    41240182.132 5 214748640.48305     -1390.966 5        30.060    41240176.835 5 166057344.90705     -1075.493 5        35.662    41240176.817 5 174500911.38705     -1130.045 5        32.772
R22        48.000    23984804.012 7 128032518.90607      3433.674 7        43.848                                                                    23984803.203 6  99580840.68006      2670.666 6        40.689
I05        49.000  -497471950.417 6-876401580.64506       258.721 6        38.622
C06        50.000                                                                                                                                    39836222.866 6 207437683.62906      1206.246 6        38.147    39836218.266 7 160403955.32907       932.696 7        42.011    39836217.288 6 168560087.92406       980.101 6        38.646
S48        51.000    77113599.219 6 405235897.76906      -499.599 6        38.589
G21        52.000    20551741.465 7 108000204.67507      -830.947 7        44.668                                    20551735.989 6  84156025.83006      -647.491 6        37.698
C09        53.000                                                                                                                                    40910814.014 6 213033339.32206      1379.158 6        37.573    40910809.531 6 164730877.76906      1066.549 6        41.349    40910807.579 6 173107014.73506      1120.700 6        37.955
C60        54.000                                                                                                                                    40436559.496 6 210563986.93606      -531.630 6        41.197                                                                    40436543.047 6 171100459.02606      -432.102 6        40.791
C27        55.000                                                                                                                                    21440104.179 8 111644269.89508     -1306.990 8        52.148                                                                    21440102.457 8  90720118.97508     -1062.036 8        49.859
R04        56.000    22921168.617 7 122741827.21307     -4631.723 7        43.746                                                                    22921167.365 6  95465856.03106     -3602.504 6        38.805
C02        57.000                                                                                                                                    40442293.654 5 210593697.03305      -492.945 5        33.868    40442287.562 6 162844401.72706      -381.148 6        40.794    40442291.103 6 171124634.74906      -400.407 6        36.586
I03        58.000   106066005.627 6 340440562.41706       969.107 6        39.628
C28        60.000                                                                                                                                    23891091.180 7 124407489.81307     -3367.973 7        45.824                                                                    23891090.188 7 101091410.74207     -2736.715 7        45.153
> 2025 01 01 23 15 15.0000000  0 53
G10         1.000    23556854.089 7 123792202.50607     -3473.020 7        42.754                                    23556851.681 6  96461518.20706     -2706.250 6        37.724    23556851.288 6  96461495.21406     -2706.365 6        38.583
G14         2.000    23885734.962 6 125520434.12006     -1317.189 6        40.234                                    23885730.986 3  97808132.90903     -1026.379 3        23.771    23885731.714 6  97808128.89406     -1026.251 6        39.120
C33         3.000                                                                                                                                    24517936.870 7 127671360.64907     -3280.121 7        45.503                                                                    24517948.184 7 103743498.01307     -2665.250 7        45.881
E31         4.000    26749577.493 6 140570024.52506     -2446.026 6        40.732                                                                    26749577.041 7 104971135.39907     -1826.746 7        42.427    26749576.814 7 107709509.26207     -1874.243 7        43.680
S21         5.000    38357649.060 7 201570552.40207      -485.605 7        42.370
E13         6.000    27432317.507 6 144158139.98106     -2919.229 6        38.393                                                                    27432318.206 7 107650763.91007     -2179.920 7        42.421    27432317.830 7 110459014.55907     -2236.841 7        42.455
G03         8.000    22186048.726 7 116588565.31107      2481.937 7        44.790                                    22186046.497 7  90848273.28607      1933.976 7        42.432    22186047.241 7  90848271.29207      1933.936 7        42.129
G02         9.000    20935983.381 8 110019388.19208       658.183 8        49.325                                    20935976.472 6  85729388.57206       512.871 6        41.559
R12        10.000    23555223.422 7 125827800.81707     -2179.680 7        43.681                                                                    23555224.336 6  97866098.86606     -1695.097 6        39.489
C30        11.000                                                                                                                                    22790645.542 8 118676888.41408      1564.218 8        48.604                                                                    22790646.038 8  96434696.11708      1270.980 8        48.357
S27        12.000    39025813.570 6 205082032.82506      -458.579 6        36.397
R20        13.000    19787864.054 6 105814649.99606     -2208.077 6        39.246                                                                    19787864.656 7  82300350.83507     -1717.375 7        46.680
S36        14.000    38125677.661 7 200352321.94407      -484.915 7        44.193
G27        15.000    24512164.004 6 128812562.01606     -4360.477 6        39.778                                    24512161.818 5 100373581.01705     -3397.777 5        35.124    24512162.422 6 100373495.01306     -3397.826 6        38.447
S45        17.000    63329742.899 6 332800198.19716      -527.573 6        37.917
E08        18.000    27066300.087 6 142234408.44506     -2742.875 6        39.435                                                                    27066298.476 6 106214008.25906     -2048.228 6        41.909    27066298.041 7 108984804.18107     -2101.720 7        42.658
E12        19.000    28474437.654 5 149634184.89405      2056.090 5        33.587                                                                    28474433.967 6 111739800.72606      1535.418 6        36.329    28474434.237 6 114654751.64506      1575.582 6        36.212
G17        20.000    24443448.248 6 128451197.16206      2628.100 6        41.185                                    24443444.007 5 100091828.80505      2047.870 5        34.129    24443444.292 6 100091827.79206      2047.730 6        37.316
E26        21.000    23682157.334 7 124450925.49007     -1454.361 7        47.913                                                                    23682154.767 8  92934330.19008     -1086.077 8        50.361    23682154.527 8  95358679.52808     -1114.419 8        51.434
I06        22.000    38276526.076 7 150205545.04407      -254.689 7        43.827
S28        23.000    40806929.672 5 214441878.40605      -477.291 5        34.348
G08        24.000    21922140.365 7 115201637.76407     -3492.023 7        46.867                                    21922138.308 7  89767509.97807     -2721.054 7        45.704    21922139.491 7  89767510.97507     -2721.074 7        43.086
S23        25.000    38078794.916 7 200105406.14307      -482.607 7        44.873
C13        26.000                                                                                                                                    40420642.714 6 210481094.22706     -1300.691 6        37.380    40420645.054 6 162757443.59206     -1005.837 6        38.898    40420643.650 6 171033216.56706     -1056.943 6        37.682
E24        27.000    27689936.180 6 145511628.28006      -193.593 6        39.186                                                                    27689935.132 7 108661292.16507      -144.550 7        42.322    27689934.570 7 111495931.25907      -148.301 7        42.563
R21        29.000    19798047.555 8 105943358.06008      1673.253 8        51.596                                                                    19798046.270 7  82400392.94507      1301.373 7        46.685
C14        30.000                                                                                                                                    26838064.806 6 139752862.18306     -3770.792 6        37.013    26838061.852 7 108065770.05707     -2915.827 7        42.802    26838060.415 6 113560632.11306     -3064.060 6        40.088
R05        31.000    19491722.465 8 104194467.06608     -2002.741 8        51.402                                                                    19491721.006 7  81040151.27507     -1557.672 7        47.781
R13        32.000    23783097.669 6 127000432.21306       436.052 6        36.601
E29        33.000    25475715.180 7 133875862.42007      2292.557 7        44.566                                                                    25475713.112 7  99972248.02707      1711.988 7        46.912    25475713.177 7 102580214.42407      1756.661 7        47.852
C16        35.000                                                                                                                                    40089337.649 6 208755720.20106      1104.562 6        39.414    40089337.103 6 161423174.53006       854.064 6        41.306    40089334.685 6 169631120.69606       897.608 6        36.420
C32        36.000                                                                                                                                    23625648.744 8 123025004.77808      2272.767 8        48.414                                                                    23625648.486 8  99967914.26308      1846.787 8        48.030
G32        37.000    21873404.315 8 114945557.18708     -1365.914 8        48.566                                    21873402.146 8  89567968.89008     -1064.350 8        48.065    21873402.598 7  89567977.89607     -1064.267 7        44.441
E07        38.000    24363349.170 7 128030282.45407      -222.162 7        46.372                                                                    24363349.230 8  95607067.23708      -165.881 8        49.456    24363348.811 8  98101156.99908      -170.264 8        50.192
C41        39.000                                                                                                                                    21877061.372 8 113919631.16508      -748.131 8        51.197                                                                    21877065.970 8  92569061.53508      -607.924 8        50.631
C39        40.000                                                                                                                                    39627549.898 7 206351077.94607       796.892 7        42.059                                                                    39627546.095 7 167677148.60107       647.458 7        42.119
E33        41.000    23845154.570 7 125307221.31107       843.238 7        47.904                                                                    23845152.591 8  93573607.39708       629.654 8        50.535    23845152.229 8  96014653.95008       646.085 8        51.054
S44        42.000    40437067.157 6 212498429.07806      -536.584 6        38.018
R06        43.000    20714729.424 7 110537825.85407      2886.586 7        42.404
C05        44.000                                                                                                                                    39054145.156 6 203365224.07206      -454.245 6        38.372    39054140.217 7 157254916.59307      -351.334 7        43.448    39054142.492 6 165251007.13706      -369.252 6        40.665
C08        45.000                                                                                                                                    41241518.385 5 214755592.67905     -1390.474 5        31.011    41241512.222 5 166062720.80005     -1075.248 5        35.886    41241511.328 5 174506560.65905     -1129.846 5        32.329
R22        48.000    23981587.512 7 128015349.71207      3433.783 7        43.327                                                                    23981585.971 6  99567486.84106      2670.685 6        40.286
I05        49.000  -497472280.314 6-876402875.08106       258.600 6        38.426
C06        50.000                                                                                                                                    39835065.253 6 207431653.66006      1205.448 6        37.781    39835060.089 7 160399292.58107       932.094 7        42.051    39835059.200 6 168555188.08906       979.456 6        38.637
S48        51.000    77114067.930 6 405238396.46106      -500.091 6        38.592
G21        52.000    20552533.001 7 108004363.44907      -832.844 7        44.701                                    20552527.395 6  84159266.43506      -648.971 6        37.728
C09        53.000                                                                                                                                    40909488.965 6 213026443.51006      1378.733 6        37.595    40909485.452 6 164725545.50406      1066.109 6        41.516    40909483.323 6 173101411.33906      1120.394 6        38.051
C60        54.000                                                                                                                                    40437070.017 6 210566644.69606      -531.656 6        41.094                                                                    40437053.411 6 171102618.69706      -432.102 6        40.837
C27        55.000                                                                                                                                    21441360.319 8 111650810.41208     -1309.460 8        52.090                                                                    21441358.426 8  90725433.69408     -1064.070 8        49.789
R04        56.000    22925494.029 7 122764988.18307     -4632.903 7        43.977                                                                    22925492.208 6  95483870.11806     -3603.365 6        38.718
C02        57.000                                                                                                                                    40442767.606 5 210596161.33005      -493.107 5        33.665    40442760.726 6 162846307.27906      -381.237 6        40.918    40442764.093 6 171126637.19506      -400.613 6        36.707
I03        58.000   106064771.122 6 340435716.77206       968.982 6        39.676
C28        60.000                                                                                                                                    23894325.422 7 124424332.38107     -3369.306 7        45.622                                                                    23894324.853 7 101105096.71707     -2737.794 7        45.494
> 2025 01 01 23 15 20.0000000  0 53
G10         1.000    23560158.598 7 123809568.33807     -3473.366 7        42.823                                    23560156.255 6  96475050.02306     -2706.519 6        37.807    23560156.888 6  96475027.03206     -2706.499 6        39.069
G14         2.000    23886989.623 6 125527026.28806     -1319.744 6        40.131                                    23886985.397 3  97813269.66103     -1028.356 3        23.829    23886985.928 6  97813265.66106     -1028.302 6        39.297
C33         3.000                                                                                                                                    24521087.076 7 127687763.20907     -3281.010 7        45.607                                                                    24521098.314 7 103756826.42907     -2666.285 7        45.693
E31         4.000    26751905.207 6 140582258.13806     -2447.456 6        40.386                                                                    26751905.021 7 104980270.88207     -1827.616 7        42.499    26751904.776 7 107718883.05907     -1875.288 7        43.464
S21         5.000    38358112.101 7 201572979.83007      -485.385 7        42.201
E13         6.000    27435095.162 6 144172736.31406     -2919.477 6        38.471                                                                    27435095.942 7 107661663.78107     -2180.087 7        42.453    27435095.380 7 110470198.76607     -2236.879 7        42.269
G03         8.000    22183687.805 7 116576158.65107      2480.653 7        44.671                                    22183685.596 7  90838605.76407      1932.975 7        42.425    22183686.160 7  90838603.76007      1933.043 7        42.045
G02         9.000    20935357.778 8 110016100.34208       656.836 8        49.392                                    20935350.825 6  85726826.60806       511.820 6        41.528
R12        10.000    23557264.725 7 125838706.79907     -2182.959 7        43.752                                                                    23557265.523 6  97874581.32606     -1697.833 6        39.192
C30        11.000                                                                                                                                    22789144.445 8 118669071.02408      1562.646 8        48.588                                                                    22789144.720 8  96428343.81408      1269.736 8        48.210
S27        12.000    39026248.703 6 205084325.12806      -458.364 6        36.250
R20        13.000    19789929.038 6 105825696.59906     -2210.758 6        39.201                                                                    19789930.754 7  82308942.64207     -1719.483 7        47.050
S36        14.000    38126141.324 7 200354745.48007      -484.712 7        44.009
G27        15.000    24516312.219 6 128834363.90406     -4360.458 6        39.652                                    24516310.652 5 100390569.50005     -3397.760 5        35.014    24516310.974 6 100390483.49706     -3397.574 6        38.213
S45        17.000    63330198.181 6 332802834.72306      -527.035 6        37.629
E08        18.000    27068910.782 6 142248125.71906     -2744.116 6        39.697                                                                    27068908.911 6 106224251.67906     -2049.202 6        41.938    27068908.269 7 108995314.80307     -2102.601 7        42.512
E12        19.000    28472481.845 5 149623902.92705      2056.598 5        33.617                                                                    28472477.498 6 111732122.63706      1535.786 6        36.397    28472477.832 5 114646873.27605      1575.565 5        35.981
G17        20.000    24440947.450 6 128438058.43606      2627.220 6        41.282                                    24440943.726 5 100081590.85205      2047.182 5        34.210    24440943.949 6 100081589.85706      2047.258 6        37.701
E26        21.000    23683541.349 7 124458199.70007     -1455.378 7        47.939                                                                    23683539.000 8  92939762.22208     -1086.753 8        50.367    23683538.750 8  95364253.26908     -1115.155 8        51.411
I06        22.000    38276850.621 7 150206818.04807      -254.582 7        43.687
S28        23.000    40807383.461 5 214444264.89705      -477.129 5        34.448
G08        24.000    21925463.727 7 115219101.72707     -3493.578 7        47.487                                    21925461.618 7  89781118.26007     -2722.270 7        45.609    21925462.639 7  89781119.26407     -2722.240 7        42.944
S23        25.000    38079254.005 7 200107817.98507      -482.278 7        45.076
C13        26.000                                                                                                                                    40421891.969 6 210487596.22306     -1300.260 6        37.278    40421893.855 6 162762471.32706     -1005.487 6        38.916    40421892.229 6 171038499.93906     -1056.663 6        37.471
E24        27.000    27690121.506 6 145512601.34106      -195.637 6        39.183                                                                    27690120.422 7 108662018.81607      -146.153 7        42.354    27690119.805 7 111496676.87107      -149.978 7        42.478
R21        29.000    19796485.105 8 105934997.19608      1671.023 8        51.718                                                                    19796483.623 7  82393890.04507      1299.750 7        46.545
C14        30.000                                                                                                                                    26841685.220 6 139771715.77406     -3770.603 6        36.851    26841682.679 7 108080348.82807     -2915.742 7        42.739    26841681.037 6 113575952.16706     -3064.022 6        40.093
