     3.04           OBSERVATION DATA    M                   RINEX VERSION / TYPE
ssrcrin-15.6.1x                         20250101 161500 UTC PGM / RUN BY / DATE 
(00000000023479385599111004) Septentrio proprietary         COMMENT             
rref                                                        MARKER NAME         
01                                                          MARKER NUMBER       
geodetic                                                    MARKER TYPE         
NFB                 CLIMERS@TUW                             OBSERVER / AGENCY   
3297213             SEPT ASTERX SB3 PROB4.14.4              REC # / TYPE / VERS 
Unknown             Unknown                                 ANT # / TYPE        
  4127831.2660  1207193.2912  4695247.7724                  APPROX POSITION XYZ 
        0.0000        0.0000        0.0000                  ANTENNA: DELTA H/E/N
G   23 X1  C1C L1C D1C S1C C1W S1W C2W L2W D2W S2W C2L L2L  SYS / # / OBS TYPES 
       D2L S2L C5Q L5Q D5Q S5Q C1L L1L D1L S1L              SYS / # / OBS TYPES 
E   21 X1  C1C L1C D1C S1C C6C L6C D6C S6C C5Q L5Q D5Q S5Q  SYS / # / OBS TYPES 
       C7Q L7Q D7Q S7Q C8Q L8Q D8Q S8Q                      SYS / # / OBS TYPES 
S    9 X1  C1C L1C D1C S1C C5I L5I D5I S5I                  SYS / # / OBS TYPES 
R   17 X1  C1C L1C D1C S1C C2P L2P D2P S2P C2C L2C D2C S2C  SYS / # / OBS TYPES 
       C3Q L3Q D3Q S3Q                                      SYS / # / OBS TYPES 
C   25 X1  C1P L1P D1P S1P C5P L5P D5P S5P C2I L2I D2I S2I  SYS / # / OBS TYPES 
       C7I L7I D7I S7I C6I L6I D6I S6I C7D L7D D7D S7D      SYS / # / OBS TYPES 
J   17 X1  C1C L1C D1C S1C C2L L2L D2L S2L C5Q L5Q D5Q S5Q  SYS / # / OBS TYPES 
       C1L L1L D1L S1L                                      SYS / # / OBS TYPES 
I    5 X1  C5A L5A D5A S5A                                  SYS / # / OBS TYPES 
SEPTENTRIO RECEIVERS OUTPUT ALIGNED CARRIER PHASES.         COMMENT             
NO FURTHER PHASE SHIFT APPLIED IN THE RINEX ENCODER.        COMMENT             
G L1C                                                       SYS / PHASE SHIFT   
G L2W                                                       SYS / PHASE SHIFT   
G L2L  0.00000                                              SYS / PHASE SHIFT   
G L5Q  0.00000                                              SYS / PHASE SHIFT   
G L1L  0.00000                                              SYS / PHASE SHIFT   
E L1C  0.00000                                              SYS / PHASE SHIFT   
E L6C  0.00000                                              SYS / PHASE SHIFT   
E L5Q  0.00000                                              SYS / PHASE SHIFT   
E L7Q  0.00000                                              SYS / PHASE SHIFT   
E L8Q  0.00000                                              SYS / PHASE SHIFT   
S L1C                                                       SYS / PHASE SHIFT   
S L5I                                                       SYS / PHASE SHIFT   
R L1C                                                       SYS / PHASE SHIFT   
R L2P  0.00000                                              SYS / PHASE SHIFT   
R L2C                                                       SYS / PHASE SHIFT   
R L3Q  0.00000                                              SYS / PHASE SHIFT   
C L1P  0.00000                                              SYS / PHASE SHIFT   
C L5P  0.00000                                              SYS / PHASE SHIFT   
C L2I                                                       SYS / PHASE SHIFT   
C L7I                                                       SYS / PHASE SHIFT   
C L6I                                                       SYS / PHASE SHIFT   
C L7D                                                       SYS / PHASE SHIFT   
J L1C                                                       SYS / PHASE SHIFT   
J L2L  0.00000                                              SYS / PHASE SHIFT   
J L5Q  0.00000                                              SYS / PHASE SHIFT   
J L1L  0.00000                                              SYS / PHASE SHIFT   
I L5A                                                       SYS / PHASE SHIFT   
  2025     1     1    16    15    0.0000000     GPS         TIME OF FIRST OBS   
 C1C    0.000 C2C    0.000 C2P    0.000                     GLONASS COD/PHS/BIS 
DBHZ                                                        SIGNAL STRENGTH UNIT
    18                                                      LEAP SECONDS        
 24 R01  1 R02 -4 R03  5 R04  6 R05  1 R06 -4 R07  5 R08  6 GLONASS SLOT / FRQ #
    R09 -2 R10 -7 R11  0 R12 -1 R13 -2 R14 -7 R15  0 R16 -1 GLONASS SLOT / FRQ #
    R17  4 R18 -3 R19  3 R20  2 R21  4 R22 -3 R23  3 R24  2 GLONASS SLOT / FRQ #
                                                            END OF HEADER       
> 2025 01 01 16 15  0.0000000  0 56
G20         1.000    23682181.333 6 124450892.23906     -1012.944 6        40.586                                    23682177.865 4  96974791.65104      -789.310 4        24.361
G25         2.000    21330159.408 7 112090921.58007     -3186.988 7        47.461                                    21330160.180 7  87343672.18907     -2483.371 7        46.470    21330160.959 7  87343682.20607     -2483.406 7        43.312
G05         3.000    23536905.366 7 123687376.17007      1356.560 7        43.120                                    23536902.809 6  96379823.11806      1057.051 6        38.141    23536903.773 6  96379822.13706      1057.088 6        38.784
G29         4.000    20485882.393 8 107654385.23308     -1232.380 8        49.177                                    20485879.589 8  83886694.57408      -960.297 8        52.080    20485880.086 7  83886697.58207      -960.352 7        46.365
S21         5.000    38499131.829 7 202313938.85507      -588.329 7        42.904
E13         6.000    26688013.253 6 140246651.59406      2579.027 6        41.349                                                                    26688024.613 7 104729805.20507      1925.852 7        44.415    26688023.093 7 107461861.83807      1976.061 7        44.763
E19         7.000    27489115.013 5 144456213.65705     -2327.064 5        33.174                                                                    27489127.302 5 107873145.97005     -1737.985 5        35.143    27489125.242 5 110687230.10005     -1783.198 5        35.652
E15         8.000    23886636.000 8 125525408.10208       612.804 8        48.427                                                                    23886639.061 8  93736667.35908       457.554 8        50.834    23886638.295 8  96181948.89608       469.492 8        51.036
G11         9.000    24942732.397 6 131075226.48306     -3972.342 6        39.048                                    24942729.814 3 102136669.75503     -3095.320 3        23.048    24942729.942 6 102136669.75706     -3095.315 6        38.171
E30        10.000    25564806.131 7 134344155.58007     -2680.177 7        45.449                                                                    25564809.146 8 100322057.71708     -2001.456 8        48.513    25564808.193 8 102939141.88708     -2053.693 8        48.306
G26        11.000    22284203.796 7 117104617.09607      2201.518 7        44.701                                    22284205.773 7  91250524.18307      1715.460 7        42.510    22284205.848 6  91250544.20706      1715.338 6        41.604
S27        12.000    39293960.932 6 206491084.46106      -578.771 6        37.028
R15        13.000    19159613.434 8 102383455.39408      -749.551 8        51.731                                                                    19159614.581 7  79631715.24707      -582.984 7        46.714
S36        14.000    38271230.720 7 201117097.82707      -587.637 7        44.730
G12        15.000    24889002.189 6 130792739.72206     -4130.660 6        39.781                                    24889003.010 5 101916497.88305     -3218.694 5        33.126    24889002.830 6 101916497.89806     -3218.732 6        37.357
E29        16.000    28652806.921 5 150571288.24905     -3260.572 5        35.895                                                                    28652831.142 6 112439559.88606     -2434.979 6        37.845    28652828.756 6 115372769.34106     -2498.649 6        38.267
S45        17.000    63479310.316 6 333586277.71206      -648.680 6        36.767
G31        18.000    21712408.863 7 114099738.82907      -348.199 7        47.591                                    21712407.653 7  88909031.58707      -271.325 7        45.947    21712408.210 7  88909010.59907      -271.284 7        43.348
G16        19.000    24899071.344 5 130845681.96705      3015.132 5        35.519                                    24899071.780 2 101957772.73702      2349.407 2        14.952
E21        20.000    26068740.593 7 136992482.09907      1756.199 7        42.743                                                                    26068744.227 7 102299782.82307      1311.355 7        45.353    26068743.504 7 104968449.25207      1345.620 7        46.397
R14        21.000    21552660.906 8 114887940.30108     -4212.280 8        49.104                                                                    21552664.699 7  89357372.55407     -3276.238 7        46.103
I06        22.000    38762081.722 6 152110860.69106      -476.298 6        41.304
S28        23.000    40977485.898 5 215338086.56105      -587.483 5        34.771
E34        24.000    25197790.795 7 132415587.37907     -2291.056 7        44.935                                                                    25197792.296 7  98881953.99407     -1710.845 7        47.968    25197791.827 8 101461463.37908     -1755.489 8        48.138
S23        25.000    38220853.778 7 200851854.37607      -591.718 7        45.022
C13        26.000                                                                                                                                    38589522.641 7 200945940.77607       766.208 7        42.499    38589526.095 7 155384251.10607       592.469 7        44.173    38589524.146 7 163285117.73607       622.522 7        42.186
G18        27.000    22344367.591 7 117420721.93407      2449.074 7        46.102                                    22344368.045 5  91496820.89205      1908.358 5        35.695    22344368.091 7  91496811.91507      1908.331 7        44.200
R24        28.000    21147306.613 8 113084488.73808     -3892.903 8        49.705                                                                    21147306.347 7  87954782.48607     -3027.814 7        44.980
I02        29.000    38032412.141 7 149247417.30907      -890.520 7        42.083
G28        30.000    21693719.225 7 114001424.66207     -2101.710 7        47.308                                    21693718.922 6  88832368.99306     -1637.699 6        37.123    21693719.103 7  88832365.99607     -1637.684 7        45.344
G04        31.000    25189722.109 6 132372894.40806      -451.821 6        37.512                                    25189721.402 3 103147713.49203      -352.049 3        19.821    25189720.866 6 103147721.48506      -352.104 6        36.771
C12        32.000                                                                                                                                    23205648.210 7 120838155.28607     -2814.831 7        45.604    23205644.402 8  93439851.49108     -2176.648 8        49.673    23205643.761 8  98190989.59108     -2287.269 8        48.086
R17        33.000    19186083.588 8 102668944.11308       -66.772 8        52.180                                                                    19186083.804 7  79853783.29007       -51.956 7        46.900
R08        34.000    24119397.846 6 129158280.79006      1024.178 6        37.947                                                                    24119397.668 6 100456440.63906       796.476 6        37.372
C24        35.000                                                                                                                                    25697002.748 6 133811025.77506     -3988.413 6        41.456                                                                    25697007.118 7 108732431.06207     -3240.867 7        42.895
R18        36.000    21564781.493 7 115114561.39407      3020.999 7        47.665                                                                    21564788.596 7  89533725.07607      2349.608 7        45.543
E27        37.000    23440036.696 8 123178440.43908      -378.612 8        48.584                                                                    23440038.350 8  91984046.42908      -282.725 8        51.107    23440037.725 8  94383611.09808      -290.101 8        51.248
R16        38.000    21443098.321 8 114545271.71908      2926.325 8        50.373                                                                    21443099.297 7  89090815.34707      2275.956 7        45.800
R07        40.000    23967707.952 7 128301021.99607     -1772.896 7        42.662                                                                    23967707.770 6  99789691.73106     -1379.062 6        40.358
C34        41.000                                                                                                                                    21552619.400 8 112230460.37708     -1333.230 8        50.323                                                                    21552620.261 8  91196576.66108     -1083.364 8        49.595
S44        42.000    40653480.256 6 213635616.84606      -513.057 6        37.524
C38        43.000                                                                                                                                    38809159.812 7 202089624.04407        13.821 7        43.812                                                                    38809157.826 7 164214434.15207        11.251 7        43.831
C05        44.000                                                                                                                                    39466064.628 6 205510118.96406      -531.602 6        38.192    39466064.106 7 158913465.88207      -410.964 7        43.280    39466064.249 6 166993894.29906      -431.853 6        39.721
C08        45.000                                                                                                                                    38407834.771 6 199999838.09906       632.580 6        41.075    38407829.344 7 154652630.77607       489.205 7        44.801    38407828.368 7 162516297.68007       514.051 7        42.573
E04        46.000    28587297.666 6 150227264.25206         5.556 6        36.219                                                                    28587298.844 6 112182706.11506         4.221 6        40.448    28587298.099 6 115109209.03606         4.198 6        40.474
C43        48.000                                                                                                                                    22571627.606 8 117536654.36108      1398.279 8        49.071                                                                    22571629.164 8  95508273.63608      1136.281 8        48.459
C10        49.000                                                                                                                                    40967236.177 5 213327241.76305     -1257.327 5        34.710    40967235.561 6 164958193.07106      -972.265 6        38.889    40967232.958 5 173345879.08005     -1021.649 5        35.152
C44        50.000                                                                                                                                    24908895.044 7 129707270.72507     -3544.541 7        42.618                                                                    24908894.117 7 105397830.40807     -2880.202 7        42.373
S48        51.000    77220318.820 6 405795636.72106      -623.350 6        38.655
C60        54.000                                                                                                                                    40653482.087 6 211693493.78406      -508.333 6        39.393                                                                    40653469.484 6 172018261.40206      -413.150 6        40.143
C25        55.000                                                                                                                                    22068123.451 8 114914681.18108     -2311.639 8        50.834                                                                    22068123.592 8  93377664.85408     -1878.397 8        49.305
C23        56.000                                                                                                                                    22945301.467 8 119482524.43108       905.634 8        49.210                                                                    22945294.794 8  97089441.86608       735.928 8        50.100
C02        57.000                                                                                                                                    40847714.374 5 212704757.80205      -493.787 5        34.124    40847711.930 6 164476789.95706      -381.852 6        39.850    40847714.094 5 172840030.14805      -401.072 5        35.286
I03        58.000   115317551.728 6 376745515.57706      1004.357 6        41.066
C11        59.000                                                                                                                                    21657289.329 8 112775469.30608       182.952 8        48.342    21657287.789 8  87205289.62508       141.491 8        51.764    21657286.376 8  91639409.93708       148.733 8        49.446
C19        60.000                                                                                                                                    27348172.344 5 142409109.93405      -821.700 5        33.503                                                                    27348170.158 6 115719059.87806      -667.484 6        37.777
> 2025 01 01 16 15  5.0000000  0 56
G20         1.000    23683146.291 6 124455963.62706     -1015.905 6        40.877                                    23683142.698 4  96978743.38404      -791.620 4        24.376
G25         2.000    21333192.262 7 112106860.05807     -3188.646 7        47.264                                    21333193.125 7  87356091.79007     -2484.662 7        46.496    21333193.771 7  87356101.80307     -2484.728 7        43.344
G05         3.000    23535615.415 7 123680598.83107      1354.181 7        43.312                                    23535613.077 6  96374542.10806      1055.200 6        38.159    23535613.836 6  96374541.12106      1055.186 6        38.757
G29         4.000    20487055.778 8 107660551.32808     -1234.258 8        49.311                                    20487052.943 8  83891499.33708      -961.761 8        52.124    20487053.226 7  83891502.34207      -961.760 7        46.338
S21         5.000    38499691.086 7 202316879.34207      -588.093 7        42.908
E13         6.000    26685558.868 6 140233757.00706      2578.585 6        40.794                                                                    26685570.748 7 104720176.23607      1925.524 7        44.429    26685569.157 7 107451981.67407      1975.730 7        44.965
E19         7.000    27491329.759 5 144467852.92905     -2328.745 5        32.856                                                                    27491342.266 5 107881837.53905     -1739.014 5        35.186    27491340.124 5 110696148.42105     -1784.267 5        35.452
E15         8.000    23886053.749 8 125522348.93308       610.711 8        48.496                                                                    23886056.964 8  93734382.93808       456.044 8        50.810    23886056.063 8  96179604.88108       467.890 8        51.041
G11         9.000    24946512.464 6 131095089.55906     -3973.174 6        39.279                                    24946509.654 3 102152147.47703     -3095.977 3        22.990    24946509.535 6 102152147.48306     -3095.915 6        38.276
E30        10.000    25567356.507 7 134357557.94007     -2680.948 7        45.153                                                                    25567359.466 8 100332065.99108     -2002.052 8        48.341    25567358.551 8 102949411.23708     -2054.261 8        48.341
G26        11.000    22282109.462 7 117093612.14307      2200.333 7        44.841                                    22282111.573 7  91241948.93507      1714.541 7        42.578    22282111.511 6  91241968.93606      1714.645 6        41.683
S27        12.000    39294512.413 6 206493976.66506      -578.193 6        36.866
R15        13.000    19160316.190 8 102387211.85308      -753.173 8        51.356                                                                    19160317.694 7  79634636.94807      -585.799 7        46.658
S36        14.000    38271789.945 7 201120034.56007      -587.264 7        44.585
G12        15.000    24892932.605 6 130813393.35406     -4131.073 6        39.925                                    24892933.213 5 101932591.63905     -3219.021 5        33.012    24892933.087 6 101932591.66406     -3219.041 6        36.590
E29        16.000    28655909.264 5 150587591.31905     -3260.650 5        35.719                                                                    28655933.625 6 112451734.22306     -2434.729 6        37.471    28655931.026 6 115385261.25806     -2498.388 6        38.363
S45        17.000    63479869.470 6 333589519.40506      -648.474 6        36.677
G31        18.000    21712741.774 7 114101487.39107      -351.443 7        47.273                                    21712740.377 7  88910394.11607      -273.855 7        46.031    21712741.049 7  88910373.12907      -273.806 7        43.228
G16        19.000    24896202.973 5 130830605.23105      3015.289 5        35.500                                    24896202.384 2 101946024.73802      2349.520 2        14.952
E21        20.000    26067069.556 7 136983701.30107      1755.944 7        42.696                                                                    26067073.273 7 102293225.78407      1311.228 7        45.315    26067072.497 7 104961721.15907      1345.394 7        46.435
R14        21.000    21556611.959 8 114909005.97108     -4214.136 8        48.548                                                                    21556616.682 7  89373756.96507     -3277.631 7        45.905
I06        22.000    38762688.321 6 152113241.01806      -476.130 6        41.168
S28        23.000    40978038.116 5 215341023.94505      -587.649 5        34.567
E34        24.000    25199971.498 7 132427046.34807     -2292.690 7        45.126                                                                    25199972.877 7  98890511.04107     -1712.182 7        47.996    25199972.336 8 101470243.64408     -1756.797 8        48.158
S23        25.000    38221414.676 7 200854811.62107      -591.375 7        44.995
C13        26.000                                                                                                                                    38588786.750 7 200942111.35807       765.378 7        42.387    38588790.587 7 155381289.96507       591.868 7        44.315    38588788.724 7 163282006.00807       621.955 7        42.262
G18        27.000    22342038.361 7 117408480.14307      2447.504 7        46.330                                    22342038.411 5  91487281.87505      1907.139 5        35.729    22342038.795 7  91487272.89807      1907.066 7        44.098
R24        28.000    21150946.870 8 113103956.58408     -3894.568 8        49.462                                                                    21150947.388 7  87969924.16107     -3028.987 7        44.680
I02        29.000    38033546.455 6 149251869.32206      -890.420 6        41.971
G28        30.000    21695720.090 7 114011940.00507     -2104.642 7        47.468                                    21695719.951 6  88840562.76906     -1639.981 6        37.301    21695720.216 7  88840559.76407     -1639.876 7        45.270
G04        31.000    25190152.945 6 132375160.62306      -454.676 6        37.021                                    25190152.466 3 103149479.32503      -354.292 3        19.194    25190152.289 6 103149487.28806      -354.286 6        36.832
C12        32.000                                                                                                                                    23208351.650 7 120852231.81507     -2815.993 7        45.372    23208347.849 8  93450736.35808     -2177.510 8        49.751    23208347.081 8  98202427.91308     -2288.186 8        48.036
R17        33.000    19186147.683 8 102669286.41708       -70.368 8        52.241                                                                    19186147.744 7  79854049.55507       -54.709 7        46.683
R08        34.000    24118441.711 6 129153167.69206      1020.819 6        37.603                                                                    24118441.986 6 100452463.83306       793.944 6        37.841
C24        35.000                                                                                                                                    25700832.589 6 133830967.24306     -3988.413 6        41.480                                                                    25700836.640 7 108748635.11407     -3240.935 7        42.665
R18        36.000    21561952.158 7 115099460.76107      3019.031 7        47.858                                                                    21561959.298 7  89521980.19307      2348.178 7        44.569
E27        37.000    23440397.443 8 123180336.08408      -379.848 8        48.627                                                                    23440399.037 8  91985462.03008      -283.691 8        51.034    23440398.447 8  94385063.62308      -291.085 8        51.246
R16        38.000    21440360.053 8 114530643.24008      2924.845 8        50.368                                                                    21440360.778 7  89079437.66107      2274.850 7        45.400
R07        40.000    23969366.494 7 128309895.26807     -1776.646 7        42.717                                                                    23969365.582 6  99796593.15006     -1381.753 6        40.493
C34        41.000                                                                                                                                    21553900.563 8 112237130.98208     -1335.115 8        50.430                                                                    21553901.286 8  91201997.08108     -1084.923 8        49.517
S44        42.000    40653964.931 6 213638180.92906      -512.691 6        37.304
C38        43.000                                                                                                                                    38809146.641 7 202089556.63207        12.847 7        43.996                                                                    38809144.854 7 164214379.37607        10.449 7        43.742
C05        44.000                                                                                                                                    39466575.511 6 205512775.76806      -531.373 6        38.357    39466574.252 7 158915520.33407      -410.940 7        43.302    39466574.515 6 166996053.19406      -431.748 6        39.544
C08        45.000                                                                                                                                    38407227.276 6 199996676.49006       631.780 6        41.023    38407222.321 7 154650186.05107       488.511 7        44.844    38407221.209 7 162513728.62707       513.320 7        42.444
E04        46.000    28587293.056 6 150227240.65106         3.486 6        36.060                                                                    28587294.252 6 112182688.38106         2.545 6        40.193    28587293.457 6 115109190.83806         2.783 6        40.226
C43        48.000                                                                                                                                    22570285.593 8 117529666.18008      1396.794 8        49.232                                                                    22570287.063 8  95502595.18308      1134.956 8        48.409
C10        49.000                                                                                                                                    40968443.234 5 213333526.93505     -1256.937 5        34.614    40968442.535 6 164963053.18806      -972.067 6        39.210    40968439.939 5 173350986.27105     -1021.172 5        35.214
C44        50.000                                                                                                                                    24912298.394 7 129724993.26107     -3544.711 7        42.538                                                                    24912297.441 7 105412231.42007     -2880.333 7        42.262
S48        51.000    77220887.843 6 405798752.10306      -623.010 6        38.393
C60        54.000                                                                                                                                    40653969.861 6 211696034.57306      -508.249 6        39.625                                                                    40653957.302 6 172020326.01006      -412.955 6        40.024
C25        55.000                                                                                                                                    22070344.142 8 114926244.30308     -2313.780 8        51.181                                                                    22070344.155 8  93387060.84208     -1880.115 8        49.179
C23        56.000                                                                                                                                    22944432.524 8 119478000.56608       903.603 8        49.287                                                                    22944426.039 8  97085765.86108       734.310 8        50.029
C02        57.000                                                                                                                                    40848188.133 5 212707225.56805      -493.524 5        34.381    40848185.470 6 164478698.23706      -381.645 6        39.829    40848187.880 5 172842035.42305      -401.082 5        35.057
I03        58.000   115316271.606 6 376740492.56606      1004.576 6        41.061
C11        59.000                                                                                                                                    21657114.338 8 112774559.01008       180.992 8        48.483    21657113.017 8  87204585.76308       139.938 8        52.052    21657111.608 8  91638670.26808       147.031 8        49.333
C19        60.000                                                                                                                                    27348962.312 5 142413223.14405      -824.320 5        34.038                                                                    27348960.191 6 115722402.16806      -669.459 6        38.072
> 2025 01 01 16 15 10.0000000  0 56
G20         1.000    23684113.936 6 124461050.11106     -1018.799 6        40.715                                    23684110.532 4  96982706.90004      -793.870 4        24.376
G25         2.000    21336226.703 7 112122807.48107     -3190.474 7        46.974                                    21336227.756 7  87368518.36307     -2486.086 7        46.435    21336228.310 7  87368528.37607     -2486.039 7        42.692
G05         3.000    23534327.820 7 123673833.84307      1351.746 7        43.382                                    23534325.665 6  96369270.72406      1053.302 6        38.237    23534326.538 6  96369269.74906      1053.196 6        39.120
G29         4.000    20488231.388 8 107666727.42408     -1236.294 8        49.575                                    20488228.201 8  83896311.89508      -963.350 8        52.075    20488228.385 7  83896314.90707      -963.352 7        46.280
S21         5.000    38500249.301 7 202319819.42707      -587.985 7        42.936
E13         6.000    26683105.822 6 140220865.42206      2578.003 6        40.679                                                                    26683117.496 7 104710549.51207      1925.043 7        44.420    26683115.922 7 107442103.79707      1975.345 7        45.050
E19         7.000    27493545.722 5 144479500.24405     -2330.254 5        32.455                                                                    27493558.865 5 107890535.16305     -1740.112 5        35.224    27493556.353 5 110705072.92705     -1785.329 5        35.581
E15         8.000    23885473.482 8 125519300.71308       608.518 8        48.399                                                                    23885476.845 8  93732106.69108       454.395 8        50.852    23885476.027 8  96177269.25108       466.238 8        51.039
G11         9.000    24950293.120 6 131114957.58506     -3974.075 6        39.360                                    24950290.371 3 102167629.08103     -3096.670 3        22.476    24950290.290 6 102167629.09906     -3096.803 6        38.234
E30        10.000    25569907.586 7 134370965.05407     -2681.991 7        44.569                                                                    25569910.703 8 100342077.79208     -2002.730 8        48.349    25569909.828 8 102959684.22008     -2055.012 8        48.325
G26        11.000    22280016.365 7 117082613.85207      2198.915 7        44.647                                    22280018.626 7  91233378.86007      1713.434 7        42.546    22280019.109 7  91233398.87907      1713.408 7        42.142
S27        12.000    39295063.742 6 206496868.64306      -578.253 6        37.002
R15        13.000    19161022.643 8 102390987.08608      -756.957 8        51.282                                                                    19161023.817 7  79637573.26507      -588.776 7        46.542
S36        14.000    38272350.687 7 201122971.10207      -587.402 7        44.623
G12        15.000    24896863.181 6 130834049.20306     -4131.463 6        39.952                                    24896863.783 5 101948687.12305     -3219.328 5        32.731    24896864.254 6 101948687.15206     -3219.423 6        36.575
E29        16.000    28659012.361 6 150603894.37906     -3260.535 6        36.386                                                                    28659036.157 6 112463908.56106     -2434.853 6        37.724    28659033.605 6 115397753.19206     -2498.339 6        38.586
S45        17.000    63480434.384 6 333592760.58506      -648.346 6        36.699
G31        18.000    21713077.534 7 114103252.76407      -354.793 7        47.203                                    21713076.299 7  88911769.75007      -276.467 7        45.965    21713076.664 7  88911748.76407      -276.406 7        43.261
G16        19.000    24893334.254 6 130815528.80306      3015.449 6        36.386                                    24893333.293 2 101934276.96402      2349.675 2        15.333
E21        20.000    26065399.344 7 136974922.40507      1755.535 7        42.978                                                                    26065402.555 7 102286670.17307      1311.047 7        45.616    26065401.884 7 104954994.52307      1345.155 7        46.471
R14        21.000    21560566.328 8 114930081.53008     -4216.120 8        49.178                                                                    21560569.891 7  89390149.07307     -3279.199 7        45.657
I06        22.000    38763294.753 6 152115620.80606      -475.940 6        41.325
S28        23.000    40978599.229 5 215343960.72005      -587.369 5        34.619
E34        24.000    25202153.863 7 132438514.32707     -2294.626 7        45.204                                                                    25202155.173 8  98899074.80508     -1713.492 8        48.024    25202154.664 8 101479030.81108     -1758.216 8        48.253
S23        25.000    38221979.352 7 200857768.29507      -591.397 7        44.974
C13        26.000                                                                                                                                    38588052.806 7 200938286.07907       764.561 7        42.307    38588056.079 7 155378332.04207       591.137 7        44.301    38588054.096 7 163278897.68607       621.213 7        42.201
G18        27.000    22339710.192 7 117396247.24507      2445.664 7        46.561                                    22339710.484 5  91477749.79005      1905.707 5        35.695    22339711.424 7  91477740.81107      1905.666 7        44.822
R24        28.000    21154589.304 8 113123433.40308     -3896.280 8        49.523                                                                    21154589.161 7  87985072.81107     -3030.387 7        44.460
I02        29.000    38034680.988 6 149256321.77106      -890.547 6        41.995
G28        30.000    21697724.082 7 114022470.25907     -2107.590 7        47.338                                    21697723.797 6  88848768.17606     -1642.282 6        37.221    21697724.089 7  88848765.18207     -1642.304 7        45.579
G04        31.000    25190587.722 6 132377441.38906      -457.626 6        36.877                                    25190586.553 3 103151256.43203      -356.583 3        18.597    25190587.405 6 103151264.41406      -356.434 6        37.115
C12        32.000                                                                                                                                    23211054.994 7 120866314.56407     -2817.230 7        44.960    23211052.434 8  93461626.04408     -2178.482 8        49.801    23211051.463 8  98213871.32108     -2289.316 8        48.077
R17        33.000    19186214.897 8 102669647.48808       -74.167 8        52.246                                                                    19186215.033 7  79854330.41107       -57.703 7        46.862
R08        34.000    24117489.736 6 129148072.18406      1017.123 6        38.396                                                                    24117491.012 6 100448500.71006       791.262 6        38.931
C24        35.000                                                                                                                                    25704662.566 6 133850910.39206     -3988.867 6        41.392                                                                    25704666.418 7 108764840.54307     -3241.219 7        42.817
R18        36.000    21559125.391 8 115084370.28708      3017.017 8        48.099                                                                    21559132.330 7  89510243.23507      2346.560 7        44.453
E27        37.000    23440759.624 8 123182238.59408      -381.177 8        48.413                                                                    23440761.047 8  91986882.75308      -284.704 8        51.096    23440760.464 8  94386521.40908      -292.193 8        51.292
R16        38.000    21437622.840 8 114516022.70008      2923.217 8        50.398                                                                    21437623.719 7  89068066.17107      2273.625 7        45.716
R07        40.000    23971026.698 7 128318787.37307     -1780.407 7        43.081                                                                    23971027.306 6  99803509.25206     -1384.858 6        40.453
C34        41.000                                                                                                                                    21555183.429 8 112243811.39308     -1337.183 8        50.471                                                                    21555184.238 8  91207425.48108     -1086.616 8        49.631
S44        42.000    40654452.963 6 213640744.64706      -512.766 6        37.115
C38        43.000                                                                                                                                    38809134.587 7 202089494.10107        11.906 7        43.913                                                                    38809132.833 7 164214328.58207         9.640 7        43.898
C05        44.000                                                                                                                                    39467085.061 6 205515432.06906      -531.189 6        38.520    39467084.245 7 158917574.36607      -410.789 7        43.331    39467084.575 6 166998211.67206      -431.746 6        39.691
C08        45.000                                                                                                                                    38406620.442 6 199993519.78606       630.834 6        41.228    38406616.156 7 154647745.10407       487.719 7        45.053    38406615.056 7 162511163.57807       512.454 7        42.438
E04        46.000    28587291.187 6 150227228.29506         1.469 6        36.450                                                                    28587292.003 6 112182679.15706         1.222 6        40.384    28587291.042 6 115109181.38406         1.171 6        40.255
C43        48.000                                                                                                                                    22568945.132 8 117522686.36508      1395.085 8        49.231                                                                    22568946.735 8  95496923.54708      1133.513 8        48.451
C10        49.000                                                                                                                                    40969649.706 5 213339811.72705     -1256.946 5        35.048    40969649.283 6 164967912.98306      -971.907 6        39.420    40969647.114 5 173356093.20705     -1021.385 5        35.338
C44        50.000                                                                                                                                    24915702.407 7 129742717.75507     -3545.156 7        42.205                                                                    24915701.421 7 105426634.03307     -2880.733 7        42.565
S48        51.000    77221456.052 6 405801867.09506      -623.102 6        38.520
C60        54.000                                                                                                                                    40654457.791 6 211698574.97306      -508.043 6        39.763                                                                    40654445.214 6 172022390.33006      -413.014 6        40.000
C25        55.000                                                                                                                                    22072567.036 8 114937818.41808     -2316.039 8        51.109                                                                    22072566.855 8  93396465.77508     -1882.027 8        49.310
C23        56.000                                                                                                                                    22943565.575 8 119473487.36608       901.499 8        49.314                                                                    22943559.260 8  97082098.53708       732.490 8        50.125
C02        57.000                                                                                                                                    40848662.541 5 212709692.85305      -493.210 5        34.505    40848659.373 6 164480606.13806      -381.632 6        39.724    40848661.684 5 172844040.34405      -400.954 5        35.267
I03        58.000   115314991.328 6 376735469.09106      1004.810 6        41.054
C11        59.000                                                                                                                                    21656941.305 8 112773659.40908       178.792 8        48.506    21656940.649 8  87203890.16008       138.240 8        52.229    21656938.853 8  91637939.29608       145.203 8        49.465
C19        60.000                                                                                                                                    27349755.478 5 142417349.38705      -826.610 5        34.167                                                                    27349752.542 6 115725755.12106      -671.722 6        38.018
> 2025 01 01 16 15 15.0000000  0 56
G20         1.000    23685084.571 6 124466152.38706     -1022.351 6        40.231                                    23685081.397 4  96986682.70604      -796.637 4        24.150
G25         2.000    21339263.484 7 112138764.47107     -3192.657 7        47.321                                    21339264.184 7  87380952.38607     -2487.786 7        46.261    21339264.951 7  87380962.38907     -2487.684 7        43.094
G05         3.000    23533042.816 7 123667081.82307      1348.784 7        43.678                                    23533040.754 6  96364009.44006      1050.995 6        38.243    23533041.591 6  96364008.44706      1051.011 6        38.592
G29         4.000    20489408.598 8 107672914.24108     -1238.695 8        49.661                                    20489405.495 8  83901132.80408      -965.219 8        51.947    20489405.973 7  83901135.80707      -965.230 7        46.196
S21         5.000    38500807.967 7 202322759.80207      -588.387 7        43.029
E13         6.000    26680653.699 6 140207977.49906      2576.917 6        41.161                                                                    26680664.894 7 104700925.51007      1924.359 7        44.560    26680663.400 7 107432228.71907      1974.554 7        44.965
E19         7.000    27495764.279 5 144491156.22805     -2332.489 5        33.156                                                                    27495776.883 5 107899239.21605     -1741.329 5        35.429    27495774.857 5 110714004.08905     -1787.085 5        35.352
E15         8.000    23884895.778 8 125516264.10308       605.928 8        48.426                                                                    23884898.996 8  93729839.10908       452.481 8        50.960    23884898.195 8  96174942.51308       464.260 8        51.037
G11         9.000    24954074.597 6 131134831.20106     -3975.509 6        39.336                                    24954072.165 3 102183115.02903     -3097.797 3        22.095    24954071.849 6 102183115.04906     -3097.908 6        38.303
E30        10.000    25572460.006 7 134384377.55907     -2683.361 7        44.710                                                                    25572463.013 8 100352093.62908     -2003.765 8        48.447    25572462.239 8 102969961.33308     -2056.017 8        48.373
G26        11.000    22277925.116 7 117071622.93707      2197.146 7        44.512                                    22277927.105 7  91224814.54307      1712.055 7        42.389    22277927.242 6  91224834.55406      1712.137 6        41.969
S27        12.000    39295612.821 6 206499760.36806      -578.497 6        36.983
R15        13.000    19161732.976 8 102394781.91008      -761.190 8        51.430                                                                    19161734.207 7  79640524.79807      -592.047 7        46.669
S36        14.000    38272908.048 7 201125908.20207      -587.571 7        44.682
G12        15.000    24900793.888 6 130854707.89806     -4132.312 6        39.171                                    24900794.934 5 101964784.83305     -3219.987 5        32.317    24900795.405 6 101964784.82606     -3219.802 6        36.643
E29        16.000    28662114.800 6 150620198.10506     -3260.964 6        36.212                                                                    28662138.610 6 112476083.37706     -2435.329 6        38.081    28662136.155 6 115410245.62006     -2498.621 6        38.583
S45        17.000    63480996.766 6 333596001.80006      -648.443 6        36.805
G31        18.000    21713417.098 7 114105035.59807      -358.565 7        47.139                                    21713415.552 7  88913158.99107      -279.406 7        45.819    21713416.121 7  88913138.00007      -279.359 7        43.475
G16        19.000    24890465.841 5 130800453.36505      3014.695 5        35.948                                    24890464.255 2 101922529.96702      2349.115 2        16.113
E21        20.000    26063728.871 7 136966146.08707      1754.767 7        43.183                                                                    26063732.408 7 102280116.48207      1310.342 7        45.655    26063731.793 7 104948269.85407      1344.505 7        46.374
R14        21.000    21564522.159 8 114951167.82708     -4218.595 8        48.884                                                                    21564526.057 7  89406549.53207     -3281.191 7        45.454
I06        22.000    38763901.115 6 152118000.55706      -476.231 6        41.330
S28        23.000    40979160.873 5 215346897.67005      -587.630 5        34.838
E34        24.000    25204338.052 7 132449991.94707     -2296.688 7        45.433                                                                    25204339.204 8  98907645.77408     -1715.132 8        48.113    25204338.736 8 101487825.35908     -1759.749 8        48.125
S23        25.000    38222541.811 7 200860725.19707      -591.704 7        45.002
C13        26.000                                                                                                                                    38587319.462 7 200934465.73407       763.274 7        42.317    38587322.448 7 155375377.91207       590.310 7        44.283    38587320.352 7 163275793.34407       620.357 7        42.273
G18        27.000    22337384.311 7 117384023.89107      2443.463 7        46.736                                    22337384.426 5  91468225.14605      1903.988 5        35.662    22337385.221 7  91468216.16407      1904.010 7        45.189
R24        28.000    21158233.556 8 113142919.72508     -3898.509 8        48.811                                                                    21158233.042 7  88000228.84107     -3032.146 7        44.018
I02        29.000    38035815.995 6 149260774.88406      -890.833 6        41.862
G28        30.000    21699730.822 7 114033016.09807     -2110.979 7        47.510                                    21699730.598 6  88856985.72006     -1644.920 6        37.040    21699731.032 7  88856982.71807     -1644.907 7        45.607
G04        31.000    25191024.587 6 132379737.66006      -461.059 6        36.533                                    25191023.570 3 103153045.73303      -359.261 3        18.358    25191024.101 6 103153053.73206      -359.362 6        37.943
C12        32.000                                                                                                                                    23213760.032 7 120880404.16907     -2818.850 7        45.296    23213758.063 8  93472521.03108     -2179.669 8        49.802    23213757.245 8  98225320.28408     -2290.510 8        48.074
R17        33.000    19186285.849 8 102670027.80208       -78.296 8        52.241                                                                    19186285.951 7  79854626.22707       -60.880 7        46.658
R08        34.000    24116542.455 6 129142994.87006      1013.272 6        38.252                                                                    24116542.724 6 100444551.73206       788.039 6        39.123
C24        35.000                                                                                                                                    25708492.681 6 133870855.85906     -3989.667 6        41.235                                                                    25708496.689 7 108781047.85507     -3241.819 7        42.637
R18        36.000    21556301.032 8 115069290.73908      3014.511 8        48.519                                                                    21556306.862 7  89498514.74107      2344.621 7        44.024
E27        37.000    23441123.046 8 123184148.64308      -383.002 8        48.483                                                                    23441124.532 8  91988309.10408      -286.032 8        51.215    23441123.952 8  94387984.96608      -293.501 8        51.252
R16        38.000    21434887.119 8 114501410.77808      2921.294 8        50.583                                                                    21434888.119 7  89056701.36407      2272.076 7        45.806
R07        40.000    23972692.007 7 128327699.28307     -1784.625 7        42.912                                                                    23972692.614 6  99810440.76606     -1388.049 6        40.472
C34        41.000                                                                                                                                    21556468.335 8 112250502.24508     -1339.430 8        50.482                                                                    21556469.050 8  91212862.35108     -1088.375 8        49.448
S44        42.000    40654943.961 6 213643308.60406      -513.005 6        37.365
C38        43.000                                                                                                                                    38809123.623 7 202089437.09107        10.567 7        43.886                                                                    38809121.890 7 164214282.26407         8.683 7        43.774
C05        44.000                                                                                                                                    39467595.139 6 205518088.48206      -531.702 6        38.444    39467594.282 7 158919628.49807      -411.112 7        43.259    39467594.568 6 167000370.23306      -431.852 6        39.559
C08        45.000                                                                                                                                    38406015.526 6 199990368.74906       629.439 6        41.223    38406011.143 7 154645308.54307       486.648 7        45.091    38406009.952 7 162508603.10007       511.511 7        42.445
E04        46.000    28587290.619 5 150227227.66905        -1.297 5        35.743                                                                    28587291.685 6 112182678.73106        -0.842 6        40.341    28587290.864 6 115109180.92606        -0.826 6        40.057
C43        48.000                                                                                                                                    22567606.453 8 117515715.58608      1393.068 8        49.141                                                                    22567607.986 8  95491259.23608      1132.017 8        48.359
C10        49.000                                                                                                                                    40970857.609 5 213346096.79905     -1257.375 5        35.414    40970856.705 6 164972773.01306      -972.257 6        39.294    40970854.057 5 173361200.35205     -1021.610 5        35.124
C44        50.000                                                                                                                                    24919106.395 7 129760444.83407     -3545.897 7        42.237                                                                    24919105.757 7 105441038.74107     -2881.199 7        42.620
S48        51.000    77222023.586 6 405804982.27706      -623.307 6        38.595
C60        54.000                                                                                                                                    40654945.685 6 211701115.63106      -508.438 6        39.679                                                                    40654932.929 6 172024454.81906      -413.090 6        39.982
C25        55.000                                                                                                                                    22074791.926 8 114949404.17108     -2318.548 8        50.887                                                                    22074791.745 8  93405880.14908     -1883.980 8        49.236
C23        56.000                                                                                                                                    22942701.209 8 119468985.47808       898.991 8        49.381                                                                    22942694.681 8  97078440.39708       730.555 8        50.084
C02        57.000                                                                                                                                    40849136.573 5 212712160.30905      -493.751 5        34.329    40849133.074 6 164482514.12606      -381.892 6        39.751    40849135.421 5 172846045.35905      -401.231 5        35.095
I03        58.000   115313711.344 6 376730445.67606      1004.473 6        41.094
C11        59.000                                                                                                                                    21656770.724 8 112772771.09208       176.292 8        48.470    21656770.034 8  87203203.28808       136.304 8        52.227    21656768.210 8  91637217.48108       143.303 8        49.409
C19        60.000                                                                                                                                    27350549.504 5 142421489.24505      -829.780 5        33.144                                                                    27350547.372 6 115729119.12006      -674.313 6        37.939
> 2025 01 01 16 15 20.0000000  0 56
G20         1.000    23686059.012 6 124471270.34906     -1025.339 6        40.973                                    23686055.003 3  96990670.74203      -798.965 3        23.943
G25         2.000    21342301.676 7 112154730.98707     -3194.458 7        47.399                                    21342302.419 7  87393393.84007     -2489.192 7        46.115    21342303.315 7  87393403.84607     -2489.119 7        43.156
G05         3.000    23531760.429 7 123660342.82207      1346.336 7        42.821                                    23531758.310 6  96358758.29806      1049.086 6        38.060    23531759.021 6  96358757.29506      1049.182 6        38.700
G29         4.000    20490587.831 8 107679111.69508     -1240.705 8        49.687                                    20490584.814 8  83905962.00008      -966.783 8        51.751    20490585.240 7  83905965.01207      -966.759 7        46.447
S21         5.000    38501368.168 7 202325700.17507      -588.182 7        43.035
E13         6.000    26678201.824 6 140195093.19606      2576.262 6        40.984                                                                    26678212.939 7 104691304.22207      1923.807 7        44.275    26678211.415 7 107422356.42107      1974.097 7        45.041
E19         7.000    27497984.882 5 144502820.74905     -2333.954 5        32.808                                                                    27497996.628 5 107907949.71705     -1743.005 5        35.276    27497994.462 5 110722941.80605     -1788.484 5        35.329
E15         8.000    23884320.208 8 125513239.04308       603.723 8        48.233                                                                    23884323.337 8  93727580.15508       450.850 8        50.865    23884322.507 8  96172624.62408       462.592 8        51.055
