     3.04           OBSERVATION DATA    M                   RINEX VERSION / TYPE
ssrcrin-15.6.1x                         20250101 080000 UTC PGM / RUN BY / DATE 
(00000000023479385599111004) Septentrio proprietary         COMMENT             
rref                                                        MARKER NAME         
01                                                          MARKER NUMBER       
geodetic                                                    MARKER TYPE         
NFB                 CLIMERS@TUW                             OBSERVER / AGENCY   
3297213             SEPT ASTERX SB3 PROB4.14.4              REC # / TYPE / VERS 
Unknown             Unknown                                 ANT # / TYPE        
  4127832.0522  1207192.9826  4695247.9161                  APPROX POSITION XYZ 
        0.0000        0.0000        0.0000                  ANTENNA: DELTA H/E/N
G   23 X1  C1C L1C D1C S1C C1W S1W C2W L2W D2W S2W C2L L2L  SYS / # / OBS TYPES 
       D2L S2L C5Q L5Q D5Q S5Q C1L L1L D1L S1L              SYS / # / OBS TYPES 
E   21 X1  C1C L1C D1C S1C C6C L6C D6C S6C C5Q L5Q D5Q S5Q  SYS / # / OBS TYPES 
       C7Q L7Q D7Q S7Q C8Q L8Q D8Q S8Q                      SYS / # / OBS TYPES 
S    9 X1  C1C L1C D1C S1C C5I L5I D5I S5I                  SYS / # / OBS TYPES 
R   17 X1  C1C L1C D1C S1C C2P L2P D2P S2P C2C L2C D2C S2C  SYS / # / OBS TYPES 
       C3Q L3Q D3Q S3Q                                      SYS / # / OBS TYPES 
C   25 X1  C1P L1P D1P S1P C5P L5P D5P S5P C2I L2I D2I S2I  SYS / # / OBS TYPES 
       C7I L7I D7I S7I C6I L6I D6I S6I C7D L7D D7D S7D      SYS / # / OBS TYPES 
J   17 X1  C1C L1C D1C S1C C2L L2L D2L S2L C5Q L5Q D5Q S5Q  SYS / # / OBS TYPES 
       C1L L1L D1L S1L                                      SYS / # / OBS TYPES 
I    5 X1  C5A L5A D5A S5A                                  SYS / # / OBS TYPES 
SEPTENTRIO RECEIVERS OUTPUT ALIGNED CARRIER PHASES.         COMMENT             
NO FURTHER PHASE SHIFT APPLIED IN THE RINEX ENCODER.        COMMENT             
G L1C                                                       SYS / PHASE SHIFT   
G L2W                                                       SYS / PHASE SHIFT   
G L2L  0.00000                                              SYS / PHASE SHIFT   
G L5Q  0.00000                                              SYS / PHASE SHIFT   
G L1L  0.00000                                              SYS / PHASE SHIFT   
E L1C  0.00000                                              SYS / PHASE SHIFT   
E L6C  0.00000                                              SYS / PHASE SHIFT   
E L5Q  0.00000                                              SYS / PHASE SHIFT   
E L7Q  0.00000                                              SYS / PHASE SHIFT   
E L8Q  0.00000                                              SYS / PHASE SHIFT   
S L1C                                                       SYS / PHASE SHIFT   
S L5I                                                       SYS / PHASE SHIFT   
R L1C                                                       SYS / PHASE SHIFT   
R L2P  0.00000                                              SYS / PHASE SHIFT   
R L2C                                                       SYS / PHASE SHIFT   
R L3Q  0.00000                                              SYS / PHASE SHIFT   
C L1P  0.00000                                              SYS / PHASE SHIFT   
C L5P  0.00000                                              SYS / PHASE SHIFT   
C L2I                                                       SYS / PHASE SHIFT   
C L7I                                                       SYS / PHASE SHIFT   
C L6I                                                       SYS / PHASE SHIFT   
C L7D                                                       SYS / PHASE SHIFT   
J L1C                                                       SYS / PHASE SHIFT   
J L2L  0.00000                                              SYS / PHASE SHIFT   
J L5Q  0.00000                                              SYS / PHASE SHIFT   
J L1L  0.00000                                              SYS / PHASE SHIFT   
I L5A                                                       SYS / PHASE SHIFT   
  2025     1     1     8     0    0.0000000     GPS         TIME OF FIRST OBS   
 C1C    0.000 C2C    0.000 C2P    0.000                     GLONASS COD/PHS/BIS 
DBHZ                                                        SIGNAL STRENGTH UNIT
    18                                                      LEAP SECONDS        
 24 R01  1 R02 -4 R03  5 R04  6 R05  1 R06 -4 R07  5 R08  6 GLONASS SLOT / FRQ #
    R09 -2 R10 -7 R11  0 R12 -1 R13 -2 R14 -7 R15  0 R16 -1 GLONASS SLOT / FRQ #
    R17  4 R18 -3 R19  3 R20  2 R21  4 R22 -3 R23  3 R24  2 GLONASS SLOT / FRQ #
                                                            END OF HEADER       
> 2025 01 01 08 00  0.0000000  0 54
G08         1.000    24177431.093 6 127053302.80806     -1055.471 6        38.508                                    24177437.707 5  99002626.43805      -822.444 5        30.740    24177438.598 6  99002636.44406      -822.419 6        36.480
R01         2.000    19182779.880 8 102542901.39908       716.610 8        48.948                                                                    19182782.004 6  79755647.57706       557.261 6        41.678
R02         4.000    22381702.236 7 119433021.10207      3475.016 7        46.105                                                                    22381705.517 7  92892356.36307      2702.784 7        42.734
S21         5.000    38380095.862 7 201688526.37107      -392.890 7        42.652
E05         6.000    23809314.659 7 125118731.72107     -2491.334 7        43.577                                                                    23809322.701 7  93432817.38707     -1860.400 7        47.158    23809321.637 8  95870190.95408     -1908.896 8        48.561
E15         7.000    28304653.402 6 148741855.76706     -3264.192 6        36.699                                                                    28304663.346 6 111073450.97306     -2437.604 6        38.553    28304661.985 6 113971021.25406     -2501.148 6        39.363
R10         8.000    21025715.227 7 112078833.35407     -3722.390 7        45.189
R19         9.000    24116670.896 5 129007863.38205      1471.134 5        31.894                                                                    24116672.977 5 100339510.93705      1144.387 5        35.924
G18        10.000    24943765.977 6 131080354.75006      -961.889 6        37.981                                    24943763.338 3 102140517.59803      -749.536 3        20.548    24943764.056 6 102140525.60306      -749.472 6        37.410
C26        11.000                                                                                                                                    24227938.373 7 126161229.19407      2492.088 7        45.193                                                                    24227942.016 7 102516346.58307      2024.909 7        45.363
S27        12.000    39062377.616 6 205273982.63906      -423.543 6        36.529
G15        13.000    22500881.870 7 118242888.89307      2923.797 7        43.340                                    22500880.767 6  92137289.05506      2278.282 6        39.351    22500881.591 6  92137281.06506      2278.288 6        40.110
S36        14.000    38149382.125 7 200476818.99007      -393.972 7        43.936
G20        15.000    22419197.659 7 117813586.61507     -3501.720 7        44.078                                    22419199.266 5  91802751.36805     -2728.605 5        30.755
R11        16.000    19084832.486 8 101983553.21208       140.665 8        52.068                                                                    19084833.873 8  79320537.83808       109.391 8        48.687
S45        17.000    63330882.482 5 332806369.86405      -440.543 5        35.943
E13        18.000    27311018.047 6 143520340.43306     -1932.036 6        38.513                                                                    27311022.963 6 107174256.57606     -1442.737 6        40.825    27311021.970 7 109970109.10307     -1480.358 7        42.459
E24        19.000    25565923.072 7 134349760.56507     -1982.478 7        44.825                                                                    25565927.173 7 100326113.25607     -1480.410 7        46.451    25565926.349 8 102943314.88408     -1519.037 8        48.012
R18        20.000    23601418.925 6 125985961.97206     -1154.687 6        41.988                                                                    23601421.660 6  97989071.41906      -898.132 6        40.808
G30        21.000    20925290.956 8 109963114.29708     -1922.291 8        48.252                                    20925292.831 8  85685537.54708     -1497.886 8        50.088    20925293.279 7  85685541.53907     -1497.884 7        45.109
I06        22.000    37966643.324 7 148989363.74107      -355.223 7        43.558
S28        23.000    40816929.033 5 214494155.19205      -400.688 5        34.952
G14        24.000    20769415.113 7 109144008.21207      1036.562 7        47.947                                    20769415.304 6  85047279.45606       807.710 6        39.195    20769415.466 7  85047281.45907       807.684 7        47.332
S23        25.000    38082357.015 7 200124041.30107      -392.517 7        44.226
E08        26.000    25590687.202 7 134479926.83307      1838.258 7        43.299                                                                    25590689.323 7 100423307.84107      1372.744 7        46.115    25590688.504 7 103043045.40307      1408.566 7        47.380
C07        27.000                                                                                                                                    39186760.950 6 204055726.15406       468.165 6        39.874    39186762.994 7 157788837.75507       361.988 7        43.278    39186759.778 6 165811986.44106       380.250 6        40.412
G13        28.000    20307273.059 8 106715411.72308      1206.999 8        48.547                                    20307271.591 6  83154837.41606       940.517 6        39.270
I02        29.000    37812651.002 7 148384958.45107       318.850 7        42.489
C22        30.000                                                                                                                                    23423593.192 8 121972721.00908     -3234.250 8        48.235                                                                    23423591.485 7  99112792.74407     -2628.152 7        47.181
I01        31.000   347596573.183 6  60902512.55506     -3086.826 6        39.862
E03        32.000    23191416.244 8 121871684.78508      -272.126 8        48.371                                                                    23191419.509 8  91008081.43208      -203.174 8        50.561    23191418.811 8  93382200.77708      -208.463 8        51.466
G05        33.000    21199285.706 7 111402967.27507     -1653.486 7        47.247                                    21199285.384 7  86807491.26907     -1288.428 7        47.670    21199285.777 7  86807494.26407     -1288.397 7        44.566
E26        34.000    28230301.116 6 148351210.41406       395.104 6        37.142                                                                    28230301.710 6 110781744.72906       295.159 6        40.288    28230301.306 7 113671697.60807       302.722 7        42.123
C36        35.000                                                                                                                                    23369869.038 7 121692973.37407     -2825.943 7        47.013                                                                    23369877.345 7  98885515.99407     -2296.439 7        47.148
I09        38.000    39557778.951 6 155232975.35706      -942.755 6        41.139
R08        39.000    20664463.267 8 110657183.26508     -3400.077 8        48.818                                                                    20664465.921 7  86066676.35907     -2644.407 7        46.276
E25        40.000    23887260.475 7 125528400.42407       866.400 7        47.839                                                                    23887265.328 8  93738743.13908       646.998 8        49.973    23887264.323 8  96184093.77608       663.874 8        50.843
S44        42.000    40824883.661 6 214536166.28806      -409.662 6        37.384
C09        43.000                                                                                                                                    40585463.818 5 211338981.20505     -1057.177 5        35.971    40585473.416 6 163420644.30106      -817.425 6        40.226    40585468.945 6 171730172.17906      -859.003 6        36.991
C05        44.000                                                                                                                                    39270791.938 6 204493183.89306      -453.208 6        38.859    39270796.608 7 158127082.51107      -350.474 7        43.263    39270796.755 6 166167531.37006      -368.406 6        40.422
C40        45.000                                                                                                                                    39228095.115 7 204270974.38307       605.676 7        42.766                                                                    39228099.466 7 165986911.85407       492.083 7        42.104
C21        46.000                                                                                                                                    21889300.765 8 113983287.74008      -423.009 8        51.888                                                                    21889297.545 8  92620720.80008      -343.868 8        49.586
R17        47.000    24490787.198 6 131055153.93106     -3443.705 6        40.546                                                                    24490787.793 5 101931790.16205     -2678.519 5        35.733
C10        49.000                                                                                                                                    39345058.880 6 204880044.82406       773.594 6        39.063    39345064.141 7 158426260.45507       598.107 7        43.615    39345060.144 6 166481820.27006       628.408 6        40.038
C42        50.000                                                                                                                                    24197866.580 7 126004601.95507      2248.928 7        44.891                                                                    24197876.914 7 102389088.75607      1827.320 7        46.338
S48        51.000    77098903.709 6 405157393.84606      -380.050 6        37.739
E02        53.000    26489859.366 6 139205182.87906      2745.181 6        40.462                                                                    26489868.590 7 103951983.63707      2049.946 7        44.480    26489867.097 7 106663757.86307      2103.403 7        45.154
C60        54.000                                                                                                                                    40824889.293 6 212585854.61306      -405.929 6        40.422                                                                    40824885.284 6 172743336.51106      -329.874 6        38.282
C45        55.000                                                                                                                                    21525455.407 8 112088667.36108      -148.693 8        51.068                                                                    21525449.851 8  91081191.23808      -120.890 8        49.982
R12        56.000    22342262.090 7 119348399.84707      3595.822 7        46.072                                                                    22342268.249 7  92826561.02407      2796.757 7        43.526
C02        57.000                                                                                                                                    40849982.130 5 212716355.52705      -450.786 5        33.641    40849991.786 6 164485703.89606      -348.745 6        37.543    40849991.365 5 172849410.70505      -366.316 5        32.287
I03        58.000   125269011.158 6 415796910.73706       926.280 6        41.020
C14        59.000                                                                                                                                    26568907.807 6 138351259.62406      2858.291 6        36.499    26568904.169 7 106981957.35107      2210.222 7        42.919    26568902.704 6 112421714.64706      2322.473 6        40.260
G07        60.000    23367031.051 7 122794479.08707     -3018.303 7        42.707                                    23367034.181 6  95683972.43806     -2351.920 6        37.285    23367034.156 6  95683973.42506     -2351.711 6        38.961
> 2025 01 01 08 00  5.0000000  0 54
G08         1.000    24178437.297 6 127058587.59006     -1059.151 6        38.060                                    24178443.527 5  99006744.45505      -825.312 5        30.694    24178444.737 6  99006754.44806      -825.330 6        36.998
R01         2.000    19182111.188 8 102539327.14508       712.477 8        48.974                                                                    19182113.783 6  79752867.60506       554.172 6        41.940
R02         4.000    22378447.488 7 119415648.27707      3473.560 7        46.426                                                                    22378449.439 7  92878844.13507      2701.685 7        42.754
S21         5.000    38380470.106 7 201690491.02407      -393.578 7        42.629
E05         6.000    23811685.824 7 125131190.93007     -2492.939 7        43.503                                                                    23811693.530 7  93442121.29507     -1861.557 7        47.354    23811692.578 8  95879737.58708     -1910.138 8        48.545
E15         7.000    28307759.404 6 148758177.77106     -3264.858 6        36.862                                                                    28307769.139 6 111085639.45806     -2438.318 6        38.517    28307767.977 6 113983527.70406     -2501.771 6        39.333
R10         8.000    21029206.942 7 112097450.50907     -3725.031 7        44.927
R19         9.000    24115296.289 5 129000515.34105      1467.140 5        33.042                                                                    24115299.810 6 100333795.81406      1141.242 6        36.212
G18        10.000    24944682.006 6 131085171.16406      -965.332 6        37.781                                    24944679.797 3 102144270.64703      -752.214 3        20.238    24944680.751 6 102144278.62806      -752.087 6        37.860
C26        11.000                                                                                                                                    24225546.216 7 126148771.94107      2490.292 7        45.213                                                                    24225549.761 7 102506224.04707      2023.586 7        45.487
S27        12.000    39062778.126 6 205276101.22006      -424.512 6        36.246
G15        13.000    22498100.495 7 118228273.15107      2922.030 7        43.670                                    22498099.493 6  92125900.15006      2276.910 6        39.369    22498099.638 6  92125892.14706      2276.912 6        39.715
S36        14.000    38149758.752 7 200478788.86207      -394.530 7        43.858
G20        15.000    22422530.150 7 117831099.40507     -3503.990 7        44.409                                    22422531.953 5  91816397.65705     -2730.370 5        30.762
R11        16.000    19084703.068 8 101982860.05408       136.047 8        51.913                                                                    19084704.120 8  79319998.69608       105.819 8        49.027
S45        17.000    63331258.116 6 332808572.83606      -441.149 6        36.087
E13        18.000    27312857.582 6 143530006.20206     -1934.783 6        38.390                                                                    27312862.266 6 107181474.49506     -1444.855 6        40.732    27312861.382 7 109977515.31407     -1482.497 7        42.451
E24        19.000    25567810.200 7 134359678.34807     -1985.135 7        44.775                                                                    25567814.501 7 100333519.37607     -1482.381 7        46.616    25567813.625 7 102950914.21607     -1521.060 7        47.916
R18        20.000    23602502.951 7 125991746.19807     -1159.439 7        42.809                                                                    23602505.443 7  97993570.27107      -901.714 7        42.210
G30        21.000    20927120.672 8 109972730.00308     -1924.540 8        48.548                                    20927122.637 8  85693030.28908     -1499.639 8        50.063    20927122.742 7  85693034.28207     -1499.650 7        44.915
I06        22.000    37967096.025 7 148991140.14307      -355.674 7        43.642
S28        23.000    40817306.156 5 214496159.93105      -401.715 5        34.876
G14        24.000    20768430.076 8 109138832.93908      1032.967 8        48.027                                    20768430.483 6  85043246.77706       804.908 6        39.177    20768430.678 7  85043248.77507       804.924 7        47.218
S23        25.000    38082730.297 7 200126004.27707      -393.236 7        44.278
E08        26.000    25588938.548 7 134470737.13407      1837.048 7        43.206                                                                    25588940.716 7 100416445.39407      1371.841 7        46.307    25588939.850 7 103036003.93507      1407.656 7        47.383
C07        27.000                                                                                                                                    39186312.122 6 204053387.90706       466.770 6        39.901    39186313.711 7 157787029.68407       360.907 7        43.090    39186311.012 6 165810086.43006       379.350 6        40.536
G13        28.000    20306125.766 8 106709381.97008      1204.307 8        48.749                                    20306124.182 6  83150138.90006       938.425 6        39.291
I02        29.000    37812245.059 7 148383364.46207       318.162 7        42.383
C22        30.000                                                                                                                                    23426699.279 7 121988896.22707     -3236.404 7        47.988                                                                    23426697.789 7  99125936.40907     -2629.787 7        47.267
I01        31.000   347600506.052 6  60917946.73606     -3087.136 6        39.778
E03        32.000    23191675.732 8 121873049.01108      -274.166 8        48.352                                                                    23191679.142 8  91009100.16308      -204.732 8        50.718    23191678.425 8  93383246.08208      -210.036 8        51.418
G05        33.000    21200860.662 7 111411243.11807     -1657.399 7        47.420                                    21200860.241 7  86813939.96207     -1291.477 7        47.597    21200860.575 7  86813942.95907     -1291.440 7        44.327
E26        34.000    28229926.333 6 148349241.45106       391.951 6        37.255                                                                    28229927.142 6 110780274.39606       292.671 6        40.632    28229926.686 7 113670188.91007       300.418 7        42.461
C36        35.000                                                                                                                                    23372582.913 7 121707106.09007     -2827.721 7        47.052                                                                    23372591.488 7  98896999.97707     -2297.700 7        47.212
I09        38.000    39558980.679 6 155237689.77906      -943.361 6        41.425
R08        39.000    20667638.537 8 110674190.32308     -3403.368 8        48.466                                                                    20667641.881 7  86079904.03807     -2647.043 7        46.092
E25        40.000    23886437.270 7 125524074.21407       863.531 7        47.804                                                                    23886442.098 8  93735512.52708       644.856 8        50.109    23886441.076 8  96180778.88408       661.680 8        50.731
S44        42.000    40825273.823 6 214538214.96706      -410.358 6        37.452
C09        43.000                                                                                                                                    40586479.213 5 211344266.95505     -1057.725 5        35.609    40586488.112 6 163424731.52406      -817.889 6        40.126    40586484.009 6 171734467.27206      -859.657 6        36.858
C05        44.000                                                                                                                                    39271226.687 6 204495450.04606      -453.867 6        38.784    39271231.674 7 158128834.84607      -350.962 7        43.158    39271232.023 6 166169372.80606      -368.676 6        40.687
C40        45.000                                                                                                                                    39227514.212 7 204267948.63207       604.124 7        42.870                                                                    39227518.554 7 165984453.19507       490.977 7        42.349
C21        46.000                                                                                                                                    21889708.110 8 113985409.68308      -426.250 8        51.848                                                                    21889705.064 8  92622445.05108      -346.321 8        49.783
R17        47.000    24494006.942 6 131072377.50806     -3446.422 6        39.709                                                                    24494006.744 6 101945186.28306     -2680.649 6        36.057
C10        49.000                                                                                                                                    39344316.813 6 204876179.29406       772.194 6        38.928    39344322.012 7 158423271.39507       597.030 7        43.816    39344317.749 6 166478679.22806       627.412 6        40.091
C42        50.000                                                                                                                                    24195707.920 7 125993360.53007      2247.019 7        45.076                                                                    24195718.062 7 102379954.16807      1825.927 7        46.356
S48        51.000    77099271.402 6 405159293.93606      -380.628 6        38.042
E02        53.000    26487248.006 6 139191459.15206      2743.975 6        40.472                                                                    26487256.858 7 103941735.40707      2048.980 7        44.596    26487255.527 7 106653242.28407      2102.433 7        45.156
C60        54.000                                                                                                                                    40825279.035 6 212587884.67006      -406.570 6        40.570                                                                    40825275.160 6 172744986.10206      -330.276 6        38.405
C45        55.000                                                                                                                                    21525599.443 8 112089416.75108      -151.626 8        51.031                                                                    21525593.799 8  91081800.18008      -123.153 8        50.152
R12        56.000    22338895.960 7 119330424.70007      3593.645 7        45.786                                                                    22338903.533 7  92812580.39407      2795.038 7        44.140
C02        57.000                                                                                                                                    40850415.332 5 212718610.17505      -451.268 5        33.958    40850425.243 6 164487447.32206      -349.118 6        37.486    40850424.388 5 172851242.83705      -367.141 5        33.090
I03        58.000   125267830.446 6 415792278.70006       925.955 6        40.982
C14        59.000                                                                                                                                    26566162.191 6 138336969.20406      2857.285 6        36.246    26566159.845 7 106970907.08807      2209.411 7        42.597    26566158.313 6 112410102.50806      2321.860 6        40.417
G07        60.000    23369902.861 7 122809572.04807     -3019.424 7        42.588                                    23369906.205 6  95695733.14106     -2352.791 6        37.274    23369905.824 6  95695734.13306     -2352.693 6        38.381
> 2025 01 01 08 00 10.0000000  0 54
G08         1.000    24179445.538 6 127063889.36506     -1062.015 6        38.550                                    24179452.598 5  99010875.70405      -827.542 5        30.860    24179453.270 6  99010885.70706      -827.523 6        37.221
R01         2.000    19181446.072 8 102535771.57508       709.397 8        48.872                                                                    19181448.545 6  79750102.14906       551.634 6        41.712
R02         4.000    22375192.436 7 119398280.46907      3473.251 7        45.508                                                                    22375194.800 7  92865335.84507      2701.377 7        42.809
S21         5.000    38380844.788 7 201692456.62207      -393.015 7        42.663
E05         6.000    23814057.896 7 125143655.94807     -2493.531 7        43.587                                                                    23814065.436 7  93451429.55107     -1862.060 7        47.291    23814064.530 8  95889288.66008     -1910.552 8        48.411
E15         7.000    28310865.534 6 148774501.49906     -3264.860 6        36.522                                                                    28310875.434 6 111097829.22006     -2438.166 6        38.342    28310874.588 6 113996035.45706     -2501.645 6        39.486
R10         8.000    21032701.756 7 112116078.52307     -3726.576 7        44.859
R19         9.000    24113925.687 5 128993186.32305      1464.357 5        32.653                                                                    24113929.968 5 100328095.46005      1138.760 5        35.948
G18        10.000    24945601.771 6 131090003.42706      -967.888 6        36.873                                    24945599.373 3 102148036.03403      -754.178 3        20.762    24945599.887 6 102148044.02706      -754.195 6        38.321
C26        11.000                                                                                                                                    24223155.236 7 126136321.37307      2489.580 7        45.627                                                                    24223158.616 7 102496106.93007      2022.988 7        45.546
S27        12.000    39063179.946 6 205278220.74906      -423.960 6        36.204
G15        13.000    22495320.320 7 118213664.39007      2921.158 7        43.515                                    22495319.548 6  92114516.68606      2276.229 6        39.408    22495319.856 6  92114508.66906      2276.243 6        40.448
S36        14.000    38150132.879 7 200480760.05307      -394.232 7        43.892
G20        15.000    22425864.430 7 117848621.48707     -3505.211 7        44.209                                    22425866.223 5  91830051.19805     -2731.323 5        30.657
R11        16.000    19084576.958 8 101982187.48408       132.586 8        51.980                                                                    19084578.281 8  79319475.59008       103.102 8        49.099
S45        17.000    63331632.145 6 332810776.88306      -440.926 6        36.045
E13        18.000    27314698.997 6 143539682.98706     -1936.485 6        38.553                                                                    27314703.727 6 107188700.63706     -1445.939 6        40.784    27314702.970 7 109984929.97507     -1483.763 7        42.373
E24        19.000    25569699.643 7 134369606.83807     -1986.713 7        44.707                                                                    25569703.794 7 100340933.49807     -1483.526 7        46.574    25569702.875 7 102958521.75307     -1522.289 7        47.891
R18        20.000    23603590.610 7 125997551.98207     -1163.188 7        43.727                                                                    23603593.236 6  97998085.88206      -904.693 6        41.535
G30        21.000    20928952.513 8 109982354.94408     -1925.861 8        48.568                                    20928954.209 8  85700530.22608     -1500.668 8        50.068    20928954.578 7  85700534.22107     -1500.701 7        45.010
I06        22.000    37967548.906 7 148992917.43507      -355.517 7        43.672
S28        23.000    40817688.556 5 214498166.00805      -401.092 5        34.638
G14        24.000    20767448.288 8 109133673.25708      1030.456 8        48.109                                    20767448.622 6  85039226.24806       802.953 6        39.156    20767448.753 7  85039228.24107       802.987 7        47.100
S23        25.000    38083104.948 7 200127968.32507      -392.832 7        44.156
E08        26.000    25587190.310 7 134461550.98207      1836.979 7        43.257                                                                    25587192.644 7 100409585.58607      1371.802 7        46.261    25587191.773 7 103028965.17507      1407.623 7        47.265
C07        27.000                                                                                                                                    39185863.752 6 204051054.54206       466.281 6        40.045    39185865.955 7 157785225.38807       360.503 7        42.967    39185862.741 6 165808190.35806       379.090 6        40.698
G13        28.000    20304980.608 8 106703363.14408      1202.806 8        48.553                                    20304978.838 6  83145448.90106       937.255 6        39.297
I02        29.000    37811839.064 7 148381772.33207       318.323 7        42.197
C22        30.000                                                                                                                                    23429806.994 8 122005079.89608     -3237.469 8        48.314                                                                    23429806.070 7  99139086.92407     -2630.673 7        47.565
I01        31.000   347604439.635 6  60933381.75406     -3087.008 6        39.730
E03        32.000    23191936.864 8 121874421.24408      -275.111 8        48.476                                                                    23191940.262 8  91010124.87208      -205.464 8        50.693    23191939.565 8  93384297.52508      -210.816 8        51.404
G05        33.000    21202439.161 7 111419536.68507     -1660.365 7        47.322                                    21202438.478 7  86820402.46607     -1293.788 7        47.652    21202439.085 7  86820405.47407     -1293.911 7        44.599
E26        34.000    28229553.830 6 148347285.32006       389.972 6        37.138                                                                    28229554.852 6 110778813.63106       291.351 6        40.534    28229554.554 7 113668690.03807       298.888 7        42.461
C36        35.000                                                                                                                                    23375298.418 7 121721245.90507     -2828.538 7        47.210                                                                    23375306.949 7  98908489.70307     -2298.373 7        47.305
I09        38.000    39560182.615 6 155242405.19406      -943.005 6        41.592
R08        39.000    20670817.343 8 110691211.68808     -3405.597 8        48.457                                                                    20670820.425 7  86093142.85607     -2648.764 7        45.974
E25        40.000    23885616.367 7 125519760.00707       861.813 7        47.817                                                                    23885621.123 8  93732290.88808       643.513 8        50.077    23885620.141 8  96177473.20408       660.270 8        50.745
S44        42.000    40825658.933 6 214540264.46906      -409.845 6        37.017
C09        43.000                                                                                                                                    40587494.226 6 211349553.14006     -1057.244 6        36.023    40587503.701 6 163428819.09606      -817.430 6        40.150    40587499.136 6 171738762.66606      -858.807 6        37.070
C05        44.000                                                                                                                                    39271662.290 6 204497717.14406      -453.317 6        39.075    39271667.054 7 158130587.89607      -350.606 7        43.177    39271667.425 6 166171214.99706      -368.452 6        40.646
C40        45.000                                                                                                                                    39226934.365 7 204264928.70507       603.613 7        42.891                                                                    39226938.582 7 165981999.25107       490.419 7        42.339
C21        46.000                                                                                                                                    21890118.410 8 113987545.62508      -428.471 8        51.991                                                                    21890115.251 8  92624180.66208      -348.118 8        49.766
R17        47.000    24497226.748 6 131089612.67406     -3448.180 6        41.094                                                                    24497226.047 6 101958591.38706     -2681.861 6        37.550
C10        49.000                                                                                                                                    39343575.497 6 204872318.01606       771.956 6        39.057    39343580.571 7 158420285.60607       596.913 7        43.754    39343576.272 6 166475541.61406       627.251 6        40.215
C42        50.000                                                                                                                                    24193550.701 7 125982126.61107      2246.157 7        45.172                                                                    24193560.725 7 102370825.66307      1825.241 7        46.403
S48        51.000    77099641.625 6 405161194.60706      -380.100 6        37.962
E02        53.000    26484637.435 6 139177739.44606      2743.656 6        40.372                                                                    26484645.939 7 103931490.16807      2048.871 7        44.417    26484644.600 7 106642729.77707      2102.266 7        44.968
C60        54.000                                                                                                                                    40825669.144 6 212589915.55106      -406.180 6        40.563                                                                    40825665.144 6 172746636.35706      -330.089 6        38.360
C45        55.000                                                                                                                                    21525745.721 8 112090178.74708      -153.561 8        51.080                                                                    21525740.165 8  91082419.34408      -124.716 8        50.081
R12        56.000    22335531.990 7 119312458.17307      3592.571 7        46.458                                                                    22335539.650 7  92798606.43807      2794.214 7        43.640
C02        57.000                                                                                                                                    40850848.417 5 212720865.73005      -451.131 5        33.874    40850858.476 6 164489191.45606      -348.831 6        37.263    40850857.648 5 172853075.60705      -366.424 5        32.790
I03        58.000   125266650.912 6 415787647.29606       926.268 6        41.056
C14        59.000                                                                                                                                    26563417.334 6 138322681.44206      2857.467 6        36.767    26563415.751 7 106959858.87407      2209.517 7        42.931    26563414.256 6 112398492.50206      2321.997 6        40.584
G07        60.000    23372775.713 6 122824668.78906     -3019.559 6        41.952                                    23372778.972 6  95707496.79606     -2352.896 6        37.278    23372779.338 6  95707497.79406     -2353.059 6        38.432
> 2025 01 01 08 00 15.0000000  0 54
G08         1.000    24180457.602 6 127069207.11606     -1065.256 6        38.667                                    24180464.544 5  99015019.40705      -830.070 5        31.072    24180465.526 6  99015029.40006      -829.960 6        37.009
R01         2.000    19180784.313 8 102532233.50908       705.729 8        48.596                                                                    19180787.109 7  79747350.30807       548.937 7        42.146
R02         4.000    22371937.722 7 119380916.43207      3472.355 7        45.917                                                                    22371940.563 7  92851830.46607      2700.545 7        42.703
S21         5.000    38381219.572 7 201694422.28207      -393.258 7        42.637
E05         6.000    23816430.942 7 125156125.78307     -2494.535 7        43.321                                                                    23816438.273 7  93460741.39607     -1862.790 7        47.172    23816437.530 8  95898843.42908     -1911.350 8        48.316
E15         7.000    28313972.419 6 148790825.91406     -3265.022 6        36.650                                                                    28313981.933 6 111110019.50006     -2438.169 6        38.652    28313981.268 6 114008543.75006     -2501.952 6        39.489
R10         8.000    21036198.306 7 112134716.61807     -3728.712 7        44.864
R19         9.000    24112559.800 5 128985875.40605      1460.213 5        32.802                                                                    24112563.289 5 100322409.17605      1135.815 5        35.871
G18        10.000    24946524.263 6 131094850.51006      -971.150 6        36.881                                    24946521.940 3 102151812.97503      -756.735 3        20.833    24946522.932 6 102151820.96506      -756.551 6        38.913
C26        11.000                                                                                                                                    24220765.112 7 126123876.51907      2488.382 7        45.785                                                                    24220768.749 7 102485994.46907      2022.067 7        45.512
S27        12.000    39063588.853 6 205280339.95706      -424.179 6        36.268
G15        13.000    22492541.421 7 118199061.65707      2919.848 7        43.517                                    22492540.748 6  92103137.92106      2275.206 6        39.495    22492541.051 6  92103129.91606      2275.244 6        40.272
S36        14.000    38150509.909 7 200482730.79707      -394.254 7        43.841
G20        15.000    22429200.403 7 117866151.87407     -3506.963 7        44.364                                    22429202.112 5  91843711.20305     -2732.694 5        30.694
R11        16.000    19084454.671 8 101981534.54908       128.499 8        51.776                                                                    19084455.942 8  79318967.74708       100.004 8        49.107
S45        17.000    63332009.935 6 332812980.89306      -441.003 6        36.057
E13        18.000    27316542.317 6 143549369.80906     -1938.510 6        38.616                                                                    27316547.012 6 107195934.28206     -1447.647 6        40.841    27316546.305 7 109992352.31007     -1485.257 7        42.358
E24        19.000    25571590.761 7 134379545.04307     -1988.703 7        44.447                                                                    25571595.084 7 100348354.87607     -1485.116 7        46.611    25571594.024 7 102966136.72507     -1523.828 7        47.895
R18        20.000    23604682.136 7 126003378.23807     -1167.473 7        43.763                                                                    23604683.983 6  98002617.41206      -907.932 6        41.352
G30        21.000    20930785.499 8 109991988.14208     -1927.527 8        48.337                                    20930787.350 8  85708036.60208     -1501.966 8        50.126    20930787.673 7  85708040.60007     -1501.979 7        45.010
I06        22.000    37968001.793 7 148994694.88307      -355.609 7        43.738
S28        23.000    40818070.768 5 214500172.04905      -401.243 5        34.562
G14        24.000    20766469.367 7 109128528.17307      1027.464 7        47.760                                    20766469.515 6  85035217.09006       800.620 6        39.279    20766469.669 7  85035219.08007       800.633 7        46.772
S23        25.000    38083475.936 7 200129932.44907      -392.945 7        44.227
E08        26.000    25585442.764 7 134452367.36107      1836.398 7        43.029                                                                    25585445.063 7 100402727.67007      1371.378 7        46.203    25585444.233 7 103021928.36607      1407.052 7        47.362
C07        27.000                                                                                                                                    39185417.353 6 204048725.07606       465.456 6        40.117    39185418.632 7 157783424.11607       359.800 7        43.208    39185415.324 6 165806297.50006       378.396 6        40.484
G13        28.000    20303837.075 8 106697354.21208      1200.710 8        48.546                                    20303835.395 6  83140766.61006       935.619 6        39.426
I02        29.000    37811433.876 7 148380181.24807       317.948 7        42.243
C22        30.000                                                                                                                                    23432916.441 8 122021271.02208     -3239.057 8        48.503                                                                    23432915.520 7  99152243.52307     -2631.898 7        47.600
I01        31.000   347608372.545 6  60948816.89806     -3087.163 6        39.907
E03        32.000    23192199.362 8 121875800.50208      -276.654 8        48.504                                                                    23192202.732 8  91011154.82108      -206.584 8        50.651    23192202.045 8  93385354.34708      -211.988 8        51.335
G05        33.000    21204020.478 7 111427846.99707     -1663.831 7        47.296                                    21204019.889 7  86826878.02307     -1296.490 7        47.692    21204020.450 7  86826881.02207     -1296.505 7        44.643
E26        34.000    28229183.791 6 148345341.01906       387.436 6        37.176                                                                    28229184.960 6 110777361.71406       289.357 6        40.517    28229184.351 7 113667200.24107       296.930 7        42.167
C36        35.000                                                                                                                                    23378015.113 7 121735391.80407     -2829.894 7        46.868                                                                    23378023.571 7  98919984.39407     -2299.401 7        47.314
I09        38.000    39561384.330 6 155247120.86106      -943.276 6        41.638
R08        39.000    20673999.040 8 110708246.26308     -3408.281 8        48.549                                                                    20674001.619 7  86106391.93807     -2650.837 7        45.407
E25        40.000    23884797.437 8 125515456.85008       859.453 8        48.011                                                                    23884802.312 8  93729077.48908       641.762 8        50.063    23884801.243 8  96174175.97608       658.535 8        50.708
S44        42.000    40826055.168 6 214542313.84406      -410.127 6        37.301
C09        43.000                                                                                                                                    40588509.534 6 211354838.73606     -1057.229 6        36.287    40588519.095 6 163432906.21606      -817.658 6        40.453    40588514.209 6 171743057.63406      -859.092 6        37.040
C05        44.000                                                                                                                                    39272097.379 6 204499984.18906      -453.441 6        38.952    39272102.474 7 158132340.90107      -350.669 7        43.329    39272102.778 6 166173057.15606      -368.527 6        40.632
C40        45.000                                                                                                                                    39226355.227 7 204261913.61807       602.490 7        42.808                                                                    39226359.423 7 165979549.24207       489.606 7        42.284
C21        46.000                                                                                                                                    21890531.028 8 113989694.56008      -431.174 8        51.882                                                                    21890527.968 8  92625926.83808      -350.262 8        49.763
R17        47.000    24500448.598 7 131106858.32007     -3450.288 7        42.182                                                                    24500449.221 6 101972004.67906     -2683.448 6        38.619
C10        49.000                                                                                                                                    39342834.138 6 204868459.93606       771.217 6        39.000    39342839.580 7 158417302.30807       596.325 7        44.095    39342835.605 6 166472406.62106       626.805 6        40.164
C42        50.000                                                                                                                                    24191394.796 7 125970899.24507      2244.734 7        45.445                                                                    24191404.641 7 102361702.49407      1824.151 7        46.436
S48        51.000    77100006.389 6 405163095.36506      -380.053 6        37.958
E02        53.000    26482027.360 6 139164022.75306      2742.964 6        40.274                                                                    26482035.608 7 103921247.19507      2048.274 7        44.146    26482034.373 7 106632219.59107      2101.779 7        44.962
C60        54.000                                                                                                                                    40826058.909 6 212591946.26606      -406.151 6        40.508                                                                    40826055.230 6 172748286.48406      -329.956 6        38.510
C45        55.000                                                                                                                                    21525894.002 8 112090952.35508      -155.954 8        50.941                                                                    21525888.657 8  91083047.96308      -126.679 8        50.060
R12        56.000    22332171.037 7 119294499.28107      3590.911 7        47.615                                                                    22332177.921 7  92784638.40307      2793.044 7        44.363
C02        57.000                                                                                                                                    40851281.257 5 212723121.13505      -450.975 5        33.772    40851291.401 6 164490935.47606      -348.887 6        37.289    40851290.877 5 172854908.29105      -366.196 5        32.868
I03        58.000   125265470.675 6 415783015.78906       926.271 6        41.094
C14        59.000                                                                                                                                    26560674.674 6 138308395.37606      2857.021 6        36.427    26560672.734 7 106948811.95807      2209.143 7        42.955    26560671.023 6 112386883.90006      2321.580 6        40.529
G07        60.000    23375649.374 6 122839768.30306     -3020.199 6        41.621                                    23375652.321 6  95719262.60406     -2353.397 6        37.282    23375652.288 6  95719263.59206     -2353.505 6        38.495
> 2025 01 01 08 00 20.0000000  0 54
G08         1.000    24181471.911 6 127074540.77406     -1068.495 6        38.375                                    24181479.540 5  99019175.50405      -832.594 5        31.117    24181480.483 6  99019185.49806      -832.610 6        36.726
R01         2.000    19180125.919 8 102528712.97008       702.134 8        48.865                                                                    19180128.369 6  79744612.09206       546.120 6        41.919
R02         4.000    22368684.535 7 119363556.19007      3471.530 7        45.970                                                                    22368687.309 7  92838328.02607      2700.087 7        42.959
S21         5.000    38381593.968 7 201696387.95607      -393.333 7        42.404
E05         6.000    23818805.150 7 125168600.36807     -2495.444 7        43.545                                                                    23818812.083 7  93470056.80907     -1863.581 7        46.998    23818811.386 8  95908401.85308     -1912.172 8        48.298
E15         7.000    28317078.862 6 148807150.95206     -3265.343 6        36.798                                                                    28317088.478 6 111122210.23906     -2438.315 6        38.622    28317087.972 6 114021052.49806     -2501.818 6        40.095
R10         8.000    21039696.652 7 112153364.70107     -3730.774 7        44.742
R19         9.000    24111195.154 5 128978582.51405      1456.385 5        32.904                                                                    24111199.546 6 100316736.95006      1133.149 6        36.537
G18        10.000    24947449.860 6 131099712.36006      -974.091 6        38.246                                    24947447.150 3 102155601.41103      -759.029 3        20.952    24947447.755 6 102155609.39506      -758.907 6        38.643
C26        11.000                                                                                                                                    24218376.236 7 126111437.33907      2487.095 7        45.747                                                                    24218379.925 7 102475886.59707      2021.095 7        45.494
S27        12.000    39063991.474 6 205282459.18306      -424.034 6        36.329
G15        13.000    22489764.216 7 118184464.86807      2918.571 7        43.871                                    22489763.114 6  92091763.78406      2274.212 6        39.574    22489763.350 6  92091755.77306      2274.121 6        40.372
S36        14.000    38150882.596 7 200484701.51907      -394.262 7        43.663
G20        15.000    22432537.858 7 117883690.49907     -3508.768 7        44.008                                    22432539.494 5  91857377.63405     -2734.101 5        30.785
R11        16.000    19084336.364 8 101980901.19908       124.588 8        51.962                                                                    19084337.599 8  79318475.13808        96.829 8        49.219
S45        17.000    63332385.006 6 332815184.92206      -441.143 6        36.038
E13        18.000    27318387.575 6 143559066.60506     -1940.471 6        39.099                                                                    27318392.258 6 107203175.37306     -1449.139 6        40.720    27318391.630 7 109999782.30107     -1486.813 7        42.271
E24        19.000    25573483.699 7 134389492.87107     -1990.731 7        44.605                                                                    25573488.088 7 100355783.43407     -1486.590 7        46.551    25573487.024 7 102973759.07507     -1525.321 7        47.814
R18        20.000    23605776.983 7 126009224.99207     -1171.554 7        42.227                                                                    23605779.643 6  98007164.90006      -911.349 6        40.751
G30        21.000    20932620.001 8 110001629.49908     -1929.200 8        48.511                                    20932622.044 8  85715549.33308     -1503.268 8        50.238    20932622.251 7  85715553.32907     -1503.240 7        44.939
I06        22.000    37968455.005 7 148996472.43507      -355.598 7        43.573
S28        23.000    40818451.147 5 214502177.61105      -401.276 5        34.500
G14        24.000    20765492.987 7 109123397.63007      1024.460 7        47.964                                    20765493.213 6  85031219.26906       798.282 6        39.429    20765493.476 7  85031221.26007       798.271 7        47.260
S23        25.000    38083851.150 7 200131896.50407      -392.971 7        44.057
E08        26.000    25583695.587 7 134443186.22607      1835.871 7        43.208                                                                    25583697.941 7 100395871.61407      1370.965 7        46.137    25583697.193 7 103014893.45607      1406.698 7        47.262
C07        27.000                                                                                                                                    39184970.683 6 204046399.44206       464.703 6        40.081    39184972.085 7 157781625.78507       359.200 7        43.238    39184968.650 6 165804407.75106       377.433 6        40.574
G13        28.000    20302695.525 8 106691355.22908      1198.625 8        48.788                                    20302693.839 6  83136092.06906       933.995 6        39.526
I02        29.000    37811028.731 6 148378591.14906       317.866 6        41.979
C22        30.000                                                                                                                                    23436027.397 8 122037469.56408     -3240.649 8        48.254                                                                    23436026.182 7  99165406.13107     -2633.254 7        47.584
I01        31.000   347612306.312 6  60964252.12006     -3087.181 6        39.901
E03        32.000    23192463.160 8 121877186.73408      -278.102 8        48.565                                                                    23192466.536 8  91012189.98508      -207.714 8        50.618    23192465.843 8  93386416.51108      -213.090 8        51.336
G05        33.000    21205605.059 7 111436173.98807     -1667.203 7        47.908                                    21205604.454 7  86833366.56807     -1299.115 7        47.812    21205604.783 7  86833369.56607     -1299.076 7        44.605
E26        34.000    28228816.283 6 148343408.48506       385.172 6        37.819                                                                    28228817.293 6 110775918.58406       287.716 6        40.663    28228816.498 7 113665719.46807       295.183 7        42.135
