     3.04           OBSERVATION DATA    M                   RINEX VERSION / TYPE
ssrcrin-15.6.1x                         20250101 084500 UTC PGM / RUN BY / DATE 
(00000000023479385599111004) Septentrio proprietary         COMMENT             
rref                                                        MARKER NAME         
01                                                          MARKER NUMBER       
geodetic                                                    MARKER TYPE         
NFB                 CLIMERS@TUW                             OBSERVER / AGENCY   
3297213             SEPT ASTERX SB3 PROB4.14.4              REC # / TYPE / VERS 
Unknown             Unknown                                 ANT # / TYPE        
  4127832.6776  1207193.5618  4695247.5826                  APPROX POSITION XYZ 
        0.0000        0.0000        0.0000                  ANTENNA: DELTA H/E/N
G   23 X1  C1C L1C D1C S1C C1W S1W C2W L2W D2W S2W C2L L2L  SYS / # / OBS TYPES 
       D2L S2L C5Q L5Q D5Q S5Q C1L L1L D1L S1L              SYS / # / OBS TYPES 
E   21 X1  C1C L1C D1C S1C C6C L6C D6C S6C C5Q L5Q D5Q S5Q  SYS / # / OBS TYPES 
       C7Q L7Q D7Q S7Q C8Q L8Q D8Q S8Q                      SYS / # / OBS TYPES 
S    9 X1  C1C L1C D1C S1C C5I L5I D5I S5I                  SYS / # / OBS TYPES 
R   17 X1  C1C L1C D1C S1C C2P L2P D2P S2P C2C L2C D2C S2C  SYS / # / OBS TYPES 
       C3Q L3Q D3Q S3Q                                      SYS / # / OBS TYPES 
C   25 X1  C1P L1P D1P S1P C5P L5P D5P S5P C2I L2I D2I S2I  SYS / # / OBS TYPES 
       C7I L7I D7I S7I C6I L6I D6I S6I C7D L7D D7D S7D      SYS / # / OBS TYPES 
J   17 X1  C1C L1C D1C S1C C2L L2L D2L S2L C5Q L5Q D5Q S5Q  SYS / # / OBS TYPES 
       C1L L1L D1L S1L                                      SYS / # / OBS TYPES 
I    5 X1  C5A L5A D5A S5A                                  SYS / # / OBS TYPES 
SEPTENTRIO RECEIVERS OUTPUT ALIGNED CARRIER PHASES.         COMMENT             
NO FURTHER PHASE SHIFT APPLIED IN THE RINEX ENCODER.        COMMENT             
G L1C                                                       SYS / PHASE SHIFT   
G L2W                                                       SYS / PHASE SHIFT   
G L2L  0.00000                                              SYS / PHASE SHIFT   
G L5Q  0.00000                                              SYS / PHASE SHIFT   
G L1L  0.00000                                              SYS / PHASE SHIFT   
E L1C  0.00000                                              SYS / PHASE SHIFT   
E L6C  0.00000                                              SYS / PHASE SHIFT   
E L5Q  0.00000                                              SYS / PHASE SHIFT   
E L7Q  0.00000                                              SYS / PHASE SHIFT   
E L8Q  0.00000                                              SYS / PHASE SHIFT   
S L1C                                                       SYS / PHASE SHIFT   
S L5I                                                       SYS / PHASE SHIFT   
R L1C                                                       SYS / PHASE SHIFT   
R L2P  0.00000                                              SYS / PHASE SHIFT   
R L2C                                                       SYS / PHASE SHIFT   
R L3Q  0.00000                                              SYS / PHASE SHIFT   
C L1P  0.00000                                              SYS / PHASE SHIFT   
C L5P  0.00000                                              SYS / PHASE SHIFT   
C L2I                                                       SYS / PHASE SHIFT   
C L7I                                                       SYS / PHASE SHIFT   
C L6I                                                       SYS / PHASE SHIFT   
C L7D                                                       SYS / PHASE SHIFT   
J L1C                                                       SYS / PHASE SHIFT   
J L2L  0.00000                                              SYS / PHASE SHIFT   
J L5Q  0.00000                                              SYS / PHASE SHIFT   
J L1L  0.00000                                              SYS / PHASE SHIFT   
I L5A                                                       SYS / PHASE SHIFT   
  2025     1     1     8    45    0.0000000     GPS         TIME OF FIRST OBS   
 C1C    0.000 C2C    0.000 C2P    0.000                     GLONASS COD/PHS/BIS 
DBHZ                                                        SIGNAL STRENGTH UNIT
    18                                                      LEAP SECONDS        
 24 R01  1 R02 -4 R03  5 R04  6 R05  1 R06 -4 R07  5 R08  6 GLONASS SLOT / FRQ #
    R09 -2 R10 -7 R11  0 R12 -1 R13 -2 R14 -7 R15  0 R16 -1 GLONASS SLOT / FRQ #
    R17  4 R18 -3 R19  3 R20  2 R21  4 R22 -3 R23  3 R24  2 GLONASS SLOT / FRQ #
                                                            END OF HEADER       
> 2025 01 01 08 45  0.0000000  0 55
G08         1.000    25148150.732 6 132154483.67506     -2669.472 6        36.223                                    25148155.870 4 102977577.15904     -2080.108 4        27.593    25148156.714 5 102977587.16005     -2080.131 5        35.214
R01         2.000    19347222.945 8 103421930.85708     -1431.227 8        48.721                                                                    19347227.271 7  80439333.41107     -1113.156 7        42.391
G24         3.000    24533139.107 6 128922493.96206      3048.184 6        38.748                                    24533145.021 5 100459109.78905      2375.203 5        30.408    24533145.192 5 100459106.79805      2375.164 5        35.233
R02         4.000    20810165.349 8 111046978.72408      2570.839 8        50.849                                                                    20810169.153 7  86369874.33707      1999.456 7        45.552
S21         5.000    38588248.998 7 202782357.62207      -427.193 7        42.499
E05         6.000    25223069.651 6 132547999.12806     -3005.263 6        39.979                                                                    25223082.678 7  98980627.57207     -2244.207 7        45.139    25223080.887 7 101562728.86907     -2302.745 7        45.598
G17         7.000    24154895.792 6 126934896.49406      2467.913 6        40.174                                    24154905.398 5  98910372.30505      1923.036 5        33.533    24154905.274 6  98910368.32906      1923.084 6        38.363
R10         8.000    23115619.963 6 123219129.66606     -4396.292 6        38.474
R19         9.000    23920120.968 5 127956462.51705      -761.738 5        34.162                                                                    23920124.475 6  99521755.99106      -592.680 6        39.135
G18        10.000    25819851.550 6 135684204.16706     -2368.902 6        36.344                                    25819850.461 2 105727929.14802     -1845.899 2        14.952    25819850.259 5 105727937.14505     -1845.916 5        33.772
C26        11.000                                                                                                                                    23124081.128 8 120413171.60308      1719.021 8        48.813                                                                    23124084.039 8  97845582.29908      1396.819 8        48.273
S27        12.000    39286789.339 5 206453317.00205      -459.836 5        35.262
G15        13.000    21225556.009 7 111540995.26307      1921.475 7        47.198                                    21225556.229 7  86915030.92807      1497.255 7        45.788    21225556.520 7  86915022.92607      1497.209 7        43.723
S36        14.000    38358005.019 7 201573108.04507      -428.162 7        43.782
G20        15.000    24387587.296 6 128157449.53706     -4036.318 6        37.346                                    24387593.993 3  99862881.05503     -3145.163 3        19.284
R11        16.000    19531071.762 8 104368109.70008     -1842.646 8        51.548                                                                    19531073.622 8  81175190.20708     -1433.057 8        49.130
S45        17.000    63539848.363 6 333905551.74806      -476.081 6        36.068
E13        18.000    28549121.814 5 150026575.10305     -2812.079 5        35.014                                                                    28549130.414 6 112032795.10006     -2100.086 6        38.423    28549129.085 6 114955393.64706     -2154.799 6        38.844
E24        19.000    26826653.266 6 140974899.60206     -2864.651 6        41.335                                                                    26826660.762 7 105273444.32607     -2139.146 7        44.023    26826659.510 7 108019708.28307     -2194.991 7        44.775
R18        20.000    24705478.025 6 131879513.36006     -3097.315 6        40.577                                                                    24705478.777 6 102572947.75506     -2408.805 6        37.701
G30        21.000    22124168.489 7 116263222.53407     -2708.881 7        45.956                                    22124172.445 7  90594703.84407     -2110.812 7        44.576    22124173.054 7  90594707.84107     -2110.822 7        42.470
I06        22.000    38223106.798 7 149995765.99007      -397.403 7        42.686
S28        23.000    41029495.580 5 215611215.80505      -436.551 5        34.762
G14        24.000    20665632.844 7 108598628.79807      -655.377 7        47.179                                    20665633.527 6  84622308.29006      -510.680 6        40.029    20665633.493 8  84622310.28908      -510.667 8        48.197
S23        25.000    38290536.502 7 201218043.33807      -428.031 7        44.026
E08        26.000    24744929.977 7 130035431.72207      1398.160 7        45.663                                                                    24744933.268 8  97104363.08708      1044.107 8        48.994    24744932.373 8  99637519.89908      1071.272 8        49.859
C07        27.000                                                                                                                                    39061738.961 6 203404695.72906         2.087 6        41.640    39061739.276 7 157285420.06307         1.576 7        44.050    39061736.200 6 165282971.13906         1.753 6        41.754
G13        28.000    20001580.418 8 105108973.50008       -82.957 8        48.468                                    20001578.816 6  81903064.91606       -64.638 6        40.484
I02        29.000    37642495.371 7 147717235.68907       165.360 7        42.876
C22        30.000                                                                                                                                    25281138.772 7 131645346.71707     -3866.936 7        43.308                                                                    25281142.104 7 106972572.27307     -3142.239 7        44.083
I01        31.000   349728048.550 4  69266815.93504     -3109.461 4        29.175
E03        32.000    23545048.323 8 123730020.96108     -1135.479 8        48.259                                                                    23545052.790 8  92395795.88208      -847.889 8        50.810    23545052.032 8  94806116.95508      -870.041 8        51.309
G05        33.000    22475522.975 7 118109600.40907     -3219.682 7        45.464                                    22475525.025 7  92033429.26807     -2508.835 7        43.496    22475525.559 7  92033432.25707     -2508.897 7        42.523
E26        34.000    28370394.092 6 149087391.12706      -951.378 6        37.592                                                                    28370396.409 6 111331485.36706      -710.289 6        40.021    28370395.714 6 114235779.82906      -728.885 6        41.244
C36        35.000                                                                                                                                    24975216.677 7 130052366.64707     -3307.778 7        42.468                                                                    24975228.873 7 105678192.18107     -2687.902 7        44.355
G23        36.000    24604788.951 6 129299000.91506      2401.148 6        39.231                                    24604789.442 3 100752442.70203      1871.029 3        23.086    24604789.307 6 100752443.71006      1871.046 6        39.799
I09        38.000    40219728.247 6 157830563.04306      -984.412 6        39.742
R08        39.000    22697156.512 7 121542072.13507     -4566.463 7        42.248                                                                    22697166.256 7  94532676.93107     -3551.709 7        42.502
E25        40.000    23763758.649 7 124879394.38707      -400.903 7        47.790                                                                    23763763.652 8  93254095.79208      -299.380 8        50.991    23763762.580 8  95686803.45208      -307.191 8        51.154
S44        42.000    41037633.021 6 215654143.29906      -428.532 6        37.074
C09        43.000                                                                                                                                    41126859.193 6 214158099.36406     -1046.854 6        36.234    41126873.135 6 165600547.89806      -809.462 6        40.882    41126866.586 5 174020922.66705      -850.601 5        35.429
C05        44.000                                                                                                                                    39511182.785 6 205744960.35506      -483.661 6        38.441    39511188.953 7 159095033.67207      -373.944 7        42.834    39511188.761 6 167184700.83306      -392.972 6        40.541
C40        45.000                                                                                                                                    39059379.740 7 203392430.67107        31.317 7        43.285                                                                    39059382.887 7 165273024.27307        25.512 7        43.166
C21        46.000                                                                                                                                    22484972.440 8 117085087.22908     -1879.786 8        51.912                                                                    22484970.242 8  95141182.92408     -1527.482 8        50.227
C10        49.000                                                                                                                                    39046103.095 6 203323311.57606       362.792 6        41.247    39046107.435 7 157222498.12007       280.508 7        44.680    39046103.832 6 165216849.04806       294.756 6        41.549
C42        50.000                                                                                                                                    23267093.035 8 121157800.91208      1244.432 8        48.283                                                                    23267103.655 8  98450662.42708      1011.151 8        49.146
S48        51.000    77303771.696 6 406234074.35206      -415.683 6        38.042
E02        53.000    25204960.382 7 132453025.69507      2181.803 7        45.193                                                                    25204966.666 8  98909798.40708      1629.268 8        48.002    25204965.309 8 101490036.18308      1671.866 8        48.399
C60        54.000                                                                                                                                    41037632.755 6 213693668.19106      -424.381 6        40.794                                                                    41037628.147 6 173643526.45906      -344.996 6        38.429
C45        55.000                                                                                                                                    21918681.749 8 114136289.77608     -1339.094 8        50.810                                                                    21918676.778 8  92745049.96208     -1088.190 8        50.276
R12        56.000    20792741.390 8 111071175.05908      2430.240 8        50.962                                                                    20792745.997 7  86388727.99407      1890.193 7        46.649
C02        57.000                                                                                                                                    41086921.953 5 213950166.61005      -472.827 5        33.251    41086932.012 6 165439765.78406      -365.570 6        36.851    41086931.153 5 173851983.98905      -384.128 5        32.994
I03        58.000   124633426.615 6 413302742.18006       914.191 6        40.396
C14        59.000                                                                                                                                    25183273.187 6 131135862.18406      2388.432 6        40.110    25183274.182 7 101402543.34307      1846.957 7        46.562    25183271.346 7 106558604.30707      1940.823 7        44.156
G07        60.000    24984919.815 6 131296409.97906     -3260.241 6        38.273                                    24984931.768 4 102308819.92904     -2540.435 4        29.100    24984931.523 5 102308820.91905     -2540.683 5        34.352
> 2025 01 01 08 45  5.0000000  0 55
G08         1.000    25150691.118 6 132167837.62206     -2672.274 6        37.032                                    25150697.107 4 102987982.83804     -2082.305 4        27.988    25150698.212 5 102987992.84605     -2082.175 5        35.624
R01         2.000    19348563.672 8 103429097.31308     -1435.439 8        48.516                                                                    19348567.632 7  80444907.31307     -1116.458 7        42.131
G24         3.000    24530239.101 6 128907254.32306      3047.659 6        37.837                                    24530245.026 5 100447234.73605      2374.799 5        30.641    24530244.887 5 100447231.76405      2374.512 5        35.100
R02         4.000    20807757.806 8 111034130.91308      2568.245 8        50.306                                                                    20807761.286 7  86359881.59207      1997.579 7        45.853
S21         5.000    38588654.132 7 202784493.88207      -427.417 7        42.468
E05         6.000    25225929.812 6 132563027.36306     -3006.167 6        40.589                                                                    25225942.516 7  98991849.89307     -2244.866 7        45.166    25225940.684 7 101574243.95607     -2303.330 7        45.375
G17         7.000    24152548.321 6 126922559.20006      2466.823 6        40.074                                    24152557.608 5  98900758.88905      1922.189 5        33.581    24152557.787 6  98900754.91006      1922.211 6        38.144
R10         8.000    23119743.889 6 123241112.53506     -4396.850 6        38.727
R19         9.000    23920835.761 5 127960282.93305      -766.311 5        34.343                                                                    23920839.438 6  99524727.38106      -595.972 6        39.679
G18        10.000    25822106.798 6 135696053.72006     -2370.990 6        36.749                                    25822105.531 2 105737162.56902     -1847.539 2        15.952    25822105.638 5 105737170.54705     -1847.448 5        35.452
C26        11.000                                                                                                                                    23122431.017 8 120404580.15608      1717.411 8        48.431                                                                    23122434.181 8  97838601.03108      1395.492 8        48.131
S27        12.000    39287225.090 5 206455616.39105      -459.931 5        34.905
G15        13.000    21223729.016 7 111531393.84007      1919.034 7        46.709                                    21223729.151 7  86907549.29507      1495.353 7        45.920    21223729.361 7  86907541.29207      1495.348 7        43.687
S36        14.000    38358412.388 7 201575249.36007      -428.308 7        43.951
G20        15.000    24391427.559 6 128177632.31606     -4036.738 6        38.691                                    24391434.384 3  99878607.83003     -3145.506 3        19.701
R11        16.000    19532797.023 8 104377330.22308     -1845.720 8        51.065                                                                    19532798.882 8  81182361.71708     -1435.586 8        48.900
S45        17.000    63540261.523 6 333906332.99916      -476.202 6        36.008
E13        18.000    28551798.342 5 150040638.90705     -2813.463 5        34.400                                                                    28551806.792 6 112043297.23106     -2100.839 6        38.297    28551805.078 6 114966169.76006     -2155.671 6        38.474
E24        19.000    26829379.428 6 140989225.63106     -2865.878 6        41.223                                                                    26829387.076 7 105284142.29407     -2140.117 7        43.913    26829385.698 7 108030685.32607     -2195.942 7        44.763
R18        20.000    24708379.088 6 131895006.74106     -3100.094 6        40.841                                                                    24708382.953 6 102584998.20906     -2411.285 6        37.577
G30        21.000    22126746.146 7 116276770.07007     -2710.135 7        45.740                                    22126750.537 7  90605260.34407     -2111.790 7        44.704    22126750.909 7  90605264.33307     -2111.842 7        42.318
I06        22.000    38223613.181 7 149997752.96407      -397.450 7        42.777
S28        23.000    41029910.435 5 215613398.84905      -436.612 5        34.690
G14        24.000    20666257.881 7 108601913.23407      -658.522 7        47.482                                    20666258.553 6  84624867.58606      -513.134 6        40.124    20666258.469 8  84624869.57908      -513.100 8        48.254
S23        25.000    38290942.705 7 201220182.53307      -427.888 7        44.014
E08        26.000    24743600.339 7 130028443.52707      1397.080 7        46.001                                                                    24743603.514 8  97099144.62108      1043.221 8        48.870    24743602.520 8  99632165.29508      1070.462 8        49.753
C07        27.000                                                                                                                                    39061737.217 6 203404687.25606         1.192 6        41.621    39061737.989 7 157285413.50807         0.915 7        44.137    39061734.572 6 165282964.23906         0.995 6        41.502
G13        28.000    20001660.228 8 105109394.74708       -85.673 8        48.393                                    20001658.979 6  81903393.15506       -66.756 6        40.577
I02        29.000    37642285.007 7 147716409.39407       165.158 7        42.961
C22        30.000                                                                                                                                    25284852.056 7 131664682.90407     -3867.630 7        43.154                                                                    25284855.668 7 106988284.45407     -3142.851 7        43.881
I01        31.000   349732010.712 4  69282364.89004     -3109.854 4        29.725
E03        32.000    23546129.391 8 123735702.49408     -1137.227 8        48.321                                                                    23546133.958 8  92400038.57308      -849.202 8        50.721    23546133.222 8  94810470.32308      -871.361 8        51.213
G05        33.000    22478587.804 7 118125704.29707     -3222.000 7        45.779                                    22478589.540 7  92045977.72007     -2510.646 7        43.625    22478589.842 7  92045980.70507     -2510.624 7        42.584
E26        34.000    28371300.464 6 149092153.68106      -953.823 6        37.195                                                                    28371302.868 6 111335041.79806      -712.209 6        39.994    28371302.238 6 114239429.03806      -730.833 6        41.073
C36        35.000                                                                                                                                    24978392.798 7 130068906.91007     -3308.398 7        42.622                                                                    24978405.223 7 105691632.44507     -2688.357 7        44.179
G23        36.000    24602505.575 6 129287000.29106      2398.924 6        39.712                                    24602505.842 3 100743091.53803      1869.313 3        23.600    24602505.001 6 100743092.51706      1869.421 6        39.186
I09        38.000    40220982.060 6 157835485.35806      -984.339 6        39.847
R08        39.000    22701421.277 7 121564908.01807     -4568.122 7        42.650                                                                    22701430.225 7  94550438.12007     -3552.899 7        42.521
E25        40.000    23764141.166 8 124881404.54508      -403.255 8        48.121                                                                    23764146.173 8  93255596.87208      -301.113 8        50.825    23764145.031 8  95688343.69708      -309.019 8        51.028
S44        42.000    41038038.924 6 215656285.28206      -428.437 6        37.153
C09        43.000                                                                                                                                    41127864.276 6 214163333.00806     -1046.807 6        36.370    41127878.233 6 165604594.86906      -809.315 6        40.753    41127871.934 5 174025175.42205      -850.757 5        34.967
C05        44.000                                                                                                                                    39511647.221 6 205747378.49406      -483.857 6        38.357    39511653.439 7 159096903.52507      -374.098 7        42.781    39511653.022 6 167186665.72906      -392.924 6        40.191
C40        45.000                                                                                                                                    39059350.335 7 203392276.69607        30.223 7        43.185                                                                    39059353.515 7 165272899.13807        24.557 7        43.103
C21        46.000                                                                                                                                    22486778.622 8 117094492.39108     -1882.365 8        52.013                                                                    22486776.387 8  95148825.36908     -1529.617 8        50.009
C10        49.000                                                                                                                                    39045755.386 6 203321499.31906       362.094 6        41.299    39045759.352 7 157221096.76707       279.871 7        44.819    39045755.803 6 165215376.43206       294.187 6        41.371
C42        50.000                                                                                                                                    23265899.103 8 121151584.57608      1242.045 8        48.181                                                                    23265909.898 8  98445611.11508      1009.181 8        49.030
S48        51.000    77304171.557 6 406236154.27506      -416.136 6        37.860
E02        53.000    25202884.961 7 132442119.73107      2180.510 7        45.148                                                                    25202891.268 7  98901654.35707      1628.220 7        47.872    25202889.969 8 101481679.68008      1670.727 8        48.240
C60        54.000                                                                                                                                    41038040.344 6 213695790.72306      -424.540 6        40.887                                                                    41038035.941 6 173645251.16806      -344.993 6        38.315
C45        55.000                                                                                                                                    21919968.640 8 114142990.10408     -1341.047 8        50.695                                                                    21919963.455 8  92750494.50608     -1089.826 8        50.134
R12        56.000    20790467.599 8 111059030.18208      2427.612 8        50.622                                                                    20790472.421 7  86379281.98307      1888.174 7        46.441
C02        57.000                                                                                                                                    41087375.090 5 213952529.69105      -472.590 5        33.365    41087386.083 6 165441593.04806      -365.428 6        36.805    41087384.978 5 173853904.18205      -383.808 5        32.659
I03        58.000   124632261.834 6 413298171.17106       914.250 6        40.367
C14        59.000                                                                                                                                    25180980.147 6 131123923.16006      2387.110 6        40.465    25180981.340 7 101393311.28607      1845.840 7        46.522    25180978.577 7 106548902.83807      1939.616 7        43.939
G07        60.000    24988021.762 6 131312711.45906     -3260.523 6        38.087                                    24988033.625 4 102321522.34004     -2540.653 4        28.682    24988033.501 5 102321523.33805     -2540.731 5        34.448
> 2025 01 01 08 45 10.0000000  0 55
G08         1.000    25153235.356 6 132181204.83506     -2674.925 6        36.711                                    25153240.798 4 102998398.86504     -2084.360 4        28.038    25153241.577 5 102998408.89205     -2084.516 5        35.771
R01         2.000    19349908.414 8 103436284.92508     -1439.631 8        49.039                                                                    19349912.105 7  80450497.66707     -1119.815 7        42.229
G24         3.000    24527339.153 6 128892017.89506      3046.916 6        38.607                                    24527345.559 5 100435362.19905      2374.231 5        30.574    24527345.268 5 100435359.20205      2374.189 5        34.771
R02         4.000    20805352.340 8 111021296.39808      2565.542 8        50.713                                                                    20805356.045 7  86349899.18707      1995.444 7        45.892
S21         5.000    38589062.396 7 202786631.11407      -427.619 7        42.366
E05         6.000    25228790.412 6 132578060.26506     -3007.064 6        40.462                                                                    25228803.389 7  99003075.71907     -2245.591 7        45.180    25228801.376 7 101585762.63707     -2304.101 7        45.281
G17         7.000    24150201.423 6 126910227.01506      2465.917 6        40.060                                    24150210.695 5  98891149.45205      1921.483 5        33.533    24150210.103 6  98891145.47606      1921.612 6        37.747
R10         8.000    23123869.468 6 123263098.55206     -4397.449 6        39.144
R19         9.000    23921551.368 5 127964125.35805      -770.760 5        34.124                                                                    23921556.626 6  99527715.95306      -599.589 6        39.526
G18        10.000    25824363.336 5 135707913.93605     -2372.974 5        35.814                                    25824362.484 2 105746404.30202     -1849.082 2        15.952    25824362.910 6 105746412.29206     -1849.406 6        36.155
C26        11.000                                                                                                                                    23120782.993 8 120395997.23508      1715.753 8        48.560                                                                    23120785.889 8  97831626.71108      1394.177 8        48.106
S27        12.000    39287664.708 5 206457916.38505      -460.056 5        35.224
G15        13.000    21221904.028 7 111521805.19907      1916.438 7        46.349                                    21221904.497 7  86900077.61607      1493.327 7        45.989    21221904.613 7  86900069.61607      1493.332 7        43.585
S36        14.000    38358819.909 7 201577390.46907      -428.347 7        44.053
G20        15.000    24395269.226 6 128197816.77906     -4037.136 6        39.279                                    24395275.342 3  99894335.90903     -3145.819 3        20.643
R11        16.000    19534525.353 8 104386567.06208     -1849.041 8        51.049                                                                    19534527.647 8  81189545.91508     -1438.091 8        49.330
S45        17.000    63540668.082 6 333908714.96806      -476.401 6        36.121
E13        18.000    28554475.908 5 150054708.78505     -2814.286 5        35.190                                                                    28554484.111 6 112053803.94706     -2101.847 6        38.378    28554482.395 6 114976950.57206     -2156.662 6        38.321
E24        19.000    26832106.992 6 141003558.27306     -2867.242 6        40.942                                                                    26832114.650 7 105294845.20107     -2141.125 7        44.083    26832113.256 7 108041667.44707     -2196.982 7        44.900
R18        20.000    24711284.239 6 131910514.67706     -3103.069 6        40.970                                                                    24711286.398 6 102597059.92506     -2413.624 6        36.673
G30        21.000    22129325.466 7 116290324.10407     -2711.494 7        45.694                                    22129329.867 7  90615821.90707     -2112.849 7        44.719    22129329.930 7  90615825.90607     -2112.919 7        42.449
I06        22.000    38224119.857 7 149999740.66707      -397.667 7        42.607
S28        23.000    41030325.326 5 215615582.54805      -436.992 5        34.700
G14        24.000    20666886.191 7 108605213.73707      -661.710 7        47.542                                    20666886.624 6  84627439.40206      -515.618 6        40.157    20666886.707 8  84627441.39808      -515.644 8        48.294
S23        25.000    38291351.724 7 201222322.36807      -428.079 7        44.176
E08        26.000    24742271.441 7 130021461.19207      1395.865 7        46.207                                                                    24742274.831 8  97093930.53208      1042.397 8        48.899    24742273.864 8  99626815.19108      1069.600 8        49.677
C07        27.000                                                                                                                                    39061736.506 6 203404683.55906         0.183 6        41.559    39061737.407 7 157285410.65107         0.319 7        44.299    39061734.004 6 165282961.25706         0.114 6        41.600
G13        28.000    20001743.172 8 105109829.77608       -88.376 8        48.212                                    20001741.784 6  81903732.13206       -68.864 6        40.634
I02        29.000    37642074.855 7 147715585.00107       164.809 7        42.880
C22        30.000                                                                                                                                    25288566.202 7 131684023.25707     -3868.460 7        42.897                                                                    25288569.857 7 107004000.04807     -3143.526 7        44.003
I01        31.000   349735973.819 4  69297914.13704     -3109.606 4        29.564
E03        32.000    23547212.468 8 123741392.97808     -1138.998 8        48.295                                                                    23547216.847 8  92404287.94808      -850.553 8        50.687    23547216.080 8  94814830.55608      -872.761 8        51.094
G05        33.000    22481654.167 7 118141819.96507     -3224.313 7        45.493                                    22481656.273 7  92058535.35407     -2512.444 7        43.649    22481656.429 7  92058538.34107     -2512.403 7        42.038
E26        34.000    28372209.031 6 149096928.90306      -956.401 6        37.085                                                                    28372211.788 6 111338607.66906      -714.122 6        40.288    28372210.906 6 114243087.93206      -732.777 6        41.063
C36        35.000                                                                                                                                    24981569.853 7 130085450.24507     -3308.959 7        43.124                                                                    24981582.362 7 105705075.23307     -2688.765 7        44.089
G23        36.000    24600224.025 6 129275010.78506      2396.769 6        39.724                                    24600224.072 3 100733749.02503      1867.624 3        23.448    24600223.918 6 100733750.01406      1867.594 6        39.141
I09        38.000    40222236.923 6 157840408.28406      -984.663 6        39.883
R08        39.000    22705687.957 7 121587752.07007     -4569.698 7        42.753                                                                    22705697.197 7  94568205.65507     -3554.131 7        42.849
E25        40.000    23764526.215 7 124883426.80107      -405.640 7        47.785                                                                    23764530.999 8  93257106.99808      -302.948 8        50.803    23764529.924 8  95689893.21608      -310.824 8        50.979
S44        42.000    41038450.823 6 215658427.90506      -428.492 6        37.304
C09        43.000                                                                                                                                    41128869.502 5 214168567.19605     -1046.974 5        35.933    41128883.426 6 165608642.26406      -809.545 6        40.493    41128876.907 5 174029428.61205      -850.774 5        35.067
C05        44.000                                                                                                                                    39512111.921 6 205749797.31706      -483.941 6        38.396    39512118.156 7 159098773.90407      -374.196 7        42.933    39512117.579 6 167188631.24806      -393.309 6        40.327
C40        45.000                                                                                                                                    39059321.893 7 203392128.53407        29.069 7        43.465                                                                    39059324.909 7 165272778.74907        23.548 7        43.016
C21        46.000                                                                                                                                    22488587.503 8 117103911.06808     -1885.102 8        51.989                                                                    22488585.143 8  95156478.81008     -1531.859 8        50.055
C10        49.000                                                                                                                                    39045408.391 6 203319691.49006       361.248 6        41.504    39045412.709 7 157219698.84007       279.277 7        44.989    39045408.580 6 165213907.43806       293.415 6        41.535
C42        50.000                                                                                                                                    23264707.607 8 121145380.31808      1239.654 8        48.115                                                                    23264718.416 8  98440569.64608      1007.299 8        49.024
S48        51.000    77304569.621 6 406238234.77006      -416.133 6        37.879
E02        53.000    25200811.152 7 132431221.15707      2178.971 7        45.285                                                                    25200817.407 7  98893515.82507      1627.178 7        47.933    25200816.062 8 101473328.83908      1669.622 8        48.199
C60        54.000                                                                                                                                    41038448.151 6 213697913.87506      -424.772 6        40.744                                                                    41038443.534 6 173646976.41806      -345.202 6        38.306
C45        55.000                                                                                                                                    21921257.256 8 114149700.68008     -1343.184 8        50.699                                                                    21921252.173 8  92755947.39908     -1091.428 8        50.101
R12        56.000    20788196.308 8 111046898.97208      2424.844 8        50.365                                                                    20788201.483 7  86369846.62207      1885.963 7        46.563
C02        57.000                                                                                                                                    41087829.947 5 213954893.37605      -472.925 5        33.299    41087839.787 6 165443420.80806      -365.808 6        36.915    41087839.000 5 173855824.86705      -384.261 5        32.497
I03        58.000   124631097.077 6 413293600.62906       913.909 6        40.391
C14        59.000                                                                                                                                    25178689.573 6 131111991.43706      2385.565 6        40.622    25178690.002 7 101384084.89407      1844.750 7        46.466    25178687.187 7 106539207.31507      1938.480 7        43.896
G07        60.000    24991124.813 6 131329014.84206     -3260.871 6        38.207                                    24991136.117 4 102334226.22804     -2540.934 4        28.806    24991136.183 5 102334227.22805     -2540.960 5        34.948
> 2025 01 01 08 45 15.0000000  0 55
G08         1.000    25155781.390 6 132194584.78806     -2677.279 6        36.295                                    25155786.878 4 103008824.81704     -2086.193 4        27.772    25155787.860 5 103008834.81805     -2086.271 5        35.514
R01         2.000    19351256.991 8 103443493.26808     -1443.792 8        48.768                                                                    19351260.360 7  80456104.15007     -1122.918 7        42.226
G24         3.000    24524440.412 6 128876784.21606      3046.325 6        38.438                                    24524446.539 5 100423491.78905      2373.758 5        30.491    24524447.115 5 100423488.79005      2373.892 5        34.538
R02         4.000    20802949.750 8 111008474.82308      2562.962 8        50.615                                                                    20802953.299 7  86339926.84407      1993.438 7        46.195
S21         5.000    38589468.343 7 202788768.54007      -427.573 7        42.449
E05         6.000    25231652.081 6 132593097.37506     -3007.936 6        40.696                                                                    25231664.786 7  99014304.67607     -2246.164 7        45.076    25231662.720 7 101597284.53307     -2304.718 7        45.178
G17         7.000    24147855.747 6 126897899.54306      2464.944 6        40.520                                    24147864.703 5  98881543.68105      1920.725 5        33.659    24147865.116 6  98881539.70506      1920.694 6        37.766
R10         8.000    23127994.335 6 123285086.96706     -4397.891 6        39.583
R19         9.000    23922274.399 5 127967989.33405      -775.018 5        33.617                                                                    23922278.821 6  99530721.25306      -602.669 6        39.087
G18        10.000    25826622.376 5 135719784.38105     -2375.125 5        35.424                                    25826621.334 2 105755653.97902     -1850.721 2        15.476    25826621.830 5 105755661.98705     -1850.713 5        34.824
C26        11.000                                                                                                                                    23119136.450 8 120387422.35908      1714.174 8        48.179                                                                    23119139.172 7  97824658.91507      1392.906 7        47.980
S27        12.000    39288103.732 5 206460216.37005      -459.947 5        35.152
G15        13.000    21220081.972 7 111512228.87007      1914.014 7        46.950                                    21220082.194 7  86892615.53707      1491.442 7        45.974    21220082.502 7  86892607.53007      1491.487 7        43.316
S36        14.000    38359223.952 7 201579531.83907      -428.310 7        43.812
G20        15.000    24399110.207 6 128218002.42506     -4037.326 6        39.982                                    24399116.690 3  99910064.92903     -3145.956 3        21.167
R11        16.000    19536257.297 8 104395819.76008     -1852.119 8        51.568                                                                    19536259.169 8  81196742.47408     -1440.540 8        48.861
S45        17.000    63541080.657 5 333911097.22705      -476.352 5        35.786
E13        18.000    28557154.151 5 150068784.34705     -2815.595 5        34.876                                                                    28557162.266 6 112064314.87706     -2102.607 6        38.153    28557160.883 6 114987735.68306     -2157.266 6        38.285
E24        19.000    26834835.661 6 141017897.06706     -2868.451 6        41.185                                                                    26834843.333 7 105305552.69207     -2141.916 7        44.191    26834841.916 7 108052654.26707     -2197.798 7        44.856
R18        20.000    24714192.323 6 131926036.66906     -3105.820 6        41.774                                                                    24714194.490 6 102609132.57006     -2415.435 6        37.240
G30        21.000    22131906.035 7 116303884.18107     -2712.571 7        45.642                                    22131910.342 7  90626388.17907     -2113.687 7        44.722    22131910.170 7  90626392.17207     -2113.676 7        42.260
I06        22.000    38224626.479 7 150001728.71107      -397.659 7        42.614
S28        23.000    41030740.109 5 215617766.48805      -436.780 5        34.519
G14        24.000    20667517.235 7 108608529.86207      -664.800 7        47.926                                    20667517.650 6  84630023.38806      -518.023 6        40.162    20667517.647 8  84630025.38308      -517.990 8        48.029
S23        25.000    38291758.986 7 201224462.62607      -428.301 7        43.918
E08        26.000    24740944.082 7 130014484.25607      1394.848 7        46.175                                                                    24740947.137 8  97088720.46808      1041.659 8        48.860    24740946.232 8  99621469.21208      1068.773 8        49.710
C07        27.000                                                                                                                                    39061736.672 6 203404684.20006        -0.541 6        41.390    39061737.725 7 157285411.16407        -0.403 7        44.182    39061734.245 6 165282961.77306        -0.381 6        41.416
G13        28.000    20001828.175 8 105110278.17208       -91.037 8        48.426                                    20001827.116 6  81904081.52206       -70.939 6        40.591
I02        29.000    37641864.766 7 147714761.56007       164.444 7        42.908
C22        30.000                                                                                                                                    25292281.092 7 131703367.29907     -3869.139 7        42.521                                                                    25292284.804 7 107019718.61807     -3144.091 7        43.839
I01        31.000   349739936.671 4  69313463.44504     -3109.901 4        29.820
E03        32.000    23548296.917 8 123747091.95108     -1140.669 8        48.553                                                                    23548301.353 8  92408543.66408      -851.799 8        50.696    23548300.565 8  94819197.28708      -874.005 8        51.147
G05        33.000    22484723.128 7 118157946.87507     -3226.521 7        45.499                                    22484725.139 7  92071101.74507     -2514.171 7        43.644    22484725.279 6  92071104.73506     -2514.148 6        41.952
E26        34.000    28373120.494 6 149101716.32106      -958.513 6        37.350                                                                    28373122.946 6 111342182.68506      -715.892 6        40.253    28373121.910 6 114246756.21006      -734.598 6        41.032
C36        35.000                                                                                                                                    24984747.640 7 130101996.21307     -3309.478 7        43.020                                                                    24984759.966 7 105718520.13807     -2689.255 7        44.208
G23        36.000    24597944.546 6 129263031.96406      2394.809 6        39.793                                    24597944.456 3 100724414.85603      1866.092 3        23.390    24597945.067 6 100724415.84206      1866.013 6        39.444
I09        38.000    40223491.823 6 157845331.43606      -984.664 6        39.805
R08        39.000    22709955.330 7 121610603.72507     -4571.044 7        43.310                                                                    22709964.230 7  94585979.12607     -3555.263 7        42.857
E25        40.000    23764913.168 8 124885460.69508      -407.974 8        48.123                                                                    23764918.051 8  93258625.80108      -304.675 8        50.817    23764916.922 8  95691451.64208      -312.595 8        50.944
S44        42.000    41038858.179 6 215660570.67606      -428.480 6        37.240
C09        43.000                                                                                                                                    41129874.872 5 214173801.41905     -1046.893 5        35.562    41129888.023 6 165612689.68506      -809.427 6        39.724    41129882.305 5 174033681.83005      -850.714 5        34.952
C05        44.000                                                                                                                                    39512575.758 6 205752216.39206      -483.832 6        38.504    39512582.481 7 159100644.47707      -374.055 7        42.808    39512582.082 6 167190596.92806      -393.266 6        40.131
C40        45.000                                                                                                                                    39059294.482 7 203391985.73107        28.075 7        43.407                                                                    39059297.422 7 165272662.69407        22.713 7        42.874
C21        46.000                                                                                                                                    22490398.767 8 117113342.77508     -1887.686 8        51.774                                                                    22490396.406 8  95164142.82108     -1533.840 8        49.838
C10        49.000                                                                                                                                    39045061.924 6 203317887.63006       360.352 6        41.261    39045066.145 7 157218303.97307       278.655 7        44.786    39045062.152 6 165212441.63906       292.734 6        41.323
C42        50.000                                                                                                                                    23263518.278 7 121139187.70607      1237.324 7        47.854                                                                    23263529.212 8  98435537.62708      1005.451 8        48.826
S48        51.000    77304970.404 6 406240315.64306      -416.055 6        37.554
E02        53.000    25198738.803 7 132420329.51407      2177.574 7        45.755                                                                    25198744.691 7  98885382.46407      1626.143 7        47.980    25198743.386 8 101464983.30708      1668.552 8        48.258
C60        54.000                                                                                                                                    41038855.825 6 213700037.15906      -424.602 6        40.520                                                                    41038851.149 6 173648701.75506      -345.037 6        38.195
C45        55.000                                                                                                                                    21922547.693 8 114156421.04208     -1345.053 8        50.550                                                                    21922542.778 8  92761408.22708     -1092.957 8        49.987
R12        56.000    20785927.898 8 111034780.97608      2422.241 8        50.570                                                                    20785932.630 7  86360421.49807      1884.002 7        46.395
C02        57.000                                                                                                                                    41088283.500 5 213957257.26805      -472.827 5        33.347    41088294.006 6 165445248.72606      -365.602 6        36.775    41088292.601 5 173857745.73605      -384.044 5        32.371
I03        58.000   124629932.091 6 413289030.14406       914.180 6        40.293
C14        59.000                                                                                                                                    25176399.975 6 131100066.56306      2384.167 6        40.207    25176399.999 7 101374863.80507      1843.680 7        46.206    25176397.189 7 106529517.34707      1937.490 7        43.837
G07        60.000    24994227.270 6 131345319.69406     -3261.119 6        39.351                                    24994238.891 4 102346931.26704     -2541.130 4        29.109    24994239.277 5 102346932.25205     -2541.256 5        35.405
> 2025 01 01 08 45 20.0000000  0 55
G08         1.000    25158329.326 5 132207977.79605     -2680.191 5        35.905                                    25158335.488 4 103019260.93004     -2088.458 4        27.557    25158336.050 5 103019270.93005     -2088.350 5        35.176
R01         2.000    19352609.495 8 103450722.66108     -1448.167 8        49.090                                                                    19352612.942 6  80461726.99106     -1126.259 6        41.785
G24         3.000    24521541.984 6 128861553.52406      3045.615 6        37.917                                    24521548.275 5 100411623.70505      2373.213 5        30.566    24521549.601 5 100411620.71605      2373.299 5        35.410
R02         4.000    20800549.342 8 110995666.31708      2560.189 8        50.257                                                                    20800552.902 7  86329964.67307      1991.281 7        46.023
S21         5.000    38589875.068 7 202790906.52807      -427.706 7        42.354
E05         6.000    25234514.110 6 132608138.93706     -3008.901 6        40.796                                                                    25234527.232 7  99025536.95107     -2246.878 7        44.838    25234524.983 7 101608809.83507     -2305.430 7        45.023
G17         7.000    24145510.802 6 126885576.98006      2463.834 6        40.498                                    24145519.717 5  98871941.73605      1919.856 5        33.994    24145519.928 6  98871937.76006      1919.854 6        38.012
R10         8.000    23132119.554 6 123307078.04206     -4398.599 6        39.823
R19         9.000    23923001.876 5 127971875.11605      -779.208 5        34.443                                                                    23923005.424 6  99533743.49906      -606.343 6        39.147
G18        10.000    25828883.402 5 135731665.24905     -2377.351 5        35.971                                    25828882.208 2 105764911.79702     -1852.458 2        15.429    25828882.217 5 105764919.80505     -1852.447 5        34.414
C26        11.000                                                                                                                                    23117491.377 8 120378855.79508      1712.345 8        48.419                                                                    23117494.044 7  97817697.88607      1391.465 7        47.907
S27        12.000    39288538.079 5 206462517.23805      -460.412 5        34.943
G15        13.000    21218262.746 7 111502665.11307      1911.310 7        46.907                                    21218262.262 7  86885163.25307      1489.335 7        46.036    21218262.423 7  86885155.23707      1489.377 7        43.164
S36        14.000    38359635.663 7 201581673.90707      -428.665 7        43.926
G20        15.000    24402951.059 6 128238189.52806     -4037.676 6        38.946                                    24402958.162 3  99925795.05903     -3146.233 3        21.500
R11        16.000    19537991.845 8 104405088.57408     -1855.559 8        51.356                                                                    19537993.742 8  81203951.52808     -1443.183 8        48.790
S45        17.000    63541484.958 5 333913480.12405      -476.952 5        35.729
E13        18.000    28559834.584 5 150082865.77205     -2816.868 5        34.757                                                                    28559841.994 6 112074830.20406     -2103.601 6        37.815    28559840.710 6 114998525.32806     -2158.223 6        38.216
E24        19.000    26837565.323 6 141032242.22706     -2869.851 6        41.087                                                                    26837573.195 7 105316264.94407     -2142.963 7        44.200    26837571.563 7 108063645.97707     -2198.890 7        44.755
R18        20.000    24717104.214 6 131941572.91506     -3108.876 6        40.727                                                                    24717105.596 5 102621216.32805     -2417.867 5        35.943
G30        21.000    22134487.615 7 116317450.53507     -2714.139 7        45.934                                    22134491.962 7  90636959.34407     -2114.909 7        44.755    22134491.939 7  90636963.34207     -2114.868 7        42.180
I06        22.000    38225133.097 7 150003717.31107      -397.921 7        42.781
S28        23.000    41031155.071 5 215619951.00505      -437.083 5        34.838
G14        24.000    20668151.181 7 108611861.83107      -668.148 7        47.714                                    20668151.713 6  84632619.72206      -520.634 6        40.174    20668151.899 8  84632621.72108      -520.632 8        48.237
S23        25.000    38292165.805 7 201226603.42807      -428.400 7        43.877
E08        26.000    24739617.786 7 130007512.96707      1393.573 7        46.387                                                                    24739620.569 8  97083514.63408      1040.609 8        48.661    24739619.662 8  99616127.57008      1067.801 8        49.725
C07        27.000                                                                                                                                    39061737.450 6 203404689.33806        -1.700 6        41.092    39061738.485 7 157285415.14307        -1.281 7        44.325    39061735.193 6 165282965.96306        -1.245 6        41.402
G13        28.000    20001916.543 8 105110740.16708       -93.916 8        48.399                                    20001915.046 6  81904441.51206       -73.181 6        40.660
I02        29.000    37641655.641 7 147713939.99007       164.323 7        42.866
