     3.04           OBSERVATION DATA    M                   RINEX VERSION / TYPE
ssrcrin-15.6.1x                         20250101 090000 UTC PGM / RUN BY / DATE 
(00000000023479385599111004) Septentrio proprietary         COMMENT             
rref                                                        MARKER NAME         
01                                                          MARKER NUMBER       
geodetic                                                    MARKER TYPE         
NFB                 CLIMERS@TUW                             OBSERVER / AGENCY   
3297213             SEPT ASTERX SB3 PROB4.14.4              REC # / TYPE / VERS 
Unknown             Unknown                                 ANT # / TYPE        
  4127832.5728  1207193.4686  4695248.0199                  APPROX POSITION XYZ 
        0.0000        0.0000        0.0000                  ANTENNA: DELTA H/E/N
G   23 X1  C1C L1C D1C S1C C1W S1W C2W L2W D2W S2W C2L L2L  SYS / # / OBS TYPES 
       D2L S2L C5Q L5Q D5Q S5Q C1L L1L D1L S1L              SYS / # / OBS TYPES 
E   21 X1  C1C L1C D1C S1C C6C L6C D6C S6C C5Q L5Q D5Q S5Q  SYS / # / OBS TYPES 
       C7Q L7Q D7Q S7Q C8Q L8Q D8Q S8Q                      SYS / # / OBS TYPES 
S    9 X1  C1C L1C D1C S1C C5I L5I D5I S5I                  SYS / # / OBS TYPES 
R   17 X1  C1C L1C D1C S1C C2P L2P D2P S2P C2C L2C D2C S2C  SYS / # / OBS TYPES 
       C3Q L3Q D3Q S3Q                                      SYS / # / OBS TYPES 
C   25 X1  C1P L1P D1P S1P C5P L5P D5P S5P C2I L2I D2I S2I  SYS / # / OBS TYPES 
       C7I L7I D7I S7I C6I L6I D6I S6I C7D L7D D7D S7D      SYS / # / OBS TYPES 
J   17 X1  C1C L1C D1C S1C C2L L2L D2L S2L C5Q L5Q D5Q S5Q  SYS / # / OBS TYPES 
       C1L L1L D1L S1L                                      SYS / # / OBS TYPES 
I    5 X1  C5A L5A D5A S5A                                  SYS / # / OBS TYPES 
SEPTENTRIO RECEIVERS OUTPUT ALIGNED CARRIER PHASES.         COMMENT             
NO FURTHER PHASE SHIFT APPLIED IN THE RINEX ENCODER.        COMMENT             
G L1C                                                       SYS / PHASE SHIFT   
G L2W                                                       SYS / PHASE SHIFT   
G L2L  0.00000                                              SYS / PHASE SHIFT   
G L5Q  0.00000                                              SYS / PHASE SHIFT   
G L1L  0.00000                                              SYS / PHASE SHIFT   
E L1C  0.00000                                              SYS / PHASE SHIFT   
E L6C  0.00000                                              SYS / PHASE SHIFT   
E L5Q  0.00000                                              SYS / PHASE SHIFT   
E L7Q  0.00000                                              SYS / PHASE SHIFT   
E L8Q  0.00000                                              SYS / PHASE SHIFT   
S L1C                                                       SYS / PHASE SHIFT   
S L5I                                                       SYS / PHASE SHIFT   
R L1C                                                       SYS / PHASE SHIFT   
R L2P  0.00000                                              SYS / PHASE SHIFT   
R L2C                                                       SYS / PHASE SHIFT   
R L3Q  0.00000                                              SYS / PHASE SHIFT   
C L1P  0.00000                                              SYS / PHASE SHIFT   
C L5P  0.00000                                              SYS / PHASE SHIFT   
C L2I                                                       SYS / PHASE SHIFT   
C L7I                                                       SYS / PHASE SHIFT   
C L6I                                                       SYS / PHASE SHIFT   
C L7D                                                       SYS / PHASE SHIFT   
J L1C                                                       SYS / PHASE SHIFT   
J L2L  0.00000                                              SYS / PHASE SHIFT   
J L5Q  0.00000                                              SYS / PHASE SHIFT   
J L1L  0.00000                                              SYS / PHASE SHIFT   
I L5A                                                       SYS / PHASE SHIFT   
  2025     1     1     9     0    0.0000000     GPS         TIME OF FIRST OBS   
 C1C    0.000 C2C    0.000 C2P    0.000                     GLONASS COD/PHS/BIS 
DBHZ                                                        SIGNAL STRENGTH UNIT
    18                                                      LEAP SECONDS        
 24 R01  1 R02 -4 R03  5 R04  6 R05  1 R06 -4 R07  5 R08  6 GLONASS SLOT / FRQ #
    R09 -2 R10 -7 R11  0 R12 -1 R13 -2 R14 -7 R15  0 R16 -1 GLONASS SLOT / FRQ #
    R17  4 R18 -3 R19  3 R20  2 R21  4 R22 -3 R23  3 R24  2 GLONASS SLOT / FRQ #
                                                            END OF HEADER       
> 2025 01 01 09 00  0.0000000  0 54
G08         1.000    25343369.503 4 133180370.59604     -3096.790 4        28.190                                    25343375.985 1 103776969.69901     -2413.135 1        11.037    25343377.348 4 103776979.77704     -2413.472 4        26.503
R01         2.000    19351215.332 8 103443263.13808     -2171.628 8        49.637                                                                    19351218.751 6  80455923.34706     -1688.959 6        41.869
G24         3.000    23720899.727 6 124654150.25006      2933.063 6        39.628                                    23720905.575 5  97133128.07705      2285.503 5        34.019    23720905.969 6  97133125.08406      2285.534 6        37.251
R02         4.000    20119109.729 8 107359370.25708      2052.571 8        51.922                                                                    20119113.034 7  83501733.64407      1596.414 7        46.613
S21         5.000    38362872.076 7 201598000.79107      -439.729 7        42.341
E05         6.000    25450795.338 6 133744670.04706     -3149.930 6        39.832                                                                    25450809.931 7  99874235.60907     -2352.398 7        42.933    25450808.585 7 102479649.56007     -2413.664 7        44.327
G17         7.000    23449684.646 7 123229002.47707      2253.398 7        42.618                                    23449692.839 6  96022667.19506      1755.893 6        37.716    23449693.059 6  96022663.20406      1755.891 6        39.733
R10         8.000    23563794.134 6 125608107.85506     -4449.562 6        37.803
R19         9.000    23813543.422 5 127386349.96005     -1527.728 5        33.096                                                                    23813549.166 6  99078333.97806     -1188.073 6        39.003
C26        11.000                                                                                                                                    22552981.807 8 117439311.45808      1419.990 8        48.804                                                                    22552984.371 8  95429078.20608      1153.804 8        48.571
S27        12.000    39067031.779 5 205298460.51705      -472.755 5        35.576
G15        13.000    20636917.865 8 108447677.42008      1442.131 8        48.005                                    20636917.803 7  84504652.95207      1123.740 7        47.611    20636918.274 7  84504644.94407      1123.722 7        44.310
S36        14.000    38132789.888 7 200389611.25207      -440.818 7        43.807
G20        15.000    24780821.859 6 130223869.65906     -4040.731 6        36.522                                    24780832.367 2 101473066.86202     -3148.621 2        16.679
R11        16.000    19587865.249 8 104671587.06608     -2376.590 8        51.225                                                                    19587868.221 8  81411225.66608     -1848.470 8        49.088
S45        17.000    63314857.475 6 332723281.37406      -489.368 6        36.008
E13        18.000    28746947.838 4 151066141.89504     -2985.611 4        27.533                                                                    28746958.062 4 112809089.77204     -2229.825 4        29.915    28746956.622 5 115751940.13705     -2288.331 5        31.185
E24        19.000    27035374.051 6 142071704.82206     -3063.796 6        40.486                                                                    27035383.759 7 106092478.58307     -2287.714 7        42.955    27035381.986 7 108860109.65807     -2347.504 7        43.418
E33        20.000    28772131.291 4 151198565.01404       676.673 4        29.280                                                                    28772136.427 6 112908037.66706       505.222 6        36.299    28772135.306 6 115853460.54506       518.207 6        36.476
G30        21.000    22306505.612 7 117221391.84307     -2915.059 7        44.665                                    22306510.623 7  91341324.83307     -2271.468 7        43.501    22306511.005 6  91341328.82806     -2271.429 6        41.626
I06        22.000    38016268.587 7 149184087.24907      -411.664 7        42.811
S28        23.000    40805742.420 5 214435405.27005      -449.697 5        34.852
G14        24.000    20525875.236 7 107864192.13907     -1207.061 7        47.301                                    20525876.138 6  84050018.60806      -940.561 6        39.874    20525876.300 8  84050020.60008      -940.592 8        48.236
S23        25.000    38065296.666 7 200034390.18407      -440.845 7        44.235
E08        26.000    24223618.836 7 127295919.16307      1184.764 7        46.864                                                                    24223622.151 8  95058622.32308       884.691 8        49.462    24223621.323 8  97538412.08208       907.838 8        50.216
C07        27.000                                                                                                                                    38775280.203 6 201913037.82706      -154.097 6        40.577    38775281.143 7 156131976.16607      -119.208 7        43.761    38775278.198 6 164070877.40106      -125.326 6        41.466
G13        28.000    19758174.974 8 103829866.13308      -577.287 8        48.351                                    19758174.080 6  80906356.75006      -449.834 6        40.899
I02        29.000    37311206.280 7 146417190.51107       110.564 7        42.455
C22        30.000                                                                                                                                    25660013.077 6 133618203.69106     -3975.274 6        41.659                                                                    25660018.719 7 108575671.52507     -3230.216 7        42.722
E07        31.000    28452227.495 5 149517442.75105      2362.273 5        34.319                                                                    28452233.130 6 111652647.61806      1764.172 6        38.198    28452231.851 6 114565321.73406      1810.175 6        38.820
E03        32.000    23466415.404 8 123316794.86508     -1446.229 8        48.616                                                                    23466420.175 8  92087216.02308     -1079.959 8        50.732    23466419.364 8  94489487.40408     -1108.155 8        50.986
G05        33.000    22759676.222 7 119602814.96707     -3582.273 7        44.864                                    22759678.938 6  93196968.37806     -2791.378 6        41.216    22759679.398 6  93196971.37806     -2791.381 6        41.230
E26        34.000    28270864.371 6 148564350.93606     -1381.213 6        37.244                                                                    28270868.393 6 110940899.97806     -1031.537 6        39.979    28270867.555 6 113835005.65706     -1058.391 6        40.298
C36        35.000                                                                                                                                    25254580.273 6 131507045.16306     -3386.004 6        41.459                                                                    25254594.819 7 106860228.87807     -2751.410 7        43.082
G23        36.000    23929150.623 6 125748475.16106      1977.200 6        39.541                                    23929152.356 4  97985793.70204      1540.672 4        24.932    23929152.612 6  97985794.71106      1540.693 6        40.739
I09        38.000    40146927.644 6 157544857.62506      -992.921 6        39.462
R08        39.000    23185881.518 6 124159129.15006     -4800.409 6        40.615                                                                    23185894.299 6  96568154.15306     -3733.749 6        41.294
E25        40.000    23568390.960 7 123852725.47007      -813.699 7        47.897                                                                    23568396.071 8  92487426.14108      -607.660 8        50.648    23568395.224 8  94900133.88208      -623.529 8        50.963
S44        42.000    40812003.161 6 214468452.03606      -435.801 6        36.767
C09        43.000                                                                                                                                    41008640.313 5 213542500.33405     -1053.249 5        34.829    41008654.337 6 165124527.15706      -814.514 6        40.124    41008648.400 6 173520697.58406      -855.778 6        36.389
C05        44.000                                                                                                                                    39296077.081 6 204624837.81006      -494.330 6        37.255    39296084.573 7 158228880.92107      -382.286 7        43.401    39296083.066 6 166274507.14006      -401.778 6        39.598
C40        45.000                                                                                                                                    38771110.814 7 201891329.45807      -162.366 7        43.098                                                                    38771114.598 7 164053254.51007      -131.991 7        43.354
C21        46.000                                                                                                                                    22550183.667 8 117424649.86908     -2336.862 8        50.932                                                                    22550181.751 8  95417103.61008     -1898.968 8        49.764
C10        49.000                                                                                                                                    38696231.757 6 201501444.01606       218.438 6        41.392    38696235.366 7 155813716.11607       168.859 7        44.488    38696231.596 6 163736433.68806       177.434 6        41.478
C42        50.000                                                                                                                                    22790138.506 8 118674171.98508       799.708 8        48.492                                                                    22790149.766 8  96432509.67508       649.837 8        49.471
S48        51.000    77077411.808 6 405042990.87706      -428.985 6        37.985
E02        53.000    24554141.301 7 129032956.19507      1913.706 7        46.644                                                                    24554146.742 8  96355852.99308      1428.983 8        48.872    24554145.492 8  98869465.80708      1466.276 8        48.872
C60        54.000                                                                                                                                    40812002.019 6 212518756.02506      -431.832 6        40.296                                                                    40811997.325 6 172688815.26206      -350.985 6        38.432
C45        55.000                                                                                                                                    21880129.805 8 113935532.62508     -1676.017 8        49.794                                                                    21880125.470 8  92581916.55808     -1361.936 8        50.049
R12        56.000    20124974.919 8 107504093.85508      1933.397 8        51.919                                                                    20124979.054 7  83614333.26307      1503.676 7        47.101
C02        57.000                                                                                                                                    40869666.481 5 212818854.08305      -480.545 5        32.491    40869678.029 6 164564961.07606      -371.569 6        37.267    40869676.445 5 172932698.20405      -390.610 5        32.084
I03        58.000   124124619.541 6 411306064.35106       909.989 6        39.958
C14        59.000                                                                                                                                    24494112.831 6 127547214.03006      2108.585 6        41.101    24494114.471 7  98627570.20507      1630.454 7        47.591    24494111.702 7 103642531.51307      1713.305 7        44.868
G07        60.000    25247940.869 6 132678577.07506     -3308.127 6        37.047                                    25247952.821 4 103385829.52104     -2577.761 4        26.144    25247952.989 5 103385830.51805     -2577.694 5        34.195
> 2025 01 01 09 00  5.0000000  0 54
G08         1.000    25346319.442 4 133195862.27304     -3099.094 4        27.713                                    25346323.920 1 103789041.20001     -2414.935 1        10.815    25346323.691 4 103789051.15804     -2414.868 4        26.216
R01         2.000    19353248.092 8 103454130.65708     -2175.162 8        49.594                                                                    19353251.738 6  80464375.84506     -1691.706 6        41.979
G24         3.000    23718108.701 6 124639486.43806      2932.667 6        38.643                                    23718115.207 5  97121701.73905      2285.191 5        33.820    23718115.493 6  97121698.72806      2285.403 6        36.930
R02         4.000    20117187.971 8 107349114.84408      2049.784 8        52.003                                                                    20117191.533 7  83493757.19707      1594.298 7        46.326
S21         5.000    38363291.062 7 201600199.52107      -439.512 7        42.428
E05         6.000    25453792.732 6 133760421.72306     -3150.462 6        40.110                                                                    25453807.492 7  99885998.15907     -2352.627 7        43.029    25453806.060 7 102491718.97707     -2414.039 7        44.242
G17         7.000    23447541.508 7 123217738.90007      2252.320 7        42.891                                    23447549.429 6  96013890.40306      1755.053 6        37.648    23447549.921 6  96013886.40006      1755.079 6        39.715
R10         8.000    23567967.645 6 125630356.23806     -4449.471 6        37.871
R19         9.000    23814973.993 5 127393997.86705     -1531.300 5        32.790                                                                    23814977.634 6  99084282.33406     -1191.055 6        38.405
C26        11.000                                                                                                                                    22551619.017 8 117432215.22208      1418.765 8        48.884                                                                    22551621.670 8  95423311.95208      1152.790 8        48.513
S27        12.000    39067480.869 5 205300824.07305      -472.482 5        35.862
G15        13.000    20635546.847 8 108440473.41608      1439.728 8        48.079                                    20635546.933 7  84499039.44007      1121.867 7        47.481    20635547.305 7  84499031.43707      1121.856 7        44.358
S36        14.000    38133211.705 7 200391815.07407      -440.286 7        43.871
G20        15.000    24784667.292 6 130244071.76406     -4040.013 6        36.779                                    24784676.818 2 101488808.70202     -3148.060 2        17.132
R11        16.000    19590090.213 8 104683476.24108     -2378.914 8        51.223                                                                    19590093.065 8  81420472.79008     -1850.246 8        49.225
S45        17.000    63315279.641 5 332724127.44115      -488.701 5        35.990
E13        18.000    28749789.601 4 151081075.39404     -2986.356 4        24.526                                                                    28749799.567 4 112820241.41204     -2230.277 4        27.641    28749798.230 4 115763382.71304     -2288.966 4        28.493
E24        19.000    27038289.571 6 142087024.96106     -3064.241 6        40.572                                                                    27038299.255 7 106103918.90207     -2288.179 7        42.995    27038297.327 7 108871848.41207     -2347.831 7        43.247
E33        20.000    28771489.096 4 151195188.85904       674.425 4        28.976                                                                    28771493.507 5 112905516.50805       503.474 5        35.924    28771493.011 5 115850873.61005       516.949 5        35.548
G30        21.000    22309279.282 7 117235969.01007     -2915.726 7        44.473                                    22309284.643 7  91352683.63007     -2271.987 7        43.416    22309284.974 6  91352687.61506     -2271.912 6        41.757
I06        22.000    38016793.173 7 149186145.67407      -411.516 7        42.700
S28        23.000    40806174.634 5 214437652.44405      -449.419 5        34.829
G14        24.000    20527025.257 7 107870234.20307     -1209.647 7        47.301                                    20527025.890 6  84054726.69806      -942.582 6        39.766    20527025.859 8  84054728.69408      -942.552 8        48.047
S23        25.000    38065715.863 7 200036593.96107      -440.556 7        44.363
E08        26.000    24222492.081 7 127289998.09307      1183.818 7        46.855                                                                    24222495.436 8  95054200.73008       884.034 8        49.490    24222494.581 8  97533875.14908       907.129 8        50.112
C07        27.000                                                                                                                                    38775428.837 6 201913810.10306      -154.697 6        40.448    38775429.832 7 156132573.31707      -119.497 7        43.674    38775426.533 6 164071504.93006      -125.741 6        41.266
G13        28.000    19758725.756 8 103832759.00708      -579.691 8        48.424                                    19758724.590 6  80908610.93606      -451.707 6        40.789
I02        29.000    37311065.665 7 146416638.36607       110.472 7        42.262
C22        30.000                                                                                                                                    25663830.116 6 133638080.88606     -3975.427 6        41.661                                                                    25663836.108 7 108591823.31607     -3230.320 7        42.701
E07        31.000    28449980.027 5 149505629.96705      2362.810 5        35.514                                                                    28449984.995 6 111643826.29306      1764.521 6        38.339    28449984.182 6 114556270.30906      1810.481 6        38.796
E03        32.000    23467792.073 8 123324029.78808     -1447.582 8        48.608                                                                    23467796.980 8  92092618.71408     -1080.920 8        50.748    23467796.186 8  94495031.03908     -1109.134 8        50.850
G05        33.000    22763085.257 7 119620730.06507     -3583.512 7        44.513                                    22763088.045 6  93210928.17106     -2792.337 6        41.080    22763088.468 6  93210931.15606     -2792.323 6        41.361
E26        34.000    28272180.332 6 148571262.59106     -1383.351 6        37.361                                                                    28272183.599 6 110946061.23306     -1032.790 6        40.095    28272182.846 6 113840301.56606     -1059.891 6        40.148
C36        35.000                                                                                                                                    25257831.918 6 131523975.33006     -3385.904 6        41.552                                                                    25257846.274 7 106873985.99107     -2751.297 7        43.228
G23        36.000    23927271.234 6 125738595.35906      1975.005 6        40.307                                    23927272.303 4  97978095.14004      1538.957 4        24.917    23927272.078 6  97978096.12706      1538.977 6        40.548
I09        38.000    40148192.689 6 157549822.11606      -992.680 6        39.375
R08        39.000    23190364.334 6 124183133.80006     -4801.084 6        40.620                                                                    23190376.913 6  96586824.34106     -3734.101 6        41.323
E25        40.000    23569166.140 7 123856799.26207      -815.541 7        47.895                                                                    23569171.342 8  92490468.24708      -609.022 8        50.669    23569170.460 8  94903255.34808      -624.905 8        50.855
S44        42.000    40812414.796 6 214470630.18406      -435.328 6        36.847
C09        43.000                                                                                                                                    41009651.761 5 213547766.56705     -1053.178 5        35.005    41009666.012 6 165128599.32006      -814.148 6        40.212    41009659.517 6 173524976.83306      -855.717 6        36.163
C05        44.000                                                                                                                                    39296551.158 6 204627309.30206      -494.010 6        37.195    39296559.253 7 158230792.03807      -382.000 7        43.412    39296557.666 6 166276515.45506      -401.473 6        39.414
C40        45.000                                                                                                                                    38771266.728 7 201892143.30507      -162.880 7        43.092                                                                    38771270.831 7 164053915.84207      -132.461 7        43.009
C21        46.000                                                                                                                                    22552428.468 8 117436339.95908     -2338.919 8        50.758                                                                    22552426.670 8  95426602.75808     -1900.608 8        49.637
C10        49.000                                                                                                                                    38696022.430 6 201500353.52106       218.021 6        41.480    38696025.792 7 155812872.86007       168.616 7        44.426    38696022.237 6 163735547.56806       177.162 6        41.278
C42        50.000                                                                                                                                    22789372.065 8 118670179.49108       797.474 8        48.527                                                                    22789383.055 8  96429265.44908       648.029 8        49.274
S48        51.000    77077823.564 6 405045135.98606      -428.761 6        38.036
E02        53.000    24552321.083 7 129023391.66607      1912.405 7        46.620                                                                    24552326.675 8  96348710.66208      1428.094 8        48.984    24552325.412 8  98862137.15208      1465.323 8        48.726
C60        54.000                                                                                                                                    40812416.377 6 212520914.36706      -431.213 6        40.343                                                                    40812411.657 6 172690569.10706      -350.717 6        38.357
C45        55.000                                                                                                                                    21881740.050 8 113943916.70108     -1677.403 8        49.888                                                                    21881735.576 8  92588729.30608     -1363.040 8        49.943
R12        56.000    20123166.458 8 107494433.52608      1930.957 8        51.698                                                                    20123170.793 7  83606819.68807      1501.809 7        47.341
C02        57.000                                                                                                                                    40870127.040 5 212821256.17105      -480.240 5        32.216    40870139.080 6 164566818.52506      -371.340 6        37.365    40870137.340 5 172934650.09105      -390.141 5        31.487
I03        58.000   124123459.565 6 411301513.83006       910.307 6        40.076
C14        59.000                                                                                                                                    24492088.830 6 127536674.92906      2107.121 6        41.211    24492090.718 7  98619420.69207      1629.468 7        47.653    24492087.772 7 103633967.62207      1712.237 7        44.763
G07        60.000    25251087.687 6 132695117.37606     -3307.806 6        36.881                                    25251100.441 4 103398718.05504     -2577.513 4        26.467    25251100.839 5 103398719.07205     -2577.544 5        34.514
> 2025 01 01 09 00 10.0000000  0 54
G08         1.000    25349268.630 4 133211364.47804     -3101.342 4        27.353                                    25349273.849 1 103801120.81301     -2416.671 1         9.238    25349275.746 4 103801130.85804     -2416.862 4        27.449
R01         2.000    19355284.937 8 103465017.92308     -2179.466 8        49.599                                                                    19355289.531 7  80472843.72007     -1695.133 7        42.436
G24         3.000    23715319.497 6 124624825.95506      2931.727 6        39.916                                    23715325.447 5  97110278.00605      2284.462 5        34.024    23715326.213 6  97110275.02206      2284.377 6        37.883
R02         4.000    20115268.669 8 107338875.19108      2046.401 8        51.189                                                                    20115272.759 7  83485793.02107      1591.689 7        47.038
S21         5.000    38363707.214 7 201602398.31707      -439.701 7        42.385
E05         6.000    25456790.855 6 133776176.85206     -3151.239 6        39.811                                                                    25456805.758 7  99897763.30907     -2353.250 7        43.185    25456804.089 7 102503791.04307     -2414.622 7        44.197
G17         7.000    23445399.313 7 123206482.25607      2250.743 7        43.107                                    23445407.352 6  96005119.00806      1753.818 6        37.656    23445406.755 6  96005115.02806      1753.618 6        39.273
R10         8.000    23572141.792 6 125652604.71206     -4449.791 6        38.279
R19         9.000    23816407.456 5 127401666.22905     -1535.712 5        33.485                                                                    23816411.747 6  99090246.61906     -1194.372 6        38.916
C26        11.000                                                                                                                                    22550257.764 8 117425127.21308      1416.742 8        48.896                                                                    22550260.466 8  95417552.35608      1151.184 8        48.411
S27        12.000    39067929.851 5 205303188.23605      -472.696 5        35.981
G15        13.000    20634178.652 7 108433283.37207      1436.677 7        47.938                                    20634178.711 7  84493436.80207      1119.488 7        47.604    20634179.425 7  84493428.80807      1119.463 7        44.331
S36        14.000    38133630.129 7 200394019.00507      -440.758 7        43.960
G20        15.000    24788510.563 6 130264272.54206     -4039.968 6        36.968                                    24788521.058 2 101504549.51202     -3148.014 2        17.434
R11        16.000    19592317.633 8 104695378.79008     -2381.833 8        51.254                                                                    19592320.239 8  81429730.32608     -1852.528 8        49.118
S45        17.000    63315699.772 5 332726573.43905      -489.229 5        35.948
E13        18.000    28752633.350 3                     -2987.849 3        22.857                                                                    28752642.417 4 112831395.74904     -2229.669 4        25.970    28752640.948 4 115774828.04304     -2289.321 4        26.635
E24        19.000    27041205.860 6 142102349.66706     -3065.572 6        40.255                                                                    27041215.439 7 106115362.61407     -2289.168 7        43.033    27041213.414 7 108883590.66907     -2348.821 7        43.281
E33        20.000    28770848.681 4 151191823.86304       672.310 4        28.512                                                                    28770853.217 5 112903003.68605       501.853 5        35.848    28770852.218 5 115848295.25505       514.795 5        35.886
G30        21.000    22312054.304 7 117250551.25207     -2916.953 7        44.290                                    22312059.580 7  91364046.38307     -2272.947 7        43.397    22312059.728 6  91364050.37006     -2272.982 6        41.805
I06        22.000    38017317.627 7 149188204.28407      -411.800 7        42.840
S28        23.000    40806600.551 5 214439899.72205      -449.933 5        35.086
G14        24.000    20528177.963 7 107876290.88307     -1212.837 7        47.450                                    20528178.464 6  84059446.17606      -945.064 6        39.898    20528178.712 8  84059448.17208      -945.033 8        48.208
S23        25.000    38066134.434 7 200038797.74107      -440.790 7        44.194
E08        26.000    24221366.510 7 127284083.14407      1182.321 7        46.677                                                                    24221369.811 8  95049783.71608       882.932 8        49.619    24221369.053 8  97529342.91008       906.014 8        50.204
C07        27.000                                                                                                                                    38775578.001 6 201914586.34006      -155.646 6        40.563    38775578.771 7 156133173.54007      -120.417 7        43.676    38775575.706 6 164072135.67906      -126.620 6        41.304
G13        28.000    19759278.703 8 103835665.62408      -582.757 8        48.606                                    19759277.685 6  80910875.82706      -454.097 6        40.839
I02        29.000    37310924.998 7 146416087.56707       109.947 7        42.459
C22        30.000                                                                                                                                    25667647.716 6 133657960.03106     -3976.085 6        41.733                                                                    25667653.668 7 108607976.68407     -3230.886 7        42.753
E07        31.000    28447732.599 5 149493816.73705      2362.654 5        35.781                                                                    28447736.919 6 111635004.70406      1764.297 6        38.477    28447736.253 6 114547218.58506      1810.298 6        38.949
E03        32.000    23469170.551 8 123331273.12508     -1449.557 8        48.377                                                                    23469175.333 8  92098027.69408     -1082.435 8        50.817    23469174.550 8  94500581.12008     -1110.651 8        50.986
G05        33.000    22766496.054 7 119638653.63007     -3585.499 7        44.975                                    22766498.788 6  93224894.54506     -2793.891 6        41.108    22766499.725 6  93224897.53906     -2793.942 6        41.218
E26        34.000    28273497.922 6 148578185.52106     -1385.584 6        36.779                                                                    28273501.099 6 110951230.96306     -1034.726 6        39.955    28273500.263 6 113845606.15406     -1061.797 6        40.396
C36        35.000                                                                                                                                    25261083.800 6 131540906.90706     -3386.532 6        41.249                                                                    25261097.949 7 106887744.22507     -2751.776 7        43.390
G23        36.000    23925393.074 6 125728728.01406      1972.255 6        40.067                                    23925394.673 4  97970406.27004      1536.835 4        24.902    23925394.657 6  97970407.28006      1536.570 6        40.431
I09        38.000    40149458.010 6 157554786.57506      -992.839 6        39.363
R08        39.000    23194849.178 6 124207143.34106     -4802.488 6        40.872                                                                    23194860.879 6  96605498.32606     -3735.168 6        41.590
E25        40.000    23569943.415 7 123860883.95507      -818.035 7        47.639                                                                    23569948.658 8  92493518.50308      -610.878 8        50.725    23569947.694 8  94906385.17508      -626.799 8        50.865
S44        42.000    40812831.158 6 214472808.24106      -435.615 6        37.028
C09        43.000                                                                                                                                    41010663.111 5 213553032.72905     -1053.285 5        35.129    41010677.511 6 165132671.48006      -814.511 6        40.353    41010670.901 6 173529256.03306      -856.056 6        36.423
C05        44.000                                                                                                                                    39297025.892 6 204629780.77206      -494.377 6        37.180    39297033.965 7 158232703.14807      -382.153 7        43.391    39297032.212 6 166278523.71106      -401.728 6        39.453
C40        45.000                                                                                                                                    38771423.841 7 201892962.20307      -164.229 7        43.278                                                                    38771428.091 7 164054581.26207      -133.455 7        43.137
C21        46.000                                                                                                                                    22554675.890 8 117448041.99108     -2341.615 8        50.643                                                                    22554673.937 8  95436111.60008     -1902.759 8        49.665
C10        49.000                                                                                                                                    38695813.402 6 201499266.71906       216.950 6        41.335    38695817.246 7 155812032.49007       167.753 7        44.307    38695813.496 6 163734664.46306       176.147 6        41.282
C42        50.000                                                                                                                                    22788608.103 8 118666199.69408       794.692 8        48.568                                                                    22788618.772 8  96426031.52608       645.706 8        49.340
S48        51.000    77078235.977 6 405048881.16516      -429.089 6        38.042
E02        53.000    24550502.535 7 129013834.76107      1910.620 7        46.608                                                                    24550507.995 8  96341574.02108      1426.755 8        48.970    24550506.757 8  98854814.33608      1464.003 8        48.915
C60        54.000                                                                                                                                    40812830.763 6 212523072.63306      -431.776 6        40.241                                                                    40812826.284 6 172692322.87006      -350.832 6        38.123
C45        55.000                                                                                                                                    21883351.683 8 113952309.34608     -1679.388 8        49.703                                                                    21883347.297 8  92595549.00308     -1364.667 8        50.016
R12        56.000    20121360.368 8 107484787.24508      1927.830 8        51.633                                                                    20121364.985 7  83599317.04107      1499.375 7        47.397
C02        57.000                                                                                                                                    40870588.936 5 212823658.18105      -480.488 5        32.371    40870600.636 6 164568675.90506      -371.673 6        37.146    40870599.223 5 172936601.93105      -390.550 5        31.645
I03        58.000   124122300.023 6 411296963.19906       910.108 6        40.072
C14        59.000                                                                                                                                    24490067.144 6 127526144.19006      2105.246 6        41.311    24490068.111 7  98611277.64007      1627.999 7        47.522    24490065.474 7 103625410.51207      1710.785 7        44.725
G07        60.000    25254235.678 6 132711658.54206     -3308.384 6        36.907                                    25254248.204 4 103411607.27304     -2577.958 4        26.096    25254248.291 5 103411608.29505     -2577.861 5        34.171
> 2025 01 01 09 00 15.0000000  0 54
G08         1.000    25352219.141 4 133226877.48704     -3103.698 4        28.076                                    25352225.867 1 103813208.87201     -2418.452 1         9.143    25352226.841 4 103813218.91304     -2418.762 4        25.955
R01         2.000    19357325.353 8 103475925.38108     -2183.312 8        49.791                                                                    19357328.936 6  80481327.27406     -1698.206 6        41.809
G24         3.000    23712530.568 6 124610169.04306      2931.135 6        39.880                                    23712536.281 5  97098857.04905      2283.997 5        33.838    23712536.870 6  97098854.03906      2284.107 6        37.021
R02         4.000    20113352.502 8 107328651.20608      2043.331 8        51.049                                                                    20113356.967 7  83477841.03107      1589.271 7        46.543
S21         5.000    38364128.097 7 201604597.59307      -439.695 7        42.542
E05         6.000    25459789.527 6 133791935.68406     -3151.997 6        39.886                                                                    25459804.647 7  99909531.21207     -2353.765 7        43.354    25459802.814 7 102515865.94307     -2415.235 7        44.084
G17         7.000    23443258.465 7 123195232.76707      2249.365 7        42.180                                    23443266.621 6  95996353.19406      1752.748 6        36.957    23443266.037 6  95996349.19006      1752.896 6        39.183
R10         8.000    23576315.956 6 125674853.56806     -4449.794 6        38.348
R19         9.000    23817844.728 5 127409355.27305     -1539.801 5        32.389                                                                    23817849.238 6  99096226.98706     -1197.504 6        39.201
C26        11.000                                                                                                                                    22548898.145 8 117418047.61308      1415.213 8        48.943                                                                    22548900.905 8  95411799.61008      1149.915 8        48.374
S27        12.000    39068377.992 6 205305552.18906      -472.750 6        36.193
G15        13.000    20632812.910 7 108426107.56707      1433.844 7        47.579                                    20632813.211 7  84487845.26107      1117.283 7        47.363    20632813.423 7  84487837.24807      1117.347 7        44.143
S36        14.000    38134050.068 7 200396222.90507      -440.546 7        44.135
G20        15.000    24792354.736 6 130284472.25306     -4039.864 6        36.885                                    24792364.968 2 101520289.49202     -3147.954 2        17.283
R11        16.000    19594547.118 8 104707294.94508     -2384.467 8        50.986                                                                    19594550.186 8  81438998.44208     -1854.585 8        49.046
S45        17.000    63316119.720 6 332729019.85906      -489.373 6        36.348
E13        18.000    28755475.683 3                     -2988.683 3        21.762                                                                    28755485.269 4 112842553.05304     -2231.564 4        24.226    28755484.115 4 115786276.32104     -2289.376 4        25.158
E24        19.000    27044122.836 6 142117679.11606     -3066.121 6        40.298                                                                    27044132.658 7 106126809.88207     -2289.623 7        43.149    27044130.581 7 108895336.58007     -2349.460 7        43.048
E33        20.000    28770210.526 4 151188470.27404       670.106 4        29.175                                                                    28770214.951 5 112900499.37105       500.390 5        34.748    28770214.219 5 115845725.59205       513.441 5        34.690
G30        21.000    22314830.558 7 117265138.78107     -2917.879 7        44.200                                    22314835.434 7  91375413.26107     -2273.665 7        42.929    22314835.790 6  91375417.24206     -2273.624 6        41.559
I06        22.000    38017842.488 7 149190263.24407      -411.754 7        42.677
S28        23.000    40807027.171 5 214442147.27105      -449.259 5        35.248
G14        24.000    20529333.227 7 107882362.38007     -1215.597 7        47.409                                    20529333.838 6  84064177.20006      -947.213 6        39.634    20529334.132 8  84064179.19408      -947.228 8        48.016
S23        25.000    38066555.719 7 200041001.81007      -440.719 7        44.349
E08        26.000    24220242.103 7 127278174.55207      1181.202 7        46.586                                                                    24220245.509 8  95045371.45008       882.119 8        49.617    24220244.674 8  97524815.54608       905.036 8        50.116
C07        27.000                                                                                                                                    38775727.706 6 201915366.82306      -156.362 6        40.801    38775728.732 7 156133777.03407      -120.846 7        43.738    38775725.634 6 164072769.85306      -127.065 6        41.201
G13        28.000    19759834.655 8 103838586.18908      -585.362 8        48.625                                    19759833.454 6  80913151.58906      -456.129 6        40.570
I02        29.000    37310785.510 7 146415538.09907       109.899 7        42.362
C22        30.000                                                                                                                                    25671465.898 6 133677841.32706     -3976.322 6        41.986                                                                    25671471.773 7 108624131.80707     -3231.077 7        42.754
E07        31.000    28445484.446 5 149482003.34305      2362.853 5        35.357                                                                    28445489.105 6 111626182.98306      1764.195 6        38.571    28445488.118 6 114538166.70206      1810.577 6        38.784
E03        32.000    23470550.715 8 123338525.08908     -1451.145 8        48.424                                                                    23470555.353 8  92103443.11108     -1083.618 8        50.840    23470554.580 8  94506137.81408     -1111.882 8        50.971
G05        33.000    22769908.681 7 119656585.83807     -3587.168 7        44.542                                    22769911.213 6  93238867.66306     -2795.192 6        40.896    22769911.767 6  93238870.64606     -2795.101 6        41.263
E26        34.000    28274817.605 6 148585119.99606     -1387.711 6        37.134                                                                    28274820.552 6 110956409.30406     -1036.336 6        39.838    28274819.827 6 113850919.58306     -1063.351 6        40.610
C36        35.000                                                                                                                                    25264335.544 6 131557840.06806     -3386.619 6        40.903                                                                    25264349.833 7 106901503.76907     -2751.973 7        43.395
G23        36.000    23923517.364 6 125718873.46906      1969.768 6        40.279                                    23923519.480 4  97962727.36004      1534.894 4        24.857    23923519.449 6  97962728.34706      1534.891 6        40.620
I09        38.000    40150722.709 6 157559751.18306      -992.714 6        39.174
R08        39.000    23199333.773 6 124231158.13306     -4803.305 6        40.877                                                                    23199345.533 6  96624176.39006     -3735.798 6        41.447
E25        40.000    23570722.982 7 123864979.78007      -820.154 7        47.647                                                                    23570728.089 8  92496577.05908      -612.431 8        50.740    23570727.100 8  94909523.52208      -628.403 8        50.934
S44        42.000    40813244.676 6 214474986.44006      -435.604 6        36.957
C09        43.000                                                                                                                                    41011674.103 5 213558299.09705     -1053.125 5        34.857    41011688.606 6 165136743.77306      -814.226 6        40.226    41011682.098 6 173533535.39306      -855.910 6        36.215
C05        44.000                                                                                                                                    39297500.702 6 204632252.47706      -494.271 6        37.191    39297508.731 7 158234614.43707      -382.203 7        43.517    39297506.902 6 166280532.19106      -401.631 6        39.495
C40        45.000                                                                                                                                    38771582.313 7 201893786.38407      -165.328 7        43.300                                                                    38771586.344 7 164055250.98407      -134.372 7        43.143
C21        46.000                                                                                                                                    22556925.502 8 117459756.17508     -2343.880 8        50.719                                                                    22556923.550 8  95445630.32608     -1904.672 8        49.587
C10        49.000                                                                                                                                    38695605.054 6 201498183.85206       216.209 6        41.340    38695609.250 7 155811195.13307       167.291 7        44.223    38695605.438 6 163733784.52006       175.788 6        41.313
C42        50.000                                                                                                                                    22787846.149 8 118662232.84408       792.232 8        48.502                                                                    22787857.018 8  96422808.12508       643.734 8        49.208
S48        51.000    77078645.886 6 405051026.80806      -428.975 6        38.255
E02        53.000    24548685.312 7 129004285.70007      1909.195 7        46.659                                                                    24548690.902 8  96334443.23508      1425.694 8        49.057    24548689.589 8  98847497.52908      1462.900 8        48.864
C60        54.000                                                                                                                                    40813245.363 6 212525231.02506      -431.458 6        40.184                                                                    40813240.718 6 172694076.78206      -350.786 6        38.060
C45        55.000                                                                                                                                    21884965.111 8 113960710.77108     -1681.075 8        49.692                                                                    21884960.690 8  92602375.83408     -1365.931 8        49.856
R12        56.000    20119556.941 8 107475155.17208      1925.139 8        51.676                                                                    20119561.584 7  83591825.42407      1497.419 7        46.954
C02        57.000                                                                                                                                    40871050.148 5 212826060.37205      -480.614 5        32.437    40871061.848 6 164570533.37906      -371.466 6        37.316    40871059.947 5 172938553.90105      -390.807 5        31.494
I03        58.000   124121140.621 6 411292412.60306       910.349 6        39.943
C14        59.000                                                                                                                                    24488045.977 6 127515622.00406      2103.743 6        41.380    24488047.436 7  98603141.22807      1626.713 7        47.683    24488044.801 7 103616860.38607      1709.461 7        44.724
G07        60.000    25257383.421 6 132728200.73706     -3308.439 6        36.665                                    25257395.963 4 103424497.29304     -2577.994 4        25.549    25257396.347 5 103424498.32305     -2578.128 5        33.515
> 2025 01 01 09 00 20.0000000  0 54
G08         1.000    25355173.381 4 133242401.23804     -3105.208 4        28.436                                    25355180.053 1 103825305.30201     -2419.671 1         9.429    25355182.442 4 103825315.35204     -2419.658 4        26.096
R01         2.000    19359369.748 8 103486852.85108     -2187.497 8        49.590                                                                    19359373.399 7  80489826.41007     -1701.339 7        42.150
G24         3.000    23709741.933 6 124595515.71706      2930.324 6        39.327                                    23709747.777 5  97087438.87605      2283.368 5        33.605    23709748.289 6  97087435.88006      2283.580 6        37.017
R02         4.000    20111439.987 8 107318443.14308      2040.052 8        51.736                                                                    20111443.403 7  83469901.43207      1586.664 7        46.852
S21         5.000    38364549.538 7 201606797.21407      -439.916 7        42.827
E05         6.000    25462789.073 6 133807698.23706     -3152.983 6        39.742                                                                    25462804.196 7  99921301.87507     -2354.368 7        43.357    25462802.293 7 102527943.67907     -2415.803 7        44.098
G17         7.000    23441118.171 6 123183990.48506      2247.747 6        41.097                                    23441127.182 6  95987592.99306      1751.485 6        36.189    23441127.271 6  95987589.00706      1751.482 6        39.231
R10         8.000    23580489.364 6 125697102.81806     -4449.854 6        38.057
R19         9.000    23819285.725 5 127417064.88905     -1543.390 5        31.026                                                                    23819289.718 6  99102223.38706     -1200.881 6        39.012
C26        11.000                                                                                                                                    22547540.187 8 117410976.45308      1413.419 8        49.035                                                                    22547542.938 8  95406053.68608      1148.610 8        48.417
S27        12.000    39068829.801 6 205307916.38006      -473.009 6        36.053
G15        13.000    20631450.134 8 108418945.95608      1430.911 8        48.049                                    20631450.417 7  84482264.77807      1114.993 7        47.099    20631450.725 7  84482256.77607      1114.900 7        44.081
S36        14.000    38134470.101 7 200398426.92607      -440.850 7        44.150
G20        15.000    24796198.471 6 130304670.80206     -4039.556 6        36.964                                    24796208.654 2 101536028.56702     -3147.695 2        16.604
R11        16.000    19596779.332 8 104719224.74208     -2387.294 8        51.034                                                                    19596783.003 8  81448277.16808     -1856.841 8        49.252
S45        17.000    63316540.437 6 332731466.57206      -489.234 6        36.473
E13        18.000    28758316.469 3                     -2989.833 3        19.343                                                                                                                                    28758328.042 3 115797727.68903     -2289.296 3        23.314
E24        19.000    27047040.683 6 142133013.39106     -3067.225 6        40.317                                                                    27047050.721 7 106138260.75407     -2290.578 7        43.052    27047048.505 7 108907086.16007     -2350.297 7        43.217
E33        20.000    28769574.827 4 151185128.19304       667.229 4        29.488                                                                    28769579.327 5 112898003.63405       498.354 5        35.033    28769578.254 5 115843164.75905       511.364 5        35.357
G30        21.000    22317607.650 7 117279731.60807     -2919.046 7        44.798                                    22317612.258 7  91386784.26307     -2274.576 7        42.609    22317612.433 6  91386788.25306     -2274.517 6        41.271
I06        22.000    38018366.961 7 149192322.54407      -411.899 7        42.724
S28        23.000    40807453.553 5 214444395.23405      -449.651 5        35.486
G14        24.000    20530491.477 7 107888448.72307     -1218.728 7        47.922                                    20530492.042 6  84068919.79406      -949.658 6        39.375    20530492.196 7  84068921.78507      -949.684 7        47.971
S23        25.000    38066976.387 7 200043206.04807      -440.892 7        44.542
E08        26.000    24219118.957 7 127272272.35107      1179.828 7        46.666                                                                    24219122.399 8  95040963.96008       881.025 8        49.592    24219121.460 8  97520293.07108       904.033 8        50.332
C07        27.000                                                                                                                                    38775877.938 6 201916151.57106      -157.468 6        40.906    38775879.524 7 156134383.80607      -121.611 7        43.799    38775876.393 6 164073407.46106      -127.743 6        41.323
G13        28.000    19760392.889 8 103841520.72708      -588.300 8        48.737                                    19760391.888 6  80915438.23706      -458.414 6        40.446
I02        29.000    37310645.685 7 146414990.25907       109.412 7        42.392
