     3.04           OBSERVATION DATA    M                   RINEX VERSION / TYPE
ssrcrin-15.6.1x                         20250101 040000 UTC PGM / RUN BY / DATE 
(00000000023479385599111004) Septentrio proprietary         COMMENT             
rref                                                        MARKER NAME         
01                                                          MARKER NUMBER       
geodetic                                                    MARKER TYPE         
NFB                 CLIMERS@TUW                             OBSERVER / AGENCY   
3297213             SEPT ASTERX SB3 PROB4.14.4              REC # / TYPE / VERS 
Unknown             Unknown                                 ANT # / TYPE        
  4127831.8747  1207193.2672  4695247.7058                  APPROX POSITION XYZ 
        0.0000        0.0000        0.0000                  ANTENNA: DELTA H/E/N
G   23 X1  C1C L1C D1C S1C C1W S1W C2W L2W D2W S2W C2L L2L  SYS / # / OBS TYPES 
       D2L S2L C5Q L5Q D5Q S5Q C1L L1L D1L S1L              SYS / # / OBS TYPES 
E   21 X1  C1C L1C D1C S1C C6C L6C D6C S6C C5Q L5Q D5Q S5Q  SYS / # / OBS TYPES 
       C7Q L7Q D7Q S7Q C8Q L8Q D8Q S8Q                      SYS / # / OBS TYPES 
S    9 X1  C1C L1C D1C S1C C5I L5I D5I S5I                  SYS / # / OBS TYPES 
R   17 X1  C1C L1C D1C S1C C2P L2P D2P S2P C2C L2C D2C S2C  SYS / # / OBS TYPES 
       C3Q L3Q D3Q S3Q                                      SYS / # / OBS TYPES 
C   25 X1  C1P L1P D1P S1P C5P L5P D5P S5P C2I L2I D2I S2I  SYS / # / OBS TYPES 
       C7I L7I D7I S7I C6I L6I D6I S6I C7D L7D D7D S7D      SYS / # / OBS TYPES 
J   17 X1  C1C L1C D1C S1C C2L L2L D2L S2L C5Q L5Q D5Q S5Q  SYS / # / OBS TYPES 
       C1L L1L D1L S1L                                      SYS / # / OBS TYPES 
I    5 X1  C5A L5A D5A S5A                                  SYS / # / OBS TYPES 
SEPTENTRIO RECEIVERS OUTPUT ALIGNED CARRIER PHASES.         COMMENT             
NO FURTHER PHASE SHIFT APPLIED IN THE RINEX ENCODER.        COMMENT             
G L1C                                                       SYS / PHASE SHIFT   
G L2W                                                       SYS / PHASE SHIFT   
G L2L  0.00000                                              SYS / PHASE SHIFT   
G L5Q  0.00000                                              SYS / PHASE SHIFT   
G L1L  0.00000                                              SYS / PHASE SHIFT   
E L1C  0.00000                                              SYS / PHASE SHIFT   
E L6C  0.00000                                              SYS / PHASE SHIFT   
E L5Q  0.00000                                              SYS / PHASE SHIFT   
E L7Q  0.00000                                              SYS / PHASE SHIFT   
E L8Q  0.00000                                              SYS / PHASE SHIFT   
S L1C                                                       SYS / PHASE SHIFT   
S L5I                                                       SYS / PHASE SHIFT   
R L1C                                                       SYS / PHASE SHIFT   
R L2P  0.00000                                              SYS / PHASE SHIFT   
R L2C                                                       SYS / PHASE SHIFT   
R L3Q  0.00000                                              SYS / PHASE SHIFT   
C L1P  0.00000                                              SYS / PHASE SHIFT   
C L5P  0.00000                                              SYS / PHASE SHIFT   
C L2I                                                       SYS / PHASE SHIFT   
C L7I                                                       SYS / PHASE SHIFT   
C L6I                                                       SYS / PHASE SHIFT   
C L7D                                                       SYS / PHASE SHIFT   
J L1C                                                       SYS / PHASE SHIFT   
J L2L  0.00000                                              SYS / PHASE SHIFT   
J L5Q  0.00000                                              SYS / PHASE SHIFT   
J L1L  0.00000                                              SYS / PHASE SHIFT   
I L5A                                                       SYS / PHASE SHIFT   
  2025     1     1     4     0    0.0000000     GPS         TIME OF FIRST OBS   
 C1C    0.000 C2C    0.000 C2P    0.000                     GLONASS COD/PHS/BIS 
DBHZ                                                        SIGNAL STRENGTH UNIT
    18                                                      LEAP SECONDS        
 24 R01  1 R02 -4 R03  5 R04  6 R05  1 R06 -4 R07  5 R08  6 GLONASS SLOT / FRQ #
    R09 -2 R10 -7 R11  0 R12 -1 R13 -2 R14 -7 R15  0 R16 -1 GLONASS SLOT / FRQ #
    R17  4 R18 -3 R19  3 R20  2 R21  4 R22 -3 R23  3 R24  2 GLONASS SLOT / FRQ #
                                                            END OF HEADER       
> 2025 01 01 04 00  0.0000000  0 57
G16         1.000    24105394.498 6 126674716.38806      1475.056 6        38.228                                    24105390.577 3  98707553.89203      1149.375 3        19.104
G31         2.000    25369759.340 6 133318970.30606     -4113.398 6        38.757                                    25369756.444 4 103884892.82704     -3205.241 4        29.336    25369757.319 5 103884891.83105     -3205.508 5        35.124
G09         3.000    20023961.025 8 105226672.02108      -412.596 8        51.121                                    20023958.095 8  81994820.89308      -321.504 8        53.291    20023958.652 7  81994821.89407      -321.501 7        45.547
E34         4.000    24125223.259 7 126778916.39807      -414.336 7        47.987                                                                    24125223.062 8  94672576.17008      -309.456 8        50.365    24125222.957 8  97142294.77008      -317.547 8        51.151
S21         5.000    38497382.386 7 202304930.19307      -377.002 7        43.336
E05         6.000    22273034.469 7 117045633.40207       656.924 7        47.958                                                                    22273034.450 8  87404237.02108       490.541 8        50.926    22273034.034 8  89684339.53708       503.370 8        51.533
E15         7.000    26928167.219 6 141508488.59806      2079.381 6        40.081                                                                    26928167.911 7 105671945.75307      1552.717 7        44.427    26928167.280 7 108428603.10807      1593.124 7        44.536
E04         8.000    28115513.598 6 147748036.18606     -2989.753 6        37.149                                                                    28115512.587 6 110331328.01806     -2232.732 6        41.051    28115512.319 6 113209528.83106     -2290.901 6        41.337
E31         9.000    27517927.983 6 144607688.01706      1798.671 6        38.291                                                                    27517929.711 6 107986281.76706      1343.208 6        41.855    27517928.897 7 110803313.48707      1378.195 7        42.518
G04        10.000    20845291.117 7 109542790.25607     -2139.036 7        47.099                                    20845287.961 6  85358027.91106     -1666.783 6        37.248    20845288.129 7  85358022.90807     -1666.755 7        46.351
E09        11.000    24321116.857 7 127808380.49907     -1874.498 7        46.996                                                                    24321115.949 8  95441340.37208     -1399.803 8        49.700    24321115.631 8  97931113.68608     -1436.307 8        50.890
S27        12.000    39126688.921 5 205612125.85105      -382.304 5        35.919
G06        13.000    21257304.383 8 111707919.67808      -793.841 8        48.755                                    21257303.113 8  87045137.34608      -618.579 8        50.158    21257303.816 7  87045148.34807      -618.640 7        46.140
S36        14.000    38265006.828 7 201084457.89007      -377.802 7        44.910
G20        15.000    24429413.127 6 128377437.57906      3042.955 6        38.691                                    24429408.739 3 100034347.47303      2371.124 3        20.810
E36        16.000    25273517.707 7 132813251.33907     -3062.831 7        44.968                                                                    25273518.700 7  99178741.04807     -2287.191 7        47.774    25273518.432 8 101766007.60608     -2346.884 8        48.567
S45        17.000    63453907.846 6 333452599.66806      -417.446 6        37.588
G03        18.000    22839196.162 7 120020828.48107     -3491.697 7        43.788                                    22839195.172 6  93522739.44106     -2720.806 6        40.515    22839194.806 6  93522748.45706     -2720.863 6        39.823
R21        19.000    23885783.303 7 127817661.98207     -4996.359 7        43.291                                                                    23885783.380 6  99413739.46206     -3885.968 6        39.351
R23        20.000    21232162.521 7 113577758.91707       837.841 7        47.307
G30        21.000    24982893.044 6 131285991.51506      3295.580 6        38.934                                    24982892.934 5 102300774.90405      2567.983 5        31.502    24982892.847 6 102300778.91506      2567.830 6        36.110
I06        22.000    38049026.185 7 149312779.54607      -238.512 7        43.088
S28        23.000    40927081.333 5 215073293.05305      -374.371 5        34.648
S23        25.000    38206887.138 7 200778535.20707      -373.256 7        44.742
E06        26.000    25750478.227 7 135319734.05907     -2634.608 7        43.285                                                                    25750477.742 7 101050449.59507     -1967.422 7        45.728    25750477.823 7 103686546.85907     -2018.775 7        47.150
R15        27.000    23392400.855 7 125001894.66007     -3343.299 7        44.003                                                                    23392400.893 6  97223706.10006     -2600.424 6        39.670
G26        28.000    24228885.141 6 127323669.09106      -844.859 6        38.438                                    24228884.806 5  99213252.65505      -658.337 5        31.019    24228884.503 6  99213253.65606      -658.475 6        36.284
R09        29.000    22173284.441 7 118404102.57907      3431.113 7        45.842                                                                    22173284.083 7  92092081.56807      2668.716 7        45.083
C22        30.000                                                                                                                                    23065661.430 8 120108980.54708      1642.334 8        49.022                                                                    23065655.124 8  97598372.31408      1334.569 8        48.504
I01        31.000   338006002.279 7  23267337.44307     -2740.585 7        42.715
E03        32.000    27484368.139 6 144431333.60106      2153.841 6        38.976                                                                    27484368.642 6 107854582.64306      1608.224 6        40.708    27484368.400 7 110668174.72907      1650.384 7        42.100
G19        33.000    25015231.482 6 131455938.19806     -3530.544 6        38.204                                    25015226.757 3 102433214.28603     -2751.070 3        18.866
C36        35.000                                                                                                                                    25231862.084 7 131388932.20407      2927.462 7        42.959                                                                    25231867.666 7 106764291.04807      2378.849 7        43.613
G11        36.000    22870985.981 7 120187873.29307      1745.724 7        45.070                                    22870982.068 5  93652888.42005      1360.304 5        31.985    22870982.368 7  93652888.43707      1360.306 7        42.669
C35        37.000                                                                                                                                    24965812.761 7 130003543.96107     -3179.271 7        45.023                                                                    24965811.916 7 105638525.40407     -2583.377 7        43.882
I09        38.000    37793742.819 7 148310753.64807      -633.843 7        42.889
R08        39.000    22600294.838 7 121023557.35407      2620.708 7        47.999                                                                    22600292.570 7  94129433.12307      2038.233 7        42.203
R22        40.000    20826182.127 8 111171603.34208     -2798.679 8        50.511                                                                    20826180.305 7  86466816.73107     -2176.841 7        46.515
S44        42.000    40805197.289 6 214432969.28906      -451.079 6        37.452
C09        43.000                                                                                                                                    38707546.335 7 201560378.97707      -849.989 7        42.296    38707542.942 7 155859262.48107      -657.202 7        46.608    38707541.083 6 163784300.04606      -690.482 6        41.990
C05        44.000                                                                                                                                    39226345.266 6 204261909.39006      -417.030 6        38.462    39226340.264 7 157948288.70807      -322.557 7        42.569    39226342.347 6 165979635.80306      -338.747 6        39.874
R06        45.000    20557850.537 6 109700685.83006     -2433.016 6        40.517
C44        46.000                                                                                                                                    24256409.868 7 126309527.10707     -1236.146 7        45.451                                                                    24256408.373 7 102636841.15107     -1004.521 7        43.369
C39        47.000                                                                                                                                    40366969.999 6 210201414.48906     -1542.383 6        40.539                                                                    40366965.832 6 170805856.55206     -1253.241 6        39.402
C20        48.000                                                                                                                                    24789213.011 7 129083969.60607     -2861.087 7        46.487                                                                    24789207.742 7 104891288.26907     -2324.864 7        45.129
C06        49.000                                                                                                                                    39013659.133 6 203154388.61106     -1270.475 6        39.550    39013653.297 7 157091844.18207      -982.481 7        42.967    39013653.306 6 165079561.65506     -1032.352 6        40.141
C16        50.000                                                                                                                                    39587144.744 6 206140673.92906     -1302.139 6        40.515    39587145.044 7 159401054.89907     -1006.878 7        42.347    39587142.450 6 167506182.35506     -1058.036 6        38.147
S48        51.000    77237915.477 6 405886840.46806      -365.513 6        37.853
C19        52.000                                                                                                                                    22065432.398 8 114900557.02208      -946.987 8        51.816                                                                    22065427.209 8  93366118.12408      -769.519 8        50.393
C12        53.000                                                                                                                                    24918984.716 6 129759697.63406       269.720 6        41.843    24918981.837 7 100338411.64907       208.507 7        46.851    24918980.508 7 105440361.05407       219.164 7        44.251
C60        54.000                                                                                                                                    40805202.591 6 212483598.06206      -447.086 6        40.083                                                                    40805187.424 6 172660297.28306      -363.319 6        40.069
R16        55.000    21149722.249 8 112978040.44108       178.159 8        49.586                                                                    21149722.306 7  87871830.27507       138.530 7        45.749
C37        56.000                                                                                                                                    25182677.717 7 131132832.55207     -1882.385 7        43.136                                                                    25182680.519 7 106556187.70907     -1529.622 7        44.155
C02        57.000                                                                                                                                    40752512.921 5 212209069.13305      -454.170 5        35.033    40752506.618 6 164093505.51706      -351.395 6        40.093    40752509.730 5 172437253.33805      -369.163 5        35.552
I03        58.000   129818037.774 6 433648612.85406       932.322 6        40.703
R07        59.000    19712748.650 8 105523914.69408       457.728 8        52.267                                                                    19712746.801 7  82074158.60107       355.989 7        47.818
G07        60.000    22324131.147 7 117314124.28107      2266.862 7        47.455                                    22324126.697 7  91413596.44807      1766.387 7        44.390    22324126.959 6  91413597.44906      1766.395 6        41.194
> 2025 01 01 04 00  5.0000000  0 57
G16         1.000    24103992.460 6 126667346.32906      1472.950 6        38.949                                    24103987.972 3  98701810.97803      1147.731 3        19.373
G31         2.000    25373673.494 6 133339539.34206     -4114.056 6        38.757                                    25373670.692 4 103900920.61804     -3205.754 4        29.062    25373670.355 5 103900919.60905     -3205.544 5        35.286
G09         3.000    20024354.467 8 105228739.93208      -414.457 8        51.179                                    20024351.606 8  81996432.25408      -322.953 8        53.164    20024352.169 7  81996433.26107      -323.037 7        45.536
E34         4.000    24125618.569 8 126780994.07908      -416.598 8        48.002                                                                    24125618.444 8  94674127.67608      -311.133 8        50.122    24125618.323 8  97143886.74708      -319.202 8        51.120
S21         5.000    38497742.821 7 202306815.35807      -376.852 7        43.242
E05         6.000    22272410.093 8 117042351.45408       655.874 8        48.005                                                                    22272409.910 8  87401786.20608       489.798 8        50.711    22272409.483 8  89681824.79208       502.569 8        51.559
E15         7.000    26926189.150 6 141498094.99606      2078.183 6        40.238                                                                    26926190.169 7 105664184.29207      1551.933 7        44.226    26926189.461 7 108420639.16707      1592.369 7        44.579
E04         8.000    28118358.331 6 147762984.30406     -2989.316 6        37.856                                                                    28118357.047 6 110342490.56606     -2232.329 6        40.889    28118356.822 6 113220982.57906     -2290.651 6        41.294
E31         9.000    27516216.792 6 144598697.08306      1797.645 6        38.538                                                                    27516218.630 6 107979567.75606      1342.447 6        41.559    27516218.070 7 110796424.33107      1377.483 7        42.607
G04        10.000    20847327.003 7 109553488.98007     -2140.395 7        47.016                                    20847323.810 6  85366364.57906     -1667.840 6        37.164    20847324.061 7  85366359.56907     -1667.780 7        46.147
E09        11.000    24322900.676 7 127817754.83707     -1875.184 7        47.209                                                                    24322899.845 8  95448340.68808     -1400.276 8        49.600    24322899.541 8  97938296.62208     -1436.801 8        50.917
S27        12.000    39127049.490 6 205614037.41706      -382.384 6        36.011
G06        13.000    21258061.293 8 111711897.18708      -797.055 8        48.282                                    21258060.011 8  87048236.70208      -621.081 8        50.049    21258060.496 7  87048247.70507      -621.031 7        45.541
S36        14.000    38265366.271 7 201086345.63707      -377.327 7        44.895
G20        15.000    24426517.874 6 128362223.02706      3042.917 6        39.517                                    24426513.547 3 100022491.97403      2371.108 3        20.762
E36        16.000    25276432.635 7 132828568.69107     -3063.952 7        45.523                                                                    25276433.500 7  99190179.32307     -2288.036 7        47.641    25276433.153 8 101777744.27208     -2347.716 8        48.580
S45        17.000    63454262.584 6 333454685.11006      -416.869 6        37.822
G03        18.000    22842518.825 7 120038289.71807     -3492.726 7        43.606                                    22842517.749 6  93536345.60306     -2721.605 6        40.215    22842517.809 6  93536354.60406     -2721.555 6        39.544
R21        19.000    23890452.097 7 127842643.48607     -4996.167 7        43.136                                                                    23890452.619 6  99433169.52206     -3885.830 6        39.003
R23        20.000    21231381.796 7 113573580.49507       833.580 7        47.077
G30        21.000    24979757.921 6 131269513.84206      3295.771 6        38.547                                    24979757.401 5 102287935.16705      2568.130 5        31.502    24979758.214 6 102287939.18706      2568.280 6        36.620
I06        22.000    38049330.119 7 149313971.56107      -238.256 7        43.208
S28        23.000    40927440.226 5 215075165.29105      -374.204 5        34.795
S23        25.000    38207241.487 7 200780400.99407      -373.023 7        44.910
E06        26.000    25752984.849 7 135332907.87107     -2634.710 7        43.192                                                                    25752984.650 7 101060287.17507     -1967.525 7        45.586    25752984.802 7 103696641.07807     -2018.925 7        47.130
R15        27.000    23395530.170 7 125018618.16307     -3346.041 7        43.378                                                                    23395530.621 6  97236713.23006     -2602.425 6        39.165
G26        28.000    24229691.161 6 127327901.26006      -847.924 6        39.057                                    24229690.069 5  99216550.45205      -660.723 5        30.823    24229689.683 5  99216551.46305      -660.735 5        35.562
R09        29.000    22170072.202 7 118386950.44407      3429.720 7        45.356                                                                    22170072.277 7  92078741.03207      2667.563 7        45.329
C22        30.000                                                                                                                                    23064085.112 8 120100770.70308      1641.669 8        49.096                                                                    23064078.559 8  97591701.13308      1333.845 8        48.223
I01        31.000   338009494.396 7  23281040.60307     -2740.506 7        42.635
E03        32.000    27482319.220 6 144420565.76606      2153.496 6        38.504                                                                    27482319.891 6 107846541.71506      1608.040 6        40.613    27482319.369 7 110659924.04607      1650.141 7        42.025
G19        33.000    25018590.795 6 131473591.67406     -3530.716 6        37.981                                    25018586.036 2 102446970.24002     -2751.203 2        17.849
C36        35.000                                                                                                                                    25229050.960 7 131374295.41807      2927.273 7        42.146                                                                    25229056.901 7 106752397.44807      2378.682 7        43.242
G11        36.000    22869326.175 7 120179150.90907      1743.269 7        44.348                                    22869322.278 5  93646091.75405      1358.391 5        31.834    22869322.482 6  93646091.75606      1358.419 6        41.983
C35        37.000                                                                                                                                    24968865.800 7 130019442.49507     -3180.122 7        44.784                                                                    24968865.210 7 105651444.25407     -2584.164 7        43.685
I09        38.000    37794550.342 7 148313922.57707      -633.798 7        42.899
R08        39.000    22597847.963 7 121010455.16607      2620.183 7        46.936                                                                    22597846.397 6  94119242.52306      2038.074 6        41.266
R22        40.000    20828804.628 8 111185605.69108     -2802.190 8        50.192                                                                    20828803.453 7  86477707.43107     -2179.387 7        47.277
S44        42.000    40805624.839 6 214435224.47406      -450.879 6        37.486
C09        43.000                                                                                                                                    38708362.894 7 201564629.23007      -850.162 7        42.421    38708359.007 7 155862549.05007      -657.378 7        46.681    38708357.290 6 163787753.72106      -690.903 6        41.800
C05        44.000                                                                                                                                    39226745.615 6 204263994.53006      -416.895 6        38.237    39226740.787 7 157949901.05907      -322.350 7        42.626    39226742.669 6 165981330.13706      -338.894 6        39.715
R06        45.000    20560131.268 6 109712853.78406     -2434.104 6        41.178
C44        46.000                                                                                                                                    24257598.392 7 126315714.19307     -1238.570 7        45.360                                                                    24257596.512 7 102641868.64707     -1006.577 7        43.173
C39        47.000                                                                                                                                    40368450.682 6 210209126.30606     -1542.243 6        40.296                                                                    40368446.810 6 170812123.02106     -1253.318 6        39.033
C20        48.000                                                                                                                                    24791960.458 7 129098276.38007     -2861.570 7        46.188                                                                    24791955.170 7 104902913.67007     -2325.305 7        45.073
C06        49.000                                                                                                                                    39014879.269 6 203160741.84206     -1270.657 6        39.036    39014873.310 7 157096756.90307      -982.686 7        43.067    39014873.372 6 165084724.17206     -1032.586 6        39.703
C16        50.000                                                                                                                                    39588394.736 6 206147184.73506     -1302.142 6        40.389    39588395.361 7 159406089.46107     -1006.928 7        42.315    39588392.856 6 167511472.90006     -1058.132 6        37.705
S48        51.000    77238265.408 6 405888667.79706      -365.269 6        37.875
C19        52.000                                                                                                                                    22066341.975 8 114905295.20908      -948.196 8        51.670                                                                    22066337.092 8  93369968.27408      -770.553 8        50.157
C12        53.000                                                                                                                                    24918726.679 6 129758355.95406       267.175 6        41.781    24918723.764 7 100337374.16407       206.550 7        46.748    24918722.932 7 105439270.82207       216.931 7        44.023
C60        54.000                                                                                                                                    40805632.068 6 212485832.74806      -446.746 6        39.943                                                                    40805616.687 6 172662113.12206      -363.090 6        40.057
R16        55.000    21149557.840 8 112977160.70208       173.781 8        49.586                                                                    21149557.998 7  87871146.02807       135.181 7        45.834
C37        56.000                                                                                                                                    25184486.446 7 131142250.55607     -1884.592 7        42.717                                                                    25184489.319 7 106563840.59407     -1531.519 7        43.867
C02        57.000                                                                                                                                    40752948.068 5 212211340.54105      -454.232 5        35.152    40752942.708 6 164095261.89406      -351.202 6        40.010    40752945.910 5 172439099.00605      -369.134 5        35.752
I03        58.000   129816849.885 6 433643951.19106       932.431 6        40.791
R07        59.000    19712321.353 8 105521630.37308       456.053 8        52.138                                                                    19712320.166 7  82072381.90807       354.705 7        47.796
G07        60.000    22321975.057 7 117302793.90507      2265.375 7        47.621                                    22321970.552 7  91404767.58707      1765.226 7        44.295    22321971.026 6  91404768.58906      1765.207 6        41.678
> 2025 01 01 04 00 10.0000000  0 57
G16         1.000    24102592.350 6 126659989.18806      1470.185 6        39.168                                    24102587.965 3  98696078.13503      1145.594 3        19.761
G31         2.000    25377588.541 6 133360112.45106     -4115.208 6        38.556                                    25377585.642 4 103916951.57904     -3206.653 4        28.976    25377585.729 5 103916950.57805     -3206.682 5        35.543
G09         3.000    20024750.027 8 105230818.80808      -416.994 8        50.991                                    20024747.197 8  81998052.15908      -324.933 8        53.123    20024747.651 7  81998053.15607      -324.906 7        45.789
E34         4.000    24126016.220 8 126783084.15408      -419.375 8        48.170                                                                    24126016.180 8  94675688.45108      -313.216 8        50.291    24126016.013 8  97145488.23908      -321.320 8        51.201
S21         5.000    38498100.385 7 202308700.78707      -377.428 7        43.522
E05         6.000    22271786.979 8 117039075.96008       654.291 8        48.238                                                                    22271786.604 8  87399340.22608       488.603 8        50.892    22271786.197 8  89679315.00508       501.394 8        51.612
E15         7.000    26924212.199 6 141487708.14806      2076.581 6        39.976                                                                    26924213.597 7 105656427.87607      1550.707 7        44.272    26924212.913 7 108412680.41207      1591.068 7        44.739
E04         8.000    28121202.966 6 147777931.98406     -2989.581 6        38.411                                                                    28121201.510 6 110353652.78706     -2232.530 6        41.056    28121201.223 6 113232435.98906     -2290.720 6        41.590
E31         9.000    27514507.276 6 144589712.59506      1796.251 6        38.580                                                                    27514508.771 6 107972858.59406      1341.142 6        41.383    27514508.431 7 110789540.13507      1376.412 7        42.919
G04        10.000    20849364.684 7 109564195.94707     -2142.385 7        46.814                                    20849361.264 6  85374707.67406     -1669.388 6        37.104    20849361.163 7  85374702.66907     -1669.297 7        46.094
E09        11.000    24324685.724 7 127827133.86607     -1876.354 7        47.316                                                                    24324684.607 8  95455344.51608     -1401.192 8        49.671    24324684.320 8  97945483.15608     -1437.759 8        51.024
S27        12.000    39127414.128 5 205615948.78805      -382.491 5        35.986
G06        13.000    21258821.453 8 111715891.64108      -800.704 8        48.468                                    21258820.129 8  87051349.26408      -623.927 8        50.008    21258820.651 7  87051360.26807      -624.002 7        45.610
S36        14.000    38265723.884 7 201088233.45407      -377.778 7        44.840
G20        15.000    24423623.784 6 128347009.69306      3042.522 6        39.547                                    24423618.704 3 100010637.44203      2370.806 3        20.714
E36        16.000    25279348.724 7 132843893.07807     -3065.670 7        45.610                                                                    25279349.536 7  99201622.86207     -2289.335 7        47.670    25279349.202 8 101789486.33908     -2349.084 8        48.684
S45        17.000    63454612.793 6 333456770.37006      -417.060 6        37.399
G03        18.000    22845842.429 7 120055756.79807     -3494.214 7        43.481                                    22845841.421 6  93549956.32106     -2722.768 6        39.919    22845841.828 6  93549965.33306     -2722.812 6        39.775
R21        19.000    23895119.844 7 127867625.00807     -4996.450 7        42.781                                                                    23895120.598 6  99452599.60006     -3886.122 6        38.769
R23        20.000    21230604.856 7 113569424.57807       828.800 7        47.315
G30        21.000    24976622.376 6 131253036.98306      3295.046 6        38.126                                    24976622.015 5 102275096.07005      2567.568 5        31.479    24976622.695 6 102275100.09406      2567.556 6        36.771
I06        22.000    38049633.701 7 149315163.70107      -238.540 7        42.955
S28        23.000    40927798.005 5 215077037.37205      -374.585 5        34.776
S23        25.000    38207595.894 7 200782266.80407      -373.323 7        44.802
E06        26.000    25755492.154 7 135346083.94107     -2635.510 7        43.464                                                                    25755491.916 7 101070126.44607     -1968.107 7        45.731    25755492.095 7 103706737.02307     -2019.423 7        47.216
R15        27.000    23398662.292 7 125035356.98107     -3349.402 7        43.890                                                                    23398663.888 6  97249732.31106     -2605.036 6        39.979
G26        28.000    24230499.925 6 127332149.29006      -851.452 6        39.117                                    24230498.427 5  99219860.61305      -663.473 5        30.770    24230497.997 5  99219861.62305      -663.274 5        35.609
R09        29.000    22166861.625 7 118369807.16507      3427.695 7        45.615                                                                    22166861.710 7  92065407.38307      2665.965 7        45.148
C22        30.000                                                                                                                                    23062509.382 8 120092565.28608      1640.549 8        49.051                                                                    23062502.821 8  97585033.56108      1333.162 8        48.427
I01        31.000   338012986.590 7  23294744.33107     -2740.879 7        42.650
E03        32.000    27480270.870 6 144409800.35906      2152.737 6        39.390                                                                    27480271.370 6 107838502.63206      1607.576 6        40.849    27480270.716 7 110651675.23907      1649.578 7        42.193
G19        33.000    25021950.646 6 131491246.36206     -3531.133 6        37.580                                    25021945.629 2 102460727.13602     -2751.545 2        17.924
C36        35.000                                                                                                                                    25226240.918 6 131359660.62106      2926.669 6        41.959                                                                    25226246.452 7 106740505.48707      2378.261 7        43.556
G11        36.000    22867668.650 7 120170441.81807      1740.396 7        44.736                                    22867665.023 5  93639305.45705      1356.150 5        31.857    22867665.338 7  93639305.46507      1356.161 7        42.210
C35        37.000                                                                                                                                    24971920.241 7 130035346.14407     -3181.363 7        45.305                                                                    24971919.233 7 105664367.27007     -2585.020 7        44.033
I09        38.000    37795358.079 7 148317092.02107      -634.086 7        42.768
R08        39.000    22595401.873 7 120997356.46907      2619.219 7        47.628                                                                    22595399.996 6  94109054.65306      2037.224 6        41.704
R22        40.000    20831431.477 8 111199626.69408     -2806.190 8        50.634                                                                    20831430.081 7  86488612.67307     -2182.583 7        47.219
S44        42.000    40806058.555 6 214437479.52706      -451.101 6        37.422
C09        43.000                                                                                                                                    38709179.173 7 201568881.78307      -850.862 7        42.180    38709175.905 7 155865837.40407      -657.950 7        46.654    38709174.050 6 163791209.27606      -691.263 6        41.936
C05        44.000                                                                                                                                    39227146.236 6 204266079.65206      -417.066 6        38.312    39227141.015 7 157951513.42207      -322.609 7        42.574    39227143.255 6 165983024.48806      -339.043 6        39.907
R06        45.000    20562412.601 6 109725029.19706     -2435.794 6        40.515
C44        46.000                                                                                                                                    24258788.955 7 126321914.31507     -1241.484 7        45.245                                                                    24258787.168 7 102646906.76107     -1008.845 7        43.462
C39        47.000                                                                                                                                    40369931.987 6 210216838.75506     -1542.639 6        40.543                                                                    40369927.832 6 170818390.01306     -1253.424 6        39.453
C20        48.000                                                                                                                                    24794708.292 7 129112586.19407     -2862.431 7        45.711                                                                    24794703.223 7 104914541.56307     -2325.907 7        45.172
C06        49.000                                                                                                                                    39016100.164 6 203167096.76806     -1271.153 6        39.246    39016093.849 7 157101670.93607      -983.052 7        43.041    39016093.810 6 165089888.07306     -1032.947 6        40.086
C16        50.000                                                                                                                                    39589645.366 6 206153696.92806     -1302.654 6        40.555    39589646.085 7 159411125.11607     -1007.282 7        42.345    39589643.497 6 167516764.61606     -1058.623 6        37.822
S48        51.000    77238614.816 6 405890495.51106      -365.709 6        37.679
C19        52.000                                                                                                                                    22067253.397 8 114910040.45908      -949.896 8        51.812                                                                    22067248.415 8  93373824.18008      -771.801 8        50.390
C12        53.000                                                                                                                                    24918471.888 6 129757028.34306       263.846 6        41.483    24918468.657 7 100336347.56107       204.117 7        46.680    24918467.897 7 105438192.00907       214.576 7        44.098
C60        54.000                                                                                                                                    40806061.160 6 212488067.29406      -446.976 6        39.877                                                                    40806045.578 6 172663928.88906      -363.257 6        40.098
R16        55.000    21149397.226 8 112976303.62408       169.001 8        49.608                                                                    21149397.020 7  87870479.41707       131.444 7        45.282
C37        56.000                                                                                                                                    25186297.425 7 131151680.88707     -1887.489 7        42.717                                                                    25186300.164 7 106571503.49907     -1533.598 7        44.134
C02        57.000                                                                                                                                    40753384.793 5 212213611.91805      -454.404 5        35.162    40753378.955 6 164097018.26806      -351.412 6        40.024    40753382.143 5 172440944.70805      -369.222 5        35.681
I03        58.000   129815662.018 6 433639289.54506       932.145 6        40.722
R07        59.000    19711896.473 8 105519355.64008       453.871 8        52.306                                                                    19711895.411 8  82070612.67808       352.980 8        48.288
G07        60.000    22319820.437 7 117291472.21707      2263.317 7        47.512                                    22319816.097 7  91395945.49707      1763.623 7        44.239    22319816.514 6  91395946.50706      1763.560 6        41.983
> 2025 01 01 04 00 15.0000000  0 57
G16         1.000    24101194.419 6 126652645.02106      1467.651 6        38.964                                    24101190.529 3  98690355.42303      1143.640 3        19.821
G31         2.000    25381504.206 6 133380689.63606     -4115.795 6        38.736                                    25381501.276 4 103932985.72104     -3207.110 4        28.701    25381500.753 5 103932984.71405     -3207.172 5        35.248
G09         3.000    20025147.768 8 105232908.65908      -418.950 8        51.212                                    20025144.886 8  81999680.61408      -326.455 8        53.077    20025145.559 7  81999681.61007      -326.424 7        46.056
E34         4.000    24126416.473 8 126785186.67008      -421.605 8        48.230                                                                    24126416.290 8  94677258.51608      -314.858 8        50.425    24126416.149 8  97147099.26508      -323.077 8        51.150
S21         5.000    38498457.789 7 202310586.34707      -377.052 7        43.496
E05         6.000    22271164.810 8 117035806.95708       653.232 8        48.179                                                                    22271164.502 8  87396899.09308       487.800 8        51.025    22271164.112 8  89676810.19008       500.514 8        51.559
E15         7.000    26922236.811 6 141477328.09506      2075.353 6        39.622                                                                    26922238.314 7 105648676.53307      1549.845 7        44.500    26922237.718 7 108404726.85807      1590.291 7        44.677
E04         8.000    28124047.247 6 147792879.26106     -2989.158 6        38.210                                                                    28124045.997 6 110364814.71106     -2232.313 6        40.970    28124045.643 6 113243889.08906     -2290.481 6        41.597
E31         9.000    27512799.370 6 144580734.64506      1795.004 6        38.835                                                                    27512800.271 6 107966154.27006      1340.498 6        41.387    27512800.101 7 110782660.93107      1375.432 7        42.878
G04        10.000    20851403.618 7 109574911.16607     -2143.774 7        46.949                                    20851400.297 6  85383057.19506     -1670.474 6        37.127    20851400.147 7  85383052.19007     -1670.479 7        46.145
E09        11.000    24326471.376 7 127836517.61607     -1877.176 7        47.211                                                                    24326470.227 8  95462351.86508     -1401.796 8        49.695    24326470.011 8  97952673.29908     -1438.315 8        50.917
S27        12.000    39127774.546 6 205617859.95506      -382.124 6        36.204
G06        13.000    21259584.887 8 111719903.10708      -803.891 8        48.542                                    21259583.489 8  87054475.08408      -626.406 8        49.951    21259584.449 7  87054486.07907      -626.428 7        45.893
S36        14.000    38266083.108 7 201090121.63407      -377.386 7        44.984
G20        15.000    24420728.378 6 128331797.65706      3042.244 6        39.655                                    24420723.869 3  99998783.91703      2370.578 3        20.476
E36        16.000    25282266.149 7 132859224.52407     -3067.002 7        45.660                                                                    25282266.973 7  99213071.66807     -2290.237 7        47.737    25282266.646 8 101801233.81208     -2350.018 8        48.576
S45        17.000    63454972.003 6 333458855.54606      -416.769 6        37.773
G03        18.000    22849167.242 7 120073229.74807     -3495.127 7        43.318                                    22849166.242 6  93563571.61006     -2723.477 6        39.619    22849167.125 6  93563580.61806     -2723.540 6        40.212
R21        19.000    23899788.697 7 127892606.71107     -4996.269 7        42.487                                                                    23899788.290 6  99472029.78806     -3885.885 6        38.583
R23        20.000    21229832.319 7 113565291.32007       824.456 7        47.329
G30        21.000    24973487.030 6 131236560.96006      3295.317 6        38.138                                    24973486.777 5 102262257.63205      2567.772 5        31.434    24973486.960 6 102262261.63006      2567.850 6        37.270
I06        22.000    38049937.570 7 149316355.98407      -238.372 7        43.143
S28        23.000    40928152.636 5 215078909.66505      -374.411 5        34.938
S23        25.000    38207950.847 7 200784132.44607      -373.086 7        44.844
E06        26.000    25758000.095 7 135359262.26707     -2635.807 7        43.685                                                                    25757999.704 7 101079967.41007     -1968.359 7        45.761    25757999.803 7 103716834.70907     -2019.655 7        47.105
R15        27.000    23401798.121 7 125052110.91107     -3352.221 7        45.118                                                                    23401798.680 6  97262763.13506     -2607.229 6        39.949
G26        28.000    24231310.932 6 127336413.20006      -854.292 6        38.910                                    24231309.620 5  99223183.14305      -665.682 5        30.528    24231309.591 6  99223184.15506      -665.940 6        36.151
R09        29.000    22163653.501 7 118352672.83407      3426.058 7        45.225                                                                    22163652.485 7  92052080.67607      2664.740 7        44.310
C22        30.000                                                                                                                                    23060934.362 8 120084364.35008      1639.836 8        48.914                                                                    23060927.867 8  97578369.63808      1332.515 8        48.374
I01        31.000   338016478.667 7  23308448.61807     -2740.832 7        42.701
E03        32.000    27478222.531 6 144399037.46806      2152.273 6        39.390                                                                    27478223.181 6 107830465.39606      1607.311 6        41.089    27478222.585 7 110643428.34807      1649.191 7        42.040
G19        33.000    25025309.787 6 131508902.33606     -3531.252 6        37.187                                    25025305.338 2 102474485.04602     -2751.651 2        17.962
C36        35.000                                                                                                                                    25223431.603 7 131345027.83107      2926.514 7        42.273                                                                    25223436.472 7 106728615.16707      2378.016 7        43.666
G11        36.000    22866014.461 7 120161746.06607      1737.879 7        44.778                                    22866010.281 5  93632529.54805      1354.195 5        31.819    22866010.489 7  93632529.53907      1354.217 7        42.427
C35        37.000                                                                                                                                    24974975.651 7 130051254.92607     -3182.189 7        44.897                                                                    24974974.457 7 105677294.46107     -2585.720 7        44.081
I09        38.000    37796165.791 7 148320262.00907      -634.012 7        42.764
R08        39.000    22592957.057 7 120984261.25707      2618.747 7        47.432                                                                    22592954.433 6  94098869.50106      2036.841 6        41.559
R22        40.000    20834061.455 8 111213666.39408     -2809.680 8        50.385                                                                    20834059.885 7  86499532.42007     -2185.325 7        47.164
S44        42.000    40806488.568 6 214439734.51006      -450.889 6        37.629
C09        43.000                                                                                                                                    38709996.429 7 201573136.69407      -851.208 7        42.256    38709993.173 7 155869127.57207      -658.138 7        46.637    38709991.113 6 163794666.73906      -691.601 6        41.762
C05        44.000                                                                                                                                    39227546.710 6 204268164.83606      -417.033 6        38.309    39227541.319 7 157953125.81807      -322.443 7        42.468    39227543.434 6 165984718.85306      -338.698 6        39.889
R06        45.000    20564695.315 6 109737212.02406     -2437.310 6        40.815
C44        46.000                                                                                                                                    24259982.113 7 126328127.50807     -1243.767 7        45.077                                                                    24259980.305 7 102651955.47907     -1010.598 7        43.304
C39        47.000                                                                                                                                    40371413.492 6 210224551.86506     -1542.624 6        40.477                                                                    40371409.107 6 170824657.55406     -1253.465 6        39.243
C20        48.000                                                                                                                                    24797457.111 7 129126899.06207     -2862.790 7        45.375                                                                    24797451.864 7 104926171.93107     -2326.224 7        45.142
C06        49.000                                                                                                                                    39017320.637 6 203173453.42606     -1271.419 6        39.468    39017314.566 7 157106586.30407      -983.099 7        43.016    39017314.412 6 165095053.38406     -1033.216 6        40.029
C16        50.000                                                                                                                                    39590896.698 6 206160210.54506     -1302.877 6        40.651    39590896.588 7 159416161.84607     -1007.323 7        42.453    39590894.352 6 167522057.44806     -1058.578 6        37.966
S48        51.000    77238966.536 6 405892322.82506      -365.275 6        37.705
C19        52.000                                                                                                                                    22068166.064 8 114914792.78908      -951.116 8        51.779                                                                    22068161.053 8  93377685.84408      -772.837 8        50.325
C12        53.000                                                                                                                                    24918219.890 6 129755714.77806       261.425 6        41.354    24918216.813 7 100335331.84807       202.092 7        46.727    24918215.651 7 105437124.63807       212.413 7        44.074
C60        54.000                                                                                                                                    40806489.716 6 212490301.77906      -446.781 6        39.847                                                                    40806474.858 6 172665744.59106      -363.043 6        40.055
R16        55.000    21149241.163 8 112975469.40108       164.647 8        49.770                                                                    21149240.943 7  87869830.57107       128.115 7        45.639
C37        56.000                                                                                                                                    25188110.880 7 131161123.52407     -1889.678 7        42.866                                                                    25188113.597 7 106579176.43107     -1535.465 7        44.089
C02        57.000                                                                                                                                    40753821.434 5 212215883.26805      -454.244 5        35.048    40753815.127 6 164098774.61906      -351.235 6        39.982    40753818.207 5 172442790.34305      -368.858 5        35.800
I03        58.000   129814474.241 6 433634627.93906       932.391 6        40.839
R07        59.000    19711473.650 8 105517090.31308       452.219 8        52.384                                                                    19711472.040 8  82068850.74808       351.691 8        48.221
G07        60.000    22317667.790 7 117280159.28607      2261.774 7        47.759                                    22317663.356 7  91387130.23307      1762.419 7        44.259    22317663.606 7  91387131.24007      1762.383 7        42.444
> 2025 01 01 04 00 20.0000000  0 57
G16         1.000    24099799.402 6 126645313.12306      1464.944 6        38.501                                    24099795.504 3  98684642.25403      1141.520 3        19.582
G31         2.000    25385420.587 6 133401270.18006     -4116.537 6        38.652                                    25385417.640 4 103949022.48104     -3207.682 4        28.474    25385417.501 5 103949021.48205     -3207.765 5        35.652
G09         3.000    20025547.409 8 105235008.77308      -421.211 8        51.163                                    20025544.532 8  82001317.06908      -328.218 8        53.141    20025544.893 7  82001318.07707      -328.234 7        45.916
E34         4.000    24126818.978 8 126787300.92508      -424.092 8        48.056                                                                    24126818.592 8  94678837.34008      -316.747 8        50.418    24126818.445 8  97148719.27708      -325.042 8        51.012
S21         5.000    38498819.123 7 202312471.10007      -377.046 7        43.367
E05         6.000    22270543.707 8 117032543.75208       651.926 8        48.136                                                                    22270543.564 8  87394462.27308       486.862 8        50.977    22270543.141 8  89674309.80408       499.544 8        51.362
E15         7.000    26920262.807 6 141466954.10206      2073.917 6        39.760                                                                    26920264.087 7 105640929.73107      1548.772 7        44.471    26920263.574 7 108396777.96507      1589.195 7        44.480
E04         8.000    28126891.143 6 147807825.44406     -2989.245 6        37.853                                                                    28126890.130 6 110375975.80306     -2232.170 6        40.880    28126889.702 6 113255341.34606     -2290.452 6        41.507
E31         9.000    27511091.732 6 144571762.48106      1793.843 6        38.712                                                                    27511092.783 6 107959454.29506      1339.448 6        41.185    27511092.706 7 110775786.17007      1374.369 7        42.734
G04        10.000    20853444.089 7 109585633.94407     -2145.500 7        47.042                                    20853440.770 6  85391412.60206     -1671.823 6        37.233    20853440.890 7  85391407.60007     -1671.782 7        46.206
E09        11.000    24328257.503 7 127845905.36507     -1878.075 7        47.162                                                                    24328256.674 8  95469362.19208     -1402.448 8        49.722    24328256.400 8  97959866.50708     -1439.059 8        50.733
S27        12.000    39128138.442 5 205619770.34605      -382.223 5        35.986
G06        13.000    21260351.435 8 111723930.84008      -807.278 8        48.842                                    21260349.947 8  87057613.57108      -629.051 8        50.001    21260350.709 7  87057624.56607      -629.062 7        45.865
S36        14.000    38266443.368 7 201092009.27607      -377.586 7        44.983
G20        15.000    24417833.877 6 128316586.19506      3042.167 6        39.547                                    24417829.258 3  99986930.83303      2370.516 3        20.690
E36        16.000    25285185.107 7 132874562.29407     -3068.273 7        45.788                                                                    25285185.689 7  99224525.19907     -2291.308 7        47.727    25285185.406 8 101812986.12708     -2351.088 8        48.384
