     3.04           OBSERVATION DATA    M                   RINEX VERSION / TYPE
ssrcrin-15.6.1x                         20250101 230000 UTC PGM / RUN BY / DATE 
(00000000023479385599111004) Septentrio proprietary         COMMENT             
rref                                                        MARKER NAME         
01                                                          MARKER NUMBER       
geodetic                                                    MARKER TYPE         
NFB                 CLIMERS@TUW                             OBSERVER / AGENCY   
3297213             SEPT ASTERX SB3 PROB4.14.4              REC # / TYPE / VERS 
Unknown             Unknown                                 ANT # / TYPE        
  4127831.9606  1207193.3488  4695247.3840                  APPROX POSITION XYZ 
        0.0000        0.0000        0.0000                  ANTENNA: DELTA H/E/N
G   23 X1  C1C L1C D1C S1C C1W S1W C2W L2W D2W S2W C2L L2L  SYS / # / OBS TYPES 
       D2L S2L C5Q L5Q D5Q S5Q C1L L1L D1L S1L              SYS / # / OBS TYPES 
E   21 X1  C1C L1C D1C S1C C6C L6C D6C S6C C5Q L5Q D5Q S5Q  SYS / # / OBS TYPES 
       C7Q L7Q D7Q S7Q C8Q L8Q D8Q S8Q                      SYS / # / OBS TYPES 
S    9 X1  C1C L1C D1C S1C C5I L5I D5I S5I                  SYS / # / OBS TYPES 
R   17 X1  C1C L1C D1C S1C C2P L2P D2P S2P C2C L2C D2C S2C  SYS / # / OBS TYPES 
       C3Q L3Q D3Q S3Q                                      SYS / # / OBS TYPES 
C   25 X1  C1P L1P D1P S1P C5P L5P D5P S5P C2I L2I D2I S2I  SYS / # / OBS TYPES 
       C7I L7I D7I S7I C6I L6I D6I S6I C7D L7D D7D S7D      SYS / # / OBS TYPES 
J   17 X1  C1C L1C D1C S1C C2L L2L D2L S2L C5Q L5Q D5Q S5Q  SYS / # / OBS TYPES 
       C1L L1L D1L S1L                                      SYS / # / OBS TYPES 
I    5 X1  C5A L5A D5A S5A                                  SYS / # / OBS TYPES 
SEPTENTRIO RECEIVERS OUTPUT ALIGNED CARRIER PHASES.         COMMENT             
NO FURTHER PHASE SHIFT APPLIED IN THE RINEX ENCODER.        COMMENT             
G L1C                                                       SYS / PHASE SHIFT   
G L2W                                                       SYS / PHASE SHIFT   
G L2L  0.00000                                              SYS / PHASE SHIFT   
G L5Q  0.00000                                              SYS / PHASE SHIFT   
G L1L  0.00000                                              SYS / PHASE SHIFT   
E L1C  0.00000                                              SYS / PHASE SHIFT   
E L6C  0.00000                                              SYS / PHASE SHIFT   
E L5Q  0.00000                                              SYS / PHASE SHIFT   
E L7Q  0.00000                                              SYS / PHASE SHIFT   
E L8Q  0.00000                                              SYS / PHASE SHIFT   
S L1C                                                       SYS / PHASE SHIFT   
S L5I                                                       SYS / PHASE SHIFT   
R L1C                                                       SYS / PHASE SHIFT   
R L2P  0.00000                                              SYS / PHASE SHIFT   
R L2C                                                       SYS / PHASE SHIFT   
R L3Q  0.00000                                              SYS / PHASE SHIFT   
C L1P  0.00000                                              SYS / PHASE SHIFT   
C L5P  0.00000                                              SYS / PHASE SHIFT   
C L2I                                                       SYS / PHASE SHIFT   
C L7I                                                       SYS / PHASE SHIFT   
C L6I                                                       SYS / PHASE SHIFT   
C L7D                                                       SYS / PHASE SHIFT   
J L1C                                                       SYS / PHASE SHIFT   
J L2L  0.00000                                              SYS / PHASE SHIFT   
J L5Q  0.00000                                              SYS / PHASE SHIFT   
J L1L  0.00000                                              SYS / PHASE SHIFT   
I L5A                                                       SYS / PHASE SHIFT   
  2025     1     1    23     0    0.0000000     GPS         TIME OF FIRST OBS   
 C1C    0.000 C2C    0.000 C2P    0.000                     GLONASS COD/PHS/BIS 
DBHZ                                                        SIGNAL STRENGTH UNIT
    18                                                      LEAP SECONDS        
 24 R01  1 R02 -4 R03  5 R04  6 R05  1 R06 -4 R07  5 R08  6 GLONASS SLOT / FRQ #
    R09 -2 R10 -7 R11  0 R12 -1 R13 -2 R14 -7 R15  0 R16 -1 GLONASS SLOT / FRQ #
    R17  4 R18 -3 R19  3 R20  2 R21  4 R22 -3 R23  3 R24  2 GLONASS SLOT / FRQ #
                                                            END OF HEADER       
> 2025 01 01 23 00  0.0000000  0 53
G10         1.000    23260957.296 7 122237258.36307     -3360.119 7        43.810                                    23260955.660 6  95249873.72206     -2618.273 6        40.744    23260955.304 6  95249850.73206     -2618.321 6        40.169
G14         2.000    24002011.948 6 126131472.91106      -782.980 6        40.791                                    24002008.204 4  98284266.49504      -610.124 4        24.752    24002008.509 6  98284262.50206      -610.155 6        39.685
C33         3.000                                                                                                                                    24260332.438 7 126329947.77807     -3052.130 7        46.990                                                                    24260343.556 7 102653490.48307     -2480.144 7        46.715
E31         4.000    26650266.597 7 140048144.38407     -2127.729 7        42.110                                                                    26650266.356 7 104581419.88107     -1588.830 7        43.331    26650266.142 7 107309627.24107     -1630.254 7        44.274
S21         5.000    38572426.068 7 202699197.00607      -489.172 7        42.578
E13         6.000    27230367.569 6 143096884.16606     -2841.516 6        40.696                                                                    27230368.095 7 106858267.69107     -2121.927 7        43.194    27230367.466 7 109645844.52107     -2177.186 7        43.943
G03         8.000    22939434.121 7 120547631.96807      2724.414 7        43.005                                    22939432.369 6  93933259.78406      2122.921 6        39.751    22939433.469 6  93933257.79506      2122.773 6        39.808
G02         9.000    21374772.765 8 112325242.43708       934.832 8        48.931                                    21374766.105 6  87526158.01506       728.438 6        40.586
R12        10.000    23539137.387 7 125741868.05007     -1494.675 7        44.403                                                                    23539137.604 6  97799262.12406     -1162.485 6        41.375
C30        11.000                                                                                                                                    23390049.648 7 121798140.99107      1838.751 7        47.864                                                                    23390049.946 7  98970969.39507      1494.176 7        47.420
S27        12.000    39245353.567 6 206235752.12306      -461.357 6        36.397
R20        13.000    19755179.046 6 105639870.04506     -1676.281 6        39.213                                                                    19755180.571 7  82164410.87407     -1303.696 7        47.279
S36        14.000    38340563.272 7 201481540.48507      -488.509 7        44.203
G27        15.000    24057593.123 6 126423781.03806     -4290.982 6        40.031                                    24057591.451 6  98512193.71706     -3343.621 6        37.603    24057592.373 6  98512107.71206     -3343.608 6        39.886
S45        17.000    63545417.067 6 333934212.83306      -531.504 6        38.063
E08        18.000    26913952.262 6 141433817.57606     -2440.553 6        40.565                                                                    26913950.611 7 105616165.10707     -1822.417 7        43.213    26913950.463 7 108371365.03207     -1869.952 7        44.033
E12        19.000    29129913.118 5 153078731.89505      2029.830 5        32.970                                                                    29129909.905 5 114312026.91805      1515.594 5        35.152    29129909.406 5 117294079.45505      1555.329 5        35.081
G17        20.000    25215270.985 6 132507148.09906      2784.044 6        40.136                                    25215267.313 5 103252308.48305      2169.386 5        31.479    25215268.875 5 103252307.48505      2169.302 5        35.690
E26        21.000    23746578.667 8 124789463.58608     -1248.314 8        48.433                                                                    23746576.613 8  93187134.54308      -932.181 8        50.886    23746576.142 8  95618078.78508      -956.523 8        51.375
I06        22.000    38516407.539 7 151146892.70407      -258.011 7        42.519
S28        23.000    41023103.709 5 215577884.12705      -481.216 5        34.243
G08        24.000    21644177.379 8 113740933.76108     -3130.820 8        48.246                                    21644175.478 7  88629299.15307     -2439.597 7        47.650    21644176.496 7  88629300.15707     -2439.626 7        44.125
S23        25.000    38294058.715 7 201236630.55907      -486.585 7        44.870
C13        26.000                                                                                                                                    40488109.118 6 210832402.67706     -1342.135 6        39.946    40488110.344 6 163029097.51106     -1037.787 6        38.988    40488108.682 6 171318683.43306     -1090.743 6        37.319
E24        27.000    27993696.142 6 147107894.06706       239.054 6        38.931                                                                    27993695.434 7 109853307.78707       178.600 7        42.186    27993694.763 7 112719043.07107       183.173 7        42.633
R21        29.000    20418696.594 8 109264572.55308      2066.814 8        51.430                                                                    20418695.297 7  84983559.65407      1607.600 7        46.056
C14        30.000                                                                                                                                    26478702.293 6 137881575.21306     -3721.373 6        37.664    26478699.225 7 106618773.72107     -2877.409 7        43.132    26478697.634 6 112040059.32606     -3023.777 6        39.727
R05        31.000    19511440.492 8 104299873.05608     -1256.055 8        52.309                                                                    19511439.152 7  81122133.78507      -977.020 7        47.433
R13        32.000    24218718.588 6 129326623.85706      1141.835 6        37.047
E29        33.000    26190884.967 7 137634103.74507      2471.630 7        42.631                                                                    26190883.138 7 102778726.50107      1845.630 7        45.904    26190883.118 7 105459905.43207      1893.751 7        46.613
C16        35.000                                                                                                                                    40593088.836 6 211378883.54106      1216.432 6        38.886    40593088.946 6 163451569.90406       940.521 6        40.353    40593086.989 6 171762655.06206       988.473 6        36.847
C32        36.000                                                                                                                                    24347931.203 7 126786116.92107      2530.753 7        46.422                                                                    24347931.111 7 103024125.53307      2056.388 7        46.900
G32        37.000    21984367.630 8 115528671.89308      -797.419 8        49.023                                    21984365.305 8  90022343.96108      -621.365 8        48.870    21984365.811 7  90022352.96307      -621.375 7        44.805
E07        38.000    24662824.642 7 129604035.56907       219.097 7        46.559                                                                    24662824.444 8  96782272.49408       163.616 8        49.185    24662824.196 8  99307019.78308       167.882 8        50.209
C41        39.000                                                                                                                                    22085734.919 8 115006249.13408      -283.809 8        51.384                                                                    22085739.435 8  93452027.69608      -230.588 8        49.976
C39        40.000                                                                                                                                    40080575.872 6 208710101.57306       947.040 6        41.476                                                                    40080571.911 6 169594048.38306       769.527 6        40.880
E33        41.000    24304877.820 7 127723082.57907       992.379 7        47.150                                                                    24304875.730 8  95377659.56508       741.059 8        49.995    24304875.438 8  97865768.35508       760.402 8        50.779
S44        42.000    40643281.482 6 213582096.48706      -536.397 6        37.864
R06        43.000    21549064.586 6 114989996.06606      3334.712 6        39.877
C05        44.000                                                                                                                                    39273973.680 6 204509926.21006      -454.368 6        38.465    39273968.316 7 158140072.74407      -351.169 7        43.518    39273970.382 6 166181171.26606      -369.217 6        40.248
C08        45.000                                                                                                                                    41292334.360 5 215020200.87605     -1441.820 5        35.095    41292327.894 6 166267332.35206     -1115.035 6        38.916    41292326.916 5 174721576.26305     -1171.699 5        35.348
R11        46.000    24603149.559 6 131471772.81406     -4020.043 6        38.835                                                                    24603146.649 5 102255823.44505     -3126.218 5        33.006
R19        47.000                                                                                                                                    24357995.408 3                     -3307.438 3        23.124
I05        49.000  -497111233.779 6-874986053.50206       268.617 6        36.363
C06        50.000                                                                                                                                    40355904.301 6 210143794.08206      1309.702 6        37.410    40355898.791 6 162496490.25506      1012.642 6        40.846    40355898.737 6 170759023.27006      1064.334 6        38.351
S48        51.000    77328683.857 6 406365735.43906      -505.832 6        38.144
G21        52.000    20735306.887 7 108964845.16707      -510.589 7        44.549                                    20735301.057 6  84907693.64206      -397.863 6        37.418
C60        54.000                                                                                                                                    40643284.736 6 211640460.58106      -531.560 6        40.062                                                                    40643269.207 6 171975181.50306      -431.754 6        40.980
C27        55.000                                                                                                                                    21548091.059 8 112206586.10808      -887.231 8        52.065                                                                    21548089.278 8  91177046.95108      -720.881 8        49.532
R04        56.000    22452009.619 7 120229505.13207     -4397.025 7        45.580                                                                    22452008.250 6  93511828.81506     -3419.963 6        41.478
C02        57.000                                                                                                                                    40655925.257 5 211706127.80505      -491.051 5        33.611    40655918.976 6 163704603.06506      -379.829 6        40.975    40655922.160 6 172028575.30706      -399.074 6        36.450
I03        58.000   106591002.981 6 342500759.83606       974.630 6        40.610
C28        60.000                                                                                                                                    23622008.982 7 123006311.18507     -3135.188 7        47.383                                                                    23622008.211 7  99952838.75807     -2547.508 7        46.128
> 2025 01 01 23 00  5.0000000  0 53
G10         1.000    23264154.910 7 122254061.80907     -3361.073 7        43.623                                    23264153.255 6  95262967.31206     -2619.014 6        40.684    23264153.339 6  95262944.31006     -2618.957 6        40.260
G14         2.000    24002758.790 6 126135396.28606      -786.075 6        40.091                                    24002754.768 4  98287323.67304      -612.518 4        24.571    24002755.115 6  98287319.68206      -612.640 6        39.811
C33         3.000                                                                                                                                    24263263.846 7 126345212.96507     -3053.773 7        46.799                                                                    24263275.140 7 102665894.68007     -2481.394 7        46.712
E31         4.000    26652292.102 6 140058788.46106     -2129.678 6        41.895                                                                    26652291.842 7 104589368.38207     -1590.290 7        43.333    26652291.661 7 107317783.09407     -1631.905 7        44.268
S21         5.000    38572890.478 7 202701644.15007      -489.435 7        42.518
E13         6.000    27233071.335 6 143111093.57206     -2841.999 6        40.717                                                                    27233072.125 7 106868878.62007     -2122.442 7        43.101    27233071.214 7 109656732.25907     -2177.797 7        43.556
G03         8.000    22936842.993 7 120534014.53907      2722.888 7        43.024                                    22936841.064 6  93922648.80606      2121.728 6        39.700    22936841.682 6  93922646.81906      2121.699 6        40.591
G02         9.000    21373884.449 8 112320572.82408       933.214 8        48.794                                    21373877.522 6  87522519.35706       727.179 6        40.458
R12        10.000    23540536.878 7 125749351.93507     -1498.806 7        43.515                                                                    23540538.082 6  97805082.93606     -1165.735 6        40.701
C30        11.000                                                                                                                                    23388285.067 7 121788951.34107      1837.201 7        47.897                                                                    23388285.180 7  98963502.04207      1492.951 7        47.524
S27        12.000    39245792.256 6 206238059.76106      -461.529 6        36.526
R20        13.000    19756748.406 6 105648259.09406     -1679.314 6        39.724                                                                    19756748.901 7  82170935.67907     -1306.129 7        47.272
S36        14.000    38341028.884 7 201483983.74907      -488.631 7        44.098
G27        15.000    24061676.327 6 126445237.95706     -4291.648 6        39.477                                    24061674.651 6  98528913.39006     -3344.136 6        37.036    24061675.486 6  98528827.37306     -3344.125 6        39.892
S45        17.000    63545876.664 6 333936870.37406      -531.340 6        38.090
E08        18.000    26916274.986 6 141446025.37906     -2442.373 6        40.560                                                                    26916273.721 7 105625281.33107     -1823.933 7        43.236    26916273.394 7 108380719.07407     -1871.522 7        43.917
E12        19.000    29127982.347 5 153068583.20705      2029.645 5        30.317                                                                    29127979.067 5 114304448.35305      1515.684 5        35.386    29127978.479 5 117286303.18805      1555.563 5        35.000
G17        20.000    25212621.774 6 132493230.11706      2783.210 6        39.682                                    25212618.767 5 103241463.30605      2168.735 5        31.268    25212619.781 6 103241462.29406      2168.897 6        36.072
E26        21.000    23747767.109 8 124795708.85408     -1249.696 8        48.464                                                                    23747765.054 8  93191798.21108      -933.121 8        50.843    23747764.571 8  95622864.11708      -957.540 8        51.314
I06        22.000    38516736.543 7 151148182.79207      -258.062 7        42.825
S28        23.000    41023563.575 5 215580291.06705      -481.423 5        34.286
G08        24.000    21647157.952 8 113756593.99108     -3133.126 8        48.216                                    21647155.533 7  88641501.92607     -2441.395 7        47.594    21647156.591 7  88641502.93207     -2441.512 7        44.408
S23        25.000    38294522.011 7 201239063.80507      -486.669 7        45.001
C13        26.000                                                                                                                                    40489397.890 6 210839113.39806     -1342.065 6        39.727    40489399.079 6 163034286.67106     -1037.729 6        39.009    40489397.427 6 171324136.43506     -1090.542 6        37.826
E24        27.000    27993470.169 6 147106704.88806       236.762 6        39.724                                                                    27993469.137 7 109852419.76907       176.761 7        42.267    27993468.586 7 112718131.89307       181.405 7        42.747
R21        29.000    20416766.798 8 109254243.85808      2064.749 8        51.526                                                                    20416764.910 7  84975526.22307      1605.936 7        45.890
C14        30.000                                                                                                                                    26482275.508 6 137900182.84306     -3721.603 6        37.618    26482273.127 7 106633162.32107     -2877.857 7        43.115    26482270.936 6 112055179.53706     -3024.142 6        39.574
R05        31.000    19512617.652 8 104306164.82408     -1260.493 8        52.029                                                                    19512616.372 7  81127027.37107      -980.403 7        47.212
R13        32.000    24217651.700 6 129320925.48306      1137.954 6        37.894
E29        33.000    26188534.001 7 137621749.15707      2470.513 7        42.844                                                                    26188532.102 7 102769500.67007      1844.869 7        45.770    26188532.274 7 105450438.93107      1892.955 7        46.631
C16        35.000                                                                                                                                    40591921.732 6 211372804.13506      1215.514 6        39.000    40591921.279 6 163446868.92306       939.965 6        40.224    40591919.443 6 171757715.03206       987.950 6        36.790
C32        36.000                                                                                                                                    24345502.482 7 126773467.62507      2529.237 7        46.769                                                                    24345501.892 7 103013846.93707      2055.209 7        46.891
G32        37.000    21985128.115 8 115532667.67008      -800.714 8        48.843                                    21985125.668 8  90025457.55308      -623.932 8        48.796    21985126.155 7  90025466.54807      -623.926 7        45.020
E07        38.000    24662617.165 7 129602946.83607       216.589 7        46.506                                                                    24662617.253 8  96781459.47808       161.768 8        49.248    24662617.014 8  99306185.55808       165.964 8        50.146
C41        39.000                                                                                                                                    22086008.826 8 115007675.65908      -286.608 8        51.401                                                                    22086013.343 8  93453186.85608      -232.852 8        50.100
C39        40.000                                                                                                                                    40079666.553 6 208705368.63206       946.129 6        41.280                                                                    40079662.871 6 169590202.46906       768.844 6        41.054
E33        41.000    24303934.189 7 127718123.22607       991.521 7        47.438                                                                    24303931.960 8  95373956.15108       740.373 8        49.977    24303931.724 8  97861968.33208       759.736 8        50.656
S44        42.000    40643790.160 6 213584779.32906      -536.541 6        37.611
R06        43.000    21545940.928 6 114973329.27106      3332.247 6        40.234
C05        44.000                                                                                                                                    39274409.936 6 204512197.88906      -454.429 6        38.132    39274404.760 7 158141829.34707      -351.387 7        43.405    39274406.553 6 166183017.16906      -369.103 6        40.453
C08        45.000                                                                                                                                    41293718.341 5 215027410.50705     -1441.757 5        35.095    41293712.754 6 166272907.29306     -1114.638 6        39.111    41293711.557 5 174727434.68905     -1171.625 5        35.348
R11        46.000    24606911.751 6 131491875.53606     -4021.037 6        40.262                                                                    24606909.407 5 102271458.90205     -3127.479 5        34.519
R19        47.000                                                                                                                                    24361969.464 4                     -3304.510 4        24.406
I05        49.000  -497111575.514 6-874987395.36606       268.211 6        36.374
C06        50.000                                                                                                                                    40354646.881 6 210137247.95106      1308.860 6        37.115    40354641.885 6 162491428.36806      1012.148 6        40.908    40354641.609 6 170753703.98406      1063.695 6        38.384
S48        51.000    77329153.994 6 406368265.11606      -505.931 6        38.562
G21        52.000    20735793.522 7 108967403.66007      -512.531 7        44.411                                    20735787.910 6  84909687.27306      -399.376 6        37.399
C60        54.000                                                                                                                                    40643795.162 6 211643119.04406      -531.622 6        40.012                                                                    40643779.800 6 171977341.72106      -432.084 6        40.977
C27        55.000                                                                                                                                    21548944.417 8 112211028.87508      -889.688 8        52.007                                                                    21548942.483 8  91180657.05308      -722.802 8        49.689
R04        56.000    22456115.076 7 120251495.05507     -4398.826 7        45.052                                                                    22456114.445 6  93528932.09506     -3421.340 6        41.833
C02        57.000                                                                                                                                    40656396.722 5 211708584.85905      -491.709 5        33.719    40656390.464 6 163706502.99406      -379.994 6        40.899    40656394.019 6 172030571.82806      -399.373 6        36.571
I03        58.000   106589761.164 6 342495887.23906       974.493 6        40.815
C28        60.000                                                                                                                                    23625020.023 7 123021991.16707     -3136.684 7        47.604                                                                    23625019.426 7  99965580.02407     -2548.722 7        46.237
> 2025 01 01 23 00 10.0000000  0 53
G10         1.000    23267353.550 7 122270868.51507     -3361.550 7        44.214                                    23267351.534 6  95276063.44506     -2619.391 6        40.861    23267351.627 6  95276040.45106     -2619.352 6        40.796
G14         2.000    24003508.055 6 126139334.26206      -789.011 6        40.014                                    24003504.279 4  98290392.23304      -614.839 4        24.767    24003504.467 6  98290388.25406      -614.925 6        39.354
C33         3.000                                                                                                                                    24266196.922 7 126360484.80407     -3054.997 7        46.595                                                                    24266207.985 7 102678304.31007     -2482.509 7        46.820
E31         4.000    26654319.557 6 140069441.51306     -2131.405 6        41.890                                                                    26654318.980 7 104597323.58907     -1591.659 7        43.469    26654318.934 7 107325945.82607     -1633.137 7        44.244
S21         5.000    38573356.524 7 202704090.68007      -489.194 7        42.573
E13         6.000    27235775.961 6 143125304.75606     -2842.434 6        40.515                                                                    27235776.551 7 106879490.85707     -2122.480 7        43.386    27235775.527 7 109667621.33707     -2177.836 7        43.566
G03         8.000    22934252.360 7 120520402.86207      2721.790 7        42.844                                    22934250.894 6  93912042.30706      2120.871 6        39.832    22934251.956 6  93912040.32406      2120.823 6        40.596
G02         9.000    21372997.020 8 112315909.94308       931.951 8        48.947                                    21372990.209 6  87518885.94506       726.194 6        40.565
R12        10.000    23541942.646 7 125756855.07107     -1502.493 7        45.073                                                                    23541942.907 6  97810918.70806     -1168.456 6        40.479
C30        11.000                                                                                                                                    23386521.307 7 121779768.07007      1836.058 7        47.741                                                                    23386521.607 7  98956039.90007      1491.793 7        47.497
S27        12.000    39246231.977 6 206240366.94706      -461.354 6        36.439
R20        13.000    19758319.826 6 105656662.25006     -1682.084 6        39.814                                                                    19758320.305 7  82177471.48107     -1308.225 7        47.411
S36        14.000    38341489.492 7 201486426.55107      -488.471 7        44.035
G27        15.000    24065760.221 6 126466697.32806     -4291.988 6        40.262                                    24065758.262 6  98545634.96206     -3344.403 6        37.059    24065758.617 6  98545548.95606     -3344.263 6        39.892
S45        17.000    63546336.611 6 333939527.25706      -531.261 6        38.243
E08        18.000    26918599.796 6 141458241.73106     -2444.159 6        40.212                                                                    26918598.443 7 105634403.90407     -1824.984 7        43.297    26918598.058 7 108390079.64007     -1872.740 7        44.114
E12        19.000    29126051.261 5 153058433.23305      2030.224 5        32.599                                                                    29126047.841 5 114296868.84605      1515.914 5        35.290    29126047.050 5 117278525.95905      1555.485 5        34.795
G17        20.000    25209974.226 6 132479315.19006      2782.566 6        39.138                                    25209970.918 5 103230620.49905      2168.233 5        31.132    25209971.565 6 103230619.48206      2168.560 6        36.261
E26        21.000    23748956.651 8 124801959.24908     -1250.511 8        48.423                                                                    23748954.473 8  93196465.72008      -933.860 8        50.928    23748953.958 8  95627653.38008      -958.185 8        51.417
I06        22.000    38517065.303 7 151149472.48107      -257.830 7        42.756
S28        23.000    41024024.425 5 215582697.32405      -481.015 5        34.343
G08        24.000    21650139.853 8 113772264.60408     -3135.115 8        48.124                                    21650137.604 7  88653712.79607     -2442.949 7        47.698    21650138.649 7  88653713.79407     -2442.961 7        44.427
S23        25.000    38294984.542 7 201241496.47207      -486.460 7        45.011
C13        26.000                                                                                                                                    40490686.744 6 210845822.63406     -1341.607 6        39.366    40490688.251 6 163039474.67206     -1037.564 6        39.177    40490685.937 6 171329588.24906     -1090.304 6        37.667
E24        27.000    27993246.448 6 147105526.94706       234.536 6        39.763                                                                    27993245.067 7 109851540.14907       175.118 7        42.288    27993244.350 7 112717229.31407       179.656 7        42.798
R21        29.000    20414837.718 8 109243924.32408      2063.079 8        51.356                                                                    20414836.324 7  84967499.92607      1604.590 7        45.744
C14        30.000                                                                                                                                    26485849.569 6 137918792.16306     -3722.046 6        37.939    26485846.735 7 106647552.21307     -2878.012 7        43.302    26485844.678 6 112070301.12206     -3024.391 6        39.210
R05        31.000    19513798.315 8 104312477.45208     -1264.547 8        52.041                                                                    19513797.098 7  81131937.19507      -983.512 7        47.276
R13        32.000    24216587.968 6 129315245.11706      1134.434 6        37.002
E29        33.000    26186183.565 7 137609398.31607      2469.844 7        42.772                                                                    26186181.921 7 102760277.63707      1844.404 7        45.725    26186182.006 7 105440975.29107      1892.547 7        46.686
C16        35.000                                                                                                                                    40590754.980 6 211366727.16306      1215.199 6        39.438    40590754.067 6 163442169.83506       939.603 6        39.877    40590752.371 6 171752777.03806       987.263 6        36.839
C32        36.000                                                                                                                                    24343074.409 7 126760824.37807      2528.120 7        46.589                                                                    24343073.850 7 103003573.27707      2054.227 7        46.876
G32        37.000    21985891.365 8 115536678.82508      -803.725 8        48.896                                    21985888.956 8  90028583.13208      -626.281 8        48.876    21985889.347 7  90028592.13307      -626.346 7        44.599
E07        38.000    24662412.228 7 129601869.62707       214.345 7        46.185                                                                    24662412.253 8  96780655.06708       160.084 8        49.370    24662412.055 8  99305360.16408       164.227 8        50.241
C41        39.000                                                                                                                                    22086285.052 8 115009114.70508      -289.012 8        51.273                                                                    22086289.724 8  93454356.21408      -234.930 8        50.048
C39        40.000                                                                                                                                    40078758.418 6 208700639.24406       945.498 6        40.872                                                                    40078754.722 6 169586359.45806       768.236 6        40.937
E33        41.000    24302990.987 7 127713167.27507       990.880 7        47.296                                                                    24302988.939 8  95370255.28008       739.967 8        50.054    24302988.608 8  97858170.91808       759.214 8        50.826
S44        42.000    40644305.399 6 213587461.77306      -536.281 6        38.051
R06        43.000    21542820.741 6 114956672.97906      3330.276 6        40.334
C05        44.000                                                                                                                                    39274846.013 6 204514469.15506      -454.176 6        38.282    39274840.730 7 158143585.64007      -351.154 7        43.390    39274842.854 6 166184862.78306      -369.126 6        40.405
C08        45.000                                                                                                                                    41295102.921 5 215034618.36705     -1441.398 5        35.386    41295096.364 6 166278480.87206     -1114.774 6        38.742    41295095.675 5 174733291.66805     -1171.408 5        35.438
R11        46.000    24610674.180 6 131511982.99306     -4021.805 6        39.036                                                                    24610672.570 5 102287098.00205     -3127.996 5        35.557
R19        47.000                                                                                                                                    24365944.634 3                     -3306.116 3        23.962
I05        49.000  -497111917.674 6-874988737.29006       268.415 6        36.767
C06        50.000                                                                                                                                    40353390.343 6 210130704.03206      1308.691 6        37.289    40353385.520 6 162486368.22606      1011.893 6        40.722    40353384.859 6 170748386.54106      1063.420 6        38.258
S48        51.000    77329619.642 6 406370794.16206      -505.533 6        38.207
G21        52.000    20736281.848 7 108969970.42207      -514.078 7        44.557                                    20736276.345 6  84911687.34706      -400.581 6        37.474
C60        54.000                                                                                                                                    40644305.665 6 211645777.10806      -531.489 6        39.898                                                                    40644290.110 6 171979501.62206      -432.008 6        40.877
C27        55.000                                                                                                                                    21549799.633 8 112215482.66408      -891.805 8        51.824                                                                    21549797.728 8  91184276.14008      -724.802 8        49.534
R04        56.000    22460224.941 7 120273492.73007     -4400.249 7        45.998                                                                    22460222.417 6  93546041.38306     -3422.335 6        41.256
C02        57.000                                                                                                                                    40656868.331 5 211711041.47805      -491.373 5        33.856    40656862.390 6 163708402.61906      -379.941 6        40.777    40656865.927 6 172032568.05006      -399.105 6        36.499
I03        58.000   106588519.361 6 342491014.48706       974.770 6        40.853
C28        60.000                                                                                                                                    23628032.717 7 123037677.58707     -3137.933 7        47.524                                                                    23628031.824 7  99978326.53507     -2549.915 7        46.255
> 2025 01 01 23 00 15.0000000  0 53
G10         1.000    23270552.394 7 122287678.97307     -3362.499 7        44.605                                    23270550.595 6  95289162.49906     -2620.133 6        40.925    23270550.450 6  95289139.50006     -2620.150 6        40.801
G14         2.000    24004260.860 6 126143287.34006      -792.133 6        40.505                                    24004256.562 4  98293472.56004      -617.246 4        24.301    24004256.740 6  98293468.57506      -617.330 6        38.883
C33         3.000                                                                                                                                    24269130.925 7 126375763.74807     -3056.511 7        46.262                                                                    24269142.173 7 102690719.69107     -2483.613 7        46.992
E31         4.000    26656348.165 6 140080104.00306     -2133.430 6        41.409                                                                    26656348.103 7 104605285.84107     -1593.124 7        43.314    26656347.924 7 107334115.79507     -1634.735 7        44.396
S21         5.000    38573824.707 7 202706537.28607      -489.494 7        42.463
E13         6.000    27238480.881 6 143139518.15506     -2843.020 6        40.505                                                                    27238481.228 7 106890104.76907     -2122.896 7        43.312    27238480.318 7 109678512.13907     -2178.358 7        43.490
G03         8.000    22931663.741 7 120506797.37107      2720.432 7        43.168                                    22931661.874 6  93901440.63606      2119.816 6        39.688    22931662.300 6  93901438.63906      2119.716 6        40.725
G02         9.000    21372111.116 8 112311254.25808       930.354 8        48.987                                    21372104.260 6  87515258.13806       724.952 6        40.415
R12        10.000    23543350.406 7 125764377.86507     -1506.585 7        44.337                                                                    23543351.747 6  97816769.80506     -1171.870 6        40.596
C30        11.000                                                                                                                                    23384758.831 7 121770591.64307      1834.540 7        47.577                                                                    23384759.321 7  98948583.29307      1490.723 7        47.616
S27        12.000    39246675.325 6 206242674.12806      -461.218 6        36.420
R20        13.000    19759892.840 6 105665080.01906     -1684.973 6        39.826                                                                    19759894.628 7  82184018.62507     -1310.532 7        47.184
S36        14.000    38341954.322 7 201488868.98007      -488.460 7        43.791
G27        15.000    24069845.125 6 126488159.58906     -4292.687 6        41.142                                    24069842.378 6  98562358.79506     -3344.952 6        37.380    24069842.695 6  98562272.81206     -3345.036 6        39.661
S45        17.000    63546798.494 6 333942184.10406      -531.437 6        37.924
E08        18.000    26920926.486 6 141470467.03306     -2445.940 6        40.434                                                                    26920924.847 7 105643533.19807     -1826.516 7        43.001    26920924.527 7 108399447.08507     -1874.239 7        43.909
E12        19.000    29124119.965 4 153048282.60204      2029.859 4        29.441                                                                    29124116.100 5 114289288.81205      1515.932 5        34.895    29124115.451 5 117270748.18005      1555.530 5        34.871
G17        20.000    25207326.912 6 132465403.68606      2781.972 6        39.913                                    25207323.825 5 103219780.37105      2167.769 5        31.268    25207324.583 6 103219779.35806      2168.001 6        36.628
E26        21.000    23750147.178 8 124808215.26008     -1251.821 8        48.207                                                                    23750144.903 8  93201137.41408      -934.783 8        50.796    23750144.472 8  95632446.95208      -959.191 8        51.400
I06        22.000    38517393.604 7 151150762.12107      -257.882 7        42.590
S28        23.000    41024480.289 5 215585103.49305      -481.317 5        34.210
G08        24.000    21653123.492 8 113787946.08108     -3137.452 8        48.159                                    21653121.741 7  88665932.12607     -2444.767 7        47.518    21653122.359 7  88665933.12307     -2444.748 7        44.775
S23        25.000    38295448.468 7 201243929.06507      -486.647 7        44.874
C13        26.000                                                                                                                                    40491974.638 6 210852530.71806     -1341.531 6        39.252    40491976.260 6 163044661.80306     -1037.553 6        39.204    40491974.135 6 171335039.12506     -1090.213 6        37.762
E24        27.000    27993023.825 6 147104360.73606       232.009 6        39.093                                                                    27993023.142 7 109850669.29007       173.317 7        42.311    27993022.510 7 112716335.73207       177.821 7        42.753
R21        29.000    20412911.009 8 109233614.57408      2060.993 8        51.273                                                                    20412909.760 7  84959481.23507      1603.011 7        46.282
C14        30.000                                                                                                                                    26489424.459 6 137937403.57806     -3722.569 6        38.342    26489420.664 7 106661943.75607     -2878.490 7        43.537    26489418.803 6 112085424.44006     -3024.751 6        39.327
R05        31.000    19514983.736 8 104318811.46008     -1269.046 8        52.383                                                                    19514982.064 7  81136863.64407      -987.026 7        47.065
R13        32.000    24215526.603 6 129309583.24406      1130.467 6        37.134
E29        33.000    26183833.838 7 137597051.69007      2468.824 7        42.404                                                                    26183832.410 7 102751057.75807      1843.725 7        45.666    26183832.257 7 105431514.89607      1891.745 7        46.608
C16        35.000                                                                                                                                    40589587.849 6 211360653.11506      1214.340 6        39.228    40589587.846 6 163437472.99706       939.029 6        39.781    40589585.846 6 171747841.35806       986.919 6        36.616
C32        36.000                                                                                                                                    24340647.262 7 126748187.66007      2526.668 7        46.487                                                                    24340647.087 7 102993304.90607      2053.154 7        46.912
G32        37.000    21986657.602 8 115540705.85808      -807.025 8        49.040                                    21986655.249 8  90031721.07508      -628.849 8        48.707    21986655.787 7  90031730.07807      -628.886 7        44.755
E07        38.000    24662209.729 7 129600804.39507       211.843 7        46.307                                                                    24662209.525 8  96779859.61108       158.195 8        49.133    24662209.383 8  99304543.95408       162.282 8        50.171
C41        39.000                                                                                                                                    22086563.764 8 115010566.73608      -291.754 8        51.055                                                                    22086568.491 8  93455536.10108      -237.040 8        50.102
C39        40.000                                                                                                                                    40077850.770 6 208695913.84206       944.642 6        40.486                                                                    40077847.216 6 169582519.68206       767.598 6        41.294
E33        41.000    24302048.536 7 127708215.21507       989.996 7        47.195                                                                    24302046.573 8  95366557.31408       739.272 8        49.972    24302046.276 8  97854376.48008       758.598 8        50.751
S44        42.000    40644811.671 6 213590144.27506      -536.422 6        37.713
R06        43.000    21539701.747 6 114940027.75706      3327.814 6        40.565
C05        44.000                                                                                                                                    39275282.229 6 204516740.46706      -454.346 6        38.042    39275276.905 7 158145341.97607      -351.353 7        43.380    39275279.025 6 166186708.41506      -369.229 6        40.293
C08        45.000                                                                                                                                    41296486.904 5 215041824.86805     -1441.421 5        34.871    41296480.074 6 166284053.38006     -1114.398 6        38.931    41296479.849 5 174739147.50405     -1170.942 5        35.629
R11        46.000    24614437.127 6 131532095.68906     -4023.184 6        38.414                                                                    24614436.123 5 102302741.15505     -3128.827 5        35.271
R19        47.000                                                                                                                                    24369915.363 3                     -3309.279 3        23.314
I05        49.000  -497112259.927 6-874990078.83106       268.288 6        36.522
C06        50.000                                                                                                                                    40352133.886 6 210124162.79306      1308.009 6        37.134    40352129.350 6 162481310.12506      1011.480 6        40.760    40352128.513 6 170743071.26706      1062.734 6        38.234
S48        51.000    77330081.480 6 406373322.54006      -505.686 6        38.012
G21        52.000    20736771.922 7 108972545.80007      -515.940 7        44.525                                    20736766.390 6  84913694.13706      -402.032 6        37.293
C60        54.000                                                                                                                                    40644816.003 6 211648435.22906      -531.603 6        39.321                                                                    40644800.653 6 171981661.56306      -431.900 6        41.149
C27        55.000                                                                                                                                    21550657.141 8 112219947.94008      -894.217 8        51.580                                                                    21550655.248 8  91187904.53608      -726.603 8        49.608
R04        56.000    22464334.475 7 120295498.53507     -4401.961 7        46.624                                                                    22464331.892 7  93563157.00707     -3423.740 7        42.140
C02        57.000                                                                                                                                    40657340.628 5 211713498.24005      -491.304 5        33.760    40657334.258 6 163710302.34506      -379.911 6        40.870    40657337.652 6 172034564.37506      -399.240 6        36.507
I03        58.000   106587277.576 6 342486141.93806       974.487 6        40.813
C28        60.000                                                                                                                                    23631046.267 7 123053370.86907     -3139.333 7        47.111                                                                    23631045.514 7  99991078.60607     -2550.972 7        46.317
> 2025 01 01 23 00 20.0000000  0 53
G10         1.000    23273751.915 7 122304492.87907     -3363.118 7        44.470                                    23273750.242 6  95302264.24106     -2620.611 6        41.013    23273749.823 6  95302241.23906     -2620.506 6        40.567
G14         2.000    24005015.617 6 126147255.20606      -795.059 6        40.505                                    24005011.583 4  98296564.40504      -619.532 4        24.496    24005012.468 6  98296560.41406      -619.495 6        39.435
C33         3.000                                                                                                                                    24272066.202 7 126391049.51707     -3057.835 7        46.432                                                                    24272077.614 7 102703140.63207     -2484.811 7        46.870
E31         4.000    26658378.995 6 140090775.65006     -2135.177 6        41.762                                                                    26658378.809 7 104613254.92907     -1594.539 7        43.338    26658378.573 7 107342292.76907     -1636.116 7        44.199
S21         5.000    38574289.505 7 202708983.44107      -489.285 7        42.385
E13         6.000    27241185.647 6 143153733.52406     -2843.293 6        40.555                                                                    27241186.204 7 106900720.14607     -2123.227 7        43.270    27241185.508 7 109689404.43807     -2178.692 7        43.357
G03         8.000    22929075.774 7 120493197.83107      2719.258 7        42.754                                    22929073.971 6  93890843.60006      2118.905 6        39.673    22929074.618 6  93890841.59606      2118.972 6        41.106
G02         9.000    21371226.401 8 112306605.46008       929.079 8        49.182                                    21371219.625 6  87511635.70206       723.958 6        40.467
R12        10.000    23544761.900 7 125771920.07107     -1510.365 7        45.062                                                                    23544763.886 6  97822635.94806     -1174.825 6        41.020
C30        11.000                                                                                                                                    23382997.823 7 121761421.77107      1833.286 7        47.710                                                                    23382998.339 7  98941132.01907      1489.682 7        47.509
S27        12.000    39247111.313 6 206244980.59006      -461.243 6        36.212
R20        13.000    19761470.205 6 105673512.01406     -1687.823 6        39.450                                                                    19761471.512 7  82190576.85207     -1312.730 7        47.456
S36        14.000    38342419.957 7 201491311.77007      -488.597 7        44.033
G27        15.000    24073929.691 6 126509624.46506     -4293.151 6        41.268                                    24073926.982 6  98579084.66806     -3345.314 6        37.894    24073927.281 6  98578998.68606     -3345.386 6        39.535
S45        17.000    63547258.780 6 333943140.63416      -531.149 6        37.716
E08        18.000    26923255.040 6 141482701.01506     -2447.620 6        40.942                                                                    26923252.954 7 105652668.96707     -1827.859 7        43.185    26923252.432 7 108408821.17207     -1875.562 7        43.850
E12        19.000    29122187.533 5 153038130.86505      2030.232 5        32.024                                                                    29122184.383 5 114281707.98705      1516.386 5        35.148    29122183.441 5 117262969.57405      1555.747 5        34.486
G17        20.000    25204680.448 6 132451495.27506      2781.479 6        40.522                                    25204677.210 5 103208942.65705      2167.384 5        31.336    25204677.362 6 103208941.64806      2167.401 6        36.476
E26        21.000    23751338.728 8 124814476.60308     -1252.809 8        48.324                                                                    23751336.409 8  93205813.09208      -935.500 8        50.791    23751335.902 8  95637244.60008      -959.926 8        51.206
I06        22.000    38517722.316 7 151152051.51507      -257.804 7        42.610
S28        23.000    41024935.652 5 215587509.45205      -481.309 5        34.390
G08        24.000    21656109.993 8 113803638.09208     -3139.440 8        48.103                                    21656107.887 7  88678159.66507     -2446.317 7        47.600    21656108.472 7  88678160.66707     -2446.302 7        44.316
S23        25.000    38295912.104 7 201246361.43707      -486.404 7        44.835
C13        26.000                                                                                                                                    40493262.284 6 210859237.47206     -1341.293 6        38.841    40493264.073 6 163049847.87306     -1037.076 6        39.129    40493261.969 6 171340488.91406     -1090.010 6        37.837
E24        27.000    27992803.531 6 147103205.97406       229.536 6        38.838                                                                    27992803.396 7 109849806.97107       171.645 7        42.265    27992802.672 7 112715450.92307       176.082 7        42.514
R21        29.000    20410986.414 8 109223314.12308      2059.201 8        50.588                                                                    20410984.485 7  84951469.78407      1601.606 7        46.230
C14        30.000                                                                                                                                    26492999.191 6 137956016.86006     -3722.773 6        38.498    26492995.477 7 106676336.70607     -2878.693 7        43.471    26492993.220 6 112100549.25106     -3025.106 6        39.120
R05        31.000    19516172.531 8 104325166.60908     -1273.077 8        52.160                                                                    19516171.031 7  81141806.53707      -990.158 7        46.850
R13        32.000    24214469.921 6 129303939.53606      1127.154 6        37.773
E29        33.000    26181485.199 7 137584709.02207      2468.115 7        42.447                                                                    26181483.689 7 102741840.83107      1843.111 7        45.570    26181483.556 7 105422057.52107      1891.204 7        46.442
