     3.04           OBSERVATION DATA    M                   RINEX VERSION / TYPE
ssrcrin-15.6.1x                         20250101 063000 UTC PGM / RUN BY / DATE 
(00000000023479385599111004) Septentrio proprietary         COMMENT             
rref                                                        MARKER NAME         
01                                                          MARKER NUMBER       
geodetic                                                    MARKER TYPE         
NFB                 CLIMERS@TUW                             OBSERVER / AGENCY   
3297213             SEPT ASTERX SB3 PROB4.14.4              REC # / TYPE / VERS 
Unknown             Unknown                                 ANT # / TYPE        
  4127831.6257  1207192.7079  4695247.4469                  APPROX POSITION XYZ 
        0.0000        0.0000        0.0000                  ANTENNA: DELTA H/E/N
G   23 X1  C1C L1C D1C S1C C1W S1W C2W L2W D2W S2W C2L L2L  SYS / # / OBS TYPES 
       D2L S2L C5Q L5Q D5Q S5Q C1L L1L D1L S1L              SYS / # / OBS TYPES 
E   21 X1  C1C L1C D1C S1C C6C L6C D6C S6C C5Q L5Q D5Q S5Q  SYS / # / OBS TYPES 
       C7Q L7Q D7Q S7Q C8Q L8Q D8Q S8Q                      SYS / # / OBS TYPES 
S    9 X1  C1C L1C D1C S1C C5I L5I D5I S5I                  SYS / # / OBS TYPES 
R   17 X1  C1C L1C D1C S1C C2P L2P D2P S2P C2C L2C D2C S2C  SYS / # / OBS TYPES 
       C3Q L3Q D3Q S3Q                                      SYS / # / OBS TYPES 
C   25 X1  C1P L1P D1P S1P C5P L5P D5P S5P C2I L2I D2I S2I  SYS / # / OBS TYPES 
       C7I L7I D7I S7I C6I L6I D6I S6I C7D L7D D7D S7D      SYS / # / OBS TYPES 
J   17 X1  C1C L1C D1C S1C C2L L2L D2L S2L C5Q L5Q D5Q S5Q  SYS / # / OBS TYPES 
       C1L L1L D1L S1L                                      SYS / # / OBS TYPES 
I    5 X1  C5A L5A D5A S5A                                  SYS / # / OBS TYPES 
SEPTENTRIO RECEIVERS OUTPUT ALIGNED CARRIER PHASES.         COMMENT             
NO FURTHER PHASE SHIFT APPLIED IN THE RINEX ENCODER.        COMMENT             
G L1C                                                       SYS / PHASE SHIFT   
G L2W                                                       SYS / PHASE SHIFT   
G L2L  0.00000                                              SYS / PHASE SHIFT   
G L5Q  0.00000                                              SYS / PHASE SHIFT   
G L1L  0.00000                                              SYS / PHASE SHIFT   
E L1C  0.00000                                              SYS / PHASE SHIFT   
E L6C  0.00000                                              SYS / PHASE SHIFT   
E L5Q  0.00000                                              SYS / PHASE SHIFT   
E L7Q  0.00000                                              SYS / PHASE SHIFT   
E L8Q  0.00000                                              SYS / PHASE SHIFT   
S L1C                                                       SYS / PHASE SHIFT   
S L5I                                                       SYS / PHASE SHIFT   
R L1C                                                       SYS / PHASE SHIFT   
R L2P  0.00000                                              SYS / PHASE SHIFT   
R L2C                                                       SYS / PHASE SHIFT   
R L3Q  0.00000                                              SYS / PHASE SHIFT   
C L1P  0.00000                                              SYS / PHASE SHIFT   
C L5P  0.00000                                              SYS / PHASE SHIFT   
C L2I                                                       SYS / PHASE SHIFT   
C L7I                                                       SYS / PHASE SHIFT   
C L6I                                                       SYS / PHASE SHIFT   
C L7D                                                       SYS / PHASE SHIFT   
J L1C                                                       SYS / PHASE SHIFT   
J L2L  0.00000                                              SYS / PHASE SHIFT   
J L5Q  0.00000                                              SYS / PHASE SHIFT   
J L1L  0.00000                                              SYS / PHASE SHIFT   
I L5A                                                       SYS / PHASE SHIFT   
  2025     1     1     6    30    0.0000000     GPS         TIME OF FIRST OBS   
 C1C    0.000 C2C    0.000 C2P    0.000                     GLONASS COD/PHS/BIS 
DBHZ                                                        SIGNAL STRENGTH UNIT
    18                                                      LEAP SECONDS        
 24 R01  1 R02 -4 R03  5 R04  6 R05  1 R06 -4 R07  5 R08  6 GLONASS SLOT / FRQ #
    R09 -2 R10 -7 R11  0 R12 -1 R13 -2 R14 -7 R15  0 R16 -1 GLONASS SLOT / FRQ #
    R17  4 R18 -3 R19  3 R20  2 R21  4 R22 -3 R23  3 R24  2 GLONASS SLOT / FRQ #
                                                            END OF HEADER       
> 2025 01 01 06 30  0.0000000  0 53
G08         1.000    25343239.599 5                      1850.483 5        33.994                                                                                                    25343250.489 5 103776375.14205      1441.987 5        31.117
R01         2.000    21916762.268 7 117157646.73607      2988.456 7        44.840                                                                    21916762.107 6  91122682.59406      2324.308 6        38.973
G09         3.000    22955945.485 7 120634287.10407     -3317.219 7        42.861                                    22955947.121 6  94000738.11606     -2584.839 6        41.569    22955946.647 6  94000739.10606     -2584.865 6        41.583
E34         4.000    27531612.620 6 144679572.33406     -3527.661 6        39.571                                                                    27531615.291 7 108039936.91407     -2634.324 7        42.144    27531615.033 7 110858370.67407     -2703.007 7        43.173
S21         5.000    38575711.284 7 202716513.17807      -401.841 7        43.960
E05         6.000    22406927.058 8 117749224.13708     -1406.268 8        48.429                                                                    22406928.051 8  87929640.19908     -1050.118 8        50.721    22406927.736 8  90223449.53108     -1077.490 8        51.959
E15         7.000    26025706.777 7 136766023.24407     -1980.537 7        43.359                                                                    26025708.086 7 102130492.76207     -1478.850 7        46.127    26025707.613 7 104794764.56107     -1517.455 7        46.617
R10         8.000    19578712.971 7 104365554.07507       155.868 7        47.284
E31         9.000    26999910.304 6 141885471.38906     -2097.846 6        39.201                                                                    26999912.765 7 105953453.27807     -1566.313 7        42.663    26999912.317 7 108717455.22707     -1607.162 7        43.344
G04        10.000    25557665.181 4 134306267.65004     -3621.395 4        28.626                                    25557673.656 1 104654190.78301     -2821.720 1         2.800    25557672.740 4 104654185.80804     -2821.787 4        28.550
E09        11.000    27909172.035 6 146663614.98106     -2808.926 6        39.640                                                                    27909180.125 6 109521511.73406     -2097.608 6        41.774    27909179.261 7 112378598.09307     -2152.339 7        43.183
S27        12.000    39229970.197 6 206154828.48506      -425.314 6        36.518
G06        13.000    25767132.647 4                     -3838.939 4        25.143                                                                                                    25767141.376 4 105512075.52604     -2993.411 4        29.763
S36        14.000    38344195.266 7 201500611.99607      -402.460 7        44.841
G20        15.000    20799647.713 8 109302886.38408      -513.698 8        48.594                                    20799643.530 6  85171059.85906      -400.282 6        40.060
R11        16.000    21806407.098 8 116526833.43608      3674.333 8        48.878                                                                    21806407.030 7  90631981.31707      2857.952 7        45.375
S45        17.000    63526703.259 6 333836487.62606      -445.304 6        36.715
E13        18.000    27227127.793 6 143079541.68406       661.014 6        39.856                                                                    27227128.355 7 106845103.65607       493.670 7        43.117    27227127.895 7 109632367.84007       506.601 7        44.319
E24        19.000    25386230.396 7 133405514.97507       536.008 7        45.664                                                                    25386231.105 8  99621008.48008       400.254 8        48.505    25386230.238 8 102219814.47808       410.703 8        49.134
G30        21.000    20652214.092 8 108528134.88108       360.765 8        51.114                                    20652212.658 8  84567384.11308       281.117 8        52.433    20652213.245 7  84567388.10707       281.190 7        45.351
I06        22.000    38103199.821 7 149525328.42307      -323.267 7        43.280
S28        23.000    41006358.801 5 215489733.40205      -406.068 5        35.500
G14        24.000    23709413.915 7 124593809.79007      3087.149 7        42.053                                    23709413.111 4  97086087.27204      2405.566 4        28.834    23709413.797 7  97086089.28607      2405.533 7        42.011
S23        25.000    38279455.790 7 201159854.96607      -399.519 7        44.971
E08        26.000    28241560.863 6 148410409.66706      2059.306 6        37.773                                                                    28241559.968 6 110825954.55906      1537.887 6        39.345    28241559.676 6 113717063.95406      1577.806 6        40.358
G13        28.000    23000586.887 7 120868910.58907      2631.730 7        43.846                                    23000582.626 4  94183548.16404      2050.698 4        26.204
R09        29.000    21137051.421 8 112870666.34108     -3303.308 8        48.549                                                                    21137051.153 7  87788296.15207     -2569.264 7        47.402
C22        30.000                                                                                                                                    21701539.881 8 113005626.18908     -1141.157 8        52.376                                                                    21701534.312 8  91826311.89108      -927.187 8        50.411
I01        31.000   343999873.938 6  46788498.11706     -3001.670 6        40.841
E03        32.000    24181847.113 7 127076479.19407       923.191 7        47.607                                                                    24181847.304 8  94894791.60008       689.442 8        50.478    24181847.001 8  97370301.86408       707.410 8        51.395
G05        33.000    22006351.692 7 115644183.91507      1896.434 7        46.147                                    22006347.698 7  90112349.73307      1477.744 7        44.691    22006348.166 7  90112352.73507      1477.652 7        43.162
R24        34.000    23246438.511 7 124309168.19807     -2789.050 7        45.976                                                                    23246437.302 6  96684911.08306     -2169.243 6        40.133
C36        35.000                                                                                                                                    22036567.978 8 114750189.22708      -642.532 8        51.287                                                                    22036573.226 8  93243948.62708      -522.057 8        50.668
G11        36.000    24060377.854 7 126438140.69207     -3359.344 7        43.422                                    24060375.327 4  98523219.56104     -2617.678 4        27.988    24060375.504 6  98523219.54706     -2617.649 6        41.893
I09        38.000    38916224.563 6 152715545.01806      -857.840 6        41.642
R08        39.000    19443780.705 8 104120567.89808      -204.097 8        50.316                                                                    19443778.907 7  80982662.94907      -158.745 7        46.953
E25        40.000    26397217.192 7 138718326.12507      2577.189 7        42.434                                                                    26397221.228 7 103588366.76407      1924.489 7        45.594    26397220.485 7 106290663.65907      1974.723 7        46.442
G27        41.000    25270513.187 6 132797450.80306       793.526 6        36.181                                    25270516.156 4 103478545.08304       618.334 4        25.519    25270516.481 5 103478549.09405       618.062 5        32.497
S44        42.000    40988590.966 6 215396554.44206      -446.507 6        37.701
C09        43.000                                                                                                                                    40023242.216 6 208411498.92306     -1184.808 6        38.105    40023241.661 7 161156969.74107      -916.117 7        42.756    40023239.029 6 169351385.55306      -962.632 6        39.523
C05        44.000                                                                                                                                    39399736.482 6 205164738.21806      -461.587 6        38.748    39399735.505 7 158646397.23307      -356.777 7        42.863    39399736.372 6 166713245.38006      -374.896 6        40.141
C21        46.000                                                                                                                                    23311953.293 8 121391460.53608      1753.762 8        49.314                                                                    23311948.167 8  98640477.73808      1425.171 8        49.185
R17        47.000    23392417.538 7 125177562.54907       471.896 7        44.694                                                                    23392417.318 6  97360332.28806       366.968 6        41.223
C06        49.000                                                                                                                                    40856193.216 5 212748847.21805     -1388.911 5        35.338    40856194.212 6 164510862.64006     -1073.827 6        39.267    40856191.913 6 172875824.69206     -1128.386 6        36.155
C16        50.000                                                                                                                                    41399961.404 6 215580375.48706     -1332.146 6        37.251    41399967.613 6 166700403.20806     -1030.092 6        37.773    41399963.836 5 175176690.85705     -1082.753 5        33.575
S48        51.000    77302193.052 6 406225381.98306      -387.380 6        38.366
C19        52.000                                                                                                                                    25275299.451 7 131615101.06807     -3315.057 7        44.104                                                                    25275298.040 7 106948038.20607     -2693.807 7        44.584
C60        54.000                                                                                                                                    40988592.484 6 213438422.14906      -442.281 6        40.238                                                                    40988583.033 6 173436142.48606      -359.512 6        39.336
C11        56.000                                                                                                                                    26562241.539 5 138316561.33105     -1918.053 5        35.462    26562237.585 7 106955119.52707     -1483.141 7        42.163    26562236.347 6 112393513.16606     -1558.586 6        39.042
C02        57.000                                                                                                                                    40972359.265 5 213353723.76705      -476.302 5        34.595    40972362.214 6 164978588.31506      -368.128 6        40.815    40972362.705 5 173367349.45005      -386.760 5        35.490
I03        58.000   127131059.526 6 423104158.55306       904.498 6        40.236
R07        59.000    21466125.709 8 114909828.14208     -3272.848 8        49.401                                                                    21466126.459 7  89374300.92507     -2545.490 7        44.853
G07        60.000    21371192.330 8 112306389.55608     -1821.824 8        48.256                                    21371188.749 8  87511463.58408     -1419.600 8        48.445    21371188.859 7  87511464.58607     -1419.633 7        45.391
> 2025 01 01 06 30  5.0000000  0 54
G08         1.000    25341478.965 5 133170367.76315      1848.938 5        33.401                                                                                                    25341487.761 5 103769168.46305      1440.805 5        30.158
R01         2.000    21913967.422 7 117142706.53307      2987.776 7        44.909                                                                    21913967.150 6  91111062.42806      2323.766 6        38.712
G09         3.000    22959101.551 7 120650875.08407     -3318.023 7        42.643                                    22959103.729 6  94013663.77306     -2585.463 6        41.352    22959103.783 6  94013664.75606     -2585.506 6        41.466
E34         4.000    27534969.557 6 144697211.69006     -3527.913 6        39.637                                                                    27534972.124 7 108053109.12507     -2634.467 7        42.254    27534971.842 7 110871886.52507     -2703.188 7        43.397
S21         5.000    38576092.588 7 202718523.26107      -401.848 7        43.892
E05         6.000    22408265.554 8 117756258.06008     -1407.267 8        48.459                                                                    22408266.608 8  87934892.78608     -1050.840 8        50.734    22408266.239 8  90228839.14608     -1078.272 8        52.062
E15         7.000    26027591.961 7 136775930.90907     -1982.439 7        43.454                                                                    26027593.430 7 102137891.33707     -1480.384 7        46.078    26027592.925 7 104802356.13507     -1519.007 7        46.728
R10         8.000    19578568.673 7 104364785.97007       151.394 7        46.987
E31         9.000    27001907.059 6 141895964.33206     -2099.327 6        39.285                                                                    27001909.637 7 105961288.94007     -1567.913 7        42.783    27001909.076 7 108725495.28407     -1608.631 7        43.206
G04        10.000    25561110.437 4 134324375.22704     -3621.086 4        28.445                                    25561119.408 1 104668300.68701     -2821.593 1         5.000    25561119.104 4 104668295.64404     -2822.804 4        28.199
E09        11.000    27911844.970 6 146677660.95606     -2809.313 6        39.450                                                                    27911852.987 6 109532000.53806     -2097.856 6        41.554    27911852.282 7 112389360.52607     -2152.585 7        43.416
S27        12.000    39230376.668 6 206156954.53306      -425.142 6        36.798
G06        13.000    25770789.822 3                     -3840.744 3        23.124                                                                                                    25770795.280 4 105527038.28904     -2992.135 4        29.014
S36        14.000    38344577.908 7 201502624.23007      -402.385 7        44.761
G20        15.000    20800138.392 8 109305463.39208      -516.943 8        48.383                                    20800133.919 6  85173067.90406      -402.812 6        39.934
R11        16.000    21802970.183 8 116508466.25208      3672.363 8        48.454                                                                    21802969.891 7  90617695.73107      2856.418 7        44.892
S45        17.000    63527083.852 6 333838713.70806      -445.075 6        36.888
E13        18.000    27226499.702 6 143076242.24106       658.826 6        40.136                                                                    27226500.457 7 106842639.79607       491.994 7        43.001    27226500.045 7 109629839.69807       504.875 7        44.444
E24        19.000    25385721.563 7 133402840.87107       533.734 7        45.654                                                                    25385722.279 8  99619011.57008       398.618 8        48.478    25385721.312 8 102217765.47508       409.024 8        49.250
G30        21.000    20651872.055 8 108526336.75608       358.550 8        50.997                                    20651870.490 8  84565982.97208       279.389 8        52.312    20651870.999 7  84565986.98407       279.294 7        45.064
I06        22.000    38103611.963 7 149526945.36207      -323.351 7        43.363
S28        23.000    41006745.503 5 215491763.28905      -405.934 5        35.476
G14        24.000    23706476.657 7 124578375.92707      3086.511 7        42.040                                    23706476.310 4  97074060.89804      2405.073 4        28.673    23706477.264 7  97074062.89807      2405.199 7        42.076
S23        25.000    38279837.161 7 201161852.59307      -399.449 7        44.871
E08        26.000    28239602.177 6 148400113.15306      2059.365 6        38.057                                                                    28239600.435 6 110818265.61006      1537.861 6        39.390    28239600.379 6 113709174.42306      1577.950 6        40.288
G13        28.000    22998082.883 7 120855753.73407      2631.104 7        43.304                                    22998078.951 4  94173296.06904      2050.208 4        26.180
R09        29.000    21140145.252 8 112887190.65908     -3306.275 8        48.319                                                                    21140145.249 7  87801148.39307     -2571.560 7        46.695
C22        30.000                                                                                                                                    21702636.668 8 113011337.20508     -1143.193 8        52.433                                                                    21702631.012 8  91830952.55208      -928.868 8        50.339
I01        31.000   344003699.032 6  46803507.15806     -3001.691 6        40.801
E03        32.000    24180969.212 7 127071865.39507       922.387 7        47.594                                                                    24180969.328 8  94891346.21708       688.867 8        50.418    24180969.049 8  97366766.60908       706.750 8        51.523
G05        33.000    22004548.323 7 115634708.19607      1893.996 7        45.970                                    22004544.521 7  90104966.04707      1475.840 7        44.536    22004545.279 7  90104969.04807      1475.870 7        43.242
R24        34.000    23249046.785 7 124323120.86907     -2792.041 7        44.918                                                                    23249046.669 6  96695763.18606     -2171.509 6        40.226
C36        35.000                                                                                                                                    22037186.061 8 114753408.53808      -645.103 8        51.415                                                                    22037191.480 8  93246564.58508      -524.161 8        50.588
G11        36.000    24063574.410 7 126454940.34207     -3360.479 7        42.665                                    24063572.135 4  98536310.17404     -2618.559 4        27.689    24063571.550 6  98536310.16106     -2618.464 6        40.851
I09        38.000    38917317.642 6 152719834.05906      -857.775 6        41.743
R08        39.000    19443972.698 8 104121595.41708      -206.778 8        50.177                                                                    19443971.024 7  80983462.12107      -160.789 7        46.805
E25        40.000    26394765.709 7 138705442.40907      2576.436 7        42.284                                                                    26394769.515 7 103578745.80807      1924.020 7        45.541    26394769.021 7 106280791.73307      1974.115 7        46.583
G27        41.000    25269760.073 5 132793491.09505       790.672 5        35.262                                    25269762.585 4 103475459.58104       616.122 4        25.323    25269763.296 5 103475463.56705       616.085 5        32.707
S44        42.000    40989013.091 6 215398786.52506      -446.371 6        37.645
C09        43.000                                                                                                                                    40024380.063 6 208417422.65406     -1184.748 6        38.261    40024379.472 7 161161550.31807      -916.037 7        42.627    40024376.684 6 169356199.04906      -962.508 6        39.369
C05        44.000                                                                                                                                    39400179.964 6 205167045.70706      -461.503 6        38.679    39400178.745 7 158648181.51707      -356.815 7        43.058    39400179.384 6 166715120.39106      -374.920 6        40.021
C21        46.000                                                                                                                                    23310269.788 8 121382694.84308      1752.585 8        49.149                                                                    23310264.811 8  98633354.89708      1424.183 8        49.028
R17        47.000    23391977.896 7 125175213.92107       467.686 7        44.859                                                                    23391978.437 7  97358505.58507       363.720 7        42.006
C06        49.000                                                                                                                                    40857526.151 5 212755790.58505     -1388.577 5        35.324    40857526.783 6 164516231.63006     -1073.647 6        39.147    40857525.570 6 172881466.71606     -1128.396 6        36.507
C16        50.000                                                                                                                                    41401240.207 6 215587036.18606     -1332.057 6        36.964    41401246.641 6 166705553.63006     -1029.938 6        37.939    41401243.014 5 175182103.15905     -1082.530 5        33.323
S48        51.000    77302567.618 6 406227319.43606      -387.465 6        38.264
C19        52.000                                                                                                                                    25278483.214 7 131631679.09807     -3315.978 7        44.355                                                                    25278481.955 7 106961509.18507     -2694.488 7        44.673
C60        54.000                                                                                                                                    40989016.877 6 213440633.93706      -442.143 6        40.162                                                                    40989007.895 6 173437939.72206      -359.326 6        39.153
C45        55.000                                                                                                                                    23262092.163 8 121131815.98118      2228.882 8        49.476                                                                    23262085.381 8  98429495.74718      1811.229 8        48.972
C11        56.000                                                                                                                                    26564083.439 6 138326157.28906     -1920.260 6        36.110    26564080.482 6 106962539.73206     -1484.672 6        41.762    26564078.933 6 112401310.66906     -1560.102 6        38.925
C02        57.000                                                                                                                                    40972816.448 5 213356104.96105      -476.512 5        34.424    40972819.455 6 164980429.56606      -368.092 6        40.989    40972819.982 5 173369284.32505      -386.624 5        35.205
I03        58.000   127129907.349 6 423099635.65906       904.685 6        40.379
R07        59.000    21469183.329 8 114926197.16008     -3274.644 8        48.995                                                                    21469184.549 7  89387032.37507     -2547.039 7        44.957
G07        60.000    21372926.477 8 112315503.13408     -1823.498 8        48.214                                    21372923.024 8  87518565.06308     -1420.904 8        48.292    21372923.200 7  87518566.06407     -1420.893 7        45.177
> 2025 01 01 06 30 10.0000000  0 54
G08         1.000    25339719.928 5 133161127.17005      1847.161 5        33.066                                                                                                    25339730.418 5 103761968.04605      1439.400 5        31.004
R01         2.000    21911172.815 7 117127770.17907      2986.862 7        44.388                                                                    21911172.812 6  91099445.25306      2323.186 6        38.619
G09         3.000    22962259.345 7 120667467.89207     -3319.180 7        42.944                                    22962261.267 6  94026593.19706     -2586.366 6        41.232    22962261.236 6  94026594.17306     -2586.295 6        41.249
E34         4.000    27538326.480 6 144714852.28006     -3528.234 6        39.835                                                                    27538329.125 7 108066282.25207     -2634.726 7        42.243    27538328.748 7 110885403.29807     -2703.389 7        43.412
S21         5.000    38576476.853 7 202720533.32407      -402.048 7        43.922
E05         6.000    22409605.147 8 117763297.08708     -1408.382 8        48.377                                                                    22409606.120 8  87940149.18508     -1051.688 8        50.721    22409605.784 8  90234232.67008     -1079.182 8        52.021
E15         7.000    26029479.585 7 136785849.28407     -1984.929 7        43.278                                                                    26029480.884 7 102145297.89107     -1482.183 7        46.139    26029480.303 7 104809955.90707     -1520.815 7        46.745
R10         8.000    19578428.399 7 104364040.63707       146.781 7        46.964
E31         9.000    27003905.861 6 141906467.24206     -2101.540 6        39.745                                                                    27003908.249 7 105969132.00107     -1569.397 7        42.910    27003907.857 7 108733542.95607     -1610.409 7        43.348
G04        10.000    25564556.016 4 134342483.87404     -3621.416 4        29.270                                    25564565.383 1 104682411.10801     -2821.920 1         5.286    25564564.733 4 104682406.17604     -2822.095 4        28.588
E09        11.000    27914517.997 6 146691708.30106     -2809.641 6        39.339                                                                    27914526.037 6 109542490.36506     -2098.164 6        41.478    27914525.422 7 112400124.00807     -2152.925 7        43.458
S27        12.000    39230782.087 6 206159080.54506      -425.138 6        36.684
G06        13.000    25774440.526 4                     -3835.059 4        24.361                                                                                                    25774447.961 4 105541998.57204     -2991.967 4        28.720
S36        14.000    38344961.568 7 201504636.48107      -402.450 7        44.826
G20        15.000    20800631.853 8 109308057.11308      -520.484 8        48.561                                    20800627.497 6  85175088.97806      -405.570 6        39.994
R11        16.000    21799534.618 8 116490108.74408      3670.532 8        48.607                                                                    21799533.997 7  90603417.67107      2854.783 7        45.315
S45        17.000    63527465.178 6 333839339.63216      -445.282 6        36.809
E13        18.000    27225874.150 6 143072954.70806       656.223 6        40.446                                                                    27225874.828 7 106840184.81907       490.160 7        43.137    27225874.486 7 109627320.69007       502.921 7        44.418
E24        19.000    25385214.771 7 133400178.59007       531.230 7        45.714                                                                    25385215.667 8  99617023.49208       396.671 8        48.550    25385214.673 8 102215725.53408       407.058 8        49.184
G30        21.000    20651532.175 8 108524550.76508       355.991 8        51.239                                    20651530.633 8  84564591.28208       277.396 8        52.347    20651531.199 7  84564595.28107       277.377 7        45.400
I06        22.000    38104024.017 7 149528562.48607      -323.522 7        43.245
S28        23.000    41007131.064 5 215493793.08105      -405.874 5        35.319
G14        24.000    23703540.440 6 124562945.25306      3085.923 6        41.635                                    23703540.095 4  97062036.99704      2404.603 4        28.588    23703540.048 7  97062039.01707      2404.448 7        42.125
S23        25.000    38280215.675 7 201163850.38407      -399.572 7        45.038
E08        26.000    28237642.759 6 148389816.77206      2059.335 6        37.830                                                                    28237641.252 6 110810576.75906      1537.713 6        39.501    28237640.933 6 113701284.99606      1577.720 6        40.522
G13        28.000    22995580.279 7 120842600.65307      2630.200 7        43.761                                    22995575.902 4  94163046.91304      2049.505 4        26.251
R09        29.000    21143242.044 8 112903729.87308     -3309.404 8        48.532                                                                    21143242.294 7  87814012.21307     -2573.994 7        46.806
C22        30.000                                                                                                                                    21703735.489 8 113017058.76608     -1145.390 8        52.266                                                                    21703729.845 8  91835601.77308      -930.674 8        50.394
I01        31.000   344007523.676 6  46818516.82206     -3001.953 6        40.765
E03        32.000    24180091.978 7 127067255.88507       921.415 7        47.835                                                                    24180092.159 8  94887904.04408       688.082 8        50.493    24180091.835 8  97363234.63808       706.040 8        51.435
G05        33.000    22002747.724 7 115625245.27607      1891.237 7        46.300                                    22002743.798 7  90097592.34107      1473.693 7        44.576    22002744.250 7  90097595.33507      1473.769 7        43.052
R24        34.000    23251659.464 7 124337089.25407     -2795.313 7        45.401                                                                    23251658.332 6  96706627.47506     -2174.118 6        39.766
C36        35.000                                                                                                                                    22037807.161 8 114756641.13408      -647.903 8        51.440                                                                    22037812.237 8  93249191.32308      -526.386 8        50.681
G11        36.000    24066772.503 7 126471746.34007     -3361.742 7        42.823                                    24066770.364 4  98549405.73904     -2619.539 4        27.653    24066770.365 6  98549405.73906     -2619.612 6        41.306
I09        38.000    38918410.641 6 152724123.62106      -858.010 6        41.659
R08        39.000    19444167.150 8 104122636.67508      -209.721 8        50.353                                                                    19444165.338 7  80984271.97707      -163.036 7        46.855
E25        40.000    26392314.950 7 138692562.53807      2575.609 7        42.519                                                                    26392318.679 7 103569127.72407      1923.247 7        45.634    26392317.964 7 106270922.73807      1973.480 7        46.577
G27        41.000    25269008.559 5 132789545.47305       787.664 5        35.557                                    25269011.768 4 103472385.05104       613.763 4        25.744    25269012.361 5 103472389.05805       613.710 5        32.988
S44        42.000    40989437.216 6 215401018.49906      -446.523 6        37.834
C09        43.000                                                                                                                                    40025517.637 6 208423346.05106     -1184.807 6        38.246    40025516.900 7 161166130.64307      -916.172 7        42.703    40025514.157 6 169361012.26106      -962.532 6        39.306
C05        44.000                                                                                                                                    39400623.173 6 205169353.20806      -461.465 6        38.850    39400621.977 7 158649965.79407      -356.804 7        43.276    39400622.419 6 166716995.40606      -374.993 6        40.019
C21        46.000                                                                                                                                    23308587.776 8 121373935.55208      1751.202 8        49.083                                                                    23308582.664 8  98626237.24508      1423.042 8        49.090
R17        47.000    23391542.598 7 125172886.44307       463.324 7        44.176                                                                    23391543.152 6  97356695.32006       360.377 6        41.216
C06        49.000                                                                                                                                    40858860.638 5 212762733.21405     -1388.732 5        35.605    40858859.968 6 164521600.04506     -1073.681 6        39.213    40858858.837 6 172887108.08906     -1128.155 6        36.612
C16        50.000                                                                                                                                    41402519.233 6 215593695.94706     -1331.843 6        37.353    41402526.125 6 166710703.34006     -1030.041 6        38.030    41402521.630 5 175187514.71705     -1082.131 5        33.497
S48        51.000    77302942.433 6 406229256.93006      -387.469 6        38.324
C19        52.000                                                                                                                                    25281667.859 7 131648261.77307     -3317.124 7        44.361                                                                    25281666.610 7 106974983.92007     -2695.273 7        45.096
C60        54.000                                                                                                                                    40989441.632 6 213442845.62406      -442.365 6        40.124                                                                    40989432.628 6 173439736.85706      -359.279 6        39.183
C45        55.000                                                                                                                                    23259952.901 8 121120676.27508      2226.980 8        49.609                                                                    23259945.993 8  98420443.81408      1809.700 8        49.029
C11        56.000                                                                                                                                    26565928.055 6 138335763.73206     -1922.450 6        36.699    26565924.982 6 106969968.04806     -1486.541 6        41.311    26565923.499 6 112409116.68206     -1562.020 6        38.712
C02        57.000                                                                                                                                    40973273.198 5 213358486.05705      -476.194 5        34.267    40973276.683 6 164982270.76606      -368.286 6        41.192    40973277.505 5 173371219.15705      -386.936 5        35.205
I03        58.000   127128754.593 6 423095112.72906       904.437 6        40.355
R07        59.000    21472242.034 8 114942575.61208     -3276.696 8        48.540                                                                    21472243.716 7  89399771.12807     -2548.526 7        44.715
G07        60.000    21374662.547 8 112324625.54508     -1825.413 8        48.239                                    21374658.975 8  87525673.42208     -1422.397 8        48.311    21374659.112 7  87525674.41907     -1422.429 7        45.544
> 2025 01 01 06 30 15.0000000  0 54
G08         1.000    25337963.545 5 133151894.61305      1845.347 5        32.659                                                                                                    25337974.733 5 103754773.89705      1437.949 5        31.479
R01         2.000    21908379.296 7 117112837.62207      2986.007 7        43.968                                                                    21908379.683 6  91087831.05606      2322.415 6        38.541
G09         3.000    22965418.051 7 120684065.47207     -3320.050 7        42.567                                    22965419.641 6  94039526.33606     -2587.041 6        41.139    22965419.146 6  94039527.32606     -2587.194 6        41.094
E34         4.000    27541683.741 6 144732494.03406     -3528.590 6        40.160                                                                    27541686.200 7 108079456.26007     -2634.917 7        42.152    27541685.708 7 110898920.98307     -2703.588 7        43.416
S21         5.000    38576860.129 7 202722543.04207      -401.879 7        43.837
E05         6.000    22410945.465 8 117770341.18008     -1409.433 8        48.217                                                                    22410946.565 8  87945409.36908     -1052.453 8        50.735    22410946.231 8  90239630.07808     -1079.910 8        52.146
E15         7.000    26031368.999 7 136795778.27307     -1986.948 7        43.191                                                                    26031370.386 7 102152712.38707     -1483.736 7        46.185    26031369.706 7 104817563.83407     -1522.507 7        46.844
R10         8.000    19578292.993 7 104363318.03607       142.160 7        47.210
E31         9.000    27005906.070 6 141916980.01506     -2103.546 6        39.607                                                                    27005908.823 7 105976982.42207     -1571.016 7        42.804    27005908.302 7 108741598.16507     -1611.859 7        43.399
G04        10.000    25568002.976 4 134360593.50104     -3622.475 4        28.777                                    25568011.672 1 104696522.58201     -2822.762 1         5.286    25568013.331 4 104696517.46704     -2822.169 4        28.654
E09        11.000    27917191.561 6 146705756.98606     -2810.115 6        39.060                                                                    27917199.482 6 109552981.18606     -2098.256 6        41.449    27917198.806 7 112410888.51607     -2153.074 7        43.534
S27        12.000    39231185.566 6 206161206.82906      -425.079 6        36.590
G06        13.000    25778094.839 3                     -3836.427 3        22.819                                                                                                    25778101.749 4 105556956.21204     -2990.580 4        28.218
S36        14.000    38345344.827 7 201506648.83407      -402.504 7        44.837
G20        15.000    20801128.709 8 109310667.48108      -523.811 8        48.377                                    20801124.240 6  85177123.01906      -408.162 6        40.107
R11        16.000    21796101.149 8 116471760.88308      3668.615 8        48.203                                                                    21796100.811 7  90589147.11207      2853.367 7        46.183
S45        17.000    63527843.187 6 333841565.50406      -445.312 6        36.960
E13        18.000    27225250.623 6 143069679.02206       653.849 6        40.451                                                                    27225251.500 7 106837738.69807       488.236 7        43.154    27225251.123 7 109624810.74807       500.984 7        44.382
E24        19.000    25384710.247 7 133397528.08007       528.882 7        45.755                                                                    25384711.254 8  99615044.20708       394.926 8        48.601    25384710.300 8 102213694.61608       405.263 8        49.227
G30        21.000    20651194.600 8 108522776.83608       353.574 8        50.987                                    20651193.075 8  84563208.99108       275.513 8        52.490    20651193.796 7  84563212.98807       275.477 7        45.302
I06        22.000    38104436.243 7 149530179.76507      -323.560 7        43.363
S28        23.000    41007512.744 5 215495822.49605      -406.061 5        35.595
G14        24.000    23700604.870 6 124547517.76306      3085.085 6        41.342                                    23700604.426 4  97050015.59004      2403.961 4        28.720    23700604.569 6  97050017.60106      2404.006 6        41.845
S23        25.000    38280596.166 7 201165848.07207      -399.519 7        45.043
E08        26.000    28235683.300 6 148379520.48806      2059.149 6        38.066                                                                    28235681.965 6 110802887.98906      1537.647 6        39.315    28235681.559 6 113693395.63606      1577.816 6        40.515
G13        28.000    22993077.989 7 120829451.27507      2629.493 7        43.435                                    22993073.484 4  94152800.64504      2048.952 4        26.359
R09        29.000    21146342.918 8 112920283.90908     -3312.328 8        48.604                                                                    21146341.994 7  87826887.55407     -2576.217 7        46.085
C22        30.000                                                                                                                                    21704836.203 8 113022790.82408     -1147.520 8        52.347                                                                    21704830.601 8  91840259.52208      -932.409 8        50.202
I01        31.000   344011348.956 6  46833527.06406     -3002.043 6        40.808
E03        32.000    24179215.783 7 127062650.63207       920.579 7        47.504                                                                    24179215.856 8  94884465.05208       687.386 8        50.524    24179215.476 8  97359705.93108       705.353 8        51.553
G05        33.000    22000949.721 7 115615795.17107      1888.601 7        46.271                                    22000945.491 7  90090228.61607      1471.641 7        44.653    22000945.576 7  90090231.61107      1471.683 7        42.618
R24        34.000    23254274.961 7 124351073.17307     -2798.458 7        46.317                                                                    23254273.344 6  96717503.84006     -2176.499 6        39.411
C36        35.000                                                                                                                                    22038430.399 8 114759886.97608      -650.562 8        51.350                                                                    22038435.593 8  93251828.82008      -528.575 8        50.478
G11        36.000    24069971.568 7 126488558.64007     -3363.122 7        42.637                                    24069969.703 4  98562506.20004     -2620.608 4        27.772    24069969.889 6  98562506.19406     -2620.743 6        41.159
I09        38.000    38919503.656 6 152728413.71106      -858.061 6        41.771
R08        39.000    19444364.339 8 104123691.64608      -212.416 8        50.324                                                                    19444362.318 7  80985092.50007      -165.172 7        46.860
E25        40.000    26389864.795 7 138679686.47207      2574.758 7        42.883                                                                    26389868.591 7 103559512.47607      1922.663 7        45.646    26389867.544 7 106261056.65107      1972.915 7        46.366
G27        41.000    25268260.901 6 132785613.90006       784.751 6        36.798                                    25268263.684 4 103469321.48404       611.495 4        25.970    25268264.343 5 103469325.48205       611.518 5        33.719
S44        42.000    40989863.889 6 215403250.31106      -446.278 6        37.819
C09        43.000                                                                                                                                    40026654.796 6 208429269.06606     -1184.585 6        38.174    40026654.368 7 161170710.64907      -916.049 7        42.711    40026651.848 6 169365825.16406      -962.528 6        39.144
C05        44.000                                                                                                                                    39401066.275 6 205171660.71006      -461.708 6        38.565    39401064.927 7 158651750.07307      -356.853 7        43.088    39401065.629 6 166718870.39306      -374.894 6        39.751
C21        46.000                                                                                                                                    23306907.005 8 121365182.62008      1749.894 8        49.176                                                                    23306901.749 8  98619124.75508      1422.010 8        48.935
R17        47.000    23391112.230 7 125170580.03707       459.111 7        43.570                                                                    23391112.412 6  97354901.44106       357.232 6        40.372
C06        49.000                                                                                                                                    40860192.860 5 212769675.01105     -1388.608 5        35.067    40860193.145 6 164526967.83006     -1073.499 6        39.147    40860191.904 6 172892748.81706     -1127.982 6        36.446
C16        50.000                                                                                                                                    41403798.491 6 215600354.77506     -1331.931 6        37.679    41403804.908 6 166715852.30306     -1029.753 6        38.057    41403800.739 5 175192925.50805     -1082.258 5        33.186
S48        51.000    77303314.835 6 406231194.08006      -387.643 6        38.417
C19        52.000                                                                                                                                    25284853.221 7 131664849.04507     -3317.953 7        44.008                                                                    25284852.155 7 106988462.39307     -2696.144 7        45.294
C60        54.000                                                                                                                                    40989866.409 6 213445057.14506      -442.297 6        40.040                                                                    40989857.320 6 173441533.86306      -359.297 6        39.174
C45        55.000                                                                                                                                    23257815.046 8 121109545.25408      2225.294 8        49.464                                                                    23257808.353 8  98411398.93608      1808.297 8        48.857
C11        56.000                                                                                                                                    26567776.470 6 138345380.56006     -1924.527 6        36.537    26567771.826 6 106977404.38606     -1488.129 6        41.495    26567770.478 6 112416931.13106     -1563.727 6        38.667
C02        57.000                                                                                                                                    40973731.127 5                      -475.859 5        34.295    40973734.336 6 164984111.88106      -368.319 6        41.185    40973734.313 5 173373153.89705      -387.238 5        34.810
I03        58.000   127127601.901 6 423090589.72106       904.631 6        40.334
R07        59.000    21475303.876 8 114958963.57108     -3278.554 8        48.754                                                                    21475304.725 7  89412517.29607     -2550.017 7        44.343
G07        60.000    21376400.204 8 112333756.72408     -1827.154 8        48.128                                    21376396.598 8  87532788.61508     -1423.753 8        48.351    21376396.724 7  87532789.60907     -1423.725 7        45.251
> 2025 01 01 06 30 20.0000000  0 54
G08         1.000    25336209.636 5 133142670.08705      1843.967 5        32.994                                    25336217.585 3 103747575.94713      1436.833 3        19.582    25336219.132 5 103747586.01005      1437.109 5        32.234
R01         2.000    21905586.802 7 117097908.96407      2985.305 7        43.731                                                                    21905586.935 6  91076219.86706      2321.941 6        38.351
G09         3.000    22968576.829 7 120700667.87107     -3321.036 7        42.927                                    22968578.860 6  94052463.23006     -2587.814 6        40.908    22968578.648 6  94052464.22306     -2587.856 6        40.605
E34         4.000    27545041.088 6 144750136.97306     -3528.712 6        40.098                                                                    27545043.564 7 108092631.17207     -2635.145 7        42.178    27545042.707 7 110912439.58407     -2703.893 7        43.327
S21         5.000    38577241.026 7 202724552.43307      -401.840 7        43.791
E05         6.000    22412287.054 8 117777390.35108     -1410.408 8        48.079                                                                    22412288.028 8  87950673.34808     -1053.218 8        50.834    22412287.637 8  90245031.37608     -1080.673 8        52.223
E15         7.000    26033260.115 7 136805717.94207     -1989.120 7        43.310                                                                    26033261.849 7 102160134.84307     -1485.299 7        46.206    26033261.285 7 104825179.91607     -1524.082 7        46.881
R10         8.000    19578161.871 7 104362618.10207       137.585 7        47.314
E31         9.000    27007908.625 6 141927502.65006     -2105.547 6        39.577                                                                    27007911.169 7 105984840.21907     -1572.456 7        42.802    27007910.763 7 108749660.95507     -1613.368 7        43.532
G04        10.000    25571450.187 4 134378704.05404     -3622.365 4        28.521                                    25571457.978 1 104710634.73001     -2822.986 1         3.200    25571458.758 4 104710629.61804     -2822.941 4        28.199
E09        11.000    27919865.061 6 146719807.01506     -2810.340 6        38.640                                                                    27919873.122 6 109563473.03106     -2098.523 6        41.614    27919872.364 7 112421654.05707     -2153.258 7        43.708
S27        12.000    39231589.542 6 206163332.85906      -425.300 6        36.556
G06        13.000    25781746.750 3                     -3838.174 3        23.924                                                                                                    25781753.498 4 105571911.37104     -2991.055 4        28.635
S36        14.000    38345727.043 7 201508661.36707      -402.677 7        44.668
G20        15.000    20801628.438 8 109313294.58108      -527.133 8        48.418                                    20801624.181 6  85179170.09806      -410.748 6        40.100
R11        16.000    21792668.974 8 116453422.71408      3666.594 8        48.030                                                                    21792669.929 7  90574884.09307      2851.803 7        46.077
S45        17.000    63528227.899 6 333843791.50706      -445.245 6        36.669
E13        18.000    27224629.637 6 143066415.25006       651.659 6        39.480                                                                    27224630.617 7 106835301.45607       486.560 7        43.098    27224629.982 7 109622309.93107       499.215 7        44.588
E24        19.000    25384208.234 7 133394889.38107       526.536 7        45.622                                                                    25384209.099 8  99613073.74008       393.176 8        48.620    25384208.193 8 102211672.75008       403.371 8        49.316
G30        21.000    20650859.266 8 108521015.02408       351.104 8        51.006                                    20650857.815 8  84561836.14408       273.590 8        52.467    20650858.464 7  84561840.14407       273.573 7        45.193
I06        22.000    38104848.429 7 149531797.20907      -323.580 7        43.281
S28        23.000    41007902.777 5 215497852.08405      -406.186 5        35.167
G14        24.000    23697669.923 7 124532093.50107      3084.389 7        42.650                                    23697669.325 4  97037996.69404      2403.421 4        28.825    23697669.582 6  97037998.69106      2403.433 6        41.809
S23        25.000    38280976.012 7 201167845.63507      -399.577 7        44.870
E08        26.000    28233723.501 6 148369224.29906      2059.273 6        36.979                                                                    28233722.797 6 110795199.26806      1537.715 6        39.342    28233722.288 6 113685506.35906      1577.752 6        40.601
G13        28.000    22990576.484 7 120816305.64707      2628.730 7        43.604                                    22990571.951 4  94142557.29804      2048.363 4        26.323
R09        29.000    21149445.476 8 112936852.84508     -3315.323 8        48.421                                                                    21149445.219 7  87839774.49207     -2578.584 7        46.334
C22        30.000                                                                                                                                    21705939.247 8 113028533.40708     -1149.637 8        52.231                                                                    21705933.374 8  91844925.84308      -934.017 8        50.161
I01        31.000   344015174.398 6  46848537.90306     -3002.219 6        40.782
E03        32.000    24178340.208 7 127058049.66707       919.658 7        47.637                                                                    24178340.325 8  94881029.25108       686.836 8        50.582    24178339.954 8  97356180.50508       704.699 8        51.660
G05        33.000    21999153.671 7 115606357.86507      1886.117 7        46.485                                    21999149.629 7  90082874.85807      1469.704 7        44.734    21999149.921 7  90082877.85107      1469.830 7        42.741
R24        34.000    23256893.166 7 124365072.60707     -2801.476 7        46.264                                                                    23256891.641 6  96728392.28706     -2178.905 6        40.114
C36        35.000                                                                                                                                    22039056.183 8 114763146.07908      -653.202 8        51.118                                                                    22039061.474 8  93254477.11308      -530.635 8        50.442
