     3.04           OBSERVATION DATA    M                   RINEX VERSION / TYPE
ssrcrin-15.6.1x                         20250101 114500 UTC PGM / RUN BY / DATE 
(00000000023479385599111004) Septentrio proprietary         COMMENT             
rref                                                        MARKER NAME         
01                                                          MARKER NUMBER       
geodetic                                                    MARKER TYPE         
NFB                 CLIMERS@TUW                             OBSERVER / AGENCY   
3297213             SEPT ASTERX SB3 PROB4.14.4              REC # / TYPE / VERS 
Unknown             Unknown                                 ANT # / TYPE        
  4127831.7778  1207192.7770  4695246.6423                  APPROX POSITION XYZ 
        0.0000        0.0000        0.0000                  ANTENNA: DELTA H/E/N
G   23 X1  C1C L1C D1C S1C C1W S1W C2W L2W D2W S2W C2L L2L  SYS / # / OBS TYPES 
       D2L S2L C5Q L5Q D5Q S5Q C1L L1L D1L S1L              SYS / # / OBS TYPES 
E   21 X1  C1C L1C D1C S1C C6C L6C D6C S6C C5Q L5Q D5Q S5Q  SYS / # / OBS TYPES 
       C7Q L7Q D7Q S7Q C8Q L8Q D8Q S8Q                      SYS / # / OBS TYPES 
S    9 X1  C1C L1C D1C S1C C5I L5I D5I S5I                  SYS / # / OBS TYPES 
R   17 X1  C1C L1C D1C S1C C2P L2P D2P S2P C2C L2C D2C S2C  SYS / # / OBS TYPES 
       C3Q L3Q D3Q S3Q                                      SYS / # / OBS TYPES 
C   25 X1  C1P L1P D1P S1P C5P L5P D5P S5P C2I L2I D2I S2I  SYS / # / OBS TYPES 
       C7I L7I D7I S7I C6I L6I D6I S6I C7D L7D D7D S7D      SYS / # / OBS TYPES 
J   17 X1  C1C L1C D1C S1C C2L L2L D2L S2L C5Q L5Q D5Q S5Q  SYS / # / OBS TYPES 
       C1L L1L D1L S1L                                      SYS / # / OBS TYPES 
I    5 X1  C5A L5A D5A S5A                                  SYS / # / OBS TYPES 
SEPTENTRIO RECEIVERS OUTPUT ALIGNED CARRIER PHASES.         COMMENT             
NO FURTHER PHASE SHIFT APPLIED IN THE RINEX ENCODER.        COMMENT             
G L1C                                                       SYS / PHASE SHIFT   
G L2W                                                       SYS / PHASE SHIFT   
G L2L  0.00000                                              SYS / PHASE SHIFT   
G L5Q  0.00000                                              SYS / PHASE SHIFT   
G L1L  0.00000                                              SYS / PHASE SHIFT   
E L1C  0.00000                                              SYS / PHASE SHIFT   
E L6C  0.00000                                              SYS / PHASE SHIFT   
E L5Q  0.00000                                              SYS / PHASE SHIFT   
E L7Q  0.00000                                              SYS / PHASE SHIFT   
E L8Q  0.00000                                              SYS / PHASE SHIFT   
S L1C                                                       SYS / PHASE SHIFT   
S L5I                                                       SYS / PHASE SHIFT   
R L1C                                                       SYS / PHASE SHIFT   
R L2P  0.00000                                              SYS / PHASE SHIFT   
R L2C                                                       SYS / PHASE SHIFT   
R L3Q  0.00000                                              SYS / PHASE SHIFT   
C L1P  0.00000                                              SYS / PHASE SHIFT   
C L5P  0.00000                                              SYS / PHASE SHIFT   
C L2I                                                       SYS / PHASE SHIFT   
C L7I                                                       SYS / PHASE SHIFT   
C L6I                                                       SYS / PHASE SHIFT   
C L7D                                                       SYS / PHASE SHIFT   
J L1C                                                       SYS / PHASE SHIFT   
J L2L  0.00000                                              SYS / PHASE SHIFT   
J L5Q  0.00000                                              SYS / PHASE SHIFT   
J L1L  0.00000                                              SYS / PHASE SHIFT   
I L5A                                                       SYS / PHASE SHIFT   
  2025     1     1    11    45    0.0000000     GPS         TIME OF FIRST OBS   
 C1C    0.000 C2C    0.000 C2P    0.000                     GLONASS COD/PHS/BIS 
DBHZ                                                        SIGNAL STRENGTH UNIT
    18                                                      LEAP SECONDS        
 24 R01  1 R02 -4 R03  5 R04  6 R05  1 R06 -4 R07  5 R08  6 GLONASS SLOT / FRQ #
    R09 -2 R10 -7 R11  0 R12 -1 R13 -2 R14 -7 R15  0 R16 -1 GLONASS SLOT / FRQ #
    R17  4 R18 -3 R19  3 R20  2 R21  4 R22 -3 R23  3 R24  2 GLONASS SLOT / FRQ #
                                                            END OF HEADER       
> 2025 01 01 11 45  0.0000000  0 57
G19         1.000    21211744.912 7 111468626.42907      -967.541 7        46.597                                    21211746.085 6  86858757.47106      -753.927 6        37.803
G25         2.000    23765522.999 6 124888672.72906      2879.805 6        40.052                                    23765534.685 5  97315902.19405      2243.997 5        32.988    23765535.784 6  97315912.21806      2243.995 6        36.446
G24         3.000    20023548.249 8 105224472.92208      -716.580 8        50.817                                    20023551.939 8  81993128.85608      -558.372 8        53.128    20023552.381 7  81993125.85807      -558.384 7        46.614
R02         4.000    22736878.950 7 121328143.78607     -5016.715 7        45.770                                                                    22736892.222 7  94366298.35907     -3901.956 7        42.241
S21         5.000    38421451.383 7 201905728.25807      -576.692 7        42.838
G06         6.000    24714525.917 6 129875734.49906      2267.930 6        37.550                                    24714539.028 5 101201938.26705      1767.219 5        30.053    24714540.159 6 101201929.27406      1767.168 6        36.790
G17         7.000    23166477.284 7 121740766.51407     -3125.462 7        44.169                                    23166483.094 6  94863010.23606     -2435.417 6        39.303    23166483.007 6  94863006.22006     -2435.427 6        39.796
R21         8.000    22883661.694 7 122455135.24307     -2970.263 7        44.381                                                                    22883674.357 6  95242952.47206     -2310.188 6        40.489
E12         9.000    29092169.983 4 152880474.88204     -1911.518 4        29.829                                                                    29092175.403 5 114164069.55405     -1426.954 5        35.562    29092174.512 6 117142248.10006     -1463.999 6        36.295
E30        10.000    24513956.418 7 128821838.43907       980.659 7        47.450                                                                    24513964.096 8  96198230.34708       732.342 8        49.833    24513962.749 8  98707738.63508       751.385 8        50.223
C26        11.000                                                                                                                                    22166680.255 8 115427712.09408     -1835.719 8        50.548                                                                    22166684.278 8  93794483.41808     -1491.665 8        48.749
S27        12.000    39185213.348 6 205919422.86206      -604.071 6        36.836
G15        13.000    23021195.607 7 120977038.74307     -4268.651 7        44.399                                    23021202.167 6  94267765.27806     -3326.217 6        39.637    23021202.593 6  94267757.26606     -3326.182 6        39.658
S36        14.000    38193103.496 7 200706485.98507      -577.509 7        44.668
G12        15.000    21028062.208 8 110503341.20808      1466.983 8        49.178                                    21028064.204 8  86106571.20408      1143.103 8        48.651    21028064.782 7  86106571.20607      1143.100 7        44.426
E29        16.000    28077406.321 6 147547686.12306      2186.717 6        37.656                                                                    28077419.759 6 110181719.25806      1632.988 6        40.896    28077418.056 6 113056023.40306      1675.576 6        41.561
S45        17.000    63382024.404 6 333075682.38006      -637.056 6        36.095
R03        18.000    20446735.945 8 109452918.35008     -2271.268 8        50.893                                                                    20446740.860 7  85130046.45607     -1766.517 7        46.320
C35        19.000                                                                                                                                    23368390.503 8 121685455.48908       854.540 8        48.083                                                                    23368395.123 7  98879472.42907       694.414 7        46.416
E11        20.000    27481838.648 6 144418064.85106       366.570 6        36.015                                                                    27481851.639 6 107844724.27706       273.792 6        38.204    27481849.243 6 110658055.56306       280.899 6        37.187
R14        21.000    22835090.350 7 121723874.43507      2562.512 7        47.077                                                                    22835103.131 6  94674174.84806      1992.983 6        41.173
I06        22.000    38331832.070 7 150422370.66407      -542.213 7        42.070
S28        23.000    40883998.123 5 214846640.02005      -586.658 5        35.100
G14        24.000    25451926.644 5 133750600.43305     -3899.917 5        33.180                                    25451937.460 1 104221204.25601     -3038.778 1        10.296    25451936.920 5 104221206.29905     -3038.965 5        33.042
S23        25.000    38129161.641 7 200369907.82907      -580.912 7        45.023
E08        26.000    24557973.230 7 129052915.81107     -2720.823 7        47.276                                                                    24557980.107 8  96370651.08708     -2031.755 8        49.066    24557978.907 8  98884669.34008     -2084.783 8        49.606
C07        27.000                                                                                                                                    39531444.424 6 205850515.46606     -1400.925 6        39.291    39531450.424 7 159176665.98307     -1083.174 7        42.345    39531445.899 6 167270386.33106     -1138.349 6        39.261
G13        28.000    24518566.308 6 128845698.51806     -4518.713 6        38.997                                    24518577.685 3 100399164.31603     -3521.045 3        18.896
I02        29.000    36881991.979 7 144732837.21807      -459.391 7        43.427
G10        30.000    24577362.779 6 129154739.93606     -1810.463 6        40.122                                    24577375.694 5 100640017.74705     -1410.741 5        32.204    24577375.135 5 100640009.74805     -1410.771 5        35.681
E07        31.000    24418575.889 7 128320408.67407       131.063 7        46.539                                                                    24418584.792 8  95823678.65508        97.884 8        49.593    24418583.533 8  98323424.88108       100.383 8        50.184
E03        32.000    28045550.346 5 147380092.60405     -3815.033 5        30.468                                                                    28045571.896 5 110056496.48405     -2849.016 5        34.224    28045569.051 5 112927539.28205     -2923.000 5        34.881
E10        33.000    28123739.647 6 147791263.21506      -903.369 6        36.851                                                                    28123754.916 6 110363681.20306      -674.675 6        40.911    28123753.099 6 113242721.69706      -692.322 6        41.440
R23        34.000    22769575.100 7 121801904.01307      3520.581 7        44.506
C24        35.000                                                                                                                                    21929010.124 8 114190144.63908       808.156 8        50.822                                                                    21929012.073 8  92788867.43008       656.718 8        50.005
G23        36.000    24972213.704 6 131229651.11606     -3414.861 6        37.350                                    24972225.004 2 102256800.53902     -2660.923 2        17.887    24972224.765 5 102256801.54405     -2660.971 5        35.971
E27        37.000    28613323.422 6 150364002.47306      2073.726 6        36.518                                                                    28613342.948 6 112284881.64006      1548.550 6        38.384    28613340.813 6 115214041.63406      1588.927 6        38.796
R04        38.000    21588156.427 8 115603498.13008      1598.061 8        48.809                                                                    21588164.319 7  89913815.88107      1242.927 7        44.867
C33        39.000                                                                                                                                    24187058.017 7 125948320.25707     -1728.593 7        46.228                                                                    24187076.810 7 102343393.62307     -1404.623 7        46.161
E25        40.000    27090768.022 6 142362813.50506     -3152.119 6        38.754                                                                    27090783.567 7 106309855.81607     -2353.829 7        42.698    27090781.668 7 109083153.16507     -2415.170 7        43.348
S44        42.000    40810267.989 6 214459353.92006      -519.114 6        38.369
R22        43.000    21432873.903 7 114410255.94607       937.190 7        47.738                                                                    21432881.595 7  88985839.15407       728.917 7        44.758
C05        44.000                                                                                                                                    39437178.926 6 205359575.70106      -595.308 6        38.694    39437186.905 7 158797022.94907      -460.251 7        42.832    39437185.384 6 166871538.73906      -483.642 6        39.544
C40        45.000                                                                                                                                    39858755.483 6 207554901.15006     -1680.254 6        40.632                                                                    39858763.984 6 168655353.29206     -1365.319 6        39.940
G32        46.000    24949134.727 6 131108469.62006      2606.502 6        41.235                                    24949145.687 5 102162440.23005      2031.057 5        33.311    24949146.037 6 102162442.20306      2031.123 6        38.207
E36        47.000    27975997.619 6 147014864.84206      2052.152 6        37.739                                                                    27976015.923 7 109783916.91407      1532.355 7        42.023    27976013.111 6 112647831.20506      1572.386 6        39.748
C10        49.000                                                                                                                                    38755976.735 6 201812520.78806     -1089.493 6        41.483    38755983.556 7 156054250.98507      -842.477 7        44.030    38755979.420 6 163989201.47906      -885.380 6        40.939
C42        50.000                                                                                                                                    25381677.386 7 132168848.99307     -3764.593 7        42.529                                                                    25381696.166 7 107398009.42407     -3059.020 7        43.388
S48        51.000    77129685.555 6 405320068.66406      -579.085 6        38.381
E02        53.000    23452063.651 8 123241492.95308     -1573.389 8        48.474                                                                    23452069.810 8  92031056.95108     -1174.917 8        51.190    23452068.466 8  94431849.24808     -1205.572 8        51.177
C60        54.000                                                                                                                                    40810267.164 6 212509740.78506      -514.342 6        40.060                                                                    40810262.743 6 172681492.88206      -418.012 6        38.901
C45        55.000                                                                                                                                    26254419.801 6 136713440.67206     -3370.709 6        40.415                                                                    26254423.069 6 111090798.38606     -2739.011 6        41.685
R12        56.000    20656508.298 8 110343403.79808     -2882.030 8        49.274                                                                    20656515.926 7  85822673.11007     -2241.569 7        46.002
C02        57.000                                                                                                                                    40957508.233 5 213276300.13005      -555.300 5        31.004    40957517.648 6 164918695.52606      -429.270 6        36.408    40957516.583 5 173304417.17005      -451.321 5        30.672
I03        58.000   120966885.754 5 398914468.27605       885.919 5        33.263
C14        59.000                                                                                                                                    24372283.999 7 126912749.05907     -2996.314 7        43.281    24372290.679 8  98136942.61508     -2317.010 8        48.357    24372287.039 7 103126961.46407     -2434.806 7        45.664
R13        60.000    19500966.084 7 104134147.05907       -91.820 7        45.944
> 2025 01 01 11 45  5.0000000  0 57
G19         1.000    21212667.517 7 111473473.22607      -970.702 7        46.620                                    21212668.379 6  86862534.18606      -756.390 6        37.694
G25         2.000    23762783.770 6 124874276.47506      2879.265 6        40.160                                    23762795.298 5  97304684.35405      2243.580 5        33.006    23762795.772 6  97304694.37106      2243.520 6        36.919
G24         3.000    20024231.270 8 105228063.41108      -719.229 8        50.787                                    20024235.185 8  81995926.63408      -560.436 8        53.067    20024235.444 7  81995923.63807      -560.442 7        46.701
R02         4.000    22741580.973 7 121353230.72907     -5017.588 7        46.606                                                                    22741593.342 7  94385810.34607     -3902.574 7        42.455
S21         5.000    38422000.878 7 201908611.93207      -576.561 7        42.976
G06         6.000    24712368.274 6 129864398.36306      2266.860 6        37.214                                    24712381.855 5 101193104.90405      1766.390 5        30.219    24712382.940 6 101193095.90406      1766.470 6        37.096
G17         7.000    23169451.776 7 121756399.69207     -3127.407 7        43.860                                    23169457.917 6  94875191.90406     -2436.931 6        39.033    23169458.470 6  94875187.90406     -2436.818 6        39.871
R21         8.000    22886440.254 7 122469995.85307     -2973.659 7        44.542                                                                    22886451.816 6  95254510.69006     -2312.954 6        40.429
E12         9.000    29093988.123 4 152890034.39504     -1913.154 4        29.801                                                                    29093994.456 6 114171208.16506     -1428.470 6        36.465    29093993.504 6 117149572.93706     -1465.821 6        37.214
E30        10.000    24513024.131 7 128816938.86307       979.578 7        47.233                                                                    24513031.775 8  96194571.58608       731.492 8        49.896    24513030.392 8  98703984.42808       750.525 8        50.142
C26        11.000                                                                                                                                    22168443.814 8 115436894.85208     -1836.996 8        50.588                                                                    22168447.789 8  93801945.16308     -1492.923 8        48.844
S27        12.000    39185783.936 6 205922442.43106      -603.333 6        36.699
G15        13.000    23025257.802 7 120998385.17107     -4269.457 7        44.257                                    23025264.202 6  94284398.82006     -3326.841 6        39.489    23025265.399 6  94284390.79606     -3326.841 6        39.673
S36        14.000    38193653.408 7 200709374.05107      -577.202 7        44.671
G12        15.000    21026667.366 8 110496012.25908      1464.995 8        49.073                                    21026669.523 8  86100860.34208      1141.553 8        48.607    21026669.950 7  86100860.34207      1141.589 7        44.378
E29        16.000    28075326.278 6 147536755.68706      2186.175 6        36.745                                                                    28075339.984 6 110173556.88806      1632.357 6        41.342    28075338.129 6 113047648.09806      1674.909 6        41.170
S45        17.000    63382579.806 6 333078868.22006      -636.952 6        36.522
R03        18.000    20448859.782 8 109464285.73808     -2275.344 8        50.951                                                                    20448864.518 7  85138887.74707     -1769.734 7        45.865
C35        19.000                                                                                                                                    23367570.483 7 121681189.61107       852.148 7        47.955                                                                    23367575.974 7  98876006.07807       692.257 7        46.463
E11        20.000    27481491.367 5 144416238.01605       364.562 5        35.671                                                                    27481504.068 6 107843360.09606       272.081 6        37.913    27481501.676 6 110656655.78006       279.275 6        37.308
R14        21.000    22832688.001 7 121711064.08107      2562.001 7        47.497                                                                    22832700.543 6  94664211.26006      1992.563 6        41.163
I06        22.000    38332523.178 7 150425081.72807      -541.981 7        42.009
S28        23.000    40884557.424 5 214849573.67705      -586.782 5        35.424
G14        24.000    25455636.737 5 133770099.87105     -3899.581 5        32.802                                    25455648.115 1 104236398.69101     -3038.665 1         9.524    25455647.300 5 104236400.67405     -3038.331 5        32.425
S23        25.000    38129715.465 7 200372813.26907      -580.852 7        45.114
E08        26.000    24560563.000 7 129066524.91507     -2722.426 7        47.081                                                                    24560569.843 8  96380813.71808     -2032.982 8        49.076    24560568.694 8  98895097.08208     -2086.009 8        49.364
C07        27.000                                                                                                                                    39532789.487 6 205857521.05506     -1401.073 6        39.447    39532795.599 7 159182083.16107     -1083.408 7        42.415    39532791.224 6 167276078.93906     -1138.705 6        39.294
G13        28.000    24522866.507 6 128868293.73406     -4518.873 6        38.718                                    24522877.392 3 100416770.89003     -3521.170 3        18.657
I02        29.000    36882577.411 7 144735135.47307      -459.547 7        43.217
G10        30.000    24579087.511 6 129163799.55306     -1813.038 6        39.583                                    24579099.728 5 100647077.16605     -1412.755 5        32.096    24579099.235 6 100647069.13806     -1412.788 6        36.238
E07        31.000    24418452.303 7 128319759.68907       128.920 7        46.343                                                                    24418461.290 8  95823194.01208        96.324 8        49.575    24418460.071 8  98322927.60308        98.715 8        50.059
E03        32.000    28049180.185 5 147399168.43905     -3814.971 5        30.181                                                                    28049202.444 5 110070741.28305     -2848.789 5        33.844    28049199.358 5 112942155.72505     -2923.116 5        34.319
E10        33.000    28124600.379 6 147795787.43406      -905.854 6        36.560                                                                    28124615.812 6 110367059.69206      -676.387 6        40.953    28124613.938 6 113246188.31506      -694.103 6        41.280
R23        34.000    22766284.693 7 121784305.24507      3519.302 7        43.754
C24        35.000                                                                                                                                    21928234.871 8 114186107.47708       807.052 8        50.842                                                                    21928236.809 8  92785586.91308       655.549 8        50.054
G23        36.000    24975464.074 6 131246728.36606     -3415.589 6        37.928                                    24975474.600 2 102270107.48202     -2661.506 2        17.774    24975474.201 5 102270108.45605     -2661.525 5        35.643
E27        37.000    28611351.068 6 150353636.07006      2073.581 6        36.450                                                                    28611370.398 6 112277140.45506      1548.441 6        38.456    28611368.093 6 115206098.51906      1588.729 6        38.559
R04        38.000    21586666.540 8 115595517.97908      1594.358 8        49.302                                                                    21586674.027 7  89907609.09907      1239.978 7        44.476
C33        39.000                                                                                                                                    24188718.636 7 125956970.51707     -1731.197 7        46.098                                                                    24188738.028 7 102350422.65907     -1406.794 7        46.240
E25        40.000    27093767.629 6 142378574.76906     -3152.045 6        38.583                                                                    27093782.928 7 106321625.55607     -2353.758 7        42.847    27093780.761 7 109095229.95407     -2415.177 7        43.027
S44        42.000    40810761.343 6 214461949.94306      -518.956 6        38.381
R22        43.000    21431998.137 7 114405581.02407       933.214 7        47.161                                                                    21432005.832 7  88982203.13907       725.822 7        45.132
C05        44.000                                                                                                                                    39437750.336 6 205362552.27306      -595.014 6        38.724    39437758.374 7 158799324.60207      -460.059 7        42.851    39437757.032 6 166873957.44706      -483.727 6        39.592
C40        45.000                                                                                                                                    39860369.119 6 207563303.77006     -1680.446 6        40.865                                                                    39860377.598 6 168662181.10606     -1365.675 6        40.186
G32        46.000    24946655.373 6 131095440.63206      2605.413 6        40.896                                    24946666.422 5 102152287.72605      2030.202 5        33.114    24946666.047 6 102152289.70306      2030.394 6        37.524
E36        47.000    27974045.581 6 147004606.69906      2051.545 6        37.728                                                                    27974063.897 7 109776256.63207      1531.926 7        42.047    27974060.792 6 112639971.09206      1571.984 6        39.426
C10        49.000                                                                                                                                    38757023.377 6 201817969.69506     -1089.830 6        41.647    38757030.042 7 156058464.41407      -842.676 7        43.827    38757025.881 6 163993629.14106      -885.650 6        41.094
C42        50.000                                                                                                                                    25385292.800 7 132187674.16107     -3765.120 7        43.232                                                                    25385311.282 7 107413306.38607     -3059.720 7        43.382
S48        51.000    77130231.491 6 405322965.32306      -579.045 6        38.375
E02        53.000    23453561.405 8 123249363.51508     -1574.455 8        48.373                                                                    23453567.558 8  92036934.31208     -1175.779 8        51.135    23453566.173 8  94437879.93208     -1206.428 8        51.028
C60        54.000                                                                                                                                    40810760.988 6 212512313.20206      -514.223 6        40.176                                                                    40810756.585 6 172683583.18806      -417.974 6        38.994
C45        55.000                                                                                                                                    26257656.630 6 136730295.64706     -3370.793 6        40.517                                                                    26257659.908 6 111104494.42306     -2739.344 6        41.428
R12        56.000    20659206.893 8 110357817.97808     -2883.212 8        49.635                                                                    20659214.735 7  85833884.12607     -2242.504 7        46.461
C02        57.000                                                                                                                                    40958041.787 5 213279076.58305      -554.985 5        30.981    40958050.791 6 164920842.46306      -429.142 6        36.174    40958049.404 5                      -451.425 5        30.377
I03        58.000   120965757.865 5 398910037.97105       886.239 5        32.653
C14        59.000                                                                                                                                    24375162.663 7 126927736.30007     -2998.116 7        43.439    24375169.269 8  98148531.67308     -2318.279 8        48.035    24375165.299 7 103139139.80507     -2436.427 7        45.740
R13        60.000    19501053.308 7 104134612.28507       -93.741 7        46.341
> 2025 01 01 11 45 10.0000000  0 57
G19         1.000    21213593.026 7 111478337.61007      -974.608 7        46.438                                    21213594.032 6  86866324.60506      -759.435 6        37.766
G25         2.000    23760044.946 6 124859884.76606      2878.010 6        40.307                                    23760056.782 5  97293470.06505      2242.604 5        33.090    23760057.524 6  97293480.07206      2242.551 6        38.111
G24         3.000    20024917.406 8 105231668.51108      -722.427 8        50.599                                    20024921.212 8  81998735.80008      -562.932 8        53.156    20024921.707 7  81998732.80807      -562.917 7        47.097
R02         4.000    22746283.650 7 121378323.11007     -5019.099 7        46.899                                                                    22746295.412 7  94405326.57907     -3903.753 7        42.372
S21         5.000    38422550.146 7 201911496.43507      -576.964 7        43.092
G06         6.000    24710212.455 6 129853068.12606      2265.433 6        37.304                                    24710225.858 5 101184276.15305      1765.271 5        30.475    24710226.688 6 101184267.15506      1765.280 6        37.569
G17         7.000    23172428.957 7 121772043.72807     -3129.889 7        43.657                                    23172434.846 6  94887382.03106     -2438.869 6        39.087    23172435.302 6  94887378.01406     -2438.769 6        40.262
R21         8.000    22889220.639 7 122484875.84507     -2977.943 7        44.564                                                                    22889232.118 6  95266083.98706     -2316.164 6        39.835
E12         9.000    29095809.794 4 152899605.48704     -1915.273 4        29.602                                                                    29095815.828 6 114178355.40106     -1430.083 6        36.344    29095814.593 6 117156906.64006     -1467.481 6        36.805
E30        10.000    24512092.854 7 128812046.34907       977.759 7        47.490                                                                    24512100.732 8  96190918.08508       730.179 8        49.971    24512099.370 8  98700235.61408       749.241 8        50.186
C26        11.000                                                                                                                                    22170208.838 8 115446085.05108     -1838.767 8        50.613                                                                    22170212.623 8  93809412.94608     -1494.150 8        48.881
S27        12.000    39186358.794 6 205925462.95606      -604.058 6        37.062
G15        13.000    23029321.434 7 121019737.49007     -4271.053 7        44.745                                    23029327.387 6  94301036.95206     -3328.082 6        39.580    23029328.603 6  94301028.94006     -3328.199 6        39.559
S36        14.000    38194202.286 7 200712262.46107      -577.671 7        44.793
G12        15.000    21025275.103 8 110488694.60708      1462.396 8        49.097                                    21025277.002 8  86095158.28308      1139.530 8        48.682    21025277.743 7  86095158.28707      1139.572 7        44.704
E29        16.000    28073247.515 6 147525830.12206      2184.803 6        37.191                                                                    28073260.857 6 110165398.17206      1631.451 6        41.268    28073258.934 6 113039276.54806      1673.940 6        41.032
S45        17.000    63383136.295 6 333082054.82506      -637.359 6        36.495
R03        18.000    20450987.143 8 109475675.59408     -2280.139 8        50.883                                                                    20450993.012 7  85147746.50707     -1773.419 7        46.771
C35        19.000                                                                                                                                    23366753.327 7 121676937.15707       849.209 7        47.652                                                                    23366759.375 7  98872550.62507       690.001 7        46.466
E11        20.000    27481145.793 5 144414423.49905       361.785 5        35.362                                                                    27481158.596 6 107842005.10506       270.065 6        38.096    27481156.360 6 110655265.44706       277.145 6        37.403
R14        21.000    22830285.438 7 121698257.74507      2560.853 7        46.993                                                                    22830297.963 6  94654250.79506      1991.823 6        40.946
I06        22.000    38333213.660 7 150427793.38407      -542.411 7        42.008
S28        23.000    40885114.106 5 214852507.82605      -587.092 5        34.976
G14        24.000    25459347.208 5 133789599.47205     -3899.823 5        33.353                                    25459358.757 1 104251593.18201     -3038.870 1        10.296    25459358.938 5 104251595.20405     -3038.912 5        32.539
S23        25.000    38130267.429 7 200375719.56107      -581.348 7        45.181
E08        26.000    24563154.908 7 129080143.69107     -2724.678 7        47.414                                                                    24563161.415 8  96390983.55908     -2034.615 8        49.029    24563160.241 8  98905532.23408     -2087.781 8        49.576
C07        27.000                                                                                                                                    39534135.086 6 205864528.68706     -1401.770 6        39.411    39534141.180 7 159187501.89807     -1083.884 7        42.616    39534137.013 6 167281773.21606     -1138.800 6        39.207
G13        28.000    24527166.087 6 128890890.65706     -4519.387 6        38.718                                    24527177.420 3 100434378.80703     -3521.594 3        18.597
I02        29.000    36883163.450 7 144737435.40607      -460.101 7        43.475
G10        30.000    24580814.063 6 129172873.18106     -1816.216 6        40.603                                    24580826.364 5 100654147.50605     -1415.230 5        32.251    24580826.139 6 100654139.50106     -1415.101 6        36.737
E07        31.000    24418331.219 7 128319122.81307       126.135 7        46.403                                                                    24418340.066 8  95822718.43408        94.188 8        49.688    24418338.846 8  98322439.60408        96.739 8        50.177
E03        32.000    28052810.801 5 147418245.37405     -3815.417 5        30.219                                                                    28052832.449 5 110084986.91405     -2849.094 5        33.671    28052829.647 5 112956773.02005     -2923.634 5        33.994
E10        33.000    28125464.285 6 147800324.84306      -908.823 6        37.017                                                                    28125479.165 6 110370448.00606      -678.600 6        40.803    28125477.506 6 113249665.04706      -696.376 6        41.516
R23        34.000    22762995.480 7 121766713.99007      3517.519 7        42.288
C24        35.000                                                                                                                                    21927460.994 8 114182077.42108       805.314 8        50.916                                                                    21927462.857 8  92782312.16508       654.399 8        50.048
G23        36.000    24978714.497 6 131263810.46306     -3416.845 6        37.845                                    24978725.272 2 102283418.18602     -2662.479 2        17.962    24978725.380 6 102283419.17506     -2662.542 6        36.643
E27        37.000    28609378.585 6 150343272.08606      2072.662 6        36.507                                                                    28609398.026 6 112269401.10606      1547.674 6        38.721    28609395.854 6 115198157.26706      1588.207 6        38.649
R04        38.000    21585179.787 8 115587558.36508      1589.804 8        48.517                                                                    21585187.228 7  89901418.30407      1236.554 7        44.336
C33        39.000                                                                                                                                    24190382.776 7 125965634.94207     -1734.348 7        46.194                                                                    24190401.940 7 102357463.19907     -1409.206 7        46.282
E25        40.000    27096767.244 6 142394337.39506     -3152.662 6        38.604                                                                    27096782.367 7 106333396.33507     -2354.254 7        43.082    27096780.189 7 109107307.80307     -2415.683 7        43.145
S44        42.000    40811254.008 6 214464546.63706      -519.387 6        38.204
R22        43.000    21431126.115 7 114400927.52707       928.589 7        47.054                                                                    21431134.001 7  88978583.77407       722.111 7        44.868
C05        44.000                                                                                                                                    39438322.346 6 205365529.52206      -595.589 6        38.826    39438330.379 7 158801626.77407      -460.459 7        43.012    39438328.698 6 166876376.68106      -483.872 6        39.480
C40        45.000                                                                                                                                    39861983.323 6 207571708.57106     -1681.125 6        41.020                                                                    39861991.659 6 168669010.70606     -1366.055 6        40.200
G32        46.000    24944176.841 6 131082419.15006      2603.615 6        40.527                                    24944188.477 5 102142141.08605      2028.791 5        33.311    24944188.734 6 102142143.07306      2028.865 6        37.278
E36        47.000    27972094.334 6 146994353.33106      2050.414 6        38.150                                                                    27972112.741 7 109768599.93007      1531.035 7        42.110    27972109.563 6 112632114.62606      1571.007 6        39.366
C10        49.000                                                                                                                                    38758070.510 6 201823421.01006     -1090.539 6        41.602    38758076.754 7 156062679.72507      -843.281 7        44.006    38758072.677 6 163998058.80006      -886.143 6        41.061
C42        50.000                                                                                                                                    25388909.025 7 132206503.07507     -3766.184 7        43.790                                                                    25388927.260 7 107428606.38107     -3060.258 7        43.522
S48        51.000    77130782.632 6 405325862.66206      -579.749 6        38.213
E02        53.000    23455060.284 8 123257241.01708     -1576.192 8        48.427                                                                    23455066.588 8  92042816.85708     -1177.044 8        51.215    23455065.274 8  94443915.93308     -1207.689 8        51.215
C60        54.000                                                                                                                                    40811255.330 6 212514886.28406      -514.703 6        40.195                                                                    40811250.833 6 172685674.03406      -418.268 6        38.922
C45        55.000                                                                                                                                    26260893.470 6 136747152.35906     -3371.538 6        40.389                                                                    26260896.960 6 111118191.86906     -2739.722 6        41.340
R12        56.000    20661906.825 8 110372239.57408     -2885.035 8        49.808                                                                    20661914.551 7  85845100.90807     -2243.910 7        46.551
C02        57.000                                                                                                                                    40958575.229 5 213281853.59405      -555.331 5        31.147    40958584.206 6 164922989.84706      -429.425 6        36.370    40958583.043 5                      -451.690 5        30.521
I03        58.000   120964628.256 5 398905608.01405       885.789 5        33.168
C14        59.000                                                                                                                                    24378042.795 7 126942733.24607     -3000.215 7        43.206    24378048.447 8  98160128.25008     -2320.082 8        48.169    24378045.262 7 103151326.04307     -2437.994 7        45.722
R13        60.000    19501142.534 7 104135088.64707       -96.355 7        46.255
> 2025 01 01 11 45 15.0000000  0 57
G19         1.000    21214521.909 7 111483219.13007      -977.910 7        46.553                                    21214522.958 6  86870128.38106      -762.003 6        37.811
G25         2.000    23757306.592 6 124845497.13906      2877.335 6        39.997                                    23757318.968 5  97282258.95305      2242.075 5        33.036    23757319.265 6  97282268.96506      2242.020 6        37.546
G24         3.000    20025606.023 8 105235287.79208      -725.112 8        50.665                                    20025609.949 8  82001556.01808      -565.021 8        53.175    20025610.225 7  82001553.01907      -564.991 7        46.980
R02         4.000    22750986.082 7 121403420.76107     -5019.914 7        45.514                                                                    22750998.354 6  94424846.89106     -3904.320 6        41.716
S21         5.000    38423098.787 7 201914381.22907      -576.846 7        42.885
G06         6.000    24708057.786 6 129841743.36406      2264.668 6        36.998                                    24708070.987 5 101175451.65105      1764.678 5        30.377    24708071.498 6 101175442.66906      1764.582 6        37.081
G17         7.000    23175407.770 7 121787698.15407     -3131.788 7        43.867                                    23175413.814 6  94899580.25606     -2440.348 6        39.123    23175414.130 6  94899576.24706     -2440.337 6        40.520
R21         8.000    22892004.850 7 122499774.69707     -2981.484 7        44.533                                                                    22892017.109 6  95277671.93806     -2318.863 6        40.765
E12         9.000    29097633.239 5 152909187.68005     -1917.294 5        30.045                                                                    29097639.375 6 114185510.91706     -1432.048 6        36.620    29097638.254 6 117164248.82006     -1469.360 6        37.214
E30        10.000    24511163.164 7 128807160.39707       976.657 7        47.408                                                                    24511170.922 8  96187269.49908       729.329 8        49.864    24511169.641 8  98696491.84608       748.365 8        50.349
C26        11.000                                                                                                                                    22171974.901 8 115455282.24808     -1839.986 8        50.754                                                                    22171978.835 8  93816886.40608     -1495.048 8        48.922
S27        12.000    39186933.612 6 205928483.74906      -604.057 6        37.017
G15        13.000    23033385.674 7 121041095.21207     -4271.896 7        44.703                                    23033391.743 6  94317679.29606     -3328.741 6        39.721    23033392.916 6  94317671.27806     -3328.615 6        40.026
S36        14.000    38194751.839 7 200715150.41507      -577.277 7        44.927
G12        15.000    21023884.658 8 110481387.81208      1460.387 8        49.022                                    21023886.546 8  86089464.68908      1137.964 8        48.693    21023887.064 7  86089464.69007      1138.010 7        44.515
E29        16.000    28071169.694 6 147514908.84906      2183.993 6        38.033                                                                    28071182.403 6 110157242.60906      1630.982 6        41.087    28071180.727 6 113030908.24206      1673.400 6        41.349
S45        17.000    63383690.570 6 333083641.72816      -637.294 6        36.646
R03        18.000    20453118.875 8 109487087.06108     -2284.376 8        50.542                                                                    20453124.588 7  85156622.07707     -1776.746 7        46.836
C35        19.000                                                                                                                                    23365939.441 8 121672697.69808       846.714 8        48.024                                                                    23365945.210 7  98869105.72607       688.095 7        46.587
E11        20.000    27480802.512 5 144412620.84905       359.388 5        35.181                                                                    27480815.408 6 107840658.98406       268.448 6        37.728    27480813.154 6 110653884.19606       275.496 6        37.592
R14        21.000    22827882.711 7 121685455.07407      2560.379 7        46.981                                                                    22827895.969 6  94644293.20006      1991.455 6        41.580
I06        22.000    38333904.917 6 150430505.27806      -542.311 6        41.871
S28        23.000    40885675.500 5 214855442.22405      -586.822 5        35.243
G14        24.000    25463058.074 5 133809098.83805     -3899.626 5        33.114                                    25463069.327 1 104266787.53101     -3038.694 1        10.296    25463070.457 5 104266789.53005     -3038.771 5        31.902
S23        25.000    38130821.713 7 200378626.09807      -581.092 7        45.189
E08        26.000    24565748.055 7 129093771.65907     -2726.343 7        47.325                                                                    24565754.781 8  96401160.27508     -2035.883 8        49.000    24565753.570 8  98915974.42308     -2088.980 8        49.765
C07        27.000                                                                                                                                    39535481.496 6 205871537.89606     -1401.940 6        39.712    39535487.769 7 159192921.88007     -1084.036 7        42.624    39535482.989 6 167287468.76906     -1139.125 6        39.556
G13        28.000    24531466.950 6 128913488.84706     -4519.500 6        38.562                                    24531477.864 3 100451987.68003     -3521.677 3        18.925
I02        29.000    36883749.855 7 144739736.63707      -460.229 7        43.158
G10        30.000    24582543.363 6 129181960.39306     -1818.685 6        40.393                                    24582555.693 5 100661228.42305     -1417.152 5        32.467    24582555.361 6 100661220.40506     -1417.178 6        36.635
E07        31.000    24418212.377 7 128318497.62807       124.008 7        46.544                                                                    24418221.124 8  95822251.57108        92.654 8        49.616    24418219.869 8  98321960.57008        95.028 8        50.280
E03        32.000    28056441.076 4 147437322.95304     -3815.263 4        29.725                                                                    28056462.910 5 110099233.07505     -2849.219 5        33.234    28056459.974 5 112971390.79705     -2923.759 5        34.033
E10        33.000    28126330.100 6 147804875.01506      -911.191 6        37.554                                                                    28126344.963 6 110373845.86406      -680.319 6        40.679    28126343.186 6 113253151.53006      -698.129 6        41.559
R23        34.000    22759707.581 7 121749129.70507      3516.312 7        42.256
C24        35.000                                                                                                                                    21926688.450 8 114178054.04008       804.170 8        51.012                                                                    21926690.164 8  92779042.83008       653.547 8        50.143
G23        36.000    24981965.458 6 131280896.98406     -3417.510 6        36.998                                    24981976.764 3 102296732.32603     -2662.963 3        18.090    24981976.706 6 102296733.31406     -2663.011 6        36.344
E27        37.000    28607406.561 6 150332910.08606      2072.385 6        36.026                                                                    28607426.075 6 112261663.22706      1547.561 6        38.381    28607424.308 6 115190217.52206      1588.053 6        38.985
R04        38.000    21583697.167 8 115579618.90808      1586.051 8        48.921                                                                    21583704.767 7  89895243.16607      1233.583 7        44.339
C33        39.000                                                                                                                                    24192049.523 7 125974313.07307     -1736.841 7        46.336                                                                    24192068.488 7 102364514.87507     -1411.255 7        46.313
E25        40.000    27099766.861 6 142410100.96206     -3152.566 6        38.847                                                                    27099782.147 7 106345167.81807     -2354.233 7        43.050    27099779.874 7 109119386.36507     -2415.681 7        43.151
S44        42.000    40811751.105 6 214467143.54306      -519.084 6        38.634
R22        43.000    21430258.395 7 114396295.00107       924.531 7        47.753                                                                    21430266.388 7  88974980.70807       719.124 7        44.927
C05        44.000                                                                                                                                    39438893.775 6 205368506.96806      -595.220 6        38.760    39438902.152 7 158803929.11307      -460.318 7        43.027    39438900.717 6 166878796.08306      -483.682 6        39.544
C40        45.000                                                                                                                                    39863597.637 6 207580115.13206     -1681.374 6        41.149                                                                    39863606.068 6 168675841.69006     -1366.227 6        40.446
G32        46.000    24941700.689 6 131069404.67206      2602.468 6        40.055                                    24941711.842 5 102131999.91505      2027.903 5        33.210    24941712.755 6 102132001.88406      2027.850 6        37.115
E36        47.000    27970144.171 6 146984104.30006      2049.526 6        38.015                                                                    27970162.335 7 109760946.44207      1530.542 7        42.106    27970159.219 6 112624261.49006      1570.432 6        39.688
C10        49.000                                                                                                                                    38759117.977 6 201828874.42006     -1090.770 6        41.774    38759124.094 7 156066896.62807      -843.378 7        43.922    38759120.030 6 164002490.12306      -886.293 6        41.178
C42        50.000                                                                                                                                    25392525.841 7 132225335.29607     -3766.620 7        43.801                                                                    25392543.880 7 107443909.05207     -3060.629 7        43.513
S48        51.000    77131329.972 6 405328760.23306      -579.422 6        38.384
E02        53.000    23456560.708 8 123265125.02008     -1577.301 8        48.250                                                                    23456566.855 8  92048704.25408     -1177.854 8        51.112    23456565.526 8  94449956.91708     -1208.577 8        51.376
C60        54.000                                                                                                                                    40811749.426 6 212517459.58506      -514.455 6        40.389                                                                    40811745.001 6 172687765.04206      -417.918 6        39.108
C45        55.000                                                                                                                                    26264130.756 6 136764010.38406     -3371.574 6        40.353                                                                    26264134.356 6 111131890.34606     -2739.598 6        41.220
R12        56.000    20664607.905 8 110386668.15208     -2886.263 8        50.034                                                                    20664614.922 7  85856323.10807     -2244.835 7        46.220
C02        57.000                                                                                                                                    40959108.010 5 213284630.86905      -555.310 5        30.974    40959117.174 6 164925137.39406      -429.351 6        36.284    40959116.186 5                      -451.275 5        30.528
I03        58.000   120963499.907 5 398901178.05505       886.401 5        32.940
C14        59.000                                                                                                                                    24380924.771 7 126957739.50607     -3002.026 7        43.285    24380930.760 8  98171732.00708     -2321.294 8        48.233    24380927.201 7 103163519.83207     -2439.350 7        45.849
R13        60.000    19501233.764 7 104135575.94407       -98.407 7        46.418
> 2025 01 01 11 45 20.0000000  0 57
G19         1.000    21215454.222 7 111488117.71307      -981.375 7        46.533                                    21215455.104 6  86873945.44706      -764.710 6        37.849
G25         2.000    23754570.101 6 124831113.58506      2876.400 6        40.017                                    23754581.884 5  97271051.01105      2241.347 5        33.156    23754582.159 6  97271061.01006      2241.354 6        36.665
G24         3.000    20026297.545 8 105238921.18108      -728.049 8        50.526                                    20026301.361 8  82004387.22508      -567.311 8        53.177    20026301.458 7  82004384.22107      -567.257 7        46.987
R02         4.000    22755689.616 7 121428523.46207     -5021.024 7        45.555                                                                    22755702.253 6  94444371.13106     -3905.052 6        40.696
S21         5.000    38423647.683 7 201917266.00807      -576.896 7        43.179
G06         6.000    24705903.064 6 129830424.03106      2263.234 6        36.526                                    24705917.038 5 101166631.39705      1763.558 5        30.392    24705917.558 6 101166622.39006      1763.732 6        37.452
G17         7.000    23178388.790 7 121803362.83207     -3133.914 7        43.977                                    23178394.786 6  94911786.47206     -2442.007 6        39.159    23178395.249 6  94911782.45606     -2441.970 6        40.207
R21         8.000    22894792.366 7 122514692.37407     -2985.376 7        44.587                                                                    22894805.037 6  95289274.56506     -2322.018 6        41.001
E12         9.000    29099458.787 5 152918780.92905     -1919.571 5        30.038                                                                    29099465.007 6 114192674.69406     -1433.723 6        37.391    29099463.755 6 117171599.45106     -1470.767 6        37.955
E30        10.000    24510234.545 7 128802280.94207       975.312 7        47.602                                                                    24510242.446 8  96183625.75408       728.337 8        49.892    24510241.044 8  98692753.04708       747.378 8        50.518
C26        11.000                                                                                                                                    22173742.482 8 115464486.35708     -1841.438 8        50.803                                                                    22173746.383 8  93824365.50308     -1496.367 8        48.891
S27        12.000    39187508.417 6 205931504.71606      -603.993 6        37.164
G15        13.000    23037450.692 7 121062458.26107     -4273.073 7        44.599                                    23037457.199 6  94334325.78306     -3329.658 6        39.781    23037458.069 6  94334317.76106     -3329.576 6        40.541
S36        14.000    38195300.785 7 200718037.92307      -577.510 7        44.942
