     3.04           OBSERVATION DATA    M                   RINEX VERSION / TYPE
ssrcrin-15.6.1x                         20250101 164500 UTC PGM / RUN BY / DATE 
(00000000023479385599111004) Septentrio proprietary         COMMENT             
rref                                                        MARKER NAME         
01                                                          MARKER NUMBER       
geodetic                                                    MARKER TYPE         
NFB                 CLIMERS@TUW                             OBSERVER / AGENCY   
3297213             SEPT ASTERX SB3 PROB4.14.4              REC # / TYPE / VERS 
Unknown             Unknown                                 ANT # / TYPE        
  4127830.5677  1207192.7546  4695246.9374                  APPROX POSITION XYZ 
        0.0000        0.0000        0.0000                  ANTENNA: DELTA H/E/N
G   23 X1  C1C L1C D1C S1C C1W S1W C2W L2W D2W S2W C2L L2L  SYS / # / OBS TYPES 
       D2L S2L C5Q L5Q D5Q S5Q C1L L1L D1L S1L              SYS / # / OBS TYPES 
E   21 X1  C1C L1C D1C S1C C6C L6C D6C S6C C5Q L5Q D5Q S5Q  SYS / # / OBS TYPES 
       C7Q L7Q D7Q S7Q C8Q L8Q D8Q S8Q                      SYS / # / OBS TYPES 
S    9 X1  C1C L1C D1C S1C C5I L5I D5I S5I                  SYS / # / OBS TYPES 
R   17 X1  C1C L1C D1C S1C C2P L2P D2P S2P C2C L2C D2C S2C  SYS / # / OBS TYPES 
       C3Q L3Q D3Q S3Q                                      SYS / # / OBS TYPES 
C   25 X1  C1P L1P D1P S1P C5P L5P D5P S5P C2I L2I D2I S2I  SYS / # / OBS TYPES 
       C7I L7I D7I S7I C6I L6I D6I S6I C7D L7D D7D S7D      SYS / # / OBS TYPES 
J   17 X1  C1C L1C D1C S1C C2L L2L D2L S2L C5Q L5Q D5Q S5Q  SYS / # / OBS TYPES 
       C1L L1L D1L S1L                                      SYS / # / OBS TYPES 
I    5 X1  C5A L5A D5A S5A                                  SYS / # / OBS TYPES 
SEPTENTRIO RECEIVERS OUTPUT ALIGNED CARRIER PHASES.         COMMENT             
NO FURTHER PHASE SHIFT APPLIED IN THE RINEX ENCODER.        COMMENT             
G L1C                                                       SYS / PHASE SHIFT   
G L2W                                                       SYS / PHASE SHIFT   
G L2L  0.00000                                              SYS / PHASE SHIFT   
G L5Q  0.00000                                              SYS / PHASE SHIFT   
G L1L  0.00000                                              SYS / PHASE SHIFT   
E L1C  0.00000                                              SYS / PHASE SHIFT   
E L6C  0.00000                                              SYS / PHASE SHIFT   
E L5Q  0.00000                                              SYS / PHASE SHIFT   
E L7Q  0.00000                                              SYS / PHASE SHIFT   
E L8Q  0.00000                                              SYS / PHASE SHIFT   
S L1C                                                       SYS / PHASE SHIFT   
S L5I                                                       SYS / PHASE SHIFT   
R L1C                                                       SYS / PHASE SHIFT   
R L2P  0.00000                                              SYS / PHASE SHIFT   
R L2C                                                       SYS / PHASE SHIFT   
R L3Q  0.00000                                              SYS / PHASE SHIFT   
C L1P  0.00000                                              SYS / PHASE SHIFT   
C L5P  0.00000                                              SYS / PHASE SHIFT   
C L2I                                                       SYS / PHASE SHIFT   
C L7I                                                       SYS / PHASE SHIFT   
C L6I                                                       SYS / PHASE SHIFT   
C L7D                                                       SYS / PHASE SHIFT   
J L1C                                                       SYS / PHASE SHIFT   
J L2L  0.00000                                              SYS / PHASE SHIFT   
J L5Q  0.00000                                              SYS / PHASE SHIFT   
J L1L  0.00000                                              SYS / PHASE SHIFT   
I L5A                                                       SYS / PHASE SHIFT   
  2025     1     1    16    45    0.0000000     GPS         TIME OF FIRST OBS   
 C1C    0.000 C2C    0.000 C2P    0.000                     GLONASS COD/PHS/BIS 
DBHZ                                                        SIGNAL STRENGTH UNIT
    18                                                      LEAP SECONDS        
 24 R01  1 R02 -4 R03  5 R04  6 R05  1 R06 -4 R07  5 R08  6 GLONASS SLOT / FRQ #
    R09 -2 R10 -7 R11  0 R12 -1 R13 -2 R14 -7 R15  0 R16 -1 GLONASS SLOT / FRQ #
    R17  4 R18 -3 R19  3 R20  2 R21  4 R22 -3 R23  3 R24  2 GLONASS SLOT / FRQ #
                                                            END OF HEADER       
> 2025 01 01 16 45  0.0000000  0 57
G20         1.000    23915764.158 6 125678382.01206     -2083.979 6        39.417                                    23915760.587 3  97931278.08603     -1623.886 3        21.643
G25         2.000    22227090.856 7 116804332.05107     -3772.644 7        44.247                                    22227091.829 7  91016460.46607     -2939.722 7        42.193    22227091.868 6  91016470.47206     -2939.695 6        41.697
G05         3.000    22945258.850 7 120578281.12907       305.517 7        44.621                                    22945255.060 6  93957158.24306       238.063 6        39.802    22945256.370 6  93957157.25506       238.133 6        40.181
G29         4.000    20729017.745 8 108932084.84808     -1918.082 8        48.230                                    20729013.990 8  84882308.45608     -1494.610 8        49.280    20729014.587 7  84882311.45607     -1494.644 7        45.108
S21         5.000    38398731.096 7 201786385.52107      -575.254 7        43.058
E13         6.000    25555437.183 7 134295008.90707      2255.553 7        44.104                                                                    25555442.242 7 100285421.67007      1684.264 7        46.608    25555441.312 7 102901534.94207      1728.256 7        47.610
E19         7.000    28076817.541 5 147544563.67105     -2816.266 5        30.755                                                                    28076832.837 5 110179367.64105     -2103.300 5        32.778    28076830.562 5 113053615.67505     -2158.075 5        33.593
E15         8.000    23517735.845 8 123586846.40408      -211.297 8        48.223                                                                    23517737.255 8  92289046.55308      -157.773 8        51.133    23517736.699 8  94696563.32008      -161.890 8        51.510
E30        10.000    26242864.218 7 137907377.78707     -3021.199 7        43.067                                                                    26242866.463 7 102982906.97707     -2256.099 7        46.626    26242865.505 7 105669404.42507     -2314.926 7        46.794
G26        11.000    21329759.203 7 112089010.54107      1581.468 7        46.748                                    21329759.417 7  87342267.56807      1232.310 7        46.831    21329759.490 7  87342287.58007      1232.344 7        43.920
S27        12.000    39189535.819 6 205942365.01806      -561.347 6        36.446
R15        13.000    19348000.529 8 103390147.56408     -2148.617 8        51.977                                                                    19348000.792 7  80414700.53307     -1671.185 7        46.899
S36        14.000    38170641.543 7 200588529.02907      -574.235 7        44.560
G09        16.000    25477865.946 6 133887068.75706      -545.304 6        36.556                                    25477868.311 4 104327592.35304      -424.904 4        27.689    25477868.374 5 104327594.34005      -424.713 5        34.833
S45        17.000    63380067.483 6 333065729.98206      -633.670 6        36.922
G31        18.000    21741639.740 7 114253364.03207     -1561.166 7        46.925                                    21741636.957 7  89028744.10207     -1216.493 7        45.652    21741637.526 7  89028723.10107     -1216.547 7        42.631
G16        19.000    23584363.670 6 123936911.53006      2878.082 6        39.444                                    23584360.091 3  96574332.17203      2242.674 3        22.457
E21        20.000    25201084.205 7 132432956.05907      1539.665 7        44.429                                                                    25201085.073 7  98894953.42107      1149.785 7        47.812    25201084.528 8 101474796.88508      1179.753 8        48.438
R14        21.000    22783388.098 7 121448397.80807     -4799.271 7        46.020                                                                    22783393.048 7  94459947.83307     -3732.798 7        43.867
I06        22.000    38675261.275 6 151770198.91406      -451.718 6        41.080
S28        23.000    40876644.915 5 214808188.60305      -573.032 5        34.886
E34        24.000    25786547.335 7 135509531.51707     -2863.681 7        42.815                                                                    25786547.866 7 101192369.54307     -2138.525 7        46.159    25786547.644 7 103832150.30707     -2194.313 7        46.729
S23        25.000    38121523.162 7 200329885.71407      -578.029 7        45.136
C13        26.000                                                                                                                                    38082900.517 7 198307842.69707       426.846 7        43.221    38082902.695 7 153344310.89507       329.983 7        45.130    38082900.614 7 161141450.61207       346.842 7        42.576
G18        27.000    21332824.392 8 112105067.43908      1669.239 8        48.186                                    21332822.331 6  87354762.94906      1300.696 6        38.931    21332822.377 7  87354753.95707      1300.710 7        46.526
R24        28.000    22246996.091 7 118965027.84607     -4357.896 7        46.222                                                                    22246996.495 6  92528536.27506     -3389.552 6        41.781
I02        29.000    38148349.781 6 149702403.26306      -921.683 6        40.996
G28        30.000    22287941.188 7 117124088.43307     -3072.439 7        45.913                                    22287940.865 5  91265614.76105     -2394.106 5        34.386    22287941.249 7  91265611.76407     -2394.130 7        44.403
G04        31.000    25224850.220 6 132557497.11706     -1486.130 6        36.794                                    25224848.801 3 103291561.01703     -1158.029 3        18.597    25224848.517 6 103291569.02806     -1158.190 6        37.505
C12        32.000                                                                                                                                    23948516.762 7 124706474.79407     -3185.113 7        43.060    23948513.197 8  96431083.99308     -2462.874 8        48.179    23948511.774 7 101334318.07407     -2588.136 7        46.215
R17        33.000    19131543.449 8 102377111.30308     -1363.417 8        51.745                                                                    19131542.384 7  79626807.65507     -1060.413 7        47.060
R08        34.000    23705705.102 6 126942986.89606      -377.007 6        39.105                                                                    23705703.612 6  98733436.88506      -293.336 6        39.240
R18        36.000    20387824.030 8 108831951.82908      2143.994 8        50.776                                                                    20387826.421 7  84647268.65907      1667.542 7        46.224
E27        37.000    23362367.310 8 122770298.34808      -928.857 8        48.468                                                                    23362367.789 8  91679269.15208      -693.641 8        51.080    23362367.195 8  94070882.62308      -711.724 8        51.352
R16        38.000    20281060.661 8 108337893.03808      2119.308 8        51.407                                                                    20281060.275 7  84262858.76807      1648.328 7        46.953
C22        39.000                                                                                                                                    26337633.903 6 137146976.99206       501.834 6        39.513                                                                    26337628.526 6 111443133.47106       407.858 6        39.435
R07        40.000    24481129.212 7 131049383.08707     -3007.379 7        42.660                                                                    24481130.818 6 101927300.91806     -2339.146 6        38.724
C34        41.000                                                                                                                                    21831198.589 8 113681109.74108     -1987.662 8        49.933                                                                    21831198.447 8  92375351.42008     -1615.062 8        49.311
S44        42.000    40528171.896 6 212977096.39006      -505.148 6        38.730
C38        43.000                                                                                                                                    38568724.555 7 200837626.78007      -355.217 7        43.767                                                                    38568722.137 7 163197085.84207      -288.599 7        43.437
C05        44.000                                                                                                                                    39346947.650 6 204889867.60106      -513.236 6        38.550    39346945.389 7 158433854.11007      -396.873 7        42.745    39346946.650 6 166489894.00906      -416.963 6        40.224
C08        45.000                                                                                                                                    37955946.172 6 197646757.12006       244.695 6        41.630    37955940.883 7 152833083.30607       189.279 7        45.830    37955940.056 7 160604229.85807       199.024 7        42.487
E04        46.000    28427279.555 6 149386358.98006      -821.950 6        36.208                                                                    28427280.926 6 111554756.00106      -613.677 6        40.207    28427280.038 6 114464877.77806      -629.796 6        40.586
R19        47.000    24103573.063 5 128937941.33605      3518.370 5        32.575                                                                    24103588.894 5 100285160.42205      2736.466 5        35.857
C43        48.000                                                                                                                                    21899344.213 8 114035933.15908       750.826 8        50.574                                                                    21899343.740 8  92663658.40008       610.139 8        49.029
C10        49.000                                                                                                                                    41101747.091 5 214027667.39305     -1257.391 5        33.689    41101746.586 6 165499805.18306      -972.408 6        38.426    41101743.780 5 173915031.10605     -1021.569 5        34.157
C44        50.000                                                                                                                                    25853053.252 6 134623744.55806     -3627.279 6        40.999                                                                    25853052.283 6 109392867.30106     -2947.224 6        40.219
S48        51.000    77123006.386 6 405284864.45106      -612.105 6        38.580
R01        52.000    24215552.513 6 129446032.12506      2354.648 6        39.024                                                                    24215553.638 5 100680236.24205      1831.285 5        32.850
C37        53.000                                                                                                                                    25714584.832 6 133902605.44706      2364.542 6        40.215                                                                    25714588.035 7 108806856.84207      1921.402 7        43.177
C60        54.000                                                                                                                                    40528167.490 6 211040960.00806      -500.588 6        39.393                                                                    40528153.267 6 171488027.53806      -406.721 6        40.100
C25        55.000                                                                                                                                    22700174.501 8 118205942.25508     -3053.586 8        49.543                                                                    22700174.251 8  96052085.37408     -2481.305 8        48.231
C23        56.000                                                                                                                                    22478267.541 8 117050576.65408        37.652 8        50.441                                                                    22478259.743 8  95113289.39808        30.630 8        50.221
C02        57.000                                                                                                                                    40716251.545 5 212020207.35405      -479.731 5        34.229    40716246.521 6 163947455.86106      -370.920 6        37.951    40716249.830 5 172283779.81405      -389.585 5        34.214
I03        58.000   114553413.480 6 373746893.89706      1020.418 6        40.441
C11        59.000                                                                                                                                    21428165.308 8 111582388.63408      -581.422 8        48.409    21428163.259 8  86282729.91908      -449.568 8        51.446    21428162.248 8  90669938.94808      -472.423 8        49.229
C28        60.000                                                                                                                                    26568784.050 6 138350630.97306      2543.106 6        38.949                                                                    26568797.179 6 112421291.48206      2066.566 6        36.658
> 2025 01 01 16 45  5.0000000  0 57
G20         1.000    23917748.576 6 125688809.59606     -2087.059 6        39.282                                    23917744.584 3  97939403.50503     -1626.290 3        21.643
G25         2.000    22230681.068 7 116823198.71807     -3774.052 7        42.995                                    22230681.952 7  91031161.75907     -2940.819 7        42.053    22230682.180 6  91031171.75406     -2940.858 6        41.485
G05         3.000    22944969.302 7 120576761.43007       302.353 7        44.367                                    22944965.925 6  93955974.07106       235.596 6        39.973    22944967.036 6  93955973.07906       235.693 6        40.460
G29         4.000    20730843.664 8 108941679.54208     -1919.811 8        48.445                                    20730839.789 8  84889784.84808     -1495.961 8        49.347    20730840.561 7  84889787.85607     -1496.016 7        45.246
S21         5.000    38399278.628 7 201789261.54907      -575.185 7        43.098
E13         6.000    25553291.429 7 134283734.13707      2254.465 7        43.619                                                                    25553296.818 7 100277002.22207      1683.493 7        46.622    25553295.784 7 102892895.85707      1727.442 7        47.512
E19         7.000    28079497.248 5 147558648.39905     -2817.418 5        30.143                                                                    28079513.113 5 110189885.39005     -2104.097 5        33.269    28079510.809 5 113064407.80505     -2158.842 5        33.323
E15         8.000    23517937.854 7 123587908.34607      -213.519 7        47.912                                                                    23517939.349 8  92289839.56908      -159.485 8        51.157    23517938.751 8  94697377.02008      -163.615 8        51.589
E30        10.000    26245739.112 7 137922485.82707     -3021.947 7        43.173                                                                    26245741.422 7 102994188.95507     -2256.766 7        46.679    26245740.407 7 105680980.71207     -2315.553 7        46.787
G26        11.000    21328255.747 7 112081108.27407      1579.474 7        46.751                                    21328255.642 7  87336109.97407      1230.755 7        46.860    21328255.844 7  87336129.98607      1230.731 7        44.092
S27        12.000    39190071.524 6 205945171.51406      -561.198 6        36.582
R15        13.000    19350012.542 8 103400900.22008     -2152.357 8        51.865                                                                    19350012.933 7  80423063.71807     -1674.017 7        46.811
S36        14.000    38171188.812 7 200591400.32007      -574.250 7        44.695
G09        16.000    25478386.375 5 133889801.96305      -548.083 5        35.105                                    25478388.436 4 104329721.99804      -427.045 4        28.246    25478388.994 5 104329723.96405      -427.188 5        34.771
S45        17.000    63380616.442 6 333068898.92606      -633.642 6        36.934
G31        18.000    21743126.727 7 114261177.95407     -1564.397 7        46.647                                    21743123.883 7  89034832.87307     -1219.012 7        45.678    21743124.429 7  89034811.87707     -1219.025 7        42.849
G16        19.000    23581625.139 6 123922522.69506      2877.462 6        39.970                                    23581621.750 3  96563120.12003      2242.169 3        22.514
E21        20.000    25199619.535 7 132425259.58007      1538.888 7        44.284                                                                    25199620.463 7  98889206.07107      1149.199 7        47.791    25199619.935 8 101468899.60308      1179.157 8        48.408
R14        21.000    22787890.116 7 121472397.10007     -4800.454 7        46.072                                                                    22787894.612 7  94478613.93107     -3733.561 7        43.572
I06        22.000    38675836.764 6 151772457.31406      -451.738 6        41.251
S28        23.000    40877187.278 5 214811054.61605      -573.192 5        34.938
E34        24.000    25789272.660 7 135523853.48007     -2864.981 7        42.464                                                                    25789273.100 7 101203064.54507     -2139.491 7        46.241    25789272.936 7 103843124.30807     -2195.294 7        46.718
S23        25.000    38122071.414 7 200332775.68107      -577.922 7        45.087
C13        26.000                                                                                                                                    38082491.445 7 198305711.45307       425.816 7        43.427    38082493.265 7 153342662.88407       329.191 7        45.276    38082491.362 7 161139718.80807       345.930 7        42.563
G18        27.000    21331237.387 8 112096727.30808      1666.838 8        48.590                                    21331235.209 6  87348264.16506      1298.831 6        38.982    21331235.276 7  87348255.17307      1298.810 7        46.569
R24        28.000    22251070.409 7 118986819.00007     -4358.628 7        45.372                                                                    22251071.135 7  92545484.92407     -3389.952 7        42.265
I02        29.000    38149524.377 6 149707011.27606      -921.686 6        41.240
G28        30.000    22290865.591 7 117139456.35407     -3074.646 7        45.973                                    22290865.293 5  91277589.75805     -2395.826 5        34.438    22290865.540 7  91277586.76307     -2395.916 7        44.599
G04        31.000    25226264.794 6 132564934.78206     -1488.969 6        37.758                                    25226264.164 3 103297356.54803     -1160.222 3        18.955    25226264.327 5 103297364.57205     -1160.235 5        35.590
C12        32.000                                                                                                                                    23951574.784 7 124722402.25507     -3185.819 7        42.518    23951571.942 8  96443400.12408     -2463.550 8        48.613    23951570.499 7 101347260.43707     -2588.831 7        46.240
R17        33.000    19132818.789 8 102383936.48708     -1366.670 8        52.016                                                                    19132818.060 7  79632116.13907     -1062.987 7        47.539
R08        34.000    23706058.902 6 126944882.47006      -381.040 6        38.907                                                                    23706058.312 6  98734911.23306      -296.506 6        39.892
R18        36.000    20385817.216 8 108821238.65808      2141.312 8        50.846                                                                    20385819.641 7  84638936.23107      1665.463 7        46.943
E27        37.000    23363251.948 8 122774946.76408      -930.479 8        48.200                                                                    23363252.363 8  91682740.37708      -694.830 8        51.083    23363251.755 8  94074444.39908      -712.952 8        51.424
R16        38.000    20279077.498 8 108327303.47508      2116.519 8        52.087                                                                    20279078.415 8  84254622.45708      1646.155 8        48.027
C22        39.000                                                                                                                                    26337152.772 6 137144473.72006       499.555 6        39.141                                                                    26337147.962 6 111441099.37006       405.626 6        39.357
R07        40.000    24483938.526 6 131064427.06306     -3010.163 6        41.924                                                                    24483940.645 6 101939001.65106     -2341.277 6        37.376
C34        41.000                                                                                                                                    21833107.636 8 113691051.92908     -1989.171 8        49.820                                                                    21833107.734 8  92383430.26908     -1616.426 8        49.279
S44        42.000    40528651.357 6 212979622.03906      -505.178 6        38.474
C38        43.000                                                                                                                                    38569066.082 7 200839405.49507      -356.216 7        43.835                                                                    38569063.737 7 163198531.21307      -289.510 7        43.314
C05        44.000                                                                                                                                    39347441.058 6 204892433.24806      -513.002 6        38.501    39347437.849 7 158435838.03807      -396.792 7        42.675    39347439.391 6 166491978.82006      -416.957 6        40.110
C08        45.000                                                                                                                                    37955711.975 6 197645536.42006       243.692 6        41.650    37955706.365 7 152832139.39707       188.359 7        45.619    37955705.639 7 160603237.95907       197.826 7        42.550
E04        46.000    28428062.665 6 149390474.64506      -824.435 6        36.246                                                                    28428064.258 6 111557829.35306      -615.475 6        40.417    28428063.448 6 114468031.30806      -631.631 6        40.796
R19        47.000    24100283.694 5 128920351.70105      3517.698 5        32.892                                                                    24100299.741 5 100271479.86405      2735.868 5        34.824
C43        48.000                                                                                                                                    21898624.208 8 114032183.41108       749.036 8        50.628                                                                    21898623.609 8  92660611.44808       608.605 8        49.024
C10        49.000                                                                                                                                    41102954.098 5 214033954.76505     -1257.014 5        34.157    41102953.877 6 165504666.98806      -972.407 6        38.267    41102951.212 5 173920140.15805     -1022.048 5        33.850
C44        50.000                                                                                                                                    25856536.221 6 134641880.76306     -3627.062 6        40.334                                                                    25856535.395 6 109407604.45706     -2947.493 6        40.408
S48        51.000    77123561.713 6 405287924.82906      -612.190 6        38.471
R01        52.000    24213350.871 6 129434264.94806      2352.520 6        39.147                                                                    24213352.329 5 100671083.99405      1829.541 5        33.138
C37        53.000                                                                                                                                    25712315.291 6 133890785.32506      2363.566 6        40.818                                                                    25712318.056 7 108797252.04707      1920.539 7        43.081
C60        54.000                                                                                                                                    40528647.867 6 211043462.68906      -500.513 6        39.492                                                                    40528633.837 6 171490061.18406      -406.826 6        40.031
C25        55.000                                                                                                                                    22703107.370 8 118221214.76208     -3055.378 8        49.637                                                                    22703107.158 8  96064495.53908     -2482.777 8        48.161
C23        56.000                                                                                                                                    22478232.477 8 117050394.90108        35.044 8        50.335                                                                    22478224.855 8  95113141.71308        28.442 8        50.203
C02        57.000                                                                                                                                    40716711.993 5 212022605.49705      -479.528 5        34.095    40716707.733 6 163949310.23806      -370.609 6        37.788    40716710.023 5 172285728.50305      -389.904 5        34.467
I03        58.000   114552113.268 6 373741791.68506      1020.401 6        40.622
C11        59.000                                                                                                                                    21428724.752 8 111585300.71408      -583.392 8        48.490    21428722.434 8  86284981.73108      -451.100 8        51.403    21428721.444 8  90672305.26108      -474.001 8        49.123
C28        60.000                                                                                                                                    26566341.704 6 138337916.40406      2542.718 6        39.396                                                                    26566355.673 6 112410959.99706      2066.134 6        37.146
> 2025 01 01 16 45 10.0000000  0 57
G20         1.000    23919735.481 6 125699250.76906     -2089.629 6        39.595                                    23919731.276 3  97947539.50103     -1628.286 3        21.833
G25         2.000    22234272.268 7 116842071.91107     -3775.283 7        42.658                                    22234273.340 6  91045868.13406     -2941.775 6        41.948    22234273.582 6  91045878.12806     -2941.823 6        41.356
G05         3.000    22944682.983 7 120575257.55607       299.262 7        44.373                                    22944679.839 6  93954802.22806       233.190 6        40.069    22944679.943 6  93954801.22106       233.244 6        40.234
G29         4.000    20732670.734 8 108951282.55608     -1921.447 8        48.297                                    20732667.176 8  84897267.72608     -1497.234 8        49.474    20732667.604 7  84897270.72407     -1497.198 7        45.220
S21         5.000    38399825.816 7 201792136.71007      -574.999 7        42.863
E13         6.000    25551147.028 7 134272464.61807      2253.437 7        43.757                                                                    25551152.165 7 100268586.70507      1682.752 7        46.736    25551151.321 7 102884260.80207      1726.583 7        47.596
E19         7.000    28082178.467 5 147572737.92705     -2818.231 5        30.634                                                                    28082194.729 5 110200406.73305     -2104.365 5        33.084    28082192.238 5 113075203.66605     -2159.827 5        33.305
E15         8.000    23518142.146 8 123588981.34208      -215.696 8        48.001                                                                    23518143.514 8  92290640.84308      -161.077 8        51.313    23518142.938 8  94698199.20108      -165.324 8        51.489
E30        10.000    26248614.663 7 137937597.87007     -3022.840 7        42.792                                                                    26248617.116 7 103005473.90807     -2257.312 7        46.594    26248616.072 7 105692560.05907     -2316.202 7        46.563
G26        11.000    21326753.949 7 112073215.89707      1577.510 7        46.567                                    21326753.745 7  87329960.08607      1229.224 7        47.001    21326754.130 7  87329980.09007      1229.249 7        43.981
S27        12.000    39190604.922 6 205947977.20406      -560.586 6        36.181
R15        13.000    19352028.393 8 103411671.49608     -2156.104 8        52.354                                                                    19352028.467 7  80431441.36907     -1676.957 7        46.832
S36        14.000    38171736.407 7 200594271.41607      -574.148 7        44.515
G09        16.000    25478908.939 5 133892549.73005      -550.580 5        34.752                                    25478911.469 4 104331863.05304      -429.011 4        28.095    25478912.020 5 104331865.02105      -429.025 5        34.029
S45        17.000    63381171.357 6 333070467.24116      -633.397 6        36.771
G31        18.000    21744616.434 7 114269007.64107     -1567.569 7        46.866                                    21744613.827 7  89040933.93407     -1221.484 7        45.740    21744614.609 7  89040912.93307     -1221.416 7        42.737
G16        19.000    23578888.644 6 123908136.79506      2876.994 6        40.076                                    23578884.205 3  96551910.36903      2241.820 3        22.762
E21        20.000    25198155.733 7 132417566.60807      1538.325 7        44.427                                                                    25198156.529 7  98883461.33907      1148.655 7        47.982    25198155.962 8 101463005.00508      1178.616 8        48.378
R14        21.000    22792393.303 7 121496401.88207     -4801.433 7        45.931                                                                    22792398.101 7  94497284.31807     -3734.550 7        43.247
I06        22.000    38676412.316 6 151774715.04006      -451.522 6        41.101
S28        23.000    40877734.328 5 214813920.08705      -573.383 5        34.500
E34        24.000    25791999.184 7 135538181.57007     -2866.201 7        42.779                                                                    25791999.681 7 101213764.10607     -2140.421 7        46.402    25791999.428 7 103854102.98907     -2196.224 7        46.699
S23        25.000    38122621.683 7 200335664.95107      -577.738 7        45.142
C13        26.000                                                                                                                                    38082083.438 7 198303584.65107       424.828 7        43.668    38082084.795 7 153341018.31307       328.520 7        45.356    38082082.962 7 161137990.60707       345.363 7        42.527
G18        27.000    21329652.372 8 112088399.10308      1664.467 8        48.097                                    21329650.381 6  87341774.67406      1296.985 6        39.138    21329650.365 7  87341765.68907      1296.958 7        46.368
R24        28.000    22255147.053 7 119008613.67307     -4359.213 7        46.010                                                                    22255146.816 7  92562436.31907     -3390.460 7        42.174
I02        29.000    38150698.446 6 149711619.31306      -921.588 6        41.185
G28        30.000    22293792.263 7 117154835.33107     -3076.846 7        46.149                                    22293791.800 5  91289573.37405     -2397.541 5        34.510    22293791.958 7  91289570.36607     -2397.531 7        44.361
G04        31.000    25227684.305 5 132572385.52105     -1491.413 5        35.238                                    25227682.129 3 103303162.30303     -1162.111 3        19.284    25227683.361 6 103303170.25606     -1162.097 6        39.261
C12        32.000                                                                                                                                    23954633.225 7 124738333.16507     -3186.548 7        42.212    23954631.134 8  96455718.89908     -2464.049 8        48.693    23954629.890 7 101360205.58407     -2589.222 7        46.175
R17        33.000    19134097.400 8 102390777.96908     -1369.899 8        52.046                                                                    19134097.142 7  79637437.29507     -1065.449 7        47.594
R08        34.000    23706416.379 6 126946798.09206      -385.004 6        38.351                                                                    23706416.200 6  98736401.14606      -299.623 6        39.580
R18        36.000    20383812.781 8 108810538.71608      2138.693 8        50.598                                                                    20383815.227 7  84630614.08407      1663.402 7        46.525
E27        37.000    23364137.981 8 122779602.84908      -931.960 8        48.450                                                                    23364138.344 8  91686217.33108      -695.995 8        51.241    23364137.796 8  94078012.05608      -714.138 8        51.304
R16        38.000    20277098.336 8 108316727.83408      2113.791 8        51.391                                                                    20277098.327 7  84246396.96707      1644.064 7        47.729
C22        39.000                                                                                                                                    26336674.278 6 137141982.06906       497.085 6        38.661                                                                    26336669.417 6 111439074.68206       404.147 6        39.508
R07        40.000    24486752.210 6 131079485.09106     -3012.955 6        41.766                                                                    24486753.730 6 101950713.33006     -2343.308 6        36.692
C34        41.000                                                                                                                                    21835018.376 8 113701001.74808     -1990.663 8        49.823                                                                    21835018.447 8  92391515.30808     -1617.472 8        49.204
S44        42.000    40529131.010 6 212982147.18206      -505.023 6        38.691
C38        43.000                                                                                                                                    38569408.399 7 200841188.83907      -357.124 7        43.898                                                                    38569406.259 7 163199980.30507      -290.001 7        43.363
C05        44.000                                                                                                                                    39347933.491 6 204894998.25106      -512.845 6        38.471    39347930.693 7 158437821.46407      -396.646 7        42.645    39347931.914 6 166494063.09306      -416.744 6        40.102
C08        45.000                                                                                                                                    37955478.277 6 197644320.79706       242.636 6        41.611    37955472.687 7 152831199.40507       187.615 7        45.381    37955472.083 7 160602250.15607       197.371 7        42.377
E04        46.000    28428848.142 6 149394601.30706      -826.479 6        36.042                                                                    28428849.725 6 111560910.94906      -617.183 6        40.400    28428848.884 6 114471193.28906      -633.223 6        40.777
R19        47.000    24096998.124 5 128902765.38305      3516.610 5        32.539                                                                    24097013.586 5 100257801.88005      2735.353 5        34.495
C43        48.000                                                                                                                                    21897905.512 8 114028442.47808       747.335 8        50.572                                                                    21897905.210 8  92657571.63508       607.392 8        48.948
C10        49.000                                                                                                                                    41104162.365 5 214040241.88505     -1257.549 5        34.005    41104161.014 6 165509528.54906      -972.287 6        38.249    41104158.829 5 173925248.90605     -1021.597 5        33.988
C44        50.000                                                                                                                                    25860018.808 6 134660016.74806     -3627.324 6        39.523                                                                    25860018.233 6 109422341.38106     -2947.256 6        40.563
S48        51.000    77124118.720 6 405290984.60106      -611.618 6        38.772
R01        52.000    24211151.889 6 129422508.39406      2350.425 6        38.841                                                                    24211153.102 5 100661940.00005      1827.871 5        33.605
C37        53.000                                                                                                                                    25710046.253 6 133878969.96506      2362.756 6        40.994                                                                    25710048.963 7 108787651.12007      1919.903 7        43.005
C60        54.000                                                                                                                                    40529128.254 6 211045964.86806      -500.267 6        39.372                                                                    40529114.394 6 171492094.40206      -406.531 6        39.823
C25        55.000                                                                                                                                    22706042.034 8 118236496.01408     -3057.096 8        49.369                                                                    22706041.720 8  96076912.79708     -2484.053 8        48.095
C23        56.000                                                                                                                                    22478200.100 8 117050225.75008        32.555 8        50.226                                                                    22478192.362 8  95113004.25908        26.570 8        50.121
C02        57.000                                                                                                                                    40717171.962 5 212025003.05205      -479.464 5        34.071    40717168.002 6 163951164.19406      -370.842 6        37.750    40717170.846 5 172287676.71005      -389.388 5        34.329
I03        58.000   114550813.119 6 373736688.98706      1020.669 6        40.598
C11        59.000                                                                                                                                    21429286.486 8 111588222.50808      -585.332 8        48.622    21429283.421 8  86287241.06108      -452.640 8        51.373    21429282.575 8  90674679.46308      -475.466 8        49.075
C28        60.000                                                                                                                                    26563900.138 6 138325203.03906      2542.570 6        39.078                                                                    26563914.128 6 112400629.49006      2066.436 6        37.161
> 2025 01 01 16 45 15.0000000  0 57
G20         1.000    23921725.046 6 125709706.12406     -2092.398 6        39.907                                    23921720.929 3  97955686.55603     -1630.441 3        21.952
G25         2.000    22237865.595 7 116860952.26007     -3776.879 7        43.490                                    22237866.070 6  91060580.08206     -2943.019 6        41.771    22237866.569 6  91060590.07106     -2942.906 6        41.094
G05         3.000    22944400.251 7 120573770.11407       295.924 7        43.934                                    22944396.879 6  93953643.19806       230.587 6        39.931    22944397.110 6  93953642.20606       230.545 6        39.913
G29         4.000    20734499.938 8 108960894.47908     -1923.236 8        48.329                                    20734496.266 8  84904757.54308     -1498.627 8        49.335    20734496.465 7  84904760.54007     -1498.613 7        45.096
S21         5.000    38400372.118 7 201795011.54407      -574.883 7        42.988
E13         6.000    25549003.772 7 134261200.96307      2252.173 7        44.059                                                                    25549008.624 7 100260175.56807      1681.796 7        46.729    25549007.799 7 102875630.23907      1725.674 7        47.747
E19         7.000    28084860.269 5 147586832.86205     -2819.145 5        30.257                                                                    28084876.453 5 110210932.08705     -2105.384 5        33.701    28084874.232 5 113086003.57705     -2160.380 5        33.419
E15         8.000    23518348.504 8 123590065.99208      -218.073 8        48.086                                                                    23518349.898 8  92291450.82508      -162.863 8        51.212    23518349.359 8  94699030.30808      -167.103 8        51.621
E30        10.000    26251491.149 7 137952714.47807     -3023.623 7        42.749                                                                    26251493.715 7 103016762.28607     -2258.007 7        46.532    26251492.555 7 105704142.92307     -2317.045 7        46.644
G26        11.000    21325253.489 7 112065334.00807      1575.372 7        46.319                                    21325253.855 7  87323818.36807      1227.562 7        46.925    21325254.181 7  87323838.37207      1227.554 7        43.769
S27        12.000    39191141.132 6 205950782.65406      -561.182 6        36.333
R15        13.000    19354047.772 8 103422462.13508     -2160.067 8        52.279                                                                    19354048.185 7  80439834.08607     -1680.001 7        47.076
S36        14.000    38172280.679 7 200597142.51707      -574.172 7        44.536
G09        16.000    25479435.088 5 133895312.23905      -553.703 5        35.262                                    25479437.202 4 104334015.52704      -431.430 4        28.133    25479437.690 5 104334017.46205      -431.446 5        34.905
S45        17.000    63381715.043 6 333073635.67306      -633.742 6        36.684
G31        18.000    21746109.854 7 114276853.72107     -1570.859 7        46.924                                    21746106.889 7  89047047.77007     -1224.047 7        45.690    21746107.373 7  89047026.78307     -1224.064 7        42.499
G16        19.000    23576151.443 6 123893754.45806      2876.079 6        39.126                                    23576147.201 3  96540703.36403      2241.103 3        22.305
E21        20.000    25196692.594 7 132409877.73407      1537.388 7        44.327                                                                    25196693.370 7  98877719.66507      1148.064 7        47.961    25196692.779 8 101457113.54708      1177.975 8        48.500
R14        21.000    22796897.408 7 121520412.71807     -4802.726 7        45.819                                                                    22796902.038 7  94515959.37807     -3735.368 7        42.703
I06        22.000    38676987.526 6 151776972.56806      -451.483 6        41.104
S28        23.000    40878280.085 5 214816785.52005      -573.036 5        34.790
E34        24.000    25794726.984 7 135552516.43807     -2867.619 7        43.041                                                                    25794727.466 7 101224468.72507     -2141.362 7        46.307    25794727.252 7 103865086.86007     -2197.277 7        46.762
S23        25.000    38123171.348 7 200338554.20107      -577.931 7        45.017
C13        26.000                                                                                                                                    38081675.649 7 198301462.88607       423.840 7        43.888    38081677.384 7 153339377.64107       327.785 7        45.217    38081675.415 7 161136266.53307       344.455 7        42.597
G18        27.000    21328069.791 7 112080083.43607      1661.882 7        47.953                                    21328067.936 6  87335294.95606      1294.968 6        39.069    21328068.132 7  87335285.96507      1294.958 7        46.252
R24        28.000    22259224.084 7 119030412.37407     -4360.136 7        46.701                                                                    22259223.084 7  92579390.85407     -3391.202 7        42.226
I02        29.000    38151872.791 6 149716227.94906      -921.853 6        41.251
G28        30.000    22296720.956 7 117170225.95307     -3079.208 7        45.707                                    22296720.516 5  91301566.06005     -2399.389 5        34.348    22296720.547 7  91301563.05807     -2399.382 7        44.077
G04        31.000    25229103.807 6 132579849.88206     -1494.133 6        36.567                                    25229102.321 3 103308978.64503     -1164.264 3        19.045    25229102.399 5 103308986.65605     -1164.242 5        35.243
C12        32.000                                                                                                                                    23957692.465 7 124754268.06507     -3187.353 7        42.243    23957690.935 8  96468040.76908     -2464.661 8        48.465    23957690.033 7 101373154.01107     -2589.958 7        46.244
R17        33.000    19135379.350 8 102397636.21008     -1373.320 8        51.958                                                                    19135377.878 7  79642771.49107     -1068.110 7        47.348
R08        34.000    23706777.473 6 126948734.40906      -389.332 6        38.294                                                                    23706776.528 6  98737907.16206      -302.700 6        39.571
R18        36.000    20381810.596 8 108799852.63708      2135.846 8        50.087                                                                    20381812.900 7  84622302.73307      1661.113 7        46.317
E27        37.000    23365025.671 8 122784267.22208      -933.714 8        48.316                                                                    23365025.948 8  91689700.47108      -697.214 8        51.212    23365025.341 8  94081586.05908      -715.391 8        51.383
R16        38.000    20275120.932 8 108306166.56608      2110.752 8        51.928                                                                    20275121.029 7  84238182.65707      1641.735 7        47.919
C22        39.000                                                                                                                                    26336197.619 6 137139502.64206       494.611 6        38.694                                                                    26336193.216 6 111437059.97906       401.991 6        40.062
R07        40.000    24489568.488 6 131094558.22206     -3016.224 6        41.852                                                                    24489569.481 6 101962436.97606     -2345.804 6        37.433
C34        41.000                                                                                                                                    21836930.953 8 113710959.79208     -1992.402 8        49.953                                                                    21836930.792 8  92399607.05108     -1618.911 8        49.301
S44        42.000    40529613.252 6 212984672.41506      -505.151 6        38.604
C38        43.000                                                                                                                                    38569751.476 7 200842977.42507      -358.243 7        43.767                                                                    38569749.713 7 163201433.71207      -291.142 7        43.359
C05        44.000                                                                                                                                    39348426.268 6 204897563.19006      -513.007 6        38.670    39348423.095 7 158439804.84607      -396.621 7        42.684    39348424.476 6 166496147.33006      -416.644 6        40.291
C08        45.000                                                                                                                                    37955246.182 6 197643110.94506       241.477 6        41.638    37955240.346 7 152830263.88807       186.644 7        45.272    37955239.722 7 160601267.08307       196.129 7        42.423
E04        46.000    28429635.535 6 149398739.54706      -828.853 6        36.242                                                                    28429637.157 6 111564001.11206      -618.853 6        40.417    28429636.426 6 114474364.07106      -635.006 6        41.256
R19        47.000    24093708.198 5 128885182.95505      3516.129 5        32.156                                                                    24093725.209 5 100244126.93405      2734.722 5        33.910
C43        48.000                                                                                                                                    21897188.709 8 114024710.95308       745.372 8        50.471                                                                    21897188.549 8  92654539.49108       605.763 8        49.017
C10        49.000                                                                                                                                    41105369.815 5 214046529.29605     -1257.670 5        34.129    41105368.268 6 165514390.37606      -972.464 6        38.240    41105366.002 5 173930357.94905     -1021.819 5        34.352
C44        50.000                                                                                                                                    25863501.689 6 134678153.08906     -3627.286 6        39.231                                                                    25863501.174 6 109437078.66906     -2947.357 6        40.713
S48        51.000    77124676.184 6 405294044.62706      -611.892 6        38.450
R01        52.000    24208954.557 6 129410763.05106      2347.991 6        38.504                                                                    24208955.815 5 100652804.73105      1826.485 5        33.293
C37        53.000                                                                                                                                    25707777.794 6 133867159.96906      2361.392 6        41.323                                                                    25707781.092 7 108778054.54007      1918.922 7        42.882
C60        54.000                                                                                                                                    40529608.971 6 211048467.14106      -500.400 6        39.580                                                                    40529594.775 6 171494127.72506      -406.644 6        39.721
C25        55.000                                                                                                                                    22708978.453 8 118251786.60908     -3059.090 8        49.510                                                                    22708978.149 8  96089337.66808     -2485.649 8        48.221
C23        56.000                                                                                                                                    22478170.200 8 117050069.80708        29.863 8        50.164                                                                    22478162.397 8  95112877.56008        24.349 8        50.215
C02        57.000                                                                                                                                    40717632.874 5 212027400.60205      -479.429 5        34.086    40717627.944 6 163953018.15106      -370.789 6        37.652    40717630.994 5 172289624.94705      -389.666 5        34.452
I03        58.000   114549512.400 6 373731586.22106      1020.648 6        40.720
C11        59.000                                                                                                                                    21429849.443 8 111591154.63608      -587.481 8        48.594    21429846.746 8  86289508.37308      -454.241 8        51.384    21429845.647 8  90677062.08508      -477.322 8        49.196
C28        60.000                                                                                                                                    26561458.226 6 138312491.52606      2542.281 6        39.210                                                                    26561472.639 6 112390300.52706      2065.643 6        37.516
> 2025 01 01 16 45 20.0000000  0 57
G20         1.000    23923716.907 6 125720175.49306     -2094.983 6        40.195                                    23923713.180 3  97963844.51803     -1632.465 3        21.667
G25         2.000    22241459.712 7 116879839.53307     -3777.950 7        44.591                                    22241460.132 7  91075297.43607     -2943.856 7        42.095    22241461.055 6  91075307.43306     -2943.771 6        41.485
G05         3.000    22944120.253 7 120572298.92407       292.858 7        43.482                                    22944116.996 6  93952496.82406       228.199 6        39.916    22944117.246 6  93952495.83506       228.220 6        39.709
G29         4.000    20736330.590 8 108970515.15908     -1924.813 8        48.239                                    20736327.020 8  84912254.18408     -1499.854 8        49.346    20736327.475 7  84912257.18607     -1499.842 7        45.002
S21         5.000    38400919.973 7 201797885.95807      -574.386 7        43.056
