     3.04           OBSERVATION DATA    M                   RINEX VERSION / TYPE
ssrcrin-15.6.1x                         20250101 061500 UTC PGM / RUN BY / DATE 
(00000000023479385599111004) Septentrio proprietary         COMMENT             
rref                                                        MARKER NAME         
01                                                          MARKER NUMBER       
geodetic                                                    MARKER TYPE         
NFB                 CLIMERS@TUW                             OBSERVER / AGENCY   
3297213             SEPT ASTERX SB3 PROB4.14.4              REC # / TYPE / VERS 
Unknown             Unknown                                 ANT # / TYPE        
  4127831.8507  1207192.8403  4695247.1620                  APPROX POSITION XYZ 
        0.0000        0.0000        0.0000                  ANTENNA: DELTA H/E/N
G   23 X1  C1C L1C D1C S1C C1W S1W C2W L2W D2W S2W C2L L2L  SYS / # / OBS TYPES 
       D2L S2L C5Q L5Q D5Q S5Q C1L L1L D1L S1L              SYS / # / OBS TYPES 
E   21 X1  C1C L1C D1C S1C C6C L6C D6C S6C C5Q L5Q D5Q S5Q  SYS / # / OBS TYPES 
       C7Q L7Q D7Q S7Q C8Q L8Q D8Q S8Q                      SYS / # / OBS TYPES 
S    9 X1  C1C L1C D1C S1C C5I L5I D5I S5I                  SYS / # / OBS TYPES 
R   17 X1  C1C L1C D1C S1C C2P L2P D2P S2P C2C L2C D2C S2C  SYS / # / OBS TYPES 
       C3Q L3Q D3Q S3Q                                      SYS / # / OBS TYPES 
C   25 X1  C1P L1P D1P S1P C5P L5P D5P S5P C2I L2I D2I S2I  SYS / # / OBS TYPES 
       C7I L7I D7I S7I C6I L6I D6I S6I C7D L7D D7D S7D      SYS / # / OBS TYPES 
J   17 X1  C1C L1C D1C S1C C2L L2L D2L S2L C5Q L5Q D5Q S5Q  SYS / # / OBS TYPES 
       C1L L1L D1L S1L                                      SYS / # / OBS TYPES 
I    5 X1  C5A L5A D5A S5A                                  SYS / # / OBS TYPES 
SEPTENTRIO RECEIVERS OUTPUT ALIGNED CARRIER PHASES.         COMMENT             
NO FURTHER PHASE SHIFT APPLIED IN THE RINEX ENCODER.        COMMENT             
G L1C                                                       SYS / PHASE SHIFT   
G L2W                                                       SYS / PHASE SHIFT   
G L2L  0.00000                                              SYS / PHASE SHIFT   
G L5Q  0.00000                                              SYS / PHASE SHIFT   
G L1L  0.00000                                              SYS / PHASE SHIFT   
E L1C  0.00000                                              SYS / PHASE SHIFT   
E L6C  0.00000                                              SYS / PHASE SHIFT   
E L5Q  0.00000                                              SYS / PHASE SHIFT   
E L7Q  0.00000                                              SYS / PHASE SHIFT   
E L8Q  0.00000                                              SYS / PHASE SHIFT   
S L1C                                                       SYS / PHASE SHIFT   
S L5I                                                       SYS / PHASE SHIFT   
R L1C                                                       SYS / PHASE SHIFT   
R L2P  0.00000                                              SYS / PHASE SHIFT   
R L2C                                                       SYS / PHASE SHIFT   
R L3Q  0.00000                                              SYS / PHASE SHIFT   
C L1P  0.00000                                              SYS / PHASE SHIFT   
C L5P  0.00000                                              SYS / PHASE SHIFT   
C L2I                                                       SYS / PHASE SHIFT   
C L7I                                                       SYS / PHASE SHIFT   
C L6I                                                       SYS / PHASE SHIFT   
C L7D                                                       SYS / PHASE SHIFT   
J L1C                                                       SYS / PHASE SHIFT   
J L2L  0.00000                                              SYS / PHASE SHIFT   
J L5Q  0.00000                                              SYS / PHASE SHIFT   
J L1L  0.00000                                              SYS / PHASE SHIFT   
I L5A                                                       SYS / PHASE SHIFT   
  2025     1     1     6    15    0.0000000     GPS         TIME OF FIRST OBS   
 C1C    0.000 C2C    0.000 C2P    0.000                     GLONASS COD/PHS/BIS 
DBHZ                                                        SIGNAL STRENGTH UNIT
    18                                                      LEAP SECONDS        
 24 R01  1 R02 -4 R03  5 R04  6 R05  1 R06 -4 R07  5 R08  6 GLONASS SLOT / FRQ #
    R09 -2 R10 -7 R11  0 R12 -1 R13 -2 R14 -7 R15  0 R16 -1 GLONASS SLOT / FRQ #
    R17  4 R18 -3 R19  3 R20  2 R21  4 R22 -3 R23  3 R24  2 GLONASS SLOT / FRQ #
                                                            END OF HEADER       
> 2025 01 01 06 15  0.0000000  0 54
G16         1.000    25249136.836 5 132685094.14705     -3532.821 5        34.471                                    25249134.453 2 103390958.35102     -2752.833 2        12.970
R01         2.000    22428944.966 7 119895554.29707      3087.323 7        43.035                                                                    22428944.343 6  93252166.59906      2401.178 6        37.588
G09         3.000    22402586.723 7 117726391.43607     -3139.704 7        43.875                                    22402586.073 7  91734851.64007     -2446.516 7        43.331    22402587.015 7  91734852.62507     -2446.503 7        42.231
E34         4.000    26932237.510 6 141529848.66106     -3459.649 6        41.106                                                                    26932239.313 7 105687874.60307     -2583.547 7        43.517    26932239.041 7 108444949.74807     -2650.943 7        44.531
S21         5.000    38506066.510 7 202350554.12907      -409.862 7        43.977
E05         6.000    22181040.435 8 116562190.38508     -1230.021 8        48.376                                                                    22181040.865 8  87043221.47608      -918.494 8        51.095    22181040.408 8  89313906.54308      -942.441 8        51.888
E15         7.000    25719874.529 7 135158870.50507     -1583.087 7        43.407                                                                    25719875.353 7 100930348.08407     -1182.237 7        46.421    25719874.956 7 103563311.54307     -1213.070 7        47.430
R10         8.000    19672728.124 8 104866712.37808       955.394 8        48.424
E31         9.000    26671568.626 6 140160035.93706     -1728.967 6        40.627                                                                    26671570.207 7 104664982.17707     -1291.229 7        43.132    26671569.903 7 107395371.43207     -1324.925 7        44.346
G04        10.000    24940192.967 6 131061492.13006     -3585.087 6        37.342                                    24940199.517 3 102125808.64403     -2793.563 3        19.403    24940199.214 6 102125803.61406     -2793.535 6        37.062
E09        11.000    27431634.290 6 144154178.59106     -2765.279 6        40.846                                                                    27431639.246 7 107647594.36007     -2064.947 7        43.145    27431638.345 7 110455794.45307     -2118.862 7        44.185
S27        12.000    39156471.488 6 205768594.56306      -431.656 6        36.892
G06        13.000    25100827.927 6 131905729.27706     -3925.366 6        38.147                                    25100829.449 5 102783679.42205     -3058.733 5        30.974    25100830.294 6 102783690.40506     -3058.706 6        36.873
S36        14.000    38274437.695 7 201134031.96407      -410.534 7        44.867
G20        15.000    20761990.926 8 109105005.64608        72.674 8        48.783                                    20761986.482 6  85016868.71006        56.630 6        40.007
R11        16.000    22450718.192 7 119969839.42507      3959.970 7        46.195                                                                    22450718.309 7  93309875.59707      3080.043 7        43.236
S45        17.000    63457363.874 6 333472137.52906      -452.591 6        37.115
E13        18.000    27375422.425 6 143858834.36706      1066.833 6        39.417                                                                    27375423.666 7 107427042.28407       796.598 7        43.145    27375422.972 7 110229487.55407       817.476 7        44.017
E24        19.000    25512924.598 7 134071305.85307       940.217 7        45.353                                                                    25512925.146 8 100118191.96908       702.115 8        48.256    25512924.405 8 102729967.74208       720.428 8        48.691
R23        20.000    24329971.719 6 130148922.90606     -4447.982 6        40.145
G30        21.000    20750581.510 8 109045063.04708       788.952 8        50.997                                    20750579.829 8  84970186.37008       614.770 8        52.016    20750580.094 7  84970190.38007       614.670 7        45.102
I06        22.000    38029000.122 7 149234166.86207      -322.664 7        42.578
S28        23.000    40936083.716 5 215120460.27405      -413.151 5        35.495
G14        24.000    24244870.894 6 127407654.86506      3153.896 6        41.404                                    24244871.033 4  99278693.62404      2457.574 4        26.204    24244870.331 6  99278695.62206      2457.487 6        40.653
S23        25.000    38210235.127 7 200796109.01907      -407.245 7        45.130
E08        26.000    28593689.026 6 150260846.20006      2053.165 6        36.095                                                                    28593687.962 6 112207772.56606      1533.447 6        38.375    28593687.271 6 115134929.53806      1573.529 6        38.781
C34        27.000                                                                                                                                    26651174.603 6 138779657.00006     -2496.763 6        38.865                                                                    26651174.207 6 112769843.86506     -2028.880 6        37.391
G13        28.000    23461217.278 7 123289540.75507      2744.376 7        42.055                                    23461212.912 3  96069753.50203      2138.478 3        23.219
R09        29.000    20627862.549 8 110151637.82808     -2719.952 8        49.212                                                                    20627861.882 7  85673498.21507     -2115.501 7        46.995
C22        30.000                                                                                                                                    21536038.827 8 112143826.03108      -774.388 8        52.143                                                                    21536032.647 8  91126030.33808      -629.198 8        50.241
I01        31.000   343313246.908 6  44094051.14206     -2984.677 6        40.451
E03        32.000    24352076.766 7 127971046.14007      1064.443 7        46.732                                                                    24352076.586 8  95562813.56908       794.918 8        49.818    24352076.325 8  98055750.35008       815.622 8        50.877
G05        33.000    22367641.922 7 117542779.98507      2311.339 7        45.853                                    22367637.574 7  91591776.10807      1801.045 7        43.069    22367637.879 6  91591779.11506      1801.027 6        41.566
R24        34.000    22826699.764 7 122064643.27807     -2180.258 7        45.699                                                                    22826699.363 6  94939170.26506     -1695.911 6        41.681
C36        35.000                                                                                                                                    21966512.070 8 114385395.30508      -164.593 8        51.292                                                                    21966516.985 8  92947524.85708      -133.798 8        50.594
G11        36.000    23506542.321 7 123527726.55007     -3091.251 7        44.450                                    23506539.191 5  96255367.34805     -2408.769 5        30.408    23506539.513 7  96255367.35707     -2408.905 7        42.159
I09        38.000    38720931.712 6 151949194.12406      -844.102 6        40.701
R08        39.000    19449003.246 8 104148542.47008       260.374 8        50.273                                                                    19449001.356 7  81004422.64107       202.581 7        47.021
E25        40.000    26847947.335 6 141086929.39606      2678.285 6        40.870                                                                    26847950.558 7 105357129.73207      2000.030 7        43.968    26847950.150 7 108105568.18007      2052.207 7        45.707
S44        42.000    40910973.203 6 214988679.72906      -458.471 6        38.258
C09        43.000                                                                                                                                    39816748.767 6 207336253.31006     -1202.342 6        38.544    39816747.907 7 160325526.44707      -929.551 7        43.592    39816744.965 6 168477664.27606      -976.827 6        39.685
C05        44.000                                                                                                                                    39319242.558 6 204745605.33506      -468.409 6        38.535    39319240.454 7 158322301.66607      -362.182 7        42.574    39319242.341 6 166372669.25606      -380.638 6        40.579
R17        47.000    23533815.093 7 125934205.59407      1202.845 7        43.130                                                                    23533814.305 6  97948831.84406       935.475 6        40.093
C06        49.000                                                                                                                                    40613110.356 5 211483079.00205     -1422.248 5        35.538    40613108.214 6 163532098.51206     -1099.456 6        39.348    40613107.043 6 171847290.87306     -1155.517 6        37.047
C16        50.000                                                                                                                                    41166148.032 6 214362884.93706     -1371.329 6        37.531    41166152.960 6 165758971.00806     -1060.396 6        38.273    41166149.431 5 174187387.05805     -1114.273 5        34.305
S48        51.000    77233924.182 6 405865993.22806      -395.598 6        38.435
C19        52.000                                                                                                                                    24716705.110 7 128706380.82307     -3143.253 7        46.561                                                                    24716702.556 7 104584470.54307     -2554.102 7        46.285
C12        53.000                                                                                                                                    27047777.895 5 140844855.50605     -3095.341 5        35.948    27047774.678 6 108910154.20706     -2393.522 6        39.459    27047773.012 6 114447956.09006     -2515.259 6        37.622
C60        54.000                                                                                                                                    40910971.829 6 213034255.58106      -454.191 6        40.064                                                                    40910961.483 6 173107728.86006      -368.982 6        39.508
C11        56.000                                                                                                                                    26264128.154 6 136764209.03106     -1521.808 6        38.862    26264125.136 7 105754742.50407     -1176.747 7        43.217    26264123.074 6 111132099.94806     -1236.530 6        40.055
C02        57.000                                                                                                                                    40889084.605 5 212920110.82605      -485.422 5        33.617    40889085.912 6 164643296.32706      -375.675 6        39.913    40889087.553 5 173015007.46805      -394.622 5        35.733
I03        58.000   127337575.200 6 423914602.75206       897.681 6        39.483
R07        59.000    20944531.650 8 112117716.03108     -2926.639 8        49.577                                                                    20944532.377 7  87202662.79407     -2276.252 7        46.396
G07        60.000    21086778.908 8 110811794.98808     -1491.330 8        48.725                                    21086774.915 8  86346846.29908     -1162.073 8        49.327    21086775.178 7  86346847.30407     -1162.039 7        45.779
> 2025 01 01 06 15  5.0000000  0 54
G16         1.000    25252499.027 5 132702763.47305     -3535.144 5        34.005                                    25252496.751 2 103404726.62002     -2754.659 2        12.667
R01         2.000    22426055.925 7 119880118.91007      3086.816 7        43.016                                                                    22426056.974 6  93240161.29106      2401.014 6        37.346
G09         3.000    22405574.449 7 117742092.57107     -3140.817 7        43.759                                    22405574.002 7  91747086.26507     -2447.381 7        43.244    22405574.418 7  91747087.24907     -2447.459 7        42.129
E34         4.000    26935529.704 6 141547148.75306     -3460.292 6        41.440                                                                    26935531.279 7 105700793.49207     -2584.012 7        43.325    26935531.160 7 108458205.65707     -2651.405 7        44.412
S21         5.000    38506459.301 7 202352603.79107      -409.962 7        43.873
E05         6.000    22182211.298 8 116568342.99408     -1231.132 8        48.450                                                                    22182211.664 8  87047815.94808      -919.318 8        51.112    22182211.220 8  89318620.87508      -943.336 8        51.632
E15         7.000    25721382.052 7 135166792.05207     -1585.488 7        43.710                                                                    25721382.783 7 100936263.52207     -1183.993 7        46.447    25721382.432 7 103569381.29907     -1214.900 7        47.173
R10         8.000    19671834.095 8 104861946.56708       950.871 8        48.220
E31         9.000    26673214.548 6 140168686.83006     -1731.413 6        40.739                                                                    26673216.393 7 104671442.22407     -1292.785 7        43.151    26673216.190 7 107402000.01307     -1326.590 7        44.193
G04        10.000    24943604.574 6 131079417.62906     -3585.159 6        37.074                                    24943610.753 3 102139776.45503     -2793.604 3        19.284    24943611.004 6 102139771.41706     -2793.805 6        37.202
E09        11.000    27434265.248 6 144168006.11506     -2765.618 6        40.393                                                                    27434270.604 7 107657920.05107     -2065.284 7        43.056    27434269.537 7 110466389.52007     -2119.156 7        43.873
S27        12.000    39156882.466 6 205770752.69306      -431.574 6        37.055
G06        13.000    25104562.531 6 131925354.95006     -3925.248 6        37.123                                    25104564.094 5 102798972.12005     -3058.626 5        30.762    25104564.974 6 102798983.10406     -3058.590 6        37.221
S36        14.000    38274825.125 7 201136084.62307      -410.510 7        44.822
G20        15.000    20761923.388 8 109104650.50108        69.344 8        48.589                                    20761918.920 6  85016591.96806        54.037 6        39.898
R11        16.000    22447013.434 7 119950042.63507      3958.646 7        46.030                                                                    22447013.209 7  93294478.09307      3078.792 7        43.081
S45        17.000    63457751.756 6 333472800.07716      -452.720 6        36.798
E13        18.000    27374408.329 6 143853505.95606      1064.464 6        38.784                                                                    27374409.575 7 107423063.25407       794.994 7        42.887    27374408.955 7 110225404.73507       815.647 7        43.670
E24        19.000    25512031.103 7 134066610.19007       937.999 7        45.455                                                                    25512031.523 8 100114685.46608       700.421 8        48.274    25512030.837 8 102726369.76408       718.692 8        48.506
R23        20.000    24334129.085 6 130171163.78506     -4448.417 6        39.177
G30        21.000    20749832.009 8 109041124.37508       786.494 8        51.018                                    20749830.323 8  84967117.27108       612.854 8        51.952    20749830.635 7  84967121.27307       612.824 7        44.993
I06        22.000    38029410.831 7 149235779.73707      -322.574 7        42.455
S28        23.000    40936478.685 5 215122526.35505      -413.168 5        35.319
G14        24.000    24241869.688 6 127391885.66606      3153.737 6        40.949                                    24241870.136 4  99266405.93804      2457.462 4        25.970    24241869.761 6  99266407.94506      2457.429 6        40.851
S23        25.000    38210623.845 7 200798145.54307      -407.308 7        45.071
E08        26.000    28591734.729 6 150250579.01106      2053.361 6        36.639                                                                    28591733.971 6 112200105.52506      1533.365 6        38.450    28591733.538 6 115127062.50206      1573.246 6        38.529
C34        27.000                                                                                                                                    26653573.392 6 138792145.07606     -2498.349 6        38.114                                                                    26653572.437 6 112779991.40206     -2029.955 6        37.319
G13        28.000    23458606.592 6 123275820.15306      2743.791 6        41.943                                    23458601.954 3  96059062.11803      2138.010 3        22.990
R09        29.000    20630411.056 8 110165246.52908     -2723.591 8        49.226                                                                    20630410.488 7  85684082.75107     -2118.371 7        47.180
C22        30.000                                                                                                                                    21536783.395 8 112147702.89608      -776.440 8        52.047                                                                    21536777.155 8  91129180.59608      -630.915 8        50.044
I01        31.000   343317049.973 6  44108974.57506     -2984.762 6        40.417
E03        32.000    24351064.268 7 127965725.93607      1063.626 7        46.695                                                                    24351064.212 8  95558840.68508       794.301 8        49.794    24351063.883 8  98051673.83108       814.938 8        50.722
G05        33.000    22365443.884 7 117531228.76407      2309.142 7        46.000                                    22365439.459 7  91582775.15807      1799.334 7        43.018    22365439.834 6  91582778.16006      1799.354 6        41.824
R24        34.000    22828740.278 7 122075554.02307     -2184.029 7        46.233                                                                    22828739.495 6  94947656.38806     -1698.758 6        41.149
C36        35.000                                                                                                                                    21966671.354 8 114386225.39608      -167.430 8        51.335                                                                    21966676.411 8  92948199.36208      -136.097 8        50.421
G11        36.000    23509484.474 7 123543187.63307     -3093.173 7        43.820                                    23509481.349 5  96267414.93705     -2410.260 5        30.325    23509481.708 7  96267414.92407     -2410.317 7        42.076
I09        38.000    38722006.768 6 151953414.60406      -844.150 6        40.725
R08        39.000    19448761.408 8 104147246.69308       257.827 8        50.247                                                                    19448759.674 7  81003414.80907       200.561 7        47.182
E25        40.000    26845399.141 6 141073538.82206      2677.793 6        40.472                                                                    26845402.409 7 105347130.26407      1999.742 7        43.911    26845402.028 7 108095307.85907      2051.870 7        45.509
S44        42.000    40911409.531 6 214990971.98106      -458.525 6        38.243
C09        43.000                                                                                                                                    39817903.456 6 207342264.44906     -1202.219 6        38.619    39817902.268 7 160330174.62507      -929.681 7        43.642    39817899.249 6 168482548.80406      -976.874 6        39.321
C05        44.000                                                                                                                                    39319692.542 6 204747947.47706      -468.412 6        38.613    39319690.295 7 158324112.73707      -362.239 7        42.404    39319692.164 6 166374572.41806      -380.657 6        40.365
R17        47.000    23532691.585 7 125928201.66007      1198.800 7        42.576                                                                    23532692.825 6  97944162.15406       932.518 6        40.830
C06        49.000                                                                                                                                    40614475.077 5 211490188.65005     -1421.668 5        35.357    40614473.423 6 163537596.12706     -1099.385 6        38.862    40614472.533 6 171853068.02106     -1155.417 6        36.938
C16        50.000                                                                                                                                    41167464.876 6 214369741.37306     -1371.426 6        37.641    41167469.249 6 165764272.82406     -1060.507 6        38.384    41167466.125 5 174192958.44205     -1114.310 5        33.713
S48        51.000    77234308.179 6 405867969.97506      -395.466 6        38.508
C19        52.000                                                                                                                                    24719724.094 7 128722099.94007     -3144.355 7        46.460                                                                    24719721.310 7 104597243.57507     -2555.029 7        46.181
C12        53.000                                                                                                                                    27050749.638 5 140860334.17505     -3095.958 5        35.371    27050747.113 6 108922123.29706     -2394.055 6        39.366    27050745.822 6 114460533.76706     -2515.770 6        37.456
C60        54.000                                                                                                                                    40911407.959 6 213036527.01106      -454.296 6        40.074                                                                    40911397.618 6 173109574.56406      -369.333 6        39.336
C11        56.000                                                                                                                                    26265589.538 6 136771823.75406     -1524.106 6        37.781    26265587.496 7 105760630.70007     -1178.573 7        43.259    26265585.460 6 111138287.51606     -1238.532 6        39.670
C02        57.000                                                                                                                                    40889550.472 5 212922540.09105      -485.907 5        33.683    40889552.271 6 164645174.75106      -375.740 6        39.805    40889554.055 5 173016981.40005      -394.792 5        35.533
I03        58.000   127336431.665 6 423910114.86806       897.570 6        39.604
R07        59.000    20947266.316 8 112132354.38108     -2928.719 8        49.660                                                                    20947266.909 7  87214048.16507     -2277.925 7        46.603
G07        60.000    21088198.848 8 110819256.53508     -1493.348 8        48.742                                    21088194.807 8  86352660.48308     -1163.647 8        49.236    21088195.026 7  86352661.48707     -1163.648 7        46.005
> 2025 01 01 06 15 10.0000000  0 54
G16         1.000    25255862.911 5 132720442.16405     -3536.560 5        33.713                                    25255860.927 2 103418502.23302     -2755.758 2        12.000
R01         2.000    22423168.905 7 119864685.34607      3086.458 7        42.650                                                                    22423169.077 6  93228157.41806      2400.561 6        37.561
G09         3.000    22408562.914 7 117757798.75707     -3141.689 7        44.211                                    22408562.911 7  91759324.81907     -2448.064 7        43.560    22408563.158 7  91759325.81407     -2448.118 7        42.125
E34         4.000    26938822.085 6 141564451.43806     -3460.683 6        41.125                                                                    26938823.780 7 105713714.30507     -2584.192 7        43.213    26938823.647 7 108471463.54107     -2651.762 7        44.340
S21         5.000    38506846.642 7 202354653.15907      -409.794 7        44.001
E05         6.000    22183383.109 8 116574500.32208     -1231.844 8        48.299                                                                    22183383.381 8  87052413.94008      -919.870 8        51.196    22183382.964 8  89323338.81008      -943.869 8        51.621
E15         7.000    25722891.682 7 135174724.94707     -1587.638 7        43.562                                                                    25722892.398 7 100942187.42907     -1185.538 7        46.464    25722891.973 7 103575459.74307     -1216.499 7        47.182
R10         8.000    19670944.110 8 104857202.52308       946.728 8        48.266
E31         9.000    26674862.630 6 140177348.24106     -1733.289 6        40.374                                                                    26674864.511 7 104677910.15607     -1294.337 7        43.177    26674864.417 7 107408636.66907     -1328.101 7        44.169
G04        10.000    24947015.971 6 131097344.18606     -3585.282 6        37.036                                    24947022.162 3 102153745.06803     -2793.697 3        19.015    24947021.782 6 102153740.05806     -2793.855 6        37.440
E09        11.000    27436896.769 6 144181834.72806     -2765.769 6        40.269                                                                    27436902.228 7 107668246.54707     -2065.341 7        43.228    27436900.909 7 110476985.41607     -2119.252 7        43.537
S27        12.000    39157297.535 6 205772910.32806      -431.721 6        37.157
G06        13.000    25108296.986 6 131944979.22406     -3924.627 6        36.340                                    25108298.628 5 102814263.72905     -3058.143 5        30.732    25108298.715 6 102814274.71206     -3058.310 6        37.187
S36        14.000    38275218.369 7 201138136.78107      -410.329 7        44.829
G20        15.000    20761858.705 8 109104311.17308        66.384 8        48.072                                    20761854.327 6  85016327.55006        51.727 6        40.033
R11        16.000    22443309.671 7 119930252.05107      3957.481 7        45.865                                                                    22443309.725 7  93279085.42207      3078.089 7        43.261
S45        17.000    63458138.564 6 333475062.24306      -452.416 6        37.017
E13        18.000    27373396.749 6 143848188.18706      1062.518 6        38.006                                                                    27373397.566 7 107419092.17407       793.563 7        43.101    27373397.108 7 110221330.06807       814.099 7        43.882
E24        19.000    25511139.853 7 134061925.16307       936.007 7        45.339                                                                    25511139.993 8 100111186.89508       698.999 8        48.301    25511139.267 8 102722779.92408       717.239 8        48.581
R23        20.000    24338287.929 6 130193405.78206     -4448.523 6        39.823
G30        21.000    20749084.584 8 109037197.36208       784.282 8        50.955                                    20749083.043 8  84964057.25608       611.130 8        52.098    20749083.459 7  84964061.25807       611.161 7        45.085
I06        22.000    38029821.990 7 149237392.50807      -322.486 7        42.696
S28        23.000    40936871.647 5 215124592.14605      -413.048 5        35.562
G14        24.000    24238869.094 6 127376117.05106      3153.750 6        40.474                                    24238869.320 4  99254118.69904      2457.465 4        25.970    24238869.313 6  99254120.70706      2457.413 6        41.347
S23        25.000    38211010.104 7 200800181.64207      -407.140 7        45.025
E08        26.000    28589780.509 6 150240311.41606      2053.848 6        36.295                                                                    28589779.749 6 112192438.18406      1533.620 6        38.279    28589779.781 6 115119195.13206      1573.584 6        38.562
C34        27.000                                                                                                                                    26655972.170 6 138804639.71806     -2499.510 6        39.709                                                                    26655971.627 6 112790144.34706     -2031.043 6        36.957
G13        28.000    23455995.504 6 123262102.14306      2743.370 6        41.466                                    23455991.546 3  96048372.76403      2137.686 3        23.238
R09        29.000    20632962.515 8 110178872.78908     -2726.888 8        49.481                                                                    20632962.322 7  85694680.95007     -2120.983 7        47.523
C22        30.000                                                                                                                                    21537529.867 8 112151589.62008      -778.274 8        52.049                                                                    21537523.540 8  91132338.86608      -632.305 8        50.142
I01        31.000   343320852.582 6  44123898.35806     -2984.730 6        40.522
E03        32.000    24350052.704 7 127960409.33007      1063.045 7        46.503                                                                    24350052.467 8  95554870.49108       793.809 8        49.922    24350052.194 8  98047600.06108       814.498 8        50.732
G05        33.000    22363247.651 7 117519687.77007      2307.273 7        45.619                                    22363243.293 7  91573782.17407      1797.877 7        43.154    22363243.821 6  91573785.17706      1797.890 6        41.979
R24        34.000    22830784.100 7 122086482.77907     -2187.427 7        46.253                                                                    22830783.230 6  94956156.51806     -1701.418 6        40.124
C36        35.000                                                                                                                                    21966833.310 8 114387068.71508      -169.918 8        51.485                                                                    21966838.340 8  92948884.61808      -137.973 8        50.503
G11        36.000    23512427.980 7 123558657.22007     -3094.719 7        43.917                                    23512424.986 5  96279469.14905     -2411.469 5        30.392    23512425.438 7  96279469.14207     -2411.439 7        42.135
I09        38.000    38723082.517 6 151957635.36006      -844.267 6        40.722
R08        39.000    19448521.783 8 104145963.06208       255.569 8        50.412                                                                    19448519.584 7  81002416.42607       198.777 7        46.913
E25        40.000    26842851.165 6 141060150.09406      2677.604 6        40.184                                                                    26842854.696 7 105337132.17007      1999.487 7        44.056    26842854.287 7 108085048.95207      2051.734 7        45.535
S44        42.000    40911844.007 6 214993263.74406      -458.242 6        38.141
C09        43.000                                                                                                                                    39819057.874 6 207348275.03406     -1201.823 6        38.643    39819056.324 7 160334822.35907      -929.425 7        43.611    39819053.583 6 168487432.86106      -976.396 6        39.396
C05        44.000                                                                                                                                    39320142.021 6 204750289.24706      -468.252 6        38.492    39320139.814 7 158325923.52507      -362.016 7        42.373    39320141.879 6 166376475.28206      -380.464 6        40.446
R17        47.000    23531573.407 7 125922217.01307      1195.049 7        43.930                                                                    23531573.982 6  97939507.44906       929.477 6        40.286
C06        49.000                                                                                                                                    40615839.646 5 211497297.25405     -1421.250 5        35.205    40615838.363 6 163543092.91106     -1099.162 6        38.811    40615837.673 6 171858844.32206     -1155.122 6        37.157
C16        50.000                                                                                                                                    41168781.962 6 214376596.58006     -1370.978 6        37.622    41168786.471 6 165769573.65806     -1060.014 6        38.408    41168782.709 5 174198528.80805     -1113.707 5        33.886
S48        51.000    77234690.847 6 405869946.45906      -395.335 6        38.372
C19        52.000                                                                                                                                    24722743.822 7 128737823.98507     -3145.251 7        45.836                                                                    24722740.971 7 104610020.61307     -2555.681 7        46.121
C12        53.000                                                                                                                                    27053722.182 5 140875814.89005     -3096.456 5        35.657    27053719.315 6 108934093.93806     -2394.175 6        39.321    27053718.698 6 114473113.08006     -2515.774 6        37.558
C60        54.000                                                                                                                                    40911844.162 6 213038797.93106      -454.034 6        40.098                                                                    40911833.932 6 173111419.83106      -368.774 6        39.342
C11        56.000                                                                                                                                    26267053.690 6 136779449.97106     -1526.404 6        38.156    26267051.528 7 105766527.76107     -1180.240 7        43.608    26267049.911 6 111144484.43906     -1240.059 6        39.769
C02        57.000                                                                                                                                    40890016.571 5 212924968.82805      -485.573 5        33.527    40890018.916 6 164647052.77806      -375.397 6        39.613    40890020.477 5 173018954.92905      -394.504 5        35.738
I03        58.000   127335288.219 6 423905626.65606       897.684 6        39.937
R07        59.000    20950002.671 8 112147002.45008     -2930.519 8        49.464                                                                    20950002.419 7  87225441.08307     -2279.303 7        45.758
G07        60.000    21089620.386 8 110826727.60708     -1495.098 8        48.573                                    21089616.511 8  86358482.09008     -1165.009 8        49.353    21089616.245 7  86358483.08807     -1164.993 7        45.804
> 2025 01 01 06 15 15.0000000  0 54
G16         1.000    25259229.246 5 132738130.15805     -3538.687 5        34.109                                    25259226.874 2 103432285.09202     -2757.357 2        12.000
R01         2.000    22420282.479 7 119849253.46707      3085.999 7        44.060                                                                    22420281.493 6  93216154.85906      2400.132 6        36.972
G09         3.000    22411552.741 7 117773509.94807     -3142.919 7        44.394                                    22411552.794 7  91771567.27607     -2449.023 7        43.630    22411553.037 7  91771568.26307     -2449.009 7        42.313
E34         4.000    26942115.385 6 141581756.63406     -3461.436 6        40.980                                                                    26942117.030 7 105726636.99007     -2584.764 7        43.479    26942116.746 7 108484723.34407     -2652.232 7        44.382
S21         5.000    38507238.388 7 202356702.05807      -409.928 7        43.727
E05         6.000    22184555.510 8 116580662.33408     -1233.071 8        48.118                                                                    22184555.964 8  87057015.42808      -920.796 8        51.174    22184555.550 8  89328060.34008      -944.829 8        51.685
E15         7.000    25724403.395 7 135182669.15507     -1590.133 7        43.285                                                                    25724404.105 7 100948119.78607     -1187.464 7        46.458    25724403.759 7 103581546.85707     -1218.441 7        47.173
R10         8.000    19670058.100 7 104852480.13107       942.179 7        47.861
E31         9.000    26676513.124 6 140186020.16606     -1735.610 6        39.982                                                                    26676514.842 7 104684385.91907     -1296.057 7        43.283    26676514.640 7 107415281.36807     -1329.874 7        44.304
G04        10.000    24950428.612 6 131115271.77706     -3585.726 6        36.681                                    24950433.818 3 102167714.51903     -2794.036 3        18.746    24950433.502 6 102167709.48506     -2794.134 6        37.648
E09        11.000    27439529.027 6 144195664.36306     -2766.240 6        40.095                                                                    27439533.986 7 107678573.80407     -2065.557 7        43.221    27439532.691 7 110487582.09007     -2119.576 7        43.462
S27        12.000    39157709.698 6 205775068.12706      -431.791 6        36.707
G06        13.000    25112031.619 6 131964602.04306     -3924.517 6        36.405                                    25112032.706 5 102829554.20505     -3058.059 5        30.513    25112033.006 6 102829565.17206     -3058.056 6        37.278
S36        14.000    38275605.245 7 201140188.77107      -410.473 7        44.752
G20        15.000    20761797.364 8 109103987.62308        62.989 8        48.130                                    20761792.762 6  85016075.42706        49.084 6        40.036
R11        16.000    22439607.311 7 119910467.69407      3956.063 7        46.192                                                                    22439607.891 7  93263697.56707      3076.993 7        44.232
S45        17.000    63458527.810 6 333477324.00206      -452.395 6        36.862
E13        18.000    27372387.030 6 143842881.00906      1060.154 6        37.664                                                                    27372387.656 7 107415129.04507       791.635 7        43.003    27372387.177 7 110217263.53907       812.434 7        43.898
E24        19.000    25510250.360 7 134057250.71307       933.794 7        45.236                                                                    25510250.503 8 100107696.22708       697.230 8        48.312    25510249.683 8 102719198.20108       715.396 8        48.575
R23        20.000    24342445.660 6 130215648.84806     -4448.729 6        40.410
G30        21.000    20748339.442 8 109033281.94208       781.716 8        50.676                                    20748337.964 8  84961006.27108       609.132 8        52.084    20748338.424 7  84961010.27207       609.066 7        45.144
I06        22.000    38030232.896 7 149239005.12307      -322.598 7        42.832
S28        23.000    40937268.794 5 215126657.20605      -413.085 5        35.429
G14        24.000    24235868.985 6 127360348.96906      3153.414 6        40.627                                    24235868.664 4  99241831.89304      2457.207 4        26.048    24235868.502 6  99241833.89606      2457.316 6        41.189
S23        25.000    38211398.755 7 200802217.34507      -407.284 7        44.999
E08        26.000    28587826.495 6 150230043.40906      2053.358 6        36.038                                                                    28587825.730 6 112184770.52306      1533.312 6        37.890    28587825.683 6 115111327.43006      1573.425 6        38.790
C34        27.000                                                                                                                                    26658373.051 6 138817140.98206     -2500.868 6        38.718                                                                    26658372.248 6 112800302.63606     -2032.369 6        36.983
G13        28.000    23453385.372 6 123248386.64306      2742.687 6        41.616                                    23453381.527 3  96037685.36803      2137.161 3        23.105
R09        29.000    20635517.830 8 110192516.36908     -2730.576 8        49.117                                                                    20635517.521 8  85705292.59508     -2123.862 8        48.008
C22        30.000                                                                                                                                    21538278.025 8 112155486.13408      -780.467 8        52.017                                                                    21538271.863 8  91135505.08108      -634.071 8        50.272
I01        31.000   343324655.936 6  44138822.48306     -2985.015 6        40.758
E03        32.000    24349041.732 7 127955096.28507      1062.139 7        46.588                                                                    24349041.418 8  95550902.94508       793.149 8        49.979    24349041.131 8  98043529.02008       813.832 8        50.803
G05        33.000    22361053.248 7 117508156.88707      2305.026 7        46.062                                    22361049.023 7  91564797.07107      1796.123 7        43.118    22361049.658 7  91564800.07307      1796.055 7        42.009
R24        34.000    22832831.429 7 122097429.56607     -2191.344 7        46.222                                                                    22832830.500 6  94964670.67806     -1704.221 6        40.942
C36        35.000                                                                                                                                    21966997.724 8 114387925.20408      -172.739 8        51.431                                                                    21967002.794 8  92949580.56408      -140.269 8        50.611
G11        36.000    23515373.260 7 123574135.29507     -3096.618 7        43.862                                    23515370.355 5  96291529.97005     -2412.937 5        30.340    23515370.393 6  96291529.96706     -2412.999 6        41.778
I09        38.000    38724158.080 6 151961856.28506      -844.317 6        40.956
R08        39.000    19448284.809 8 104144691.49108       252.950 8        50.554                                                                    19448282.091 7  81001427.40507       196.737 7        46.742
E25        40.000    26840303.750 6 141046763.16106      2677.000 6        40.565                                                                    26840307.438 7 105327135.41607      1999.083 7        44.275    26840306.838 7 108074791.42307      2051.238 7        45.394
S44        42.000    40912283.017 6 214995554.92506      -458.404 6        38.024
C09        43.000                                                                                                                                    39820212.229 6 207354284.95906     -1202.050 6        38.679    39820210.256 7 160339469.59407      -929.544 7        43.638    39820207.952 6 168492316.40406      -976.587 6        39.805
C05        44.000                                                                                                                                    39320591.870 6 204752630.58206      -468.402 6        38.441    39320589.592 7 158327733.97307      -362.110 7        42.423    39320591.608 6 166378377.78406      -380.550 6        40.572
R17        47.000    23530460.174 7 125916251.73407      1191.068 7        43.619                                                                    23530459.732 6  97934867.79206       926.200 6        40.777
C06        49.000                                                                                                                                    40617205.010 5 211504404.81905     -1421.773 5        35.143    40617203.254 6 163548588.87406     -1099.235 6        38.565    40617202.521 6 171864619.74506     -1155.133 6        37.327
C16        50.000                                                                                                                                    41170098.547 6 214383450.52606     -1370.821 6        37.535    41170102.661 6 165774873.51306     -1059.870 6        38.492    41170098.844 5 174204098.15805     -1113.806 5        33.641
S48        51.000    77235070.045 6 405871922.50306      -395.351 6        38.336
C19        52.000                                                                                                                                    24725764.080 7 128753552.87607     -3146.396 7        45.615                                                                    24725761.414 7 104622801.57107     -2556.575 7        45.932
C12        53.000                                                                                                                                    27056695.580 5 140891297.50705     -3096.884 5        35.943    27056692.334 6 108946066.08906     -2394.711 6        38.345    27056691.647 6 114485693.99506     -2516.521 6        37.951
C60        54.000                                                                                                                                    40912280.163 6 213041068.28806      -454.126 6        40.191                                                                    40912269.795 6 173113264.64606      -368.894 6        39.456
C11        56.000                                                                                                                                    26268521.310 6 136787087.61306     -1528.856 6        38.402    26268517.952 7 105772433.68307     -1182.220 7        43.534    26268516.385 6 111150690.64106     -1242.216 6        40.105
C02        57.000                                                                                                                                    40890483.838 5 212927397.10705      -485.831 5        33.054    40890485.114 6 164648930.44306      -375.563 6        39.676    40890486.871 5 173020928.06805      -394.358 5        35.776
I03        58.000   127334144.154 6 423901138.08806       897.596 6        40.114
R07        59.000    20952740.590 8 112161660.14808     -2932.604 8        49.468                                                                    20952740.954 7  87236841.50107     -2281.008 7        45.430
G07        60.000    21091043.996 8 110834208.17708     -1497.242 8        48.861                                    21091040.029 8  86364311.09608     -1166.681 8        49.307    21091040.022 7  86364312.09307     -1166.707 7        46.104
> 2025 01 01 06 15 20.0000000  0 54
G16         1.000    25262596.798 5 132755827.68705     -3540.816 5        33.760                                    25262594.695 1 103446075.33201     -2759.101 1        11.111
R01         2.000    22417397.141 7 119833823.63707      3085.556 7        43.865                                                                    22417396.698 6  93204153.86606      2399.762 6        37.422
G09         3.000    22414543.681 7 117789226.36407     -3144.005 7        43.513                                    22414543.657 7  91783813.80407     -2449.866 7        43.374    22414543.924 7  91783814.79507     -2449.876 7        42.051
E34         4.000    26945408.829 6 141599064.54106     -3462.053 6        41.375                                                                    26945410.821 7 105739561.71807     -2585.323 7        43.342    26945410.337 7 108497985.24307     -2652.844 7        44.275
S21         5.000    38507626.636 7 202358750.90707      -409.988 7        43.778
E05         6.000    22185729.122 8 116586829.24208     -1234.099 8        48.056                                                                    22185729.515 8  87061620.57908      -921.575 8        51.167    22185729.093 8  89332785.62708      -945.608 8        51.663
E15         7.000    25725917.172 7 135190624.89007     -1592.651 7        43.498                                                                    25725918.041 7 100954060.74407     -1189.241 7        46.417    25725917.734 7 103587642.79507     -1220.246 7        47.199
R10         8.000    19669175.948 7 104847779.47907       937.690 7        47.707
E31         9.000    26678165.584 6 140194702.78406     -1737.761 6        40.188                                                                    26678167.198 7 104690869.68607     -1297.672 7        43.141    26678166.953 7 107421934.28107     -1331.615 7        44.372
G04        10.000    24953839.761 6 131133200.60606     -3586.281 6        36.688                                    24953845.622 3 102181684.92103     -2794.461 3        18.567    24953845.376 6 102181679.86306     -2794.214 6        37.558
E09        11.000    27442160.658 6 144209495.26006     -2766.438 6        39.832                                                                    27442166.031 7 107688902.02207     -2065.903 7        43.285    27442164.576 7 110498179.74107     -2119.835 7        43.299
S27        12.000    39158113.722 6 205777225.60006      -431.520 6        36.616
G06        13.000    25115764.901 6 131984223.59206     -3924.396 6        37.013                                    25115766.627 5 102844843.67605     -3057.958 5        30.355    25115767.305 6 102844854.65406     -3058.070 6        36.851
S36        14.000    38275998.935 7 201142239.55907      -410.160 7        44.671
G20        15.000    20761738.793 8 109103680.11108        59.639 8        48.041                                    20761734.242 6  85015835.80206        46.474 6        39.775
R11        16.000    22435905.983 7 119890689.83407      3954.693 7        46.237                                                                    22435907.118 7  93248314.80207      3075.859 7        44.512
S45        17.000    63458915.871 6 333479585.58806      -452.588 6        36.514
E13        18.000    27371378.797 6 143837584.63506      1058.014 6        38.285                                                                    27371379.785 7 107411173.96107       790.042 7        42.883    27371379.282 7 110213205.28407       810.687 7        43.693
E24        19.000    25509362.545 7 134052587.08607       931.429 7        45.038                                                                    25509362.971 8 100104213.64508       695.535 8        48.243    25509362.223 8 102715624.76708       713.726 8        48.511
R23        20.000    24346603.969 6 130237893.23206     -4449.279 6        40.658
G30        21.000    20747596.520 8 109029378.33708       779.294 8        50.854                                    20747595.138 8  84957964.49908       607.244 8        51.845    20747595.521 7  84957968.50007       607.215 7        45.102
I06        22.000    38030643.726 7 149240617.77007      -322.783 7        42.874
S28        23.000    40937654.776 5 215128722.20305      -413.320 5        35.224
G14        24.000    24232868.325 6 127344581.66806      3153.054 6        40.932                                    24232868.264 4  99229545.68404      2456.921 4        26.120    24232868.000 6  99229547.68306      2457.119 6        41.118
S23        25.000    38211784.991 7 200804252.78007      -407.354 7        44.743
E08        26.000    28585872.284 5 150219775.15905      2053.520 5        35.910                                                                    28585871.951 6 112177102.67506      1533.443 6        37.811    28585871.747 6 115103459.56706      1573.520 6        38.745
C34        27.000                                                                                                                                    26660774.366 6 138829649.05806     -2502.493 6        38.249                                                                    26660774.029 6 112810466.45206     -2033.377 6        36.870
G13        28.000    23450776.461 7 123234673.92907      2742.087 7        42.093                                    23450772.233 3  96027000.14603      2136.689 3        23.162
R09        29.000    20638075.895 8 110206177.61808     -2734.241 8        48.883                                                                    20638075.480 7  85715918.00707     -2126.654 7        47.454
C22        30.000                                                                                                                                    21539028.284 8 112159392.65008      -782.585 8        52.093                                                                    21539022.108 8  91138679.46208      -635.834 8        50.183
I01        31.000   343328459.325 6  44153747.05506     -2985.165 6        40.932
E03        32.000    24348031.511 7 127949787.01407      1061.234 7        46.840                                                                    24348031.113 8  95546938.22908       792.503 8        49.843    24348030.824 8  98039460.87408       813.153 8        50.753
G05        33.000    22358861.312 7 117496636.51107      2302.824 7        46.316                                    22358856.752 7  91555820.15507      1794.411 7        43.009    22358857.256 7  91555823.15807      1794.354 7        42.053
R24        34.000    22834881.860 7 122108394.54807     -2195.171 7        46.088                                                                    22834881.073 6  94973198.99706     -1707.350 6        41.058
C36        35.000                                                                                                                                    21967164.698 8 114388795.10008      -175.550 8        51.400                                                                    21967169.911 8  92950287.44108      -142.579 8        50.554
G11        36.000    23518320.506 7 123589622.04607     -3098.435 7        44.190                                    23518317.391 5  96303597.55505     -2414.358 5        30.234    23518317.872 6  96303597.54906     -2414.400 6        41.940
