     3.04           OBSERVATION DATA    M                   RINEX VERSION / TYPE
ssrcrin-15.6.1x                         20250101 043000 UTC PGM / RUN BY / DATE 
(00000000023479385599111004) Septentrio proprietary         COMMENT             
rref                                                        MARKER NAME         
01                                                          MARKER NUMBER       
geodetic                                                    MARKER TYPE         
NFB                 CLIMERS@TUW                             OBSERVER / AGENCY   
3297213             SEPT ASTERX SB3 PROB4.14.4              REC # / TYPE / VERS 
Unknown             Unknown                                 ANT # / TYPE        
  4127831.6133  1207193.2537  4695247.5782                  APPROX POSITION XYZ 
        0.0000        0.0000        0.0000                  ANTENNA: DELTA H/E/N
G   23 X1  C1C L1C D1C S1C C1W S1W C2W L2W D2W S2W C2L L2L  SYS / # / OBS TYPES 
       D2L S2L C5Q L5Q D5Q S5Q C1L L1L D1L S1L              SYS / # / OBS TYPES 
E   21 X1  C1C L1C D1C S1C C6C L6C D6C S6C C5Q L5Q D5Q S5Q  SYS / # / OBS TYPES 
       C7Q L7Q D7Q S7Q C8Q L8Q D8Q S8Q                      SYS / # / OBS TYPES 
S    9 X1  C1C L1C D1C S1C C5I L5I D5I S5I                  SYS / # / OBS TYPES 
R   17 X1  C1C L1C D1C S1C C2P L2P D2P S2P C2C L2C D2C S2C  SYS / # / OBS TYPES 
       C3Q L3Q D3Q S3Q                                      SYS / # / OBS TYPES 
C   25 X1  C1P L1P D1P S1P C5P L5P D5P S5P C2I L2I D2I S2I  SYS / # / OBS TYPES 
       C7I L7I D7I S7I C6I L6I D6I S6I C7D L7D D7D S7D      SYS / # / OBS TYPES 
J   17 X1  C1C L1C D1C S1C C2L L2L D2L S2L C5Q L5Q D5Q S5Q  SYS / # / OBS TYPES 
       C1L L1L D1L S1L                                      SYS / # / OBS TYPES 
I    5 X1  C5A L5A D5A S5A                                  SYS / # / OBS TYPES 
SEPTENTRIO RECEIVERS OUTPUT ALIGNED CARRIER PHASES.         COMMENT             
NO FURTHER PHASE SHIFT APPLIED IN THE RINEX ENCODER.        COMMENT             
G L1C                                                       SYS / PHASE SHIFT   
G L2W                                                       SYS / PHASE SHIFT   
G L2L  0.00000                                              SYS / PHASE SHIFT   
G L5Q  0.00000                                              SYS / PHASE SHIFT   
G L1L  0.00000                                              SYS / PHASE SHIFT   
E L1C  0.00000                                              SYS / PHASE SHIFT   
E L6C  0.00000                                              SYS / PHASE SHIFT   
E L5Q  0.00000                                              SYS / PHASE SHIFT   
E L7Q  0.00000                                              SYS / PHASE SHIFT   
E L8Q  0.00000                                              SYS / PHASE SHIFT   
S L1C                                                       SYS / PHASE SHIFT   
S L5I                                                       SYS / PHASE SHIFT   
R L1C                                                       SYS / PHASE SHIFT   
R L2P  0.00000                                              SYS / PHASE SHIFT   
R L2C                                                       SYS / PHASE SHIFT   
R L3Q  0.00000                                              SYS / PHASE SHIFT   
C L1P  0.00000                                              SYS / PHASE SHIFT   
C L5P  0.00000                                              SYS / PHASE SHIFT   
C L2I                                                       SYS / PHASE SHIFT   
C L7I                                                       SYS / PHASE SHIFT   
C L6I                                                       SYS / PHASE SHIFT   
C L7D                                                       SYS / PHASE SHIFT   
J L1C                                                       SYS / PHASE SHIFT   
J L2L  0.00000                                              SYS / PHASE SHIFT   
J L5Q  0.00000                                              SYS / PHASE SHIFT   
J L1L  0.00000                                              SYS / PHASE SHIFT   
I L5A                                                       SYS / PHASE SHIFT   
  2025     1     1     4    30    0.0000000     GPS         TIME OF FIRST OBS   
 C1C    0.000 C2C    0.000 C2P    0.000                     GLONASS COD/PHS/BIS 
DBHZ                                                        SIGNAL STRENGTH UNIT
    18                                                      LEAP SECONDS        
 24 R01  1 R02 -4 R03  5 R04  6 R05  1 R06 -4 R07  5 R08  6 GLONASS SLOT / FRQ #
    R09 -2 R10 -7 R11  0 R12 -1 R13 -2 R14 -7 R15  0 R16 -1 GLONASS SLOT / FRQ #
    R17  4 R18 -3 R19  3 R20  2 R21  4 R22 -3 R23  3 R24  2 GLONASS SLOT / FRQ #
                                                            END OF HEADER       
> 2025 01 01 04 30  0.0000000  0 57
G16         1.000    23777430.746 6 124951260.01806       396.169 6        41.495                                    23777425.815 3  97364602.57803       308.703 3        23.410
G29         2.000    26022739.055 6 136750407.23206       584.374 6        36.548                                    26022735.621 4 106558744.27204       455.361 4        26.240    26022736.113 5 106558746.25405       455.275 5        33.641
G09         3.000    20297638.811 8 106664860.14308     -1172.270 8        50.421                                    20297636.294 8  83115487.09608      -913.460 8        52.949    20297636.756 7  83115488.09307      -913.489 7        45.815
E34         4.000    24421955.684 7 128338254.98907     -1315.536 7        47.808                                                                    24421955.637 8  95837016.97608      -982.413 8        50.224    24421955.437 8  98337112.32408     -1008.019 8        50.812
S21         5.000    38626942.248 7 202985768.55307      -379.164 7        43.244
E05         6.000    22127643.000 8 116281595.79408       196.406 8        48.938                                                                    22127642.600 8  86833689.71708       146.639 8        51.032    22127642.358 8  89098908.36608       150.482 8        51.863
E15         7.000    26312129.979 7 138271195.20907      1483.852 7        42.536                                                                    26312130.119 7 103254487.71307      1108.017 7        45.726    26312129.853 7 105948080.78707      1136.949 7        46.491
R10         8.000    23844593.352 6 127105094.02306      4163.105 6        36.526
E31         9.000    26995511.964 6 141862384.26006      1216.145 6        40.844                                                                    26995513.111 7 105936219.86307       908.284 7        43.560    26995513.052 7 108699771.43807       931.855 7        44.646
G04        10.000    21671924.920 7 113886777.69707     -2662.206 7        46.209                                    21671921.514 5  88742952.77005     -2074.452 5        34.952    21671921.957 7  88742947.77107     -2074.502 7        44.400
E09        11.000    25016780.514 7 131464116.60407     -2172.080 7        46.597                                                                    25016779.637 8  98171272.87308     -1622.057 8        48.632    25016779.318 8 100732261.85208     -1664.317 8        49.593
S27        12.000    39258659.931 5 206305639.05205      -388.384 5        35.643
G06        13.000    21734849.341 7 114217432.95907     -1973.027 7        47.485                                    21734847.998 8  89000601.68708     -1537.422 8        48.267    21734848.854 7  89000612.68607     -1537.505 7        44.512
S36        14.000    38394687.612 7 201765934.45007      -379.494 7        45.017
G20        15.000    23415434.565 7 123048945.54507      2840.371 7        42.542                                    23415429.529 4  95882276.79704      2213.266 4        26.898
E36        16.000    26399517.224 7 138730414.94107     -3477.876 7        43.498                                                                    26399518.336 7 103597401.33007     -2597.113 7        45.789    26399517.733 7 106299937.39007     -2664.808 7        46.011
S45        17.000    63581998.297 6 334125713.47706      -419.049 6        37.448
G03        18.000    24100986.731 6 126651578.23806     -3852.256 6        40.977                                    24100985.586 5  98689556.16505     -3001.760 5        35.109    24100986.232 6  98689565.17606     -3001.907 6        37.482
E24        19.000    28450678.687 6 149509313.66606      2508.741 6        36.896                                                                    28450678.765 6 111646576.30806      1873.276 6        41.440    28450677.657 6 114559092.31906      1922.258 6        41.540
R23        20.000    21232379.174 7 113578915.05307      -848.501 7        46.905
G30        21.000    23879449.368 6 125487371.25706      3106.160 6        41.921                                    23879448.352 6  97782373.23706      2420.379 6        37.943    23879448.569 6  97782377.22706      2420.417 6        38.411
I06        22.000    38161602.421 7 149754553.44807      -252.430 7        43.704
S28        23.000    41055914.391 5 215750284.70805      -377.525 5        34.767
S23        25.000    38335087.434 7 201452242.63007      -375.244 7        45.017
E06        26.000    26677044.087 6 140188865.88906     -2762.622 6        41.633                                                                    26677043.777 7 104686488.37007     -2063.006 7        44.131    26677043.509 7 107417438.96407     -2116.850 7        45.008
R15        27.000    24678425.391 5 131874003.87805     -4214.053 5        34.729                                                                    24678425.807 5 102568677.05105     -3277.783 5        31.600
G26        28.000    24711820.007 6 129861497.15106     -1957.637 6        36.866                                    24711818.948 4 101190779.22004     -1525.418 4        28.199    24711819.361 5 101190780.23005     -1525.424 5        35.062
R09        29.000    21155037.739 8 112966725.64808      2526.128 8        49.348                                                                    21155036.429 7  87863011.98107      1964.692 7        46.771
C22        30.000                                                                                                                                    22558546.352 8 117468300.52608      1278.786 8        50.614                                                                    22558539.862 8  95452603.87008      1039.072 8        49.412
I01        31.000   339273805.589 6  28242469.26706     -2787.599 6        41.604
E03        32.000    26780004.235 6 140729881.52106      1954.123 6        41.745                                                                    26780004.406 7 105090512.90607      1459.241 7        43.816    26780003.978 7 107831998.64707      1497.269 7        44.417
R24        34.000    23931093.117 7 127970311.73907      2826.742 7        42.760                                                                    23931095.427 6  99532462.55406      2198.493 6        41.168
C36        35.000                                                                                                                                    24261717.298 7 126337137.81807      2639.213 7        45.636                                                                    24261722.668 7 102659295.38907      2144.504 7        46.276
G11        36.000    22451860.781 7 117985357.28507       666.366 7        45.884                                    22451856.761 5  91936642.62005       519.245 5        34.638    22451857.053 7  91936642.62907       519.230 7        44.366
C35        37.000                                                                                                                                    26112554.211 6 135974921.65906     -3405.570 6        41.862                                                                    26112553.804 6 110490757.48506     -2767.399 6        40.965
I09        38.000    38094170.691 7 149489696.17907      -676.152 7        43.678
R08        39.000    21766285.466 8 116557483.50608      2328.935 8        49.244                                                                    21766283.246 7  90655821.77307      1811.403 7        44.205
R22        40.000    21972650.703 7 117291528.63507     -3920.397 7        47.320                                                                    21972649.867 7  91226757.16107     -3049.155 7        44.545
S44        42.000    40959453.493 6 215243544.09806      -449.212 6        38.982
C09        43.000                                                                                                                                    39028790.264 6 203233179.55706     -1000.605 6        41.242    39028786.857 7 157152778.11407      -773.705 7        45.670    39028784.868 6 165143587.63906      -813.135 6        41.302
C05        44.000                                                                                                                                    39371843.319 6 205019549.92506      -424.513 6        38.510    39371837.691 7 158534144.47807      -328.149 7        43.287    39371839.323 6 166595280.85206      -344.961 6        39.712
R06        45.000    21465268.428 6 114542834.19106     -2933.253 6        40.076
C44        46.000                                                                                                                                    24837751.571 7 129336720.88807     -2095.415 7        44.233                                                                    24837749.959 7 105096683.32907     -1702.738 7        42.665
C39        47.000                                                                                                                                    40906563.801 6 213011220.68906     -1571.684 6        39.018                                                                    40906559.997 6 173089053.88806     -1277.134 6        37.800
C20        48.000                                                                                                                                    25814878.899 7 134424869.51407     -3066.344 7        43.556                                                                    25814874.214 7 109231204.53707     -2491.651 7        42.830
C06        49.000                                                                                                                                    39472186.445 6 205542056.94106     -1373.678 6        38.378    39472179.891 6 158938140.75606     -1062.248 6        41.993    39472179.978 6 167019737.71506     -1116.332 6        39.006
C16        50.000                                                                                                                                    40052827.410 6 208565603.05906     -1383.701 6        39.670    40052827.089 6 161276163.84006     -1069.985 6        41.132    40052824.370 6 169476635.85406     -1124.261 6        36.907
S48        51.000    77364712.265 6 406553575.14606      -366.107 6        38.240
C19        52.000                                                                                                                                    22481746.616 8 117068413.70508     -1461.285 8        51.255                                                                    22481741.589 8  95127679.02208     -1187.465 8        50.420
C12        53.000                                                                                                                                    25003599.664 6 130200304.86206      -757.784 6        41.990    25003594.706 7 100679117.37107      -585.870 7        46.311    25003594.270 7 105798390.74707      -615.836 7        43.981
C60        54.000                                                                                                                                    40959451.403 6 213286803.95106      -445.173 6        40.961                                                                    40959436.036 6 173312966.84106      -361.651 6        39.709
R16        55.000    21368775.695 8 114148185.74708     -1473.253 8        49.728                                                                    21368774.954 7  88781944.26007     -1145.851 7        45.386
C37        56.000                                                                                                                                    25977452.351 6 135271428.15506     -2682.355 6        41.669                                                                    25977454.901 6 109919135.14006     -2179.622 6        41.223
C02        57.000                                                                                                                                    40910282.814 5 213030611.92205      -457.795 5        34.700    40910277.052 6 164728773.05406      -354.217 6        40.222    40910279.663 6 173104823.00306      -372.334 6        36.601
I03        58.000   129392021.218 6 431976828.15706       925.563 6        41.902
R07        59.000    19677167.346 8 105333449.44508      -250.694 8        51.497                                                                    19677165.962 8  81926019.31108      -194.978 8        48.067
G07        60.000    21667781.257 8 113864988.13108      1535.272 8        48.773                                    21667776.897 7  88725959.20107      1196.315 7        47.457    21667776.970 7  88725960.20507      1196.255 7        44.026
> 2025 01 01 04 30  5.0000000  0 57
G16         1.000    23777054.603 6 124949288.15306       392.759 6        40.172                                    23777050.762 3  97363066.06703       306.029 3        23.105
G29         2.000    26022185.039 6 136747493.62806       581.250 6        36.295                                    26022181.350 4 106556473.85504       452.948 4        26.084    26022181.913 5 106556475.84905       452.644 5        33.060
G09         3.000    20298755.476 8 106670727.49208     -1174.437 8        50.293                                    20298752.818 8  83120059.05508      -915.145 8        52.977    20298753.126 7  83120060.06107      -915.152 7        46.195
E34         4.000    24423208.699 7 128344839.46607     -1318.095 7        47.727                                                                    24423208.656 8  95841933.96008      -984.300 8        50.138    24423208.397 8  98342157.58008     -1009.970 8        50.743
S21         5.000    38627302.696 7 202987664.93607      -379.162 7        43.575
E05         6.000    22127456.995 8 116280617.90608       194.981 8        48.668                                                                    22127456.489 8  86832959.48408       145.584 8        51.015    22127456.277 8  89098159.08408       149.403 8        51.766
E15         7.000    26310718.910 7 138263781.53907      1481.838 7        42.313                                                                    26310719.317 7 103248951.53707      1106.550 7        45.461    26310719.117 7 105942400.18807      1135.398 7        46.375
R10         8.000    23840689.092 6 127084280.21506      4162.816 6        36.495
E31         9.000    26994356.041 6 141856308.88106      1214.159 6        40.605                                                                    26994357.050 7 105931683.06507       906.635 7        43.346    26994357.018 7 108695116.28707       930.298 7        44.471
G04        10.000    21674458.580 7 113900092.68407     -2663.595 7        46.259                                    21674455.323 5  88753328.08305     -2075.525 5        34.914    21674455.714 7  88753323.07507     -2075.445 7        44.816
E09        11.000    25018847.726 7 131474979.77607     -2172.941 7        46.453                                                                    25018846.845 8  98179384.97808     -1622.671 8        48.521    25018846.505 8 100740585.58408     -1664.969 8        49.605
S27        12.000    39259029.738 5 206307580.29805      -388.381 5        35.662
G06        13.000    21736728.300 7 114227306.86907     -1976.374 7        47.779                                    21736726.916 8  89008295.63908     -1540.034 8        48.285    21736727.785 7  89008306.64007     -1540.007 7        44.873
S36        14.000    38395048.427 7 201767832.52907      -379.645 7        45.208
G20        15.000    23412732.525 7 123034747.10907      2839.276 7        42.482                                    23412727.645 4  95871213.09104      2212.422 4        26.742
E36        16.000    26402826.690 7 138747806.99407     -3478.909 7        42.749                                                                    26402827.999 7 103610388.89007     -2597.749 7        45.698    26402827.448 7 106313263.76207     -2665.659 7        46.036
S45        17.000    63582360.369 6 334127809.27206      -419.069 6        37.569
G03        18.000    24104652.459 6 126670842.54106     -3853.186 6        39.946                                    24104651.409 5  98704567.30805     -3002.479 5        34.519    24104652.016 6  98704576.30206     -3002.428 6        37.444
E24        19.000    28448292.400 6 149496771.28606      2508.413 6        36.949                                                                    28448291.853 6 111637210.25206      1873.172 6        41.266    28448291.090 6 114549481.93206      1922.144 6        41.368
R23        20.000    21233173.994 7 113583170.05107      -853.311 7        46.949
G30        21.000    23876494.777 7 125471843.67407      3105.050 7        42.241                                    23876493.280 6  97770273.82706      2419.520 6        37.656    23876493.885 6  97770277.83806      2419.353 6        38.309
I06        22.000    38161924.066 7 149755816.17107      -252.554 7        43.581
S28        23.000    41056272.027 5 215752173.14405      -377.722 5        34.629
S23        25.000    38335444.287 7 201454119.34907      -375.289 7        44.928
E06        26.000    26679672.838 6 140202680.30206     -2763.018 6        41.318                                                                    26679672.593 7 104696804.31807     -2063.261 7        44.150    26679672.100 7 107428024.03007     -2117.144 7        44.665
R15        27.000    24682368.440 5 131895079.18005     -4215.817 5        34.748                                                                    24682370.035 5 102585068.97005     -3279.538 5        32.168
G26        28.000    24713683.844 6 129871293.57006     -1960.650 6        37.066                                    24713683.069 4 101198412.77504     -1527.780 4        28.455    24713683.179 5 101198413.79005     -1527.743 5        34.990
R09        29.000    21152673.773 8 112954103.92108      2522.762 8        48.407                                                                    21152672.801 7  87853195.08407      1962.274 7        47.139
C22        30.000                                                                                                                                    22557319.256 8 117461910.24608      1277.528 8        50.751                                                                    22557312.663 8  95447411.27808      1037.993 8        49.423
I01        31.000   339277357.667 6  28256408.88506     -2787.865 6        41.778
E03        32.000    26778145.378 6 140720112.99906      1953.511 6        41.175                                                                    26778145.569 7 105083218.24007      1458.762 7        43.649    26778145.054 7 107824513.68507      1496.776 7        44.402
R24        34.000    23928451.908 7 127956186.09607      2823.802 7        43.213                                                                    23928452.230 6  99521475.94706      2196.299 6        40.391
C36        35.000                                                                                                                                    24259183.898 7 126323945.17107      2637.925 7        45.251                                                                    24259188.878 7 102648575.30107      2143.498 7        46.154
G11        36.000    22451227.831 7 117982034.17307       663.003 7        45.998                                    22451224.402 5  91934053.18705       516.625 5        34.733    22451224.782 7  91934053.18807       516.629 7        44.430
C35        37.000                                                                                                                                    26115824.826 7 135991950.70107     -3405.929 7        42.389                                                                    26115824.119 6 110504594.99806     -2767.686 6        41.035
I09        38.000    38095032.481 7 149493077.50507      -676.311 7        43.367
R08        39.000    21764111.443 8 116545841.94608      2327.914 8        49.288                                                                    21764108.806 7  90646767.22907      1810.596 7        44.131
R22        40.000    21976324.206 7 117311137.37607     -3922.852 7        47.839                                                                    21976323.620 7  91242008.41807     -3051.189 7        44.554
S44        42.000    40959881.597 6 215245790.78206      -449.417 6        38.781
C09        43.000                                                                                                                                    39029751.016 6 203238183.97006     -1000.941 6        41.468    39029747.839 7 157156647.87007      -774.149 7        45.776    39029745.913 6 165147654.17006      -813.493 6        41.464
C05        44.000                                                                                                                                    39372250.348 6 205021673.10906      -424.713 6        38.399    39372245.489 7 158535786.25907      -328.322 7        43.355    39372246.929 6 166597006.13206      -345.116 6        39.745
R06        45.000    21468018.178 6 114557504.93106     -2934.906 6        40.417
C44        46.000                                                                                                                                    24839764.422 7 129347203.73307     -2097.529 7        44.364                                                                    24839763.091 7 105105201.53307     -1704.579 7        42.667
C39        47.000                                                                                                                                    40908072.675 6 213019079.92906     -1571.735 6        39.387                                                                    40908069.089 6 173095440.19406     -1277.307 6        37.849
C20        48.000                                                                                                                                    25817823.524 7 134440202.90707     -3066.899 7        43.534                                                                    25817818.725 7 109243664.19907     -2492.228 7        42.897
C06        49.000                                                                                                                                    39473505.430 6 205548926.44806     -1373.922 6        38.655    39473499.189 6 158943452.69006     -1062.422 6        41.831    39473499.395 6 167025319.78506     -1116.639 6        38.973
C16        50.000                                                                                                                                    40054156.400 6 208572522.42806     -1383.960 6        39.529    40054155.624 6 161281514.35006     -1070.145 6        41.337    40054153.098 6 169482258.43606     -1124.799 6        36.771
S48        51.000    77365065.890 6 406555407.19306      -366.420 6        38.126
C19        52.000                                                                                                                                    22483150.490 8 117075724.38608     -1462.810 8        51.202                                                                    22483145.515 8  95133619.57408     -1188.765 8        50.393
C12        53.000                                                                                                                                    25004329.033 7 130204101.36507      -760.716 7        42.089    25004324.068 7 100682053.07307      -588.212 7        46.255    25004323.344 7 105801475.73907      -618.276 7        44.004
C60        54.000                                                                                                                                    40959879.127 6 213289030.21506      -445.236 6        41.266                                                                    40959863.594 6 173314775.88806      -361.963 6        39.583
R16        55.000    21370156.543 8 114155564.11808     -1477.833 8        49.633                                                                    21370156.540 7  88787682.98407     -1149.432 7        45.982
C37        56.000                                                                                                                                    25980029.101 6 135284845.27206     -2684.474 6        41.723                                                                    25980031.577 6 109930037.66206     -2181.332 6        41.554
C02        57.000                                                                                                                                    40910721.574 5 213032903.33405      -458.148 5        34.467    40910717.310 6 164730544.92606      -354.421 6        40.400    40910719.962 6 173106684.99806      -372.575 6        36.378
I03        58.000   129390842.696 6 431972200.57306       925.581 6        41.635
R07        59.000    19677402.766 8 105334708.60008      -252.797 8        51.801                                                                    19677401.199 8  81926998.66008      -196.662 8        48.074
G07        60.000    21666321.707 8 113857318.29308      1532.864 8        48.770                                    21666317.386 7  88719982.70407      1194.438 7        47.485    21666317.236 7  88719983.71207      1194.479 7        43.960
> 2025 01 01 04 30 10.0000000  0 57
G16         1.000    23776682.775 6 124947333.60706       389.308 6        39.688                                    23776678.902 3  97361543.04103       303.355 3        22.476
G29         2.000    26021633.367 6 136744595.31806       578.314 6        36.612                                    26021629.793 4 106554215.37804       450.633 4        26.000    26021630.075 5 106554217.35705       450.517 5        33.198
G09         3.000    20299874.026 8 106676605.50908     -1176.400 8        50.117                                    20299871.363 8  83124639.33008      -916.676 8        52.968    20299871.786 7  83124640.33707      -916.729 7        46.195
E34         4.000    24424464.130 7 128351436.94607     -1320.586 7        47.756                                                                    24424464.111 8  95846860.64508      -986.148 8        50.142    24424463.888 8  98347212.78408     -1011.867 8        50.868
S21         5.000    38627663.892 7 202989561.63207      -379.071 7        43.372
E05         6.000    22127272.173 8 116279646.92608       193.708 8        48.628                                                                    22127271.699 8  86832234.40108       144.643 8        50.991    22127271.521 8  89097415.08708       148.384 8        51.862
E15         7.000    26309310.037 7 138256378.23607      1479.784 7        42.262                                                                    26309310.471 7 103243423.09407      1105.100 7        45.570    26309310.306 7 105936727.53207      1133.875 7        46.432
R10         8.000    23836783.876 6 127063467.85706      4162.522 6        36.643
E31         9.000    26993202.051 6 141850243.73106      1212.166 6        40.477                                                                    26993202.915 7 105927153.88507       905.246 7        43.433    26993202.849 7 108690468.95907       928.840 7        44.573
G04        10.000    21676993.737 7 113913414.59407     -2664.885 7        46.475                                    21676990.411 5  88763708.78905     -2076.533 5        34.933    21676990.719 7  88763703.78507     -2076.501 7        44.784
E09        11.000    25020915.696 7 131485847.16807     -2173.674 7        46.318                                                                    25020914.873 8  98187500.24408     -1623.193 8        48.502    25020914.485 8 100748912.54908     -1665.567 8        49.602
S27        12.000    39259399.416 5 206309522.24405      -388.152 5        35.852
G06        13.000    21738610.403 7 114237196.75807     -1979.385 7        47.598                                    21738608.874 8  89016002.04208     -1542.378 8        48.283    21738609.572 7  89016013.05107     -1542.450 7        44.408
S36        14.000    38395409.050 7 201769731.36607      -379.579 7        45.208
G20        15.000    23410031.653 7 123020553.84507      2838.392 7        42.516                                    23410026.758 4  95860153.40504      2211.727 4        26.802
E36        16.000    26406137.119 7 138765204.05707     -3479.730 7        42.205                                                                    26406138.585 7 103623380.20707     -2598.519 7        45.740    26406138.126 7 106326593.96807     -2666.237 7        46.212
S45        17.000    63582712.898 6 334129905.87906      -419.220 6        37.240
G03        18.000    24108318.689 6 126690111.54006     -3854.122 6        38.904                                    24108318.153 5  98719582.10305     -3003.209 5        33.916    24108318.556 6  98719591.08706     -3003.128 6        37.369
E24        19.000    28445905.576 6 149484229.99806      2508.400 6        36.870                                                                    28445905.307 6 111627845.00906      1873.063 6        41.080    28445904.569 6 114539872.37406      1921.938 6        41.371
R23        20.000    21233974.185 7 113587449.20707      -858.001 7        46.821
G30        21.000    23873541.440 7 125456321.16207      3104.216 7        42.535                                    23873539.349 6  97758178.36306      2418.870 6        37.887    23873540.623 6  97758182.37706      2418.815 6        38.510
I06        22.000    38162245.921 7 149757079.62507      -252.604 7        43.640
S28        23.000    41056632.502 5 215754062.57205      -377.883 5        34.605
S23        25.000    38335801.897 7 201455996.75407      -375.358 7        44.930
E06        26.000    26682301.941 6 140216496.68006     -2763.308 6        40.963                                                                    26682301.935 7 104707121.73507     -2063.481 7        44.212    26682301.319 7 107438610.60807     -2117.393 7        44.590
R15        27.000    24686313.715 5 131916163.97705     -4217.642 5        34.705                                                                    24686315.805 5 102601468.21405     -3280.625 5        33.497
G26        28.000    24715550.930 6 129881105.22606     -1963.688 6        36.836                                    24715550.191 4 101206058.21504     -1530.151 4        28.521    24715550.852 5 101206059.20205     -1530.021 5        34.514
R09        29.000    21150313.167 8 112941498.90108      2519.460 8        49.336                                                                    21150312.451 7  87843391.18407      1959.685 7        47.331
C22        30.000                                                                                                                                    22556093.201 8 117455526.28508      1276.410 8        50.791                                                                    22556086.673 8  95442223.78608      1037.183 8        49.452
I01        31.000   339280910.796 6  28270349.70806     -2788.192 6        41.921
E03        32.000    26776287.040 6 140710348.14506      1952.797 6        41.333                                                                    26776287.365 7 105075926.32107      1458.197 7        43.735    26776286.843 7 107817031.53207      1496.305 7        44.385
R24        34.000    23925812.470 7 127942074.97907      2821.029 7        42.273                                                                    23925813.286 6  99510500.65706      2194.145 6        40.634
C36        35.000                                                                                                                                    24256651.757 7 126310759.16207      2636.658 7        45.081                                                                    24256656.727 7 102637860.58607      2142.607 7        46.112
G11        36.000    22450599.683 7 117978728.07607       659.728 7        46.176                                    22450595.263 5  91931477.00605       514.073 5        34.776    22450595.427 7  91931477.00207       514.087 7        44.403
C35        37.000                                                                                                                                    26119095.516 7 136008981.50307     -3406.177 7        42.180                                                                    26119094.853 6 110518433.91806     -2767.701 6        41.352
I09        38.000    38095894.605 7 149496459.94407      -676.423 7        43.378
R08        39.000    21761938.901 8 116534205.72708      2326.914 8        49.190                                                                    21761936.326 7  90637716.83407      1809.855 7        44.625
R22        40.000    21980000.406 7 117330758.90907     -3925.397 7        47.680                                                                    21979998.916 7  91257269.59907     -3053.122 7        44.468
S44        42.000    40960308.351 6 215248038.11906      -449.290 6        38.856
C09        43.000                                                                                                                                    39030712.498 6 203243190.85506     -1001.497 6        41.321    39030709.501 7 157160519.50607      -774.357 7        45.684    39030707.486 6 165151722.67406      -813.687 6        41.483
C05        44.000                                                                                                                                    39372658.308 6 205023797.10806      -424.710 6        38.324    39372653.167 7 158537428.68207      -328.478 7        43.194    39372654.866 6 166598732.05806      -345.035 6        39.730
R06        45.000    21470768.090 6 114572182.84506     -2935.854 6        40.184
C44        46.000                                                                                                                                    24841780.025 7 129357697.75907     -2099.623 7        44.242                                                                    24841778.426 7 105113728.77207     -1706.158 7        42.779
C39        47.000                                                                                                                                    40909582.284 6 213026939.96606     -1571.990 6        39.652                                                                    40909578.578 6 173101827.10706     -1277.150 6        37.981
C20        48.000                                                                                                                                    25820768.822 7 134455539.56407     -3067.431 7        43.494                                                                    25820763.930 7 109256126.47907     -2492.498 7        42.974
C06        49.000                                                                                                                                    39474825.422 6 205555797.72806     -1374.242 6        38.958    39474819.049 6 158948766.00806     -1062.746 6        41.728    39474818.819 6 167030903.25006     -1116.625 6        38.979
C16        50.000                                                                                                                                    40055485.373 6 208579443.29006     -1384.112 6        39.348    40055484.809 6 161286865.99406     -1070.338 6        41.311    40055482.348 6 169487882.19506     -1124.765 6        36.813
S48        51.000    77365420.029 6 406557240.06806      -366.494 6        38.264
C19        52.000                                                                                                                                    22484555.865 8 117083042.90008     -1464.295 8        51.094                                                                    22484550.914 8  95139566.46008     -1189.853 8        50.455
C12        53.000                                                                                                                                    25005060.145 6 130207912.62006      -763.537 6        41.986    25005055.720 7 100685000.17407      -590.423 7        46.298    25005055.212 7 105804572.68807      -620.374 7        44.017
C60        54.000                                                                                                                                    40960306.525 6 213291257.12706      -445.263 6        41.037                                                                    40960291.220 6 173316585.43606      -361.785 6        39.703
R16        55.000    21371542.484 8 114162965.45208     -1482.329 8        50.195                                                                    21371541.902 7  88793439.58807     -1152.948 7        45.976
C37        56.000                                                                                                                                    25982607.590 6 135298272.68906     -2686.386 6        41.435                                                                    25982610.286 6 109940948.54306     -2182.781 6        41.573
C02        57.000                                                                                                                                    40911162.789 5 213035195.50305      -458.117 5        34.705    40911157.385 6 164732317.36706      -354.395 6        40.482    40911160.104 6 173108547.54106      -372.427 6        36.457
I03        58.000   129389663.290 6 431967573.60506       925.498 6        41.743
R07        59.000    19677640.036 8 105335978.52608      -254.903 8        51.723                                                                    19677637.874 7  81927986.37307      -198.224 7        47.798
G07        60.000    21664864.500 8 113849660.49608      1530.569 8        48.926                                    21664860.152 7  88714015.59307      1192.650 7        47.470    21664860.246 7  88714016.59607      1192.647 7        43.991
> 2025 01 01 04 30 15.0000000  0 57
G16         1.000    23776314.508 6 124945395.66106       385.887 6        39.084                                    23776310.333 3  97360032.95603       300.691 3        22.743
G29         2.000    26021084.848 6 136741711.56006       575.302 6        37.263                                    26021081.090 4 106551968.26904       448.289 4        26.359    26021081.806 5 106551970.28605       448.199 5        33.377
G09         3.000    20300994.350 8 106682493.45108     -1178.561 8        49.848                                    20300991.809 8  83129227.33608      -918.358 8        52.954    20300992.251 7  83129228.34007      -918.358 7        46.299
E34         4.000    24425721.842 7 128358046.64407     -1323.247 7        47.867                                                                    24425721.877 8  95851796.45908      -988.071 8        49.956    24425721.670 8  98352277.36408     -1013.910 8        50.838
S21         5.000    38628023.334 7 202991457.96707      -379.298 7        43.244
E05         6.000    22127088.586 8 116278682.09108       192.387 8        48.798                                                                    22127088.093 8  86831513.91108       143.643 8        50.864    22127087.911 8  89096675.80708       147.349 8        51.962
E15         7.000    26307903.059 7 138248984.53307      1477.791 7        42.250                                                                    26307903.652 7 103237901.83507      1103.542 7        45.371    26307903.351 7 105931062.23607      1132.265 7        46.526
R10         8.000    23832880.525 6 127042656.48006      4162.060 6        36.870
E31         9.000    26992049.445 6 141844188.03006      1210.239 6        40.296                                                                    26992050.543 7 105922631.78807       903.791 7        43.342    26992050.439 7 108685828.88507       927.342 7        44.470
G04        10.000    21679529.743 7 113926742.67307     -2666.213 7        46.128                                    21679526.648 5  88774094.30505     -2077.569 5        34.924    21679526.626 7  88774089.30807     -2077.605 7        44.761
E09        11.000    25022984.332 7 131496718.03407     -2174.575 7        46.160                                                                    25022983.562 8  98195618.09408     -1623.829 8        48.326    25022983.194 8 100757242.17208     -1666.192 8        49.664
S27        12.000    39259766.675 5 206311464.15205      -388.271 5        35.595
G06        13.000    21740495.174 7 114247101.86707     -1982.563 7        47.602                                    21740493.748 8  89023720.31308     -1544.854 8        48.273    21740494.497 7  89023731.31307     -1544.843 7        45.074
S36        14.000    38395771.413 7 201771629.82607      -379.827 7        45.141
G20        15.000    23407331.870 7 123006364.99207      2837.364 7        42.356                                    23407326.676 4  95849097.16104      2210.930 4        26.587
E36        16.000    26409448.494 7 138782605.36407     -3480.690 7        42.059                                                                    26409449.943 7 103636374.68507     -2599.147 7        45.490    26409449.460 7 106339927.44707     -2667.045 7        46.171
S45        17.000    63583070.605 6 334132002.43306      -419.265 6        37.543
G03        18.000    24111986.478 6 126709384.46306     -3855.024 6        38.432                                    24111985.590 5  98734599.96005     -3003.909 5        33.461    24111986.080 6  98734608.96906     -3004.008 6        37.573
E24        19.000    28443518.933 6 149471689.04806      2508.209 6        36.896                                                                    28443518.864 6 111618480.01106      1873.028 6        40.722    28443518.219 6 114530263.08206      1921.838 6        41.449
R23        20.000    21234779.083 7 113591751.66007      -862.834 7        46.893
G30        21.000    23870588.252 7 125440802.96707      3103.206 7        42.823                                    23870586.441 6  97746086.27006      2418.080 6        38.048    23870587.248 6  97746090.26006      2418.115 6        38.859
I06        22.000    38162568.144 7 149758343.23007      -252.760 7        43.636
S28        23.000    41056990.800 5 215755951.92605      -378.065 5        34.752
S23        25.000    38336159.649 7 201457874.19307      -375.464 7        44.987
E06        26.000    26684931.207 6 140230314.27606     -2763.605 6        40.999                                                                    26684931.282 7 104717440.07507     -2063.835 7        44.060    26684930.824 7 107449198.10607     -2117.636 7        44.608
R15        27.000    24690261.439 5 131937257.45505     -4219.549 5        34.362                                                                    24690262.205 5 102617874.26805     -3281.771 5        33.263
G26        28.000    24717420.703 6 129890931.38406     -1966.669 6        36.904                                    24717420.080 4 101213714.93404     -1532.467 4        28.663    24717420.163 5 101213715.93005     -1532.295 5        35.386
R09        29.000    21147956.049 8 112928909.91108      2516.116 8        48.710                                                                    21147954.751 7  87833599.75507      1957.015 7        46.744
C22        30.000                                                                                                                                    22554868.269 8 117449147.90608      1275.161 8        50.594                                                                    22554861.805 8  95437040.84108      1036.063 8        49.452
I01        31.000   339284463.394 7  28284291.18707     -2788.382 7        42.095
E03        32.000    26774429.341 6 140700586.19306      1952.152 6        41.979                                                                    26774429.713 7 105068636.55507      1457.772 7        43.585    26774429.185 7 107809551.60707      1495.758 7        44.533
R24        34.000    23923175.926 7 127927977.57007      2817.990 7        42.684                                                                    23923177.513 6  99499536.00006      2191.815 6        40.913
C36        35.000                                                                                                                                    24254121.072 7 126297579.02907      2635.471 7        45.001                                                                    24254125.748 7 102627150.67107      2141.440 7        46.190
G11        36.000    22449973.281 7 117975438.24207       656.298 7        45.899                                    22449969.222 5  91928913.49505       511.403 5        34.762    22449969.370 7  91928913.49807       511.409 7        44.367
C35        37.000                                                                                                                                    26122365.786 6 136026013.30406     -3406.399 6        41.945                                                                    26122366.030 6 110532273.65306     -2768.048 6        41.275
I09        38.000    38096756.448 7 149499842.93707      -676.588 7        43.238
R08        39.000    21759766.620 8 116522574.06608      2325.831 8        48.948                                                                    21759764.057 7  90628670.00207      1809.017 7        44.235
R22        40.000    21983677.793 7 117350392.47507     -3927.905 7        47.186                                                                    21983676.681 7  91272540.15007     -3055.083 7        44.608
S44        42.000    40960735.959 6 215250285.38206      -449.424 6        38.664
C09        43.000                                                                                                                                    39031674.773 6 203248199.40506     -1001.789 6        41.471    39031671.304 7 157164392.45507      -774.728 7        45.657    39031669.255 6 165155792.55406      -814.178 6        41.445
C05        44.000                                                                                                                                    39373066.419 6 205025921.13806      -424.814 6        38.523    39373061.274 7 158539071.11707      -328.458 7        43.208    39373062.866 6 166600458.00606      -345.151 6        39.820
R06        45.000    21473519.927 6 114586867.05106     -2937.511 6        39.787
C44        46.000                                                                                                                                    24843797.348 7 129368202.19407     -2101.912 7        44.327                                                                    24843795.684 7 105122264.50207     -1708.090 7        42.705
C39        47.000                                                                                                                                    40911091.819 6 213034800.02406     -1572.014 6        39.357                                                                    40911088.115 6 173108214.05806     -1277.553 6        37.992
C20        48.000                                                                                                                                    25823714.858 7 134470878.71907     -3068.099 7        43.075                                                                    25823709.622 7 109268590.80207     -2493.168 7        42.844
C06        49.000                                                                                                                                    39476144.969 6 205562670.02206     -1374.466 6        38.943    39476138.882 6 158954080.11306     -1062.981 6        41.762    39476138.639 6 167036487.55906     -1116.957 6        38.955
C16        50.000                                                                                                                                    40056814.349 6 208586364.85006     -1384.422 6        39.240    40056813.914 6 161292218.19106     -1070.520 6        41.230    40056811.533 6 169493506.55006     -1124.906 6        36.994
S48        51.000    77365773.273 6 406559072.84706      -366.551 6        38.114
C19        52.000                                                                                                                                    22485962.710 8 117090368.46908     -1465.781 8        51.109                                                                    22485957.765 8  95145519.09708     -1191.161 8        50.382
C12        53.000                                                                                                                                    25005794.421 6 130211737.88706      -766.353 6        41.800    25005790.746 7 100687958.11607      -592.718 7        46.478    25005789.760 7 105807681.04007      -622.860 7        44.035
C60        54.000                                                                                                                                    40960734.052 6 213293483.94406      -445.253 6        40.968                                                                    40960718.917 6 173318394.91306      -361.928 6        39.580
R16        55.000    21372932.304 8 114170389.14408     -1486.982 8        50.288                                                                    21372931.399 7  88799213.56907     -1156.521 7        45.535
C37        56.000                                                                                                                                    25985187.675 6 135311709.66906     -2688.353 6        41.316                                                                    25985190.549 6 109951867.20406     -2184.683 6        41.800
C02        57.000                                                                                                                                    40911602.954 5 213037487.68705      -458.211 5        34.995    40911597.862 6 164734089.82106      -354.439 6        40.355    40911600.259 6 173110410.14506      -372.763 6        36.537
I03        58.000   129388483.909 6 431962946.66206       925.477 6        41.516
R07        59.000    19677879.059 8 105337258.37908      -256.984 8        51.429                                                                    19677877.528 7  81928981.82207      -199.906 7        47.712
G07        60.000    21663409.678 8 113842013.96008      1528.127 8        48.470                                    21663405.050 7  88708057.25307      1190.746 7        47.500    21663404.788 7  88708058.26407      1190.786 7        44.066
> 2025 01 01 04 30 20.0000000  0 57
G16         1.000    23775949.110 6 124943474.73806       382.596 6        39.745                                    23775944.975 3  97358536.14503       298.123 3        22.705
G29         2.000    26020538.939 6 136738842.63906       572.201 6        37.550                                    26020534.966 4 106549732.72404       445.852 4        26.898    26020536.238 5 106549734.71905       446.170 5        33.371
G09         3.000    20302116.675 8 106688391.73408     -1180.623 8        50.181                                    20302114.213 8  83133823.40308      -919.967 8        53.176    20302114.346 7  83133824.40807      -920.015 7        46.367
E34         4.000    24426981.928 7 128364668.98507     -1325.555 7        47.897                                                                    24426982.053 8  95856741.71308      -989.865 8        49.967    24426981.879 8  98357351.62208     -1015.739 8        50.788
S21         5.000    38628383.751 7 202993354.47207      -379.244 7        43.316
E05         6.000    22126906.371 8 116277723.83008       191.059 8        48.832                                                                    22126905.762 8  86830798.32908       142.671 8        50.797    22126905.532 8  89095941.55008       146.380 8        51.801
E15         7.000    26306498.460 7 138241600.87007      1475.811 7        42.233                                                                    26306498.572 7 103232388.06107      1102.075 7        45.384    26306498.237 7 105925404.61807      1130.792 7        46.372
R10         8.000    23828976.858 6 127021846.42006      4162.147 6        37.130
E31         9.000    26990899.037 6 141838142.23206      1208.222 6        40.193                                                                    26990900.218 7 105918117.07607       902.267 7        43.429    26990899.989 7 108681196.40307       925.760 7        44.311
G04        10.000    21682067.280 7 113940077.34607     -2667.523 7        45.925                                    21682064.155 5  88784484.95905     -2078.589 5        35.067    21682064.226 7  88784479.95807     -2078.550 7        44.476
E09        11.000    25025053.491 7 131507592.78507     -2175.315 7        46.109                                                                    25025052.891 8  98203738.84408     -1624.392 8        48.330    25025052.720 8 100765574.76408     -1666.760 8        49.567
S27        12.000    39260134.551 5 206313406.90405      -388.471 5        35.524
G06        13.000    21742382.878 7 114257022.62907     -1985.612 7        47.553                                    21742381.614 8  89031450.77108     -1547.229 8        48.442    21742382.649 7  89031461.76707     -1547.275 7        45.341
S36        14.000    38396133.203 7 201773529.45207      -379.880 7        45.087
G20        15.000    23404632.064 6 122992180.94906      2836.415 6        41.917                                    23404627.565 4  95838044.66004      2210.194 4        26.934
E36        16.000    26412760.925 7 138800011.33807     -3481.648 7        42.250                                                                    26412762.156 7 103649372.64507     -2599.838 7        45.461    26412761.648 7 106353264.48107     -2667.633 7        46.055
S45        17.000    63583429.203 6 334134099.43706      -419.407 6        37.595
G03        18.000    24115655.396 6 126728661.77906     -3855.891 6        38.444                                    24115654.006 5  98749621.23905     -3004.587 5        33.503    24115654.603 6  98749630.21406     -3004.472 6        38.108
