     3.04           OBSERVATION DATA    M                   RINEX VERSION / TYPE
ssrcrin-15.6.1x                         20250101 171500 UTC PGM / RUN BY / DATE 
(00000000023479385599111004) Septentrio proprietary         COMMENT             
rref                                                        MARKER NAME         
01                                                          MARKER NUMBER       
geodetic                                                    MARKER TYPE         
NFB                 CLIMERS@TUW                             OBSERVER / AGENCY   
3297213             SEPT ASTERX SB3 PROB4.14.4              REC # / TYPE / VERS 
Unknown             Unknown                                 ANT # / TYPE        
  4127831.8386  1207193.0104  4695247.6470                  APPROX POSITION XYZ 
        0.0000        0.0000        0.0000                  ANTENNA: DELTA H/E/N
G   23 X1  C1C L1C D1C S1C C1W S1W C2W L2W D2W S2W C2L L2L  SYS / # / OBS TYPES 
       D2L S2L C5Q L5Q D5Q S5Q C1L L1L D1L S1L              SYS / # / OBS TYPES 
E   21 X1  C1C L1C D1C S1C C6C L6C D6C S6C C5Q L5Q D5Q S5Q  SYS / # / OBS TYPES 
       C7Q L7Q D7Q S7Q C8Q L8Q D8Q S8Q                      SYS / # / OBS TYPES 
S    9 X1  C1C L1C D1C S1C C5I L5I D5I S5I                  SYS / # / OBS TYPES 
R   17 X1  C1C L1C D1C S1C C2P L2P D2P S2P C2C L2C D2C S2C  SYS / # / OBS TYPES 
       C3Q L3Q D3Q S3Q                                      SYS / # / OBS TYPES 
C   25 X1  C1P L1P D1P S1P C5P L5P D5P S5P C2I L2I D2I S2I  SYS / # / OBS TYPES 
       C7I L7I D7I S7I C6I L6I D6I S6I C7D L7D D7D S7D      SYS / # / OBS TYPES 
J   17 X1  C1C L1C D1C S1C C2L L2L D2L S2L C5Q L5Q D5Q S5Q  SYS / # / OBS TYPES 
       C1L L1L D1L S1L                                      SYS / # / OBS TYPES 
I    5 X1  C5A L5A D5A S5A                                  SYS / # / OBS TYPES 
SEPTENTRIO RECEIVERS OUTPUT ALIGNED CARRIER PHASES.         COMMENT             
NO FURTHER PHASE SHIFT APPLIED IN THE RINEX ENCODER.        COMMENT             
G L1C                                                       SYS / PHASE SHIFT   
G L2W                                                       SYS / PHASE SHIFT   
G L2L  0.00000                                              SYS / PHASE SHIFT   
G L5Q  0.00000                                              SYS / PHASE SHIFT   
G L1L  0.00000                                              SYS / PHASE SHIFT   
E L1C  0.00000                                              SYS / PHASE SHIFT   
E L6C  0.00000                                              SYS / PHASE SHIFT   
E L5Q  0.00000                                              SYS / PHASE SHIFT   
E L7Q  0.00000                                              SYS / PHASE SHIFT   
E L8Q  0.00000                                              SYS / PHASE SHIFT   
S L1C                                                       SYS / PHASE SHIFT   
S L5I                                                       SYS / PHASE SHIFT   
R L1C                                                       SYS / PHASE SHIFT   
R L2P  0.00000                                              SYS / PHASE SHIFT   
R L2C                                                       SYS / PHASE SHIFT   
R L3Q  0.00000                                              SYS / PHASE SHIFT   
C L1P  0.00000                                              SYS / PHASE SHIFT   
C L5P  0.00000                                              SYS / PHASE SHIFT   
C L2I                                                       SYS / PHASE SHIFT   
C L7I                                                       SYS / PHASE SHIFT   
C L6I                                                       SYS / PHASE SHIFT   
C L7D                                                       SYS / PHASE SHIFT   
J L1C                                                       SYS / PHASE SHIFT   
J L2L  0.00000                                              SYS / PHASE SHIFT   
J L5Q  0.00000                                              SYS / PHASE SHIFT   
J L1L  0.00000                                              SYS / PHASE SHIFT   
I L5A                                                       SYS / PHASE SHIFT   
  2025     1     1    17    15    0.0000000     GPS         TIME OF FIRST OBS   
 C1C    0.000 C2C    0.000 C2P    0.000                     GLONASS COD/PHS/BIS 
DBHZ                                                        SIGNAL STRENGTH UNIT
    18                                                      LEAP SECONDS        
 24 R01  1 R02 -4 R03  5 R04  6 R05  1 R06 -4 R07  5 R08  6 GLONASS SLOT / FRQ #
    R09 -2 R10 -7 R11  0 R12 -1 R13 -2 R14 -7 R15  0 R16 -1 GLONASS SLOT / FRQ #
    R17  4 R18 -3 R19  3 R20  2 R21  4 R22 -3 R23  3 R24  2 GLONASS SLOT / FRQ #
                                                            END OF HEADER       
> 2025 01 01 17 15  0.0000000  0 56
G20         1.000    24791853.462 6 130282258.18106     -2990.993 6        36.669                                    24791849.926 2 101518712.55202     -2330.642 2        17.660
G25         2.000    23595260.663 6 123994109.47306     -4181.300 6        40.114                                    23595262.015 6  96618882.91906     -3258.154 6        36.393    23595262.371 6  96618892.93906     -3258.221 6        39.054
G05         3.000    23048739.610 7 121122080.82607      -921.170 7        43.130                                    23048735.446 6  94380899.69406      -717.796 6        40.052    23048736.089 6  94380898.69806      -717.750 6        40.706
G29         4.000    21487895.839 7 112920021.89707     -2491.761 7        47.118                                    21487891.555 7  87989793.33907     -1941.633 7        47.106    21487891.778 7  87989796.33907     -1941.546 7        43.666
S21         5.000    38594373.262 7 202814505.05607      -564.947 7        42.514
E13         6.000    24861886.661 7 130650420.00007      1773.504 7        46.363                                                                    24861888.655 8  97563825.85108      1324.395 8        48.934    24861887.869 8 100108939.48908      1358.937 8        49.132
G23         7.000    24838648.037 6 130527990.03106      3000.144 6        37.236                                    24838650.469 3 101710132.07503      2337.751 3        19.493    24838650.919 6 101710131.08906      2337.940 6        37.815
E15         8.000    23729515.217 7 124699766.61307     -1011.835 7        47.547                                                                    23729515.853 8  93120126.84108      -755.573 8        51.438    23729515.337 8  95549323.55608      -775.275 8        51.380
E06         9.000    28935149.263 5 152055226.64105      -582.349 5        35.210                                                                    28935153.400 6 113547761.52506      -434.729 6        37.599    28935152.856 6 116509874.63106      -446.057 6        38.778
E30        10.000    27329039.635 6 143615267.00706     -3306.547 6        38.255                                                                    27329042.356 7 107245290.97307     -2469.258 7        44.542    27329041.495 7 110042981.13107     -2533.629 7        44.495
G26        11.000    20928878.653 8 109982380.32108       725.120 8        48.361                                    20928877.659 8  85700740.86008       565.024 8        50.383    20928877.792 7  85700760.86307       565.077 7        45.457
S27        12.000    39379768.328 6 206942037.36106      -547.412 6        36.325
R15        13.000    20296011.410 8 108456033.50908     -3441.906 8        51.344                                                                    20296011.518 7  84354834.73007     -2677.060 7        46.239
S36        14.000    38366039.577 7 201615386.02107      -564.251 7        44.044
G27        15.000    25193576.992 6 132393222.72806      2861.666 6        36.457                                    25193586.119 4 103163658.46004      2229.824 4        26.419    25193588.071 5 103163572.55505      2229.533 5        33.012
S45        17.000    63576552.152 6 334098537.35006      -622.201 6        36.446
G31        18.000    22465627.348 7 118057952.89607     -2625.345 7        45.911                                    22465623.710 7  91993361.25807     -2045.729 7        43.949    22465624.094 7  91993340.27107     -2045.728 7        43.100
G16        19.000    22654654.924 7 119051273.71007      2510.256 7        42.713                                    22654650.393 4  92767345.60704      1956.046 4        28.844
E21        20.000    24730761.164 7 129961405.54707      1184.332 7        46.071                                                                    24730760.895 8  97049319.17208       884.372 8        49.232    24730760.645 8  99581015.17108       907.465 8        49.961
I06        22.000    38877645.893 6 152564424.56106      -429.073 6        40.675
S28        23.000    41071442.611 5 215831859.10505      -562.110 5        34.400
E34        24.000    26837959.945 6 141034743.02306     -3239.934 6        40.517                                                                    26837960.548 7 105318339.16407     -2419.492 7        43.736    26837960.113 7 108065753.91707     -2482.560 7        44.242
S23        25.000    38318047.660 7 201362651.99807      -567.309 7        44.638
C13        26.000                                                                                                                                    37997724.819 7 197864317.60407        67.113 7        44.780    37997725.698 7 153001351.63407        51.891 7        44.844    37997724.028 7 160781052.12507        54.595 7        43.374
G18        27.000    20923032.953 8 109951622.17808       703.974 8        48.768                                    20923029.514 6  85676759.40506       548.549 6        41.554    20923029.583 8  85676750.40908       548.541 8        48.480
R24        28.000    23744238.370 7 126971448.15507     -4487.154 7        43.340                                                                    23744239.309 6  98755749.78106     -3490.030 6        38.396
I02        29.000    38578969.679 6 151392259.21806      -954.087 6        41.251
G28        30.000    23463361.713 7 123300963.28907     -3729.835 7        42.739                                    23463361.166 4  96078763.58004     -2906.365 4        29.450    23463361.818 7  96078760.57107     -2906.283 7        42.341
C12        32.000                                                                                                                                    25088713.136 6 130643777.56106     -3383.709 6        40.539    25088710.820 7 101022182.21507     -2616.506 7        45.877    25088708.691 7 106158862.16907     -2749.407 7        43.393
R17        33.000    19777895.826 8 105835882.47608     -2428.912 8        51.421                                                                    19777894.815 7  82316965.16007     -1889.137 7        47.690
R08        34.000    24080226.131 6 128948511.41106     -1835.001 6        37.728                                                                    24080224.066 6 100293286.25006     -1427.341 6        39.991
R18        36.000    19839340.169 8 105904142.02408      1093.763 8        51.402                                                                    19839340.771 7  82370091.65907       850.695 7        47.660
E27        37.000    23783646.628 8 124984142.29408     -1534.500 8        48.560                                                                    23783646.277 8  93332466.43508     -1145.866 8        50.963    23783645.894 8  95767206.54108     -1175.759 8        51.115
R16        38.000    19764026.025 8 105575995.80908       886.538 8        52.555                                                                    19764025.697 8  82114718.56908       689.560 8        48.239
C22        39.000                                                                                                                                    26322733.718 6 137069387.67906      -431.884 6        40.818                                                                    26322727.761 6 111380086.50706      -350.854 6        40.818
R09        40.000    23635790.859 7 126213864.78207      3622.337 7        43.052                                                                    23635790.950 6  98166359.82006      2817.432 6        41.557
C34        41.000                                                                                                                                    22610206.282 8 117737614.03408     -2491.557 8        48.860                                                                    22610205.858 8  95671594.70008     -2024.500 8        48.631
S44        42.000    40700915.429 6 213884900.05606      -501.353 6        38.216
C38        43.000                                                                                                                                    38753997.641 7 201802395.59407      -710.126 7        43.731                                                                    38753995.275 7 163981040.07207      -576.919 7        43.839
C05        44.000                                                                                                                                    39522191.879 6 205802430.47806      -499.041 6        38.048    39522189.279 7 159139509.77007      -385.695 7        43.149    39522191.380 6 167231429.47106      -405.296 6        40.818
C08        45.000                                                                                                                                    37940954.077 7 197568693.08407      -155.404 7        42.400    37940947.712 7 152772720.94007      -120.118 7        45.944    37940947.139 7 160540797.78907      -126.167 7        42.914
E04        46.000    28846907.526 6 151591526.57006     -1611.276 6        36.654                                                                    28846908.888 6 113201473.65706     -1203.072 6        38.724    28846908.372 6 116154553.10506     -1234.627 6        40.081
R19        47.000    22979435.537 5 122924750.71305      3126.598 5        35.529                                                                    22979439.259 6  95608282.51506      2431.942 6        38.703
C43        48.000                                                                                                                                    21755424.861 8 113286526.71808        85.641 8        51.314                                                                    21755423.780 8  92054707.94908        69.620 8        49.603
C10        49.000                                                                                                                                    41539757.924 4                     -1276.979 4        25.068    41539756.518 5                      -987.786 5        31.608    41539754.250 4                     -1038.287 4        27.437
C44        50.000                                                                                                                                    27103253.884 4 141133867.34904     -3587.536 4        28.483                                                                    27103253.920 5 114682874.80605     -2914.608 5        30.060
S48        51.000    77321920.260 6 406329797.62506      -603.391 6        38.009
R01        52.000    23583731.753 6 126068595.76706      1324.991 6        38.444                                                                    23583733.857 5  98053342.59205      1030.570 5        33.491
C37        53.000                                                                                                                                    24976422.896 7 130058807.28507      1868.057 7        44.161                                                                    24976425.795 7 105683457.10907      1517.985 7        45.076
C60        54.000                                                                                                                                    40700914.511 6 211940510.99006      -496.893 6        40.689                                                                    40700900.208 6 172218988.56806      -403.891 6        40.555
C25        55.000                                                                                                                                    23858926.666 7 124239872.69207     -3612.855 7        47.011                                                                    23858926.259 7 100955148.86707     -2935.673 7        46.349
C23        56.000                                                                                                                                    22632558.976 8 117854023.51308      -936.751 8        50.536                                                                    22632550.713 8  95766157.97208      -761.080 8        50.328
C02        57.000                                                                                                                                    40880750.864 5 212876813.84005      -470.478 5        33.671    40880746.354 6 164609841.33006      -363.466 6        38.309    40880749.484 6 172979845.19706      -382.146 6        36.352
I03        58.000   114083052.073 6 371901111.05606      1031.675 6        40.605
C11        59.000                                                                                                                                    21750609.909 8 113261447.08408     -1264.145 8        49.385    21750606.246 8  87581087.27308      -977.510 8        52.164    21750605.258 8  92034313.76508     -1027.159 8        49.371
C28        60.000                                                                                                                                    25716529.210 7 133912903.84407      2374.559 7        42.707                                                                    25716533.803 6 108815313.45506      1929.470 6        40.420
> 2025 01 01 17 15  5.0000000  0 55
G20         1.000    24794700.589 6 130297218.45406     -2992.811 6        36.760                                    24794696.717 2 101530369.85902     -2332.044 2        17.774
G25         2.000    23599239.848 6 124015017.88906     -4181.872 6        40.250                                    23599240.668 5  96635175.18405     -3258.601 5        35.962    23599240.646 6  96635185.19406     -3258.607 6        38.616
G05         3.000    23049617.494 7 121126695.23607      -924.482 7        42.646                                    23049613.623 6  94384495.33906      -720.376 6        40.102    23049614.302 6  94384494.34606      -720.287 6        40.517
G29         4.000    21490267.324 7 112932483.81607     -2492.872 7        47.100                                    21490262.991 7  87999503.92607     -1942.497 7        47.137    21490263.288 7  87999506.92507     -1942.459 7        43.659
S21         5.000    38594910.925 7 202817329.17307      -564.602 7        42.574
E13         6.000    24860199.849 7 130641555.70507      1772.286 7        46.369                                                                    24860201.746 8  97557206.44108      1323.427 8        48.915    24860201.090 8 100102147.39308      1358.026 8        49.424
G23         7.000    24835793.352 6 130512989.17506      3000.588 6        37.074                                    24835796.031 3 101698443.16703      2338.096 3        19.970    24835796.520 6 101698442.19606      2338.037 6        38.069
E15         8.000    23730478.982 7 124704830.61307     -1013.578 7        47.757                                                                    23730479.463 8  93123908.41108      -756.924 8        51.384    23730478.993 8  95553203.77308      -776.727 8        51.619
E06         9.000    28935704.709 5 152058143.66805      -584.373 5        35.205                                                                    28935708.744 6 113549939.72206      -436.213 6        37.724    28935708.230 6 116512109.66306      -447.876 6        39.066
E30        10.000    27332186.092 6 143631801.47406     -3306.976 6        38.610                                                                    27332188.769 7 107257638.12507     -2469.557 7        44.509    27332187.802 7 110055650.38107     -2533.913 7        44.641
G26        11.000    20928189.901 8 109978760.99308       722.844 8        48.619                                    20928188.913 8  85697920.60708       563.253 8        50.397    20928189.100 7  85697940.61507       563.150 7        45.342
S27        12.000    39380288.208 6 206944773.57006      -547.135 6        36.284
R15        13.000    20299233.367 8 108473250.70408     -3444.828 8        51.470                                                                    20299233.795 7  84368225.88407     -2679.288 7        46.585
S36        14.000    38366577.563 7 201618206.81507      -563.965 7        44.069
G27        15.000    25190854.352 6 132378914.66806      2861.623 6        36.397                                    25190863.285 4 103152509.54604      2229.788 4        26.659    25190863.859 5 103152423.65605      2229.908 5        31.751
S45        17.000    63577092.288 6 334100047.81416      -622.145 6        36.556
G31        18.000    22468126.338 7 118071085.52607     -2627.630 7        46.151                                    22468122.792 7  92003594.48407     -2047.505 7        43.975    22468123.026 7  92003573.49607     -2047.505 7        42.910
G16        19.000    22652267.157 7 119038724.34707      2509.425 7        42.794                                    22652262.332 4  92757566.88604      1955.401 4        28.948
E21        20.000    24729634.684 7 129955486.62107      1183.451 7        46.029                                                                    24729634.622 8  97044899.19908       883.737 8        49.164    24729634.271 8  99576479.89908       906.747 8        50.105
I06        22.000    38878192.951 6 152566569.59106      -428.822 6        40.646
S28        23.000    41071975.476 5 215834668.57005      -561.451 5        34.367
E34        24.000    26841042.839 6 141050944.58706     -3240.457 6        40.341                                                                    26841043.598 7 105330437.74407     -2419.893 7        43.911    26841043.367 7 108078168.09907     -2482.873 7        44.349
S23        25.000    38318588.986 7 201365488.08707      -566.934 7        44.780
C13        26.000                                                                                                                                    37997660.715 7 197863984.24707        66.381 7        44.700    37997661.624 7 153001093.86307        51.357 7        44.840    37997660.011 7 160780781.24807        53.938 7        43.270
G18        27.000    20922364.507 8 109948108.92008       701.375 8        48.536                                    20922360.949 6  85674021.81006       546.524 6        41.545    20922361.224 8  85674012.81308       546.622 8        48.465
R24        28.000    23748433.563 7 126993883.76207     -4486.836 7        43.058                                                                    23748435.080 6  98773199.66906     -3489.754 6        38.504
I02        29.000    38580185.605 6 151397030.37906      -954.234 6        41.726
G28        30.000    23466911.315 7 123319615.32607     -3730.881 7        42.663                                    23466910.562 4  96093297.63204     -2907.182 4        29.659    23466910.802 6  96093294.63806     -2907.072 6        41.928
C12        32.000                                                                                                                                    25091962.295 6 130660696.62906     -3383.834 6        40.124    25091959.967 7 101035265.08607     -2616.560 7        46.261    25091958.085 7 106172610.28507     -2749.642 7        43.464
R17        33.000    19780167.011 8 105848033.14108     -2431.198 8        51.481                                                                    19780165.670 7  82326415.66407     -1890.848 7        47.481
R08        34.000    24081939.430 6 128957696.33106     -1838.613 6        37.403                                                                    24081939.457 6 100300430.03006     -1430.114 6        40.350
R18        36.000    19838316.840 8 105898680.50208      1090.996 8        51.166                                                                    19838317.582 7  82365843.83007       848.565 7        47.615
E27        37.000    23785107.377 8 124991818.49708     -1535.869 8        48.762                                                                    23785107.037 8  93338198.67008     -1146.889 8        50.874    23785106.644 8  95773088.31208     -1176.809 8        51.326
R16        38.000    19763197.656 8 105571572.38808       882.898 8        52.615                                                                    19763197.508 8  82111278.13508       686.698 8        48.281
C22        39.000                                                                                                                                    26323148.940 6 137071553.17906      -434.243 6        40.822                                                                    26323143.692 6 111381846.16906      -352.898 6        40.760
R09        40.000    23632401.213 7 126195754.68207      3621.861 7        42.516                                                                    23632399.829 6  98152274.18206      2816.993 6        41.812
C34        41.000                                                                                                                                    22612598.955 8 117750074.71808     -2492.571 8        48.601                                                                    22612598.820 8  95681720.02908     -2025.413 8        48.504
S44        42.000    40701392.117 6 213887407.33806      -501.181 6        38.297
C38        43.000                                                                                                                                    38754679.892 7 201805947.94907      -710.781 7        43.706                                                                    38754677.420 7 163983926.65107      -577.569 7        43.704
C05        44.000                                                                                                                                    39522670.960 6 205804924.08606      -498.512 6        37.951    39522667.912 7 159141438.00407      -385.475 7        43.153    39522670.188 6 167233455.74006      -404.980 6        40.629
C08        45.000                                                                                                                                    37941103.288 7 197569472.14907      -156.123 7        42.229    37941097.301 7 152773323.36607      -120.769 7        45.923    37941096.763 7 160541430.84607      -126.859 7        42.861
E04        46.000    28848441.925 6 151599587.77306     -1612.990 6        36.851                                                                    28848443.053 6 113207493.30006     -1204.582 6        38.889    28848442.370 6 116160729.77506     -1235.988 6        40.453
R19        47.000    22976513.619 5 122909120.94905      3125.558 5        35.376                                                                    22976517.860 6  95596126.21006      2430.913 6        38.793
C43        48.000                                                                                                                                    21755343.473 8 113286102.78508        84.058 8        51.276                                                                    21755342.328 8  92054363.47508        68.260 8        49.475
C10        49.000                                                                                                                                    41540984.835 4                     -1276.483 4        26.204    41540983.513 5                      -987.764 5        32.012    41540980.870 4                     -1037.923 4        27.617
S48        51.000    77322465.539 6 406332814.23006      -603.065 6        38.117
R01        52.000    23582493.220 6 126061979.85206      1321.655 6        37.826                                                                    23582495.446 5  98048196.89205      1027.995 5        33.515
C37        53.000                                                                                                                                    24974629.259 7 130049471.20007      1866.638 7        43.562                                                                    24974632.782 7 105675870.77707      1516.721 7        44.959
C60        54.000                                                                                                                                    40701391.825 6 211942995.48806      -496.638 6        40.477                                                                    40701377.339 6 172221007.42006      -403.543 6        40.448
C25        55.000                                                                                                                                    23862396.400 7 124257939.52707     -3613.713 7        46.854                                                                    23862395.758 7 100969829.66407     -2936.540 7        46.202
C23        56.000                                                                                                                                    22633459.753 8 117858713.63208      -939.190 8        50.425                                                                    22633451.369 8  95769969.08808      -763.149 8        50.191
C02        57.000                                                                                                                                    40881201.952 5 212879164.66605      -469.823 5        33.545    40881197.644 6 164611659.14106      -363.398 6        38.468    40881201.069 6 172981755.42906      -381.933 6        36.125
I03        58.000   114081737.470 6 371895952.33906      1031.984 6        40.675
C11        59.000                                                                                                                                    21751824.140 8 113267771.75008     -1265.557 8        49.228    21751820.857 8  87585977.91508      -978.623 8        52.243    21751819.856 8  92039453.07708     -1028.372 8        49.249
C28        60.000                                                                                                                                    25714249.053 7 133901031.94207      2374.281 7        42.512                                                                    25714253.775 6 108805666.68006      1929.156 6        40.117
> 2025 01 01 17 15 10.0000000  0 55
G20         1.000    24797549.152 6 130312189.65506     -2995.382 6        36.643                                    24797545.606 2 101542035.68902     -2334.056 2        17.472
G25         2.000    23603219.652 6 124035930.61106     -4182.954 6        40.050                                    23603220.027 5  96651470.80005     -3259.447 5        35.757    23603220.520 6  96651480.81106     -3259.490 6        38.111
G05         3.000    23050499.137 7 121131327.01507      -928.024 7        43.120                                    23050495.079 6  94388104.51506      -723.135 6        40.136    23050495.281 6  94388103.50706      -723.139 6        40.198
G29         4.000    21492640.191 7 112944952.86007     -2494.528 7        47.509                                    21492635.755 7  88009220.06707     -1943.788 7        47.231    21492636.344 7  88009223.07307     -1943.781 7        43.498
S21         5.000    38595448.048 7 202820153.16407      -564.880 7        42.474
E13         6.000    24858514.586 7 130632699.00607      1770.523 7        46.659                                                                    24858516.369 8  97550592.68908      1322.179 8        48.849    24858515.688 8 100095361.11108      1356.676 8        49.341
G23         7.000    24832938.518 6 130497987.85506      3000.366 6        37.353                                    24832941.397 3 101686753.89403      2337.928 3        20.333    24832941.139 6 101686752.94706      2337.844 6        38.030
E15         8.000    23731444.403 8 124709905.17908     -1015.977 8        48.058                                                                    23731445.114 8  93127697.86408      -758.700 8        51.249    23731444.662 8  95557092.07708      -778.474 8        51.557
E06         9.000    28936261.053 5 152061072.21305      -586.864 5        35.076                                                                    28936266.051 6 113552126.59706      -438.494 6        38.381    28936265.278 6 116514353.57406      -449.586 6        39.348
E30        10.000    27335333.496 6 143648339.33606     -3307.883 6        39.556                                                                    27335335.849 7 107269987.83107     -2470.195 7        44.634    27335334.820 7 110068322.27007     -2534.725 7        44.597
G26        11.000    20927503.827 8 109975155.00708       719.812 8        48.501                                    20927502.693 8  85695110.75308       560.892 8        50.469    20927502.975 7  85695130.76107       560.914 7        45.362
S27        12.000    39380810.838 6 206947509.30206      -547.293 6        36.238
R15        13.000    20302458.498 8 108490484.16108     -3448.336 8        51.831                                                                    20302458.850 7  84381629.67507     -2681.938 7        46.699
S36        14.000    38367112.829 7 201621026.98907      -563.976 7        44.105
G27        15.000    25188131.326 6 132364607.77906      2861.127 6        36.174                                    25188140.706 4 103141361.56604      2229.405 4        26.766    25188141.269 5 103141275.62105      2230.046 5        31.630
S45        17.000    63577628.897 6 334103158.11306      -622.039 6        36.491
G31        18.000    22470627.843 7 118084231.17007     -2630.489 7        46.182                                    22470624.334 7  92013837.84707     -2049.736 7        44.078    22470624.099 7  92013816.85007     -2049.661 7        42.597
G16        19.000    22649880.125 7 119026181.90807      2507.737 7        42.364                                    22649875.523 4  92747793.55204      1954.074 4        28.995
E21        20.000    24728509.426 7 129949573.66707      1182.006 7        46.345                                                                    24728509.395 8  97040483.68908       882.677 8        49.107    24728509.098 8  99571949.19608       905.724 8        50.033
I06        22.000    38878739.380 6 152568714.30706      -428.879 6        40.615
S28        23.000    41072508.579 5 215837477.94305      -562.024 5        34.033
E34        24.000    26844126.524 6 141067149.98706     -3241.492 6        40.098                                                                    26844127.395 7 105342539.17307     -2420.601 7        43.890    26844127.354 7 108090585.23507     -2483.773 7        44.343
S23        25.000    38319127.803 7 201368324.06607      -567.089 7        44.644
C13        26.000                                                                                                                                    37997597.274 7 197863655.84807        65.134 7        44.781    37997598.649 7 153000839.93007        50.367 7        44.886    37997596.866 7 160780514.42407        52.980 7        43.173
G18        27.000    20921698.630 8 109944609.84108       698.294 8        48.627                                    20921695.075 6  85671295.26806       544.121 6        41.685    20921695.121 8  85671286.26908       544.188 8        48.187
R24        28.000    23752629.441 7 127016319.24307     -4487.097 7        43.221                                                                    23752629.950 6  98790649.50706     -3489.964 6        38.631
I02        29.000    38581401.498 6 151401801.89306      -954.222 6        41.540
G28        30.000    23470461.995 7 123338274.00007     -3732.451 7        43.113                                    23470461.253 4  96107836.86604     -2908.409 4        29.754    23470461.864 7  96107833.86707     -2908.280 7        42.245
C12        32.000                                                                                                                                    25095211.549 6 130677617.39206     -3384.312 6        40.553    25095209.176 7 101048349.29407     -2616.944 7        46.452    25095207.900 7 106186359.82607     -2750.175 7        43.708
R17        33.000    19782439.561 8 105860196.48208     -2433.987 8        51.809                                                                    19782438.403 7  82335876.04207     -1893.089 7        47.559
R08        34.000    24083658.482 6 128966900.70106     -1842.757 6        37.618                                                                    24083658.367 6 100307588.91106     -1433.204 6        40.558
R18        36.000    19837296.900 8 105893234.10408      1087.751 8        51.762                                                                    19837297.167 7  82361607.74207       846.122 7        47.383
E27        37.000    23786569.698 8 124999503.30208     -1537.827 8        48.882                                                                    23786569.429 8  93343937.32808     -1148.394 8        50.761    23786569.027 8  95778976.67408     -1178.312 8        51.229
R16        38.000    19762373.218 8 105567168.75208       878.760 8        52.385                                                                    19762373.135 8  82107853.09208       683.535 8        48.198
C22        39.000                                                                                                                                    26323567.469 6 137073732.29506      -437.232 6        41.168                                                                    26323562.173 6 111383616.89006      -355.231 6        40.706
R09        40.000    23629009.755 7 126177648.75207      3620.784 7        43.012                                                                    23629010.114 7  98138191.77607      2816.256 7        42.444
C34        41.000                                                                                                                                    22614993.063 8 117762541.32308     -2493.947 8        48.808                                                                    22614992.909 8  95691850.19808     -2026.566 8        48.465
S44        42.000    40701869.441 6 213889914.57906      -501.417 6        38.252
C38        43.000                                                                                                                                    38755362.904 7 201809505.02007      -711.888 7        43.896                                                                    38755360.552 7 163986817.08407      -578.444 7        43.556
C05        44.000                                                                                                                                    39523149.974 6 205807417.49306      -498.802 6        37.947    39523147.154 7 159143366.07207      -385.535 7        43.156    39523149.050 6 167235481.87406      -405.193 6        40.579
C08        45.000                                                                                                                                    37941253.820 7 197570256.69007      -157.497 7        42.260    37941248.076 7 152773930.01207      -121.749 7        46.012    37941247.425 7 160542068.36507      -127.893 7        42.845
E04        46.000    28849977.849 6 151607659.14406     -1615.401 6        36.548                                                                    28849979.229 6 113213520.52006     -1206.350 6        38.790    28849978.506 6 116166914.23406     -1237.784 6        40.498
R19        47.000    22973590.362 5 122893498.25605      3123.604 5        35.390                                                                    22973596.912 6  95583975.30506      2429.618 6        38.715
C43        48.000                                                                                                                                    21755263.876 8 113285687.95108        81.985 8        51.353                                                                    21755262.744 8  92054026.42608        66.605 8        49.432
C10        49.000                                                                                                                                    41542210.963 4                     -1278.076 4        26.024    41542210.871 5                      -987.923 5        32.395    41542207.235 4                     -1038.247 4        27.425
S48        51.000    77323015.047 6 406335830.79006      -603.283 6        37.966
R01        52.000    23581258.625 6 126055381.23206      1318.059 6        38.453                                                                    23581261.893 5  98043064.64105      1025.088 5        34.400
C37        53.000                                                                                                                                    24972837.925 7 130040143.71307      1864.542 7        43.558                                                                    24972841.603 7 105668291.45307      1515.116 7        44.977
C60        54.000                                                                                                                                    40701868.616 6 211945479.92006      -496.890 6        40.586                                                                    40701854.555 6 172223026.27206      -403.940 6        40.362
C25        55.000                                                                                                                                    23865867.086 7 124276012.59307     -3615.276 7        46.921                                                                    23865866.485 7 100984515.52607     -2937.787 7        46.127
C23        56.000                                                                                                                                    22634362.908 8 117863417.50208      -942.206 8        50.383                                                                    22634354.735 8  95773791.40408      -765.657 8        50.155
C02        57.000                                                                                                                                    40881653.474 5 212881515.38605      -470.091 5        33.269    40881649.067 6 164613476.85806      -363.577 6        38.441    40881652.363 6 172983665.59606      -382.052 6        36.159
I03        58.000   114080423.146 6 371890793.49906      1031.818 6        40.579
C11        59.000                                                                                                                                    21753040.043 8 113274105.13608     -1267.626 8        49.209    21753037.070 8  87590875.29008      -980.146 8        52.211    21753036.057 8  92044599.50608     -1030.024 8        49.215
C28        60.000                                                                                                                                    25711969.081 7 133889162.97507      2373.468 7        42.322                                                                    25711974.561 6 108796022.31306      1928.649 6        40.286
> 2025 01 01 17 15 15.0000000  0 55
G20         1.000    24800400.430 6 130327171.95406     -2997.277 6        36.389                                    24800396.735 2 101553710.20602     -2335.542 2        17.434
G25         2.000    23607199.276 6 124056847.77006     -4183.466 6        40.219                                    23607200.191 5  96667769.88705     -3259.847 5        35.548    23607201.011 6  96667779.89306     -3259.867 6        38.300
G05         3.000    23051384.334 7 121135976.28907      -931.322 7        43.211                                    23051379.834 6  94391727.33406      -725.703 6        40.095    23051380.124 6  94391726.33306      -725.770 6        40.062
G29         4.000    21495014.280 7 112957429.21207     -2495.703 7        47.291                                    21495009.945 7  88018941.90307     -1944.705 7        47.160    21495010.517 7  88018944.90507     -1944.690 7        43.769
S21         5.000    38595987.044 7 202822977.37507      -564.646 7        42.595
E13         6.000    24856830.618 7 130623850.07107      1769.357 7        46.539                                                                    24856832.451 8  97543984.74908      1321.218 8        48.842    24856831.812 8 100088580.78608      1355.641 8        49.098
G23         7.000    24830083.460 6 130482986.27006      3000.667 6        37.970                                    24830086.834 3 101675064.42703      2338.170 3        20.429    24830086.724 6 101675063.45906      2338.075 6        38.429
E15         8.000    23732412.108 7 124714990.47707     -1017.872 7        47.715                                                                    23732412.818 8  93131495.33008      -760.053 8        51.270    23732412.280 8  95560988.60808      -779.899 8        51.364
E06         9.000    28936820.662 5 152064012.32005      -588.793 5        34.390                                                                    28936825.504 6 113554322.02306      -439.826 6        37.955    28936824.948 6 116516606.30306      -451.257 6        38.889
E30        10.000    27338481.114 6 143664880.83506     -3308.394 6        39.961                                                                    27338483.576 7 107282340.23307     -2470.588 7        44.746    27338482.552 7 110080996.90707     -2535.027 7        44.402
G26        11.000    20926819.989 8 109971562.55308       717.433 8        48.057                                    20926819.076 8  85692311.44808       559.038 8        50.416    20926819.374 7  85692331.44607       559.016 7        45.410
S27        12.000    39381331.259 6 206950244.99406      -546.925 6        36.242
R15        13.000    20305686.968 8 108507734.04908     -3451.325 8        52.003                                                                    20305686.582 7  84395046.25407     -2684.397 7        46.494
S36        14.000    38367650.832 7 201623847.50307      -564.019 7        44.048
G27        15.000    25185408.733 5 132350302.23805      2861.253 5        35.595                                    25185418.141 4 103130214.61404      2229.502 4        26.551    25185419.228 5 103130128.71105      2229.671 5        31.358
S45        17.000    63578168.165 6 334106268.48106      -621.819 6        36.560
G31        18.000    22473131.627 7 118097389.98807     -2632.764 7        46.839                                    22473128.389 7  92024091.47807     -2051.505 7        44.024    22473128.599 7  92024070.48307     -2051.588 7        42.500
G16        19.000    22647494.625 7 119013646.63407      2506.750 7        43.045                                    22647490.114 4  92738025.82604      1953.306 4        28.834
E21        20.000    24727385.357 7 129943666.88407      1181.002 7        46.073                                                                    24727385.346 8  97036072.77808       881.928 8        49.178    24727385.006 8  99567423.22508       904.897 8        49.840
I06        22.000    38879285.927 6 152570858.85806      -428.741 6        40.522
S28        23.000    41073047.977 5 215840287.42705      -561.599 5        34.329
E34        24.000    26847211.139 6 141083359.42106     -3242.108 6        39.673                                                                    26847211.820 7 105354643.61107     -2420.962 7        43.898    26847211.878 7 108103005.44807     -2484.213 7        44.108
S23        25.000    38319666.911 7 201371160.00807      -566.879 7        44.625
C13        26.000                                                                                                                                    37997535.045 7 197863332.62107        64.371 7        44.606    37997536.627 7 153000589.98307        49.846 7        44.868    37997534.875 7 160780251.75807        52.191 7        43.056
G18        27.000    20921035.506 8 109941125.11508       695.845 8        48.886                                    20921031.924 6  85668579.90906       542.214 6        41.640    20921032.176 8  85668570.91108       542.185 8        48.485
R24        28.000    23756825.327 7 127038754.79007     -4486.901 7        43.507                                                                    23756826.205 6  98808099.35906     -3489.681 6        38.586
I02        29.000    38582617.580 6 151406574.30206      -954.371 6        41.361
G28        30.000    23474013.597 7 123356939.44807     -3733.497 7        43.625                                    23474013.224 4  96122381.37004     -2909.219 4        29.469    23474014.130 7  96122378.37107     -2909.190 7        42.459
C12        32.000                                                                                                                                    25098461.343 6 130694540.09606     -3384.436 6        41.020    25098458.761 7 101061434.98907     -2617.075 7        46.366    25098457.971 7 106200110.87707     -2750.298 7        43.676
R17        33.000    19784715.219 8 105872372.78008     -2436.272 8        51.732                                                                    19784714.181 7  82345346.49907     -1894.852 7        47.567
R08        34.000    24085381.847 6 128976124.46406     -1846.470 6        38.360                                                                    24085381.218 6 100314762.89406     -1436.164 6        40.429
R18        36.000    19836279.683 8 105887803.03608      1084.961 8        51.722                                                                    19836279.755 7  82357383.59907       843.852 7        47.244
E27        37.000    23788033.691 8 125007196.89108     -1539.335 8        48.650                                                                    23788033.398 8  93349682.54508     -1149.487 8        50.820    23788033.080 8  95784871.76908     -1179.521 8        51.085
R16        38.000    19761552.762 8 105562784.95108       875.049 8        52.615                                                                    19761552.519 8  82104443.46908       680.594 8        48.407
C22        39.000                                                                                                                                    26323988.586 6 137075925.17306      -439.542 6        40.925                                                                    26323983.127 6 111385398.79606      -357.248 6        40.548
R09        40.000    23625620.373 7 126159547.20407      3620.275 7        42.760                                                                    23625620.248 7  98124112.75807      2815.841 7        42.318
C34        41.000                                                                                                                                    22617388.513 8 117775014.04208     -2494.886 8        48.714                                                                    22617388.212 8  95701985.29008     -2027.415 8        48.424
S44        42.000    40702344.980 6 213892421.95206      -500.908 6        38.027
C38        43.000                                                                                                                                    38756047.103 7 201813066.98607      -712.586 7        43.651                                                                    38756044.449 7 163989711.46607      -579.091 7        43.621
C05        44.000                                                                                                                                    39523628.647 6 205809910.90206      -498.351 6        37.709    39523625.694 7 159145294.14207      -385.358 7        43.143    39523627.907 6 167237507.96806      -405.007 6        40.570
C08        45.000                                                                                                                                    37941405.698 7 197571046.91007      -158.229 7        42.144    37941399.798 7 152774541.06307      -122.443 7        45.869    37941399.193 7 160542710.47307      -128.768 7        42.756
E04        46.000    28851515.892 6 151615741.05006     -1617.080 6        36.393                                                                    28851516.863 6 113219555.66006     -1207.556 6        38.796    28851516.470 6 116173106.83306     -1239.042 6        40.253
R19        47.000    22970673.930 5 122877882.81905      3122.853 5        35.524                                                                    22970677.322 6  95571830.08206      2428.665 6        38.279
C43        48.000                                                                                                                                    21755186.055 8 113285282.42508        80.411 8        51.271                                                                    21755184.840 8  92053696.89308        65.342 8        49.401
C10        49.000                                                                                                                                    41543438.396 4                     -1278.235 4        26.072    41543437.629 5                      -987.905 5        32.868    41543434.181 4                     -1037.665 4        26.719
S48        51.000    77323561.931 6 406338847.21506      -603.254 6        37.788
R01        52.000    23580029.281 6 126048800.15306      1314.753 6        38.763                                                                    23580031.051 5  98037945.99805      1022.625 5        34.862
C37        53.000                                                                                                                                    24971048.594 7 130030825.02107      1863.188 7        43.088                                                                    24971052.024 7 105660719.24207      1513.810 7        44.862
C60        54.000                                                                                                                                    40702345.913 6 211947964.50906      -496.636 6        40.367                                                                    40702331.592 6 172225045.18906      -403.707 6        40.336
C25        55.000                                                                                                                                    23869338.991 7 124294092.02807     -3616.184 7        47.010                                                                    23869338.527 7 100999206.54907     -2938.667 7        46.189
C23        56.000                                                                                                                                    22635268.988 8 117868135.31708      -944.683 8        50.352                                                                    22635260.709 8  95777625.00708      -767.733 8        50.117
C02        57.000                                                                                                                                    40882104.344 5 212883866.14205      -469.937 5        33.443    40882100.353 6 164615294.59606      -363.300 6        38.444    40882104.005 6 172985575.75406      -381.768 6        36.166
I03        58.000   114079107.783 6 371885634.67306      1031.966 6        40.565
C11        59.000                                                                                                                                    21754258.075 8 113280447.40408     -1268.996 8        49.120    21754254.995 8  87595779.54508      -981.322 8        52.182    21754254.001 8  92049753.10808     -1031.315 8        49.163
C28        60.000                                                                                                                                    25709690.520 7 133877297.17807      2373.139 7        42.279                                                                    25709695.444 6 108786380.47206      1928.271 6        40.048
> 2025 01 01 17 15 20.0000000  0 55
G20         1.000    24803253.548 6 130342165.37406     -2999.706 6        36.431                                    24803249.809 2 101565393.38202     -2337.443 2        17.509
G25         2.000    23611181.244 6 124077769.49906     -4184.632 6        40.572                                    23611181.358 5  96684072.53405     -3260.750 5        35.790    23611182.456 6  96684082.52606     -3260.665 6        38.402
G05         3.000    23052272.138 7 121140643.23807      -935.017 7        43.846                                    23052267.920 6  94395363.91906      -728.585 6        40.031    23052267.713 6  94395362.91906      -728.499 6        39.721
G29         4.000    21497389.704 7 112969913.00607     -2497.456 7        47.272                                    21497385.548 7  88028669.53607     -1946.066 7        47.082    21497386.067 7  88028672.53307     -1946.040 7        43.757
S21         5.000    38596524.676 7 202825801.79707      -564.779 7        42.624
E13         6.000    24855148.107 7 130615009.02407      1767.547 7        46.383                                                                    24855150.008 8  97537382.69408      1319.927 8        48.780    24855149.453 8 100081806.49508      1354.329 8        49.076
G23         7.000    24827228.773 6 130467984.51806      3000.512 6        38.318                                    24827231.931 3 101663374.82903      2338.051 3        20.857    24827231.357 6 101663373.86706      2337.934 6        38.189
E15         8.000    23733381.934 7 124720086.60207     -1020.266 7        47.711                                                                    23733382.584 8  93135300.88608      -761.837 8        51.245    23733382.061 8  95564893.43808      -781.683 8        51.313
E06         9.000    28937382.807 5 152066964.16605      -591.636 5        34.233                                                                    28937387.282 6 113556526.27106      -441.964 6        37.206    28937386.855 6 116518868.05206      -453.349 6        38.517
E30        10.000    27341629.164 6 143681425.98806     -3309.191 6        39.868                                                                    27341632.104 7 107294695.38407     -2471.145 7        44.671    27341631.004 7 110093674.37907     -2535.705 7        44.318
G26        11.000    20926138.868 8 109967983.72908       714.509 8        48.029                                    20926138.039 8  85689522.75908       556.761 8        50.298    20926138.062 7  85689542.76007       556.816 7        45.302
S27        12.000    39381851.823 6 206952980.77506      -547.213 6        36.386
R15        13.000    20308917.612 8 108525000.47708     -3454.847 8        51.730                                                                    20308917.665 7  84408475.70707     -2687.078 7        46.262
