     3.04           OBSERVATION DATA    M                   RINEX VERSION / TYPE
ssrcrin-15.6.1x                         20250101 050000 UTC PGM / RUN BY / DATE 
(00000000023479385599111004) Septentrio proprietary         COMMENT             
rref                                                        MARKER NAME         
01                                                          MARKER NUMBER       
geodetic                                                    MARKER TYPE         
NFB                 CLIMERS@TUW                             OBSERVER / AGENCY   
3297213             SEPT ASTERX SB3 PROB4.14.4              REC # / TYPE / VERS 
Unknown             Unknown                                 ANT # / TYPE        
  4127831.4224  1207193.0006  4695247.3605                  APPROX POSITION XYZ 
        0.0000        0.0000        0.0000                  ANTENNA: DELTA H/E/N
G   23 X1  C1C L1C D1C S1C C1W S1W C2W L2W D2W S2W C2L L2L  SYS / # / OBS TYPES 
       D2L S2L C5Q L5Q D5Q S5Q C1L L1L D1L S1L              SYS / # / OBS TYPES 
E   21 X1  C1C L1C D1C S1C C6C L6C D6C S6C C5Q L5Q D5Q S5Q  SYS / # / OBS TYPES 
       C7Q L7Q D7Q S7Q C8Q L8Q D8Q S8Q                      SYS / # / OBS TYPES 
S    9 X1  C1C L1C D1C S1C C5I L5I D5I S5I                  SYS / # / OBS TYPES 
R   17 X1  C1C L1C D1C S1C C2P L2P D2P S2P C2C L2C D2C S2C  SYS / # / OBS TYPES 
       C3Q L3Q D3Q S3Q                                      SYS / # / OBS TYPES 
C   25 X1  C1P L1P D1P S1P C5P L5P D5P S5P C2I L2I D2I S2I  SYS / # / OBS TYPES 
       C7I L7I D7I S7I C6I L6I D6I S6I C7D L7D D7D S7D      SYS / # / OBS TYPES 
J   17 X1  C1C L1C D1C S1C C2L L2L D2L S2L C5Q L5Q D5Q S5Q  SYS / # / OBS TYPES 
       C1L L1L D1L S1L                                      SYS / # / OBS TYPES 
I    5 X1  C5A L5A D5A S5A                                  SYS / # / OBS TYPES 
SEPTENTRIO RECEIVERS OUTPUT ALIGNED CARRIER PHASES.         COMMENT             
NO FURTHER PHASE SHIFT APPLIED IN THE RINEX ENCODER.        COMMENT             
G L1C                                                       SYS / PHASE SHIFT   
G L2W                                                       SYS / PHASE SHIFT   
G L2L  0.00000                                              SYS / PHASE SHIFT   
G L5Q  0.00000                                              SYS / PHASE SHIFT   
G L1L  0.00000                                              SYS / PHASE SHIFT   
E L1C  0.00000                                              SYS / PHASE SHIFT   
E L6C  0.00000                                              SYS / PHASE SHIFT   
E L5Q  0.00000                                              SYS / PHASE SHIFT   
E L7Q  0.00000                                              SYS / PHASE SHIFT   
E L8Q  0.00000                                              SYS / PHASE SHIFT   
S L1C                                                       SYS / PHASE SHIFT   
S L5I                                                       SYS / PHASE SHIFT   
R L1C                                                       SYS / PHASE SHIFT   
R L2P  0.00000                                              SYS / PHASE SHIFT   
R L2C                                                       SYS / PHASE SHIFT   
R L3Q  0.00000                                              SYS / PHASE SHIFT   
C L1P  0.00000                                              SYS / PHASE SHIFT   
C L5P  0.00000                                              SYS / PHASE SHIFT   
C L2I                                                       SYS / PHASE SHIFT   
C L7I                                                       SYS / PHASE SHIFT   
C L6I                                                       SYS / PHASE SHIFT   
C L7D                                                       SYS / PHASE SHIFT   
J L1C                                                       SYS / PHASE SHIFT   
J L2L  0.00000                                              SYS / PHASE SHIFT   
J L5Q  0.00000                                              SYS / PHASE SHIFT   
J L1L  0.00000                                              SYS / PHASE SHIFT   
I L5A                                                       SYS / PHASE SHIFT   
  2025     1     1     5     0    0.0000000     GPS         TIME OF FIRST OBS   
 C1C    0.000 C2C    0.000 C2P    0.000                     GLONASS COD/PHS/BIS 
DBHZ                                                        SIGNAL STRENGTH UNIT
    18                                                      LEAP SECONDS        
 24 R01  1 R02 -4 R03  5 R04  6 R05  1 R06 -4 R07  5 R08  6 GLONASS SLOT / FRQ #
    R09 -2 R10 -7 R11  0 R12 -1 R13 -2 R14 -7 R15  0 R16 -1 GLONASS SLOT / FRQ #
    R17  4 R18 -3 R19  3 R20  2 R21  4 R22 -3 R23  3 R24  2 GLONASS SLOT / FRQ #
                                                            END OF HEADER       
> 2025 01 01 05 00  0.0000000  0 58
G16         1.000    23555794.984 6 123786558.08806      -867.382 6        40.060                                    23555790.341 3  96457043.13403      -675.892 3        22.324
G29         2.000    25707613.105 6 135094408.51106      -502.743 6        37.191                                    25707609.711 4 105268355.88604      -391.758 4        28.209    25707610.058 5 105268357.92005      -391.937 5        34.448
G09         3.000    20518761.913 8 107826868.04008     -1855.274 8        48.722                                    20518759.460 8  84020947.40708     -1445.664 8        51.802    20518759.649 7  84020948.40507     -1445.663 7        46.068
E34         4.000    24720657.554 7 129907940.52007     -2161.729 7        46.862                                                                    24720657.539 8  97009184.00408     -1614.269 8        49.361    24720657.337 8  99539857.71508     -1656.383 8        50.101
S21         5.000    38458801.231 7 202102206.40207      -391.313 7        43.473
E05         6.000    21836898.364 8 114753722.22008      -245.736 8        48.811                                                                    21836897.652 8  85692745.36108      -183.496 8        51.086    21836897.549 8  87928200.22208      -188.265 8        51.720
E15         7.000    25634518.605 7 134710327.10007       694.065 7        43.729                                                                    25634519.129 7 100595398.35707       518.309 7        46.876    25634518.622 7 103219623.82607       531.784 7        47.268
R10         8.000    22178871.016 7 118225866.05907      3841.617 7        42.021
E31         9.000    26407525.860 6 138772498.33206       440.059 6        41.771                                                                    26407527.088 7 103628838.39407       328.633 7        44.625    26407526.461 7 106332197.29507       337.172 7        45.058
G04        10.000    22354788.439 7 117475243.03007     -3055.963 7        44.281                                    22354785.286 5  91539157.95705     -2381.261 5        31.577    22354785.606 7  91539152.94907     -2381.186 7        42.963
E09        11.000    25501836.363 7 134013097.94407     -2401.139 7        45.213                                                                    25501835.974 7 100074731.63507     -1793.017 7        47.427    25501835.522 8 102685376.21508     -1839.783 8        48.359
S27        12.000    39094285.268 6 205441807.24706      -404.269 6        36.548
G06        13.000    22287131.328 7 117119686.91107     -2957.934 7        45.351                                    22287129.887 7  91262096.88307     -2304.882 7        44.889    22287130.314 7  91262107.88107     -2304.878 7        43.189
S36        14.000    38226695.688 7 200883148.71907      -391.652 7        45.076
G20        15.000    22213934.785 7 116735024.92007      2377.879 7        45.360                                    22213929.743 5  90962339.25605      1852.893 5        32.030
E36        16.000    27333343.745 6 143637702.51506     -3690.279 6        38.574                                                                    27333345.413 7 107261932.63607     -2755.607 7        42.555    27333344.941 7 110060065.34607     -2827.470 7        43.710
S45        17.000    63412543.133 6 333236684.45806      -431.622 6        37.323
G03        18.000    25162612.143 3                     -4071.815 3        20.048                                                                                                    25162609.879 3                     -3172.454 3        20.262
E24        19.000    27311684.742 6 143523868.03006      2348.663 6        39.282                                                                    27311684.779 7 107176926.77407      1753.812 7        43.562    27311684.206 7 109972843.07107      1799.623 7        43.490
R23        20.000    21493018.785 7 114973156.40707     -2440.744 7        46.842
G30        21.000    22584393.836 7 118681809.51207      2665.128 7        45.527                                    22584391.735 7  92479339.23607      2076.722 7        43.606    22584392.659 6  92479343.23106      2076.711 6        40.422
I06        22.000    37982400.317 7 149051326.46507      -274.819 7        43.291
S28        23.000    40887485.652 5 214865166.33905      -391.167 5        35.167
S23        25.000    38165666.496 7 200561931.38607      -387.763 7        45.038
E06        26.000    27337602.309 6 143660109.14206     -2838.214 6        39.378                                                                    27337603.319 7 107278646.27407     -2119.411 7        42.434    27337603.104 7 110077218.87507     -2174.676 7        42.332
C34        27.000                                                                                                                                    25560845.975 6 133102032.11506      -515.367 6        41.743                                                                    25560846.052 6 108156308.63406      -418.819 6        41.921
G26        28.000    25251515.160 6 132697589.36206     -2905.851 6        36.026                                    25251515.486 4 103400714.98704     -2264.293 4        27.245    25251515.852 5 103400715.98205     -2264.377 5        35.762
R09        29.000    20222962.982 8 107989503.58408      1161.419 8        50.094                                                                    20222961.996 8  83991839.87808       903.363 8        48.311
C22        30.000                                                                                                                                    21893583.568 8 114005665.21308       816.037 8        51.932                                                                    21893576.819 8  92638929.29708       663.032 8        50.054
I01        31.000   340265625.276 7  32134581.69007     -2845.631 7        42.385
E03        32.000    25850089.911 7 135843155.66807      1720.255 7        43.638                                                                    25850089.831 7 101441336.17107      1284.607 7        45.868    25850089.513 7 104087625.80507      1318.073 7        46.429
G05        33.000    25196092.933 6 132406373.11406      3301.654 6        39.201                                    25196089.854 4 103173792.35204      2572.702 4        29.204    25196090.524 6 103173795.36606      2572.678 6        36.136
R24        34.000    22872813.992 7 122311231.04807      1611.190 7        44.089                                                                    22872813.792 7  95130959.44107      1253.114 7        42.800
C36        35.000                                                                                                                                    23140327.804 8 120497769.27008      2069.644 8        48.793                                                                    23140332.378 8  97914330.90808      1681.689 8        48.596
G11        36.000    22132034.467 7 116304657.67607      -560.300 7        46.342                                    22132030.416 5  90627006.40605      -436.599 5        35.167    22132030.478 7  90627006.40907      -436.512 7        44.543
C35        37.000                                                                                                                                    26988424.793 6 140535804.66306     -3352.281 6        38.574                                                                    26988424.058 6 114196847.94006     -2724.316 6        36.212
I09        38.000    38115785.016 7 149574515.13907      -726.736 7        43.079
R08        39.000    20746909.451 8 111098773.42808      1931.730 8        49.997                                                                    20746907.129 7  86410159.00507      1502.442 7        45.488
R22        40.000    23112833.237 7 123377887.18907     -4532.012 7        45.025                                                                    23112832.192 6  95960589.90106     -3525.008 6        41.564
S44        42.000    40814533.062 6 214481974.57806      -456.446 6        37.629
C09        43.000                                                                                                                                    39095463.331 6 203580358.10906     -1113.616 6        40.825    39095459.200 7 157421238.17107      -861.124 7        45.082    39095457.149 6 165425698.33006      -904.865 6        41.399
C05        44.000                                                                                                                                    39221457.854 6 204236456.43906      -441.511 6        38.601    39221453.496 7 157928606.43407      -341.444 7        43.437    39221455.338 6 165958952.88506      -358.815 6        40.248
R06        45.000    22230105.241 6 118624136.85906     -3368.662 6        38.117
C44        46.000                                                                                                                                    25379689.425 7 132158726.56807     -2731.519 7        43.960                                                                    25379687.569 6 107389793.07206     -2219.567 6        40.679
C39        47.000                                                                                                                                    41150398.736 6 214280929.35206     -1568.991 6        37.890                                                                    41150395.677 6 174120794.99706     -1275.086 6        38.489
C20        48.000                                                                                                                                    26605953.875 6 138544185.31506     -3239.412 6        40.768                                                                    26605950.348 6 112578481.81106     -2632.425 6        40.577
C06        49.000                                                                                                                                    39659375.046 6 206516793.00906     -1437.904 6        37.936    39659368.493 6 159691867.51906     -1111.859 6        40.937    39659368.804 6 167811789.87606     -1168.626 6        38.631
C16        50.000                                                                                                                                    40239926.820 6 209539873.98706     -1427.691 6        39.132    40239926.404 6 162029530.83906     -1104.054 6        40.155    40239924.184 6 170268309.91606     -1159.886 6        36.669
S48        51.000    77193741.127 6 405655804.67806      -377.658 6        38.498
C19        52.000                                                                                                                                    22776919.940 8 118605454.78608     -1981.342 8        50.301                                                                    22776915.059 8  96376650.05408     -1610.054 8        50.161
C12        53.000                                                                                                                                    25135756.585 6 130888490.78106     -1719.372 6        39.571    25135754.029 7 101211265.82407     -1329.610 7        45.083    25135753.702 7 106357597.75607     -1397.272 7        43.016
C60        54.000                                                                                                                                    40814532.179 6 212532157.69706      -452.438 6        40.439                                                                    40814516.915 6 172699752.33606      -367.690 6        39.868
R16        55.000    21824271.125 7 116581363.11007     -2959.803 7        47.077                                                                    21824270.573 7  90674415.34907     -2301.982 7        43.824
C37        56.000                                                                                                                                    26712421.807 6 139098593.48406     -3265.221 6        38.222                                                                    26712425.823 6 113029017.17506     -2653.265 6        39.709
C02        57.000                                                                                                                                    40770834.956 5 212304459.24505      -470.763 5        34.781    40770829.883 6 164167261.94906      -364.237 6        38.982    40770833.679 5 172514761.41105      -382.963 5        35.505
I03        58.000   128670354.574 6 429144837.50606       912.965 6        41.399
R07        59.000    19586547.666 8 104848351.04108     -1000.521 8        51.795                                                                    19586545.355 7  81548720.35107      -778.186 7        47.676
G07        60.000    20989926.713 8 110302839.73208       655.542 8        48.772                                    20989922.064 8  85950259.55408       510.812 8        49.089    20989922.326 7  85950260.54907       510.868 7        44.820
> 2025 01 01 05 00  5.0000000  0 58
G16         1.000    23556621.918 6 123790904.44606      -871.049 6        40.091                                    23556617.073 3  96460429.89403      -678.745 3        22.000
G29         2.000    25708092.647 6 135096930.77006      -506.154 6        37.217                                    25708089.592 4 105270321.33704      -394.409 4        28.152    25708090.005 5 105270323.35405      -394.569 5        33.784
G09         3.000    20520528.179 8 107836149.20808     -1857.262 8        49.061                                    20520525.616 8  84028179.48408     -1447.217 8        51.627    20520525.998 7  84028180.47807     -1447.189 7        45.803
E34         4.000    24722715.580 7 129918754.99707     -2164.123 7        46.782                                                                    24722715.428 8  97017259.74708     -1616.038 8        49.263    24722715.254 8  99548144.12908     -1658.161 8        50.091
S21         5.000    38459174.652 7 202104163.38107      -391.427 7        43.553
E05         6.000    21837132.619 8 114754954.03808      -246.988 8        48.748                                                                    21837132.070 8  85693665.23108      -184.481 8        51.003    21837131.941 8  87929144.08808      -189.284 8        51.672
E15         7.000    25633859.574 7 134706863.17607       691.390 7        43.536                                                                    25633859.983 7 100592811.66307       516.308 7        46.824    25633859.445 7 103216969.64607       529.920 7        47.247
R10         8.000    22175268.171 6 118206662.56306      3839.865 6        41.998
E31         9.000    26407108.346 6 138770303.86306       437.642 6        41.690                                                                    26407109.472 7 103627199.67407       326.715 7        44.694    26407108.829 7 106330515.81807       335.296 7        45.106
G04        10.000    22357696.705 7 117490525.58207     -3057.165 7        44.376                                    22357693.536 5  91551066.43605     -2382.207 5        31.547    22357693.883 7  91551061.42207     -2382.079 7        43.410
E09        11.000    25504121.220 7 134025105.06807     -2401.793 7        45.338                                                                    25504120.828 7 100083697.99907     -1793.557 7        47.354    25504120.466 8 102694576.48408     -1840.351 8        48.448
S27        12.000    39094671.853 6 205443828.76106      -404.473 6        36.272
G06        13.000    22289947.046 7 117134483.16907     -2960.500 7        45.363                                    22289945.600 7  91273626.43107     -2306.882 7        44.804    22289946.513 7  91273637.42807     -2306.830 7        43.113
S36        14.000    38227070.888 7 200885107.90707      -391.882 7        45.059
G20        15.000    22211672.981 7 116723139.96507      2376.052 7        44.876                                    22211668.121 5  90953078.25105      1851.469 5        31.894
E36        16.000    27336855.258 6 143656154.45306     -3690.458 6        39.147                                                                    27336856.688 7 107275711.67907     -2755.816 7        42.584    27336856.079 7 110074203.84507     -2827.857 7        43.534
S45        17.000    63412910.494 6 333237243.59116      -432.076 6        37.236
G03        18.000                                                                                                                                                                    25166484.562 3                     -3171.344 3        20.048
E24        19.000    27309450.970 6 143512127.25606      2347.615 6        39.495                                                                    27309450.711 7 107168159.31407      1753.047 7        43.615    27309450.022 7 109963846.89407      1798.793 7        43.340
R23        20.000    21495300.877 7 114985369.96607     -2444.830 7        46.428
G30        21.000    22581858.882 7 118668488.36807      2663.411 7        45.675                                    22581856.822 7  92468959.12307      2075.386 7        43.513    22581858.063 6  92468963.13106      2075.363 6        41.185
I06        22.000    37982750.472 7 149052700.51607      -274.871 7        43.418
S28        23.000    40887856.399 5 214867122.62205      -391.479 5        35.109
S23        25.000    38166036.044 7 200563870.50607      -387.939 7        45.038
E06        26.000    27340302.516 6 143674301.10706     -2838.592 6        39.021                                                                    27340304.112 7 107289244.13807     -2119.673 7        42.478    27340304.018 7 110088093.20907     -2174.955 7        42.578
C34        27.000                                                                                                                                    25561342.290 6 133104616.03706      -518.240 6        41.890                                                                    25561342.100 6 108158408.29106      -421.059 6        41.726
G26        28.000    25254280.112 6 132712123.69906     -2908.271 6        36.113                                    25254281.283 4 103412040.43804     -2266.181 4        26.838    25254281.673 5 103412041.41405     -2266.152 5        34.957
R09        29.000    20221877.402 8 107983707.38208      1156.989 8        50.559                                                                    20221876.675 8  83987331.71708       899.901 8        48.057
C22        30.000                                                                                                                                    21892800.900 8 114001589.09708       814.390 8        52.017                                                                    21892794.081 8  92635617.10608       661.797 8        49.985
I01        31.000   340269250.994 7  32148810.77707     -2845.946 7        42.576
E03        32.000    25848453.549 7 135834556.59007      1719.409 7        43.264                                                                    25848453.472 7 101434914.77507      1283.967 7        45.673    25848453.208 7 104081036.89007      1317.428 7        46.438
G05        33.000    25192951.722 6 132389865.89606      3301.257 6        38.853                                    25192948.799 4 103160929.61804      2572.414 4        29.592    25192949.058 5 103160932.62405      2572.195 5        34.624
R24        34.000    22871309.033 7 122303184.81907      1607.203 7        43.033                                                                    22871309.338 7  95124701.24507      1250.111 7        42.375
C36        35.000                                                                                                                                    23138341.505 8 120487426.21108      2067.539 8        48.680                                                                    23138346.139 8  97905926.31508      1680.089 8        48.555
G11        36.000    22132569.362 7 116307468.02407      -563.901 7        46.045                                    22132565.218 5  90629196.28605      -439.401 5        35.038    22132565.288 7  90629196.28507      -439.298 7        44.278
C35        37.000                                                                                                                                    26991643.424 6 140552564.88406     -3351.875 6        37.694                                                                    26991642.895 6 114210466.99006     -2723.668 6        36.374
I09        38.000    38116711.082 7 149578149.06207      -726.923 7        43.259
R08        39.000    20745106.006 8 111089118.58608      1930.221 8        49.982                                                                    20745103.932 7  86402649.67307      1501.312 7        45.443
R22        40.000    23117078.294 7 123400549.73907     -4533.163 7        45.213                                                                    23117076.852 6  95978216.30006     -3525.704 6        41.273
S44        42.000    40814967.391 6 214484257.95406      -456.862 6        37.350
C09        43.000                                                                                                                                    39096532.921 6 203585927.01206     -1114.075 6        40.839    39096528.716 7 157425544.38607      -861.435 7        45.192    39096526.586 6 165430223.49406      -905.174 6        41.130
C05        44.000                                                                                                                                    39221881.692 6 204238664.50906      -441.754 6        38.408    39221877.598 7 157930313.84507      -341.624 7        43.488    39221879.395 6 165960747.08606      -358.932 6        40.389
R06        45.000    22233262.135 6 118640983.86306     -3369.954 6        37.834
C44        46.000                                                                                                                                    25382312.893 7 132172388.20107     -2733.151 7        43.153                                                                    25382311.180 6 107400894.24506     -2220.879 6        40.725
C39        47.000                                                                                                                                    41151905.801 6 214288774.89506     -1569.150 6        38.015                                                                    41151902.327 6 174127170.10906     -1275.030 6        38.685
C20        48.000                                                                                                                                    26609064.509 6 138560383.79106     -3239.938 6        40.348                                                                    26609061.124 6 112591644.35306     -2632.650 6        40.455
C06        49.000                                                                                                                                    39660755.578 6 206523983.28506     -1438.198 6        38.054    39660749.671 6 159697427.50706     -1112.139 6        40.760    39660749.644 6 167817632.52206     -1168.557 6        38.865
C16        50.000                                                                                                                                    40241297.538 6 209547012.97106     -1427.922 6        39.210    40241297.135 6 162035051.16406     -1104.325 6        40.088    40241295.271 6 170274110.92506     -1160.232 6        36.631
S48        51.000    77194107.929 6 405657694.22306      -377.960 6        38.351
C19        52.000                                                                                                                                    22778823.065 8 118615365.33708     -1982.926 8        50.310                                                                    22778818.259 8  96384703.17208     -1611.284 8        50.247
C12        53.000                                                                                                                                    25137410.988 6 130897094.64106     -1722.006 6        39.955    25137407.016 7 101217918.86707     -1331.661 7        45.460    25137405.884 7 106364589.09107     -1399.417 7        43.098
C60        54.000                                                                                                                                    40814966.642 6 212534420.31306      -452.550 6        40.439                                                                    40814951.516 6 172701590.87706      -367.836 6        39.937
R16        55.000    21827043.127 7 116596171.39607     -2963.530 7        47.038                                                                    21827043.548 7  90685932.91107     -2304.983 7        44.876
C37        56.000                                                                                                                                    26715557.596 6 139114922.97406     -3266.667 6        38.150                                                                    26715561.757 6 113042286.18706     -2654.305 6        39.784
C02        57.000                                                                                                                                    40771287.230 5 212306814.98805      -471.235 5        34.581    40771282.943 6 164169083.53006      -364.360 6        39.174    40771285.908 5 172516675.58305      -382.637 5        35.510
I03        58.000   128669191.707 6 429140273.48406       912.815 6        41.430
R07        59.000    19587482.953 8 104853359.33608     -1002.832 8        51.900                                                                    19587480.620 7  81552615.69107      -779.992 7        47.457
G07        60.000    20989304.305 8 110299568.60608       652.833 8        48.907                                    20989299.592 8  85947710.62108       508.702 8        48.946    20989299.850 7  85947711.62607       508.735 7        44.743
> 2025 01 01 05 00 10.0000000  0 58
G16         1.000    23557452.734 6 123795268.83506      -875.162 6        39.204                                    23557447.690 3  96463830.73603      -681.948 3        21.976
G29         2.000    25708575.758 6 135099468.45106      -509.320 6        37.845                                    25708572.460 4 105272298.83804      -396.877 4        28.028    25708572.833 5 105272300.84405      -396.806 5        34.086
G09         3.000    20522296.323 8 107845439.36208     -1859.402 8        49.141                                    20522293.486 8  84035418.56208     -1448.884 8        51.631    20522293.621 7  84035419.56007     -1448.894 7        45.687
E34         4.000    24724775.398 7 129929580.50507     -2166.624 7        46.618                                                                    24724775.465 8  97025343.72408     -1617.910 8        49.261    24724775.328 8  99556438.99308     -1660.133 8        50.149
S21         5.000    38459548.958 7 202106120.76207      -392.083 7        43.541
E05         6.000    21837368.195 8 114756191.97608      -248.694 8        48.741                                                                    21837367.629 8  85694589.65908      -185.675 8        51.067    21837367.504 8  87930092.63208      -190.502 8        51.731
E15         7.000    25633202.664 7 134703411.42207       688.694 7        43.539                                                                    25633203.174 7 100590234.05707       514.330 7        46.940    25633202.649 7 103214324.80207       527.724 7        47.369
R10         8.000    22171667.384 7 118187467.33507      3837.860 7        42.106
E31         9.000    26406692.932 6 138768121.32006       434.845 6        41.802                                                                    26406694.092 7 103625569.83507       324.730 7        44.844    26406693.468 7 106328843.47407       333.173 7        45.081
G04        10.000    22360605.604 7 117505812.93907     -3058.421 7        44.280                                    22360602.729 5  91562978.65405     -2383.179 5        31.585    22360602.805 7  91562973.64107     -2383.095 7        43.464
E09        11.000    25506406.749 7 134037115.12607     -2402.784 7        45.327                                                                    25506406.129 7 100092666.53907     -1794.270 7        47.424    25506405.935 8 102703778.98908     -1841.093 8        48.491
S27        12.000    39095056.654 6 205445850.97406      -404.818 6        36.386
G06        13.000    22292764.649 7 117149291.24107     -2963.200 7        45.753                                    22292763.550 7  91285165.18407     -2308.985 7        44.852    22292764.262 7  91285176.18907     -2309.002 7        43.158
S36        14.000    38227440.548 7 200887066.84607      -392.283 7        44.990
G20        15.000    22209412.806 7 116711263.53407      2374.000 7        45.055                                    22209408.154 5  90943823.89005      1849.873 5        31.857
E36        16.000    27340367.022 6 143674607.98906     -3691.153 6        39.610                                                                    27340368.423 7 107289491.91007     -2756.482 7        42.842    27340367.449 7 110088343.56107     -2828.430 7        43.348
S45        17.000    63413278.312 6 333239403.13506      -432.334 6        37.490
G03        18.000                                                                                                                                                                    25170360.211 3                     -3176.008 3        20.024
E24        19.000    27307217.769 6 143500390.60606      2346.482 6        39.495                                                                    27307217.456 7 107159394.92707      1752.263 7        43.922    27307216.526 7 109954853.87507      1797.974 7        43.200
R23        20.000    21497588.177 7 114997603.62707     -2449.249 7        46.588
G30        21.000    22579324.910 7 118655175.07907      2661.436 7        45.374                                    22579323.433 7  92458585.13607      2073.844 7        43.572    22579324.614 6  92458589.14406      2073.911 6        41.492
I06        22.000    37983100.669 7 149054075.02707      -275.267 7        43.695
S28        23.000    40888223.564 5 214869079.32105      -391.612 5        35.138
S23        25.000    38166407.488 7 200565809.79607      -388.346 7        45.061
E06        26.000    27343003.449 6 143688493.97906     -2839.202 6        38.919                                                                    27343004.912 7 107299842.67707     -2120.004 7        42.389    27343005.016 7 110098968.24507     -2175.533 7        42.855
C34        27.000                                                                                                                                    25561841.337 7 133107213.74007      -521.309 7        42.127                                                                    25561840.818 6 108160519.14006      -423.649 6        41.859
G26        28.000    25257048.404 5 132726669.60505     -2910.734 5        35.367                                    25257049.307 4 103423374.87804     -2268.084 4        26.635    25257049.604 5 103423375.88205     -2268.269 5        35.052
R09        29.000    20220796.460 8 107977932.70708      1152.318 8        49.976                                                                    20220795.208 8  83982840.30108       896.297 8        48.225
C22        30.000                                                                                                                                    21892019.317 8 113997520.29808       812.555 8        52.052                                                                    21892012.697 8  92632310.88208       660.332 8        49.897
I01        31.000   340272877.920 7  32163040.81707     -2846.348 7        42.855
E03        32.000    25846818.014 7 135825961.04907      1718.256 7        43.462                                                                    25846817.793 7 101428496.02407      1283.279 7        45.789    25846817.458 7 104074450.70507      1316.626 7        46.479
G05        33.000    25189811.331 6 132373359.79306      3300.483 6        39.000                                    25189807.613 4 103148067.72604      2571.799 4        29.488    25189807.603 5 103148070.65705      2572.241 5        34.838
R24        34.000    22869807.767 7 122295158.32207      1602.802 7        43.475                                                                    22869807.863 7  95118458.41007      1246.683 7        42.667
C36        35.000                                                                                                                                    23136357.215 8 120477093.00608      2065.124 8        48.721                                                                    23136361.771 8  97897529.74208      1678.204 8        48.487
G11        36.000    22133107.638 7 116310295.75107      -567.775 7        45.810                                    22133103.342 5  90631399.71305      -442.421 5        35.019    22133103.710 7  90631399.71307      -442.479 7        44.683
C35        37.000                                                                                                                                    26994861.225 6 140569322.65506     -3351.611 6        37.992                                                                    26994861.235 6 114224084.06706     -2723.443 6        36.854
I09        38.000    38117637.026 7 149581783.82207      -727.288 7        43.522
R08        39.000    20743304.705 8 111079470.27008      1928.512 8        50.048                                                                    20743302.589 7  86395145.42807      1500.000 7        46.069
R22        40.000    23121324.905 7 123423217.14407     -4534.277 7        45.001                                                                    23121323.303 6  95995846.49806     -3526.865 6        41.175
S44        42.000    40815403.003 6 214486541.60706      -457.290 6        37.478
C09        43.000                                                                                                                                    39097602.269 6 203591497.33506     -1114.658 6        40.648    39097598.308 7 157429851.70807      -861.917 7        45.183    39097596.378 6 165434749.84506      -905.615 6        41.156
C05        44.000                                                                                                                                    39222305.767 6 204240872.98306      -442.191 6        38.378    39222301.651 7 157932021.57707      -341.990 7        43.562    39222303.319 6 165962541.67006      -359.335 6        40.243
R06        45.000    22236419.718 6 118657836.64506     -3371.594 6        36.703
C44        46.000                                                                                                                                    25384937.082 7 132186056.88607     -2734.808 7        43.776                                                                    25384936.235 6 107412001.18106     -2222.327 6        40.896
C39        47.000                                                                                                                                    41153412.643 6 214296620.33106     -1569.463 6        38.081                                                                    41153408.911 6 174133545.16506     -1275.233 6        38.655
C20        48.000                                                                                                                                    26612176.049 6 138576584.52006     -3240.950 6        40.553                                                                    26612172.469 6 112604808.76106     -2633.409 6        40.510
C06        49.000                                                                                                                                    39662136.446 6 206531174.30106     -1438.704 6        37.875    39662130.501 6 159702988.05106     -1112.465 6        40.946    39662130.530 6 167823475.82906     -1169.048 6        38.805
C16        50.000                                                                                                                                    40242668.821 6 209554152.44906     -1428.247 6        39.243    40242668.152 6 162040571.84706     -1104.583 6        40.133    40242666.496 6 170279912.32306     -1160.584 6        36.582
S48        51.000    77194473.283 6 405659583.91606      -378.396 6        38.655
C19        52.000                                                                                                                                    22780727.711 8 118625283.20108     -1984.785 8        50.519                                                                    22780722.904 8  96392762.25208     -1612.726 8        50.142
C12        53.000                                                                                                                                    25139065.631 6 130905710.93006     -1725.058 6        39.739    25139061.697 7 101224581.52107     -1333.834 7        45.237    25139060.603 7 106371590.51707     -1401.663 7        42.836
C60        54.000                                                                                                                                    40815401.168 6 212536683.21506      -453.040 6        40.341                                                                    40815386.073 6 172703429.64906      -368.134 6        39.820
R16        55.000    21829818.859 7 116610998.10607     -2967.584 7        47.089                                                                    21829818.765 7  90697464.80007     -2308.172 7        44.474
C37        56.000                                                                                                                                    26718695.169 6 139131258.99006     -3268.313 6        38.309                                                                    26718698.807 6 113055560.53706     -2655.655 6        39.523
C02        57.000                                                                                                                                    40771739.606 5 212309171.03505      -471.776 5        34.795    40771735.118 6 164170905.37006      -364.630 6        39.099    40771738.324 5 172518590.08405      -383.355 5        35.671
I03        58.000   128668028.618 6 429135709.75306       912.436 6        41.564
R07        59.000    19588420.201 8 104858378.60908     -1005.402 8        51.243                                                                    19588418.816 7  81556519.56307      -781.957 7        47.305
G07        60.000    20988684.449 8 110296310.40808       649.887 8        49.228                                    20988679.583 8  85945171.76908       506.405 8        48.997    20988679.987 7  85945172.77107       506.451 7        44.939
> 2025 01 01 05 00 15.0000000  0 57
G16         1.000    23558286.206 6 123799651.25406      -878.408 6        39.598                                    23558281.509 3  96467245.61003      -684.468 3        21.786
G29         2.000    25709060.705 6 135102021.42206      -512.481 6        37.376                                    25709058.204 4 105274288.19504      -399.346 4        28.028    25709058.735 5 105274290.19505      -399.477 5        33.856
G09         3.000    20524065.661 8 107854738.54508     -1860.939 8        49.125                                    20524063.072 8  84042664.67908     -1450.082 8        51.648    20524063.467 7  84042665.67807     -1450.082 7        45.732
E34         4.000    24726837.458 7 129940417.04607     -2168.533 7        46.981                                                                    24726837.629 8  97033435.95008     -1619.406 8        49.314    24726837.457 8  99564742.32108     -1661.596 8        50.035
S21         5.000    38459920.693 7 202108078.47807      -391.790 7        43.649
E05         6.000    21837604.904 8 114757436.02708      -249.618 8        48.589                                                                    21837604.360 8  85695518.65808      -186.353 8        51.070    21837604.234 8  87931045.86208      -191.229 8        51.624
E15         7.000    25632548.251 7 134699971.85007       686.523 7        43.450                                                                    25632548.592 7 100587665.54207       512.701 7        46.922    25632548.133 7 103211689.28607       526.106 7        47.154
R10         8.000    22168068.262 7 118168280.32507      3836.394 7        42.045
E31         9.000    26406279.913 6 138765950.65906       432.818 6        41.614                                                                    26406280.979 7 103623948.90007       323.131 7        44.897    26406280.495 7 106327180.24707       331.591 7        44.935
G04        10.000    22363515.553 7 117521105.09107     -3059.043 7        44.256                                    22363512.829 5  91574894.61105     -2383.668 5        31.623    22363512.775 7  91574889.60507     -2383.737 7        43.520
E09        11.000    25508692.855 7 134049128.11607     -2403.071 7        45.232                                                                    25508692.078 7 100101637.27007     -1794.431 7        47.510    25508692.017 8 102712983.73808     -1841.216 8        48.360
S27        12.000    39095438.740 6 205447873.30906      -404.531 6        36.526
G06        13.000    22295584.678 7 117164111.11807     -2965.221 7        45.585                                    22295583.695 7  91296713.13307     -2310.563 7        44.882    22295584.447 7  91296724.13207     -2310.581 7        43.575
S36        14.000    38227814.613 7 200889026.25107      -392.115 7        45.059
G20        15.000    22207154.930 7 116699395.64507      2372.565 7        45.034                                    22207149.757 5  90934576.18905      1848.751 5        31.872
E36        16.000    27343879.010 6 143693063.11906     -3691.373 6        39.883                                                                    27343880.403 7 107303273.33107     -2756.512 7        43.090    27343879.198 7 110102484.49807     -2828.403 7        42.912
S45        17.000    63413646.622 6 333241563.04606      -432.107 6        37.316
E24        19.000    27304985.187 6 143488658.10206      2346.052 6        39.670                                                                    27304984.940 7 107150633.64307      1751.856 7        44.120    27304983.773 7 109945864.03907      1797.528 7        43.109
R23        20.000    21499879.487 7 115009857.51607     -2452.925 7        46.481
G30        21.000    22576792.929 7 118641869.69907      2660.093 7        45.970                                    22576791.565 7  92448217.31507      2072.803 7        43.642    22576791.836 6  92448221.31206      2072.826 6        41.025
I06        22.000    37983451.112 7 149055449.97307      -275.126 7        43.708
S28        23.000    40888602.587 5 214871035.90605      -391.402 5        35.167
S23        25.000    38166775.293 7 200567749.66207      -388.134 7        45.094
E06        26.000    27345704.688 6 143702687.74406     -2838.826 6        39.270                                                                    27345705.782 7 107310441.91407     -2119.936 7        42.383    27345705.915 7 110109843.98307     -2175.238 7        42.872
C34        27.000                                                                                                                                    25562342.872 7 133109825.20007      -523.684 7        42.354                                                                    25562342.417 7 108162641.17807      -425.637 7        42.006
G26        28.000    25259819.571 5 132741227.05805     -2912.962 5        35.367                                    25259819.486 4 103434718.31804     -2269.833 4        26.120    25259819.620 5 103434719.29505     -2269.630 5        34.862
R09        29.000    20219718.785 8 107972179.45708      1148.374 8        49.975                                                                    20219717.942 8  83978365.56808       893.189 8        48.455
C22        30.000                                                                                                                                    21891239.312 8 113993458.82808       811.450 8        51.885                                                                    21891232.745 8  92629010.60608       659.234 8        49.939
I01        31.000   340276504.272 7  32177271.82207     -2846.316 7        42.993
E03        32.000    25845183.065 7 135817369.08107      1717.898 7        43.609                                                                    25845182.698 7 101422079.96307      1282.793 7        45.776    25845182.529 7 104067867.25507      1316.300 7        46.371
G05        33.000    25186670.402 6 132356854.71606      3300.676 6        37.667                                    25186666.625 4 103135206.62004      2571.961 4        29.175    25186666.247 5 103135209.61105      2572.233 5        35.033
R24        34.000    22868310.669 7 122287151.65107      1599.303 7        44.474                                                                    22868310.606 7  95112230.98707      1243.860 7        42.419
C36        35.000                                                                                                                                    23134374.950 8 120466769.64608      2063.546 8        48.796                                                                    23134379.270 8  97889141.17208      1676.707 8        48.659
G11        36.000    22133649.011 7 116313140.88307      -570.960 7        45.890                                    22133644.717 5  90633616.69405      -444.905 5        35.152    22133645.293 7  90633616.68607      -444.790 7        44.995
C35        37.000                                                                                                                                    26998079.138 6 140586077.98006     -3350.961 6        37.981                                                                    26998078.677 6 114237699.14506     -2723.070 6        36.941
I09        38.000    38118563.758 7 149585419.44707      -727.274 7        43.422
R08        39.000    20741504.241 8 111069828.51808      1927.572 8        50.023                                                                    20741501.990 7  86387646.29007      1499.260 7        46.273
R22        40.000    23125571.453 7 123445889.48807     -4535.026 7        43.835                                                                    23125569.986 6  96013480.54006     -3527.302 6        41.201
S44        42.000    40815837.399 6 214488825.55606      -457.023 6        37.629
C09        43.000                                                                                                                                    39098671.774 6 203597069.05606     -1114.656 6        40.620    39098668.338 7 157434160.11707      -861.807 7        45.169    39098666.235 6 165439277.32606      -905.774 6        41.116
C05        44.000                                                                                                                                    39222729.744 6 204243081.88606      -442.152 6        38.462    39222726.004 7 157933729.62107      -341.754 7        43.507    39222727.823 6 165964336.57106      -359.157 6        40.455
R06        45.000    22239577.974 6 118674695.13006     -3372.279 6        37.009
C44        46.000                                                                                                                                    25387563.933 7 132199732.67007     -2736.047 7        43.117                                                                    25387562.575 6 107423113.86806     -2223.430 6        40.899
C39        47.000                                                                                                                                    41154918.922 6 214304465.65806     -1569.109 6        38.069                                                                    41154915.568 6 174139920.13606     -1275.132 6        38.802
C20        48.000                                                                                                                                    26615287.668 6 138592787.51506     -3241.019 6        40.501                                                                    26615284.006 6 112617974.99406     -2633.599 6        40.431
C06        49.000                                                                                                                                    39663517.365 6 206538366.11506     -1438.690 6        37.955    39663511.571 6 159708549.19706     -1112.402 6        40.894    39663511.578 6 167829319.75206     -1169.044 6        38.859
C16        50.000                                                                                                                                    40244040.002 6 209561292.44106     -1428.191 6        38.835    40244039.545 6 162046092.92906     -1104.369 6        39.973    40244037.312 6 170285714.16106     -1160.705 6        36.529
S48        51.000    77194836.571 6 405661473.93906      -378.187 6        38.661
C19        52.000                                                                                                                                    22782633.953 8 118635208.40208     -1985.912 8        50.332                                                                    22782628.907 8  96400827.29108     -1613.791 8        50.137
C12        53.000                                                                                                                                    25140721.794 6 130914339.61206     -1727.144 6        40.052    25140718.167 7 101231253.75607     -1335.500 7        45.323    25140717.677 7 106378602.01707     -1403.492 7        43.084
C60        54.000                                                                                                                                    40815835.470 6 212538946.38406      -452.771 6        40.451                                                                    40815820.702 6 172705268.66306      -368.098 6        39.697
R16        55.000    21832598.190 7 116625843.13607     -2971.074 7        46.875                                                                    21832597.759 7  90709010.93307     -2310.756 7        45.020
C37        56.000                                                                                                                                    26721833.380 6 139147601.55306     -3269.304 6        38.474                                                                    26721837.207 6 113068840.19806     -2656.734 6        39.811
C02        57.000                                                                                                                                    40772192.308 5 212311527.42505      -471.380 5        34.843    40772187.575 6 164172727.46206      -364.419 6        39.237    40772190.857 5 172520504.82105      -382.968 5        35.676
I03        58.000   128666865.744 6 429131146.34606       912.563 6        41.576
R07        59.000    19589359.728 8 104863408.74808     -1007.253 8        51.031                                                                    19589358.533 7  81560431.90807      -783.442 7        47.252
G07        60.000    20988066.969 8 110293065.14508       647.628 8        49.042                                    20988062.043 8  85942642.99408       504.644 8        49.120    20988062.347 7  85942644.00007       504.628 7        45.129
> 2025 01 01 05 00 20.0000000  0 57
G16         1.000    23559124.325 6 123804051.53106      -881.798 6        39.544                                    23559118.914 3  96470674.39703      -687.116 3        22.019
G29         2.000    25709549.284 6 135104589.66806      -515.284 6        37.187                                    25709546.823 4 105276289.52004      -401.535 4        28.038    25709547.441 5 105276291.58005      -401.588 5        34.014
G09         3.000    20525836.664 8 107864046.51208     -1862.514 8        49.345                                    20525834.313 8  84049917.63508     -1451.309 8        51.668    20525834.752 7  84049918.63807     -1451.292 7        45.541
E34         4.000    24728901.933 7 129951264.42407     -2170.609 7        46.972                                                                    24728901.696 8  97041536.25108     -1620.880 8        49.218    24728901.691 8  99573053.93808     -1663.193 8        49.939
S21         5.000    38460295.129 7 202110036.41607      -391.662 7        43.700
E05         6.000    21837842.679 8 114758685.97408      -250.635 8        48.600                                                                    21837842.218 8  85696452.05408      -187.143 8        51.052    21837842.095 8  87932003.61108      -191.994 8        51.546
E15         7.000    25631895.815 7 134696544.28507       684.328 7        43.403                                                                    25631896.328 7 100585106.00107       510.954 7        46.912    25631895.890 7 103209062.97007       524.277 7        47.155
R10         8.000    22164469.826 7 118149101.40107      3834.984 7        42.660
E31         9.000    26405869.173 6 138763791.71906       430.517 6        40.973                                                                    26405870.062 7 103622336.70307       321.496 7        44.959    26405869.607 7 106325525.99107       329.905 7        44.823
G04        10.000    22366426.280 7 117536401.84807     -3059.913 7        43.983                                    22366423.829 5  91586814.15005     -2384.349 5        31.426    22366423.935 7  91586809.14007     -2384.276 7        43.027
E09        11.000    25510979.411 7 134061143.82307     -2403.373 7        45.124                                                                    25510978.598 7 100110610.03607     -1794.751 7        47.401    25510978.424 8 102722190.57608     -1841.582 8        48.200
S27        12.000    39095824.664 6 205449895.85406      -404.531 6        36.801
