     3.04           OBSERVATION DATA    M                   RINEX VERSION / TYPE
ssrcrin-15.6.1x                         20250101 133000 UTC PGM / RUN BY / DATE 
(00000000023479385599111004) Septentrio proprietary         COMMENT             
rref                                                        MARKER NAME         
01                                                          MARKER NUMBER       
geodetic                                                    MARKER TYPE         
NFB                 CLIMERS@TUW                             OBSERVER / AGENCY   
3297213             SEPT ASTERX SB3 PROB4.14.4              REC # / TYPE / VERS 
Unknown             Unknown                                 ANT # / TYPE        
  4127832.0641  1207193.9436  4695247.4566                  APPROX POSITION XYZ 
        0.0000        0.0000        0.0000                  ANTENNA: DELTA H/E/N
G   23 X1  C1C L1C D1C S1C C1W S1W C2W L2W D2W S2W C2L L2L  SYS / # / OBS TYPES 
       D2L S2L C5Q L5Q D5Q S5Q C1L L1L D1L S1L              SYS / # / OBS TYPES 
E   21 X1  C1C L1C D1C S1C C6C L6C D6C S6C C5Q L5Q D5Q S5Q  SYS / # / OBS TYPES 
       C7Q L7Q D7Q S7Q C8Q L8Q D8Q S8Q                      SYS / # / OBS TYPES 
S    9 X1  C1C L1C D1C S1C C5I L5I D5I S5I                  SYS / # / OBS TYPES 
R   17 X1  C1C L1C D1C S1C C2P L2P D2P S2P C2C L2C D2C S2C  SYS / # / OBS TYPES 
       C3Q L3Q D3Q S3Q                                      SYS / # / OBS TYPES 
C   25 X1  C1P L1P D1P S1P C5P L5P D5P S5P C2I L2I D2I S2I  SYS / # / OBS TYPES 
       C7I L7I D7I S7I C6I L6I D6I S6I C7D L7D D7D S7D      SYS / # / OBS TYPES 
J   17 X1  C1C L1C D1C S1C C2L L2L D2L S2L C5Q L5Q D5Q S5Q  SYS / # / OBS TYPES 
       C1L L1L D1L S1L                                      SYS / # / OBS TYPES 
I    5 X1  C5A L5A D5A S5A                                  SYS / # / OBS TYPES 
SEPTENTRIO RECEIVERS OUTPUT ALIGNED CARRIER PHASES.         COMMENT             
NO FURTHER PHASE SHIFT APPLIED IN THE RINEX ENCODER.        COMMENT             
G L1C                                                       SYS / PHASE SHIFT   
G L2W                                                       SYS / PHASE SHIFT   
G L2L  0.00000                                              SYS / PHASE SHIFT   
G L5Q  0.00000                                              SYS / PHASE SHIFT   
G L1L  0.00000                                              SYS / PHASE SHIFT   
E L1C  0.00000                                              SYS / PHASE SHIFT   
E L6C  0.00000                                              SYS / PHASE SHIFT   
E L5Q  0.00000                                              SYS / PHASE SHIFT   
E L7Q  0.00000                                              SYS / PHASE SHIFT   
E L8Q  0.00000                                              SYS / PHASE SHIFT   
S L1C                                                       SYS / PHASE SHIFT   
S L5I                                                       SYS / PHASE SHIFT   
R L1C                                                       SYS / PHASE SHIFT   
R L2P  0.00000                                              SYS / PHASE SHIFT   
R L2C                                                       SYS / PHASE SHIFT   
R L3Q  0.00000                                              SYS / PHASE SHIFT   
C L1P  0.00000                                              SYS / PHASE SHIFT   
C L5P  0.00000                                              SYS / PHASE SHIFT   
C L2I                                                       SYS / PHASE SHIFT   
C L7I                                                       SYS / PHASE SHIFT   
C L6I                                                       SYS / PHASE SHIFT   
C L7D                                                       SYS / PHASE SHIFT   
J L1C                                                       SYS / PHASE SHIFT   
J L2L  0.00000                                              SYS / PHASE SHIFT   
J L5Q  0.00000                                              SYS / PHASE SHIFT   
J L1L  0.00000                                              SYS / PHASE SHIFT   
I L5A                                                       SYS / PHASE SHIFT   
  2025     1     1    13    30    0.0000000     GPS         TIME OF FIRST OBS   
 C1C    0.000 C2C    0.000 C2P    0.000                     GLONASS COD/PHS/BIS 
DBHZ                                                        SIGNAL STRENGTH UNIT
    18                                                      LEAP SECONDS        
 24 R01  1 R02 -4 R03  5 R04  6 R05  1 R06 -4 R07  5 R08  6 GLONASS SLOT / FRQ #
    R09 -2 R10 -7 R11  0 R12 -1 R13 -2 R14 -7 R15  0 R16 -1 GLONASS SLOT / FRQ #
    R17  4 R18 -3 R19  3 R20  2 R21  4 R22 -3 R23  3 R24  2 GLONASS SLOT / FRQ #
                                                            END OF HEADER       
> 2025 01 01 13 30  0.0000000  0 57
G19         1.000    23899668.736 6 125593710.33006     -3995.052 6        40.470                                    23899672.611 4  97865303.76204     -3113.021 4        24.075
G25         2.000    20607191.114 8 108291617.78408      1155.989 8        48.265                                    20607196.781 8  84383155.54508       900.769 8        48.613    20607197.427 7  84383165.55807       900.759 7        44.498
G24         3.000    22300025.738 7 117187396.99507     -3833.347 7        45.582                                    22300031.917 7  91314876.55607     -2987.020 7        44.743    22300032.491 7  91314873.54707     -2986.980 7        42.648
G29         4.000    23514877.332 7 123571684.44207      2893.972 7        44.202                                    23514885.605 6  96289739.84106      2255.036 6        38.691    23514886.615 6  96289742.85606      2254.995 6        39.042
S21         5.000    38535920.704 7 202507248.74707      -611.527 7        43.033
G06         6.000    23033357.228 7 121041225.94707      -985.344 7        43.280                                    23033364.843 6  94317928.84106      -767.798 6        40.181    23033365.617 6  94317919.83806      -767.763 6        40.415
E19         7.000    28307777.475 5 148758356.65405      1815.245 5        31.789                                                                    28307787.298 5 111085797.07905      1355.681 5        35.981    28307785.451 5 113983688.13205      1390.813 5        35.738
G03         8.000    25503260.226 5 134020529.84905      -531.377 5        35.829                                    25503262.512 4 104431576.46304      -414.036 4        24.135    25503262.561 5 104431582.44305      -413.942 5        32.467
G11         9.000    23058114.846 7 121171367.04707      1321.362 7        44.558                                    23058119.582 5  94419344.61305      1029.630 5        30.974    23058119.352 7  94419344.61807      1029.718 7        42.726
E30        10.000    23682853.424 8 124454377.13708      -556.016 8        48.582                                                                    23682860.256 8  92936818.41908      -415.191 8        51.147    23682859.073 8  95361245.93208      -426.080 8        51.378
C26        11.000                                                                                                                                    24734808.952 7 128800571.20907     -3306.579 7        44.944                                                                    24734816.214 7 104661014.03707     -2686.820 7        44.403
S27        12.000    39325531.048 6 206656890.24206      -626.396 6        36.386
R15        13.000    23580157.127 7 126005216.68207      2852.578 7        45.026                                                                    23580175.559 6  98004124.48806      2218.877 6        39.544
S36        14.000    38308150.336 7 201311025.67907      -611.779 7        44.829
G12        15.000    20379525.289 8 107095268.28508     -1377.655 8        49.788                                    20379526.076 8  83450933.21908     -1073.498 8        50.693    20379526.675 7  83450933.21107     -1073.448 7        45.630
E29        16.000    25962822.049 7 136435470.21807        -4.661 7        43.058                                                                    25962835.523 7 101883635.69507        -3.492 7        46.104    25962833.740 7 104541468.10407        -3.566 7        46.192
S45        17.000    63505064.394 6 333721792.26606      -675.839 6        36.389
R03        18.000    24651119.706 6 131959049.23706     -4833.419 6        39.498                                                                    24651141.402 5 102634747.74505     -3759.000 5        34.310
C35        19.000                                                                                                                                    23861572.796 7 124253585.15507     -2576.032 7        46.800                                                                    23861578.196 7 100966287.60207     -2093.369 7        45.970
E11        20.000    28295665.692 5 148694889.75805     -2617.514 5        31.826                                                                    28295668.127 6 111038497.37106     -1954.720 6        36.979    28295667.101 6 113935139.82006     -2005.603 6        36.590
R14        21.000    19940421.579 8 106293748.24308      1073.099 8        52.519                                                                    19940428.814 8  82672988.32308       834.656 8        48.198
I06        22.000    38618688.829 7 151548044.26007      -555.586 7        42.163
S28        23.000    41008638.467 5 215501619.34305      -618.036 5        35.010
E34        24.000    26320926.527 6 138317557.96606      2025.300 6        41.952                                                                    26320939.205 7 103289226.28607      1512.485 7        46.238    26320937.160 7 105983713.04107      1551.902 7        45.983
S23        25.000    38249363.757 7 201001571.86507      -616.340 7        45.648
E08        26.000    28136599.876 6 147858521.99806     -3825.972 6        38.883                                                                    28136622.122 6 110413738.29006     -2857.166 6        41.342    28136619.370 6 113294104.96906     -2931.684 6        41.866
C07        27.000                                                                                                                                    40750311.731 6 212197497.84306     -1536.546 6        36.382    40750316.689 6 164084559.79406     -1188.296 6        39.571    40750313.162 6 172427832.94306     -1248.598 6        37.225
R24        28.000    21382895.296 8 114344153.20408      3160.618 8        48.948                                                                    21382903.298 7  88934487.94107      2458.328 7        44.932
I02        29.000    37211176.818 7 146024628.16007      -681.891 7        42.878
G28        30.000    24458533.669 6 128530392.53806      2857.591 6        40.181                                    24458546.915 3 100153584.77803      2226.684 3        23.810    24458547.939 6 100153581.79706      2226.682 6        39.793
E07        31.000    25453204.482 7 133757372.50007     -2737.173 7        44.864                                                                    25453216.817 7  99883735.43907     -2043.990 7        47.622    25453215.216 8 102489397.76708     -2097.284 8        48.229
C12        32.000                                                                                                                                    23063245.819 7 120096530.12607      1753.098 7        46.773    23063250.930 8  92866352.24008      1355.643 8        51.542    23063248.123 8  97588336.17408      1424.502 8        48.687
R23        34.000    20265261.634 7 108405622.77807     -1049.835 7        47.918
C24        35.000                                                                                                                                    21489984.678 8 111904033.72908     -1191.354 8        51.617                                                                    21489985.935 8  90931217.05808      -968.123 8        49.707
R05        36.000    22267395.831 7 119031923.12707      -422.553 7        46.678                                                                    22267409.150 7  92580401.04707      -328.541 7        44.638
E27        37.000    25882893.201 7 136015582.94207      1433.647 7        43.681                                                                    25882906.058 7 101570178.67507      1070.585 7        46.067    25882904.375 7 104219821.65607      1098.603 7        46.641
R04        38.000    22361569.290 7 119745031.91007     -3664.754 7        47.576                                                                    22361580.760 7  93134994.23107     -2850.272 7        42.409
C33        39.000                                                                                                                                    27148083.792 6 141366976.22006     -3566.442 6        39.084                                                                    27148111.995 6 114872276.21806     -2898.107 6        38.874
C32        40.000                                                                                                                                    26773000.052 6 139413930.36906        30.973 6        40.369                                                                    26773011.214 6 113285248.07506        25.189 6        41.404
C34        41.000                                                                                                                                    24364606.377 7 126873047.12607      2679.540 7        45.294                                                                    24364615.777 7 103094842.72307      2177.271 7        44.570
S44        42.000    40841933.882 6 214625779.35806      -533.324 6        37.803
R22        43.000    22945067.688 7 122482435.54207     -4133.694 7        44.301                                                                    22945075.191 6  95264198.42306     -3215.131 6        41.147
C05        44.000                                                                                                                                    39561780.952 6 206008418.50406      -598.272 6        39.000    39561786.798 6 159298752.25706      -462.730 6        41.869    39561785.743 6 167398778.98706      -486.222 6        39.315
C40        45.000                                                                                                                                    41405121.046 5 215607357.01105     -1773.447 5        34.571                                                                    41405123.353 5 175198659.34805     -1441.553 5        35.133
G32        46.000    22936442.181 7 120531724.45507      -671.823 7        46.087                                    22936451.571 7  93920826.88007      -523.497 7        42.777    22936452.452 6  93920828.87506      -523.514 6        41.523
E36        47.000    26116792.104 7 137244768.25207      -332.880 7        42.603                                                                    26116803.565 7 102488092.89707      -248.546 7        45.652    26116801.871 7 105161678.16207      -255.063 7        45.926
C41        48.000                                                                                                                                    26092956.951 6 135872797.03906     -2369.984 6        41.492                                                                    26092977.691 6 110407833.00506     -1925.908 6        41.754
C10        49.000                                                                                                                                    39666806.593 6 206555439.52306     -1337.066 6        38.604    39666813.763 6 159721774.00906     -1033.995 6        41.311    39666809.875 6 167843209.33706     -1086.533 6        39.571
C44        50.000                                                                                                                                    22100683.298 8 115084085.96708       217.344 8        51.166                                                                    22100686.689 8  93515276.44808       176.511 8        48.969
S48        51.000    77245569.827 6 405929636.26306      -627.344 6        38.162
E02        53.000    25469215.748 7 133841661.41207     -2635.458 7        44.545                                                                    25469224.091 7  99946756.56907     -1968.068 7        47.224    25469222.635 7 102554046.60307     -2019.444 7        47.592
C60        54.000                                                                                                                                    40841933.044 6 212674653.43306      -528.519 6        40.276                                                                    40841927.921 6 172815501.75006      -429.424 6        39.477
C25        55.000                                                                                                                                    23046547.739 7 120009486.86107      1614.257 7        47.976                                                                    23046552.991 7  97517589.82907      1311.640 7        47.797
R12        56.000    24235354.747 6 129460855.72506     -4040.606 6        41.032                                                                    24235368.443 6 100691776.79006     -3142.642 6        39.282
C02        57.000                                                                                                                                    41028353.808 5 213645234.04405      -551.151 5        33.311    41028362.499 6 165203982.81606      -426.090 6        36.684    41028362.570 5 173604209.50805      -447.663 5        32.707
I03        58.000   118920370.257 5 390883525.24705       918.647 5        31.638
R13        60.000    20574808.342 7 109868387.80507     -2715.157 7        45.723
> 2025 01 01 13 30  5.0000000  0 57
G19         1.000    23903470.341 6 125613689.07806     -3996.134 6        40.203                                    23903474.510 4  97880871.62404     -3113.875 4        24.256
G25         2.000    20606092.269 8 108285842.87808      1154.037 8        48.289                                    20606097.848 8  84378655.62808       899.248 8        48.710    20606098.434 7  84378665.62607       899.274 7        44.566
G24         3.000    22303673.738 7 117206568.25407     -3835.076 7        45.604                                    22303680.198 7  91329815.17607     -2988.363 7        44.880    22303680.520 7  91329812.16607     -2988.383 7        42.916
G29         4.000    23512124.551 7 123557217.71507      2892.772 7        44.591                                    23512132.695 6  96278467.10806      2254.103 6        38.883    23512133.591 6  96278470.12306      2254.125 6        39.474
S21         5.000    38536502.310 7 202510306.58007      -611.504 7        43.331
G06         6.000    23034296.682 7 121046161.13307      -988.726 7        43.740                                    23034303.901 6  94321774.44206      -770.436 6        40.305    23034304.811 6  94321765.44906      -770.498 6        40.608
E19         7.000    28306050.963 5 148749283.57105      1813.894 5        31.638                                                                    28306060.900 5 111079021.54405      1354.692 5        35.490    28306059.054 5 113976735.86005      1389.973 5        35.652
G03         8.000    25503767.615 5 134023195.61405      -534.779 5        35.190                                    25503770.037 3 104433653.66703      -416.703 3        23.352    25503770.813 5 104433659.63205      -416.659 5        32.048
G11         9.000    23056858.517 7 121164766.83107      1318.777 7        44.891                                    23056863.530 5  94414201.60705      1027.615 5        31.019    23056863.389 7  94414201.61307      1027.615 7        42.140
E30        10.000    23683383.011 8 124457160.18408      -557.172 8        48.610                                                                    23683389.849 8  92938896.66108      -416.057 8        50.977    23683388.684 8  95363378.38708      -426.856 8        51.345
C26        11.000                                                                                                                                    24737984.023 7 128817106.10607     -3307.478 7        44.826                                                                    24737991.741 7 104674449.94907     -2687.465 7        44.545
S27        12.000    39326125.117 6 206660022.51306      -626.364 6        36.386
R15        13.000    23577487.791 7 125990953.83007      2852.586 7        44.101                                                                    23577505.743 6  97993031.23706      2218.617 6        39.447
S36        14.000    38308730.932 7 201314085.26407      -612.087 7        45.040
G12        15.000    20380837.029 8 107102162.15208     -1379.842 8        49.917                                    20380837.938 8  83456305.05908     -1075.200 8        50.758    20380838.401 7  83456305.05407     -1075.192 7        45.889
E29        16.000    25962827.974 7 136435499.81207        -7.102 7        43.486                                                                    25962841.292 7 101883657.79607        -5.388 7        45.938    25962839.437 7 104541490.78007        -5.495 7        46.240
S45        17.000    63505653.392 6 333725171.92906      -675.512 6        36.405
R03        18.000    24655634.996 6 131983215.44806     -4832.970 6        39.174                                                                    24655657.078 5 102653543.52505     -3758.746 5        33.665
C35        19.000                                                                                                                                    23864047.188 7 124266471.20807     -2578.241 7        46.747                                                                    23864052.825 7 100976758.56507     -2095.002 7        45.998
E11        20.000    28298157.243 5 148707982.52605     -2619.653 5        32.323                                                                    28298159.679 6 111048274.49106     -1956.047 6        36.715    28298158.518 6 113945171.99506     -2007.156 6        36.412
R14        21.000    19939415.876 8 106288387.66408      1071.219 8        52.411                                                                    19939422.918 8  82668818.99408       833.201 8        48.066
I06        22.000    38619396.463 7 151550822.60007      -555.650 7        42.216
S28        23.000    41009223.458 5 215504709.71305      -617.882 5        35.476
E34        24.000    26319000.032 7 138307434.45507      2024.045 7        42.235                                                                    26319012.656 7 103281666.55507      1511.465 7        46.140    26319010.843 7 105975956.09407      1550.888 7        45.986
S23        25.000    38249949.615 7 201004654.00107      -616.458 7        45.634
E08        26.000    28140240.457 6 147877652.42806     -3825.854 6        38.781                                                                    28140262.675 6 110428023.89106     -2857.040 6        41.173    28140259.889 6 113308763.25706     -2931.515 6        41.852
C07        27.000                                                                                                                                    40751787.233 6 212205181.38006     -1536.592 6        36.219    40751792.293 6 164090501.19406     -1188.149 6        39.309    40751788.666 6 172434076.44706     -1248.676 6        37.459
R24        28.000    21379940.419 8 114328356.27208      3158.227 8        49.195                                                                    21379949.139 7  88922201.47107      2456.317 7        44.828
I02        29.000    37212045.552 7 146028037.86907      -682.052 7        42.914
G28        30.000    24455815.089 6 128516106.52006      2856.852 6        39.814                                    24455828.285 4 100142452.85104      2226.123 4        24.030    24455829.017 6 100142449.87206      2226.113 6        40.238
E07        31.000    25455809.254 7 133771062.77807     -2738.937 7        44.594                                                                    25455821.950 7  99893958.66407     -2045.324 7        47.509    25455820.420 8 102499887.69208     -2098.668 8        48.122
C12        32.000                                                                                                                                    23061563.904 7 120087769.91007      1750.966 7        46.777    23061568.720 8  92859578.29908      1353.965 8        51.417    23061565.824 8  97581217.78508      1422.809 8        48.669
R23        34.000    20266245.099 8 108410884.19808     -1054.603 8        48.324
C24        35.000                                                                                                                                    21491129.828 8 111909995.21708     -1193.197 8        51.533                                                                    21491130.815 8  90936061.24108      -969.560 8        49.721
R05        36.000    22267793.177 7 119034047.17707      -427.040 7        47.095                                                                    22267805.892 7  92582053.10107      -332.125 7        43.771
E27        37.000    25881529.322 7 136008416.00807      1433.074 7        43.426                                                                    25881542.318 7 101564826.75407      1070.141 7        45.977    25881540.558 7 104214330.12207      1098.099 7        46.634
R04        38.000    22364993.126 8 119763363.01008     -3667.603 8        48.416                                                                    22365003.837 6  93149251.69906     -2852.614 6        41.805
C33        39.000                                                                                                                                    27151508.045 6 141384808.75006     -3566.639 6        38.520                                                                    27151536.653 6 114886766.53806     -2897.919 6        38.841
C32        40.000                                                                                                                                    26772971.963 6 139413783.30906        27.954 6        40.148                                                                    26772983.060 6 113285128.40806        22.799 6        41.356
C34        41.000                                                                                                                                    24362033.447 7 126859652.34207      2678.625 7        45.031                                                                    24362043.408 7 103083958.38607      2176.498 7        44.685
S44        42.000    40842439.229 6 214628445.96906      -533.385 6        37.981
R22        43.000    22948941.386 7 122503110.89107     -4136.333 7        45.096                                                                    22948948.723 6  95280279.27406     -3217.164 6        41.445
C05        44.000                                                                                                                                    39562355.032 6 206011409.98806      -598.146 6        38.859    39562361.134 6 159301065.46206      -462.480 6        41.878    39562360.310 6 167401209.82106      -486.095 6        39.204
C40        45.000                                                                                                                                    41406823.158 5 215616225.50605     -1773.772 5        34.276                                                                    41406826.533 5 175205865.81505     -1441.381 5        35.195
G32        46.000    22937082.955 7 120535092.13207      -675.188 7        45.716                                    22937092.435 7  93923451.03307      -526.119 7        42.885    22937093.165 6  93923453.02406      -526.054 6        41.795
E36        47.000    26117109.861 7 137246439.14207      -335.507 7        42.459                                                                    26117121.437 7 102489340.63707      -250.517 7        45.561    26117119.834 7 105162958.45307      -256.943 7        45.845
C41        48.000                                                                                                                                    26095233.749 7 135884652.24107     -2372.062 7        42.002                                                                    26095254.444 6 110417466.27106     -1927.429 6        41.735
C10        49.000                                                                                                                                    39668090.710 6 206562125.06506     -1337.046 6        38.504    39668097.626 6 159726943.69606     -1033.906 6        41.321    39668093.655 6 167848641.88106     -1086.259 6        39.513
C44        50.000                                                                                                                                    22100476.093 8 115083006.69308       214.453 8        51.014                                                                    22100479.404 8  93514399.44508       174.289 8        48.909
S48        51.000    77246156.741 6 405932773.39406      -627.379 6        38.162
E02        53.000    25471723.500 7 133854840.20407     -2636.021 7        44.659                                                                    25471731.964 7  99956597.85807     -1968.481 7        46.972    25471730.492 7 102564144.62307     -2019.832 7        47.421
C60        54.000                                                                                                                                    40842440.690 6 212677295.79906      -528.647 6        40.250                                                                    40842435.536 6 172817648.86606      -429.455 6        39.676
C25        55.000                                                                                                                                    23044997.902 7 120001418.39607      1613.248 7        47.725                                                                    23045003.437 7  97511033.54007      1310.977 7        47.790
R12        56.000    24239136.806 6 129481060.37206     -4041.177 6        40.565                                                                    24239150.319 6 100707491.50106     -3143.118 6        38.931
C02        57.000                                                                                                                                    41028883.181 5 213647989.33305      -550.965 5        32.599    41028891.362 6 165206113.39406      -426.187 6        36.401    41028891.925 5 173606448.41705      -447.964 5        32.659
I03        58.000   118919200.508 5 390878932.47905       918.572 5        31.713
R13        60.000    20577350.675 7 109881969.01607     -2717.198 7        46.152
> 2025 01 01 13 30 10.0000000  0 57
G19         1.000    23907273.138 6 125633673.34906     -3997.287 6        39.757                                    23907277.370 4  97896443.79104     -3114.785 4        24.060
G25         2.000    20604995.105 8 108280077.75208      1152.255 8        48.310                                    20605000.776 8  84374163.33208       897.859 8        48.593    20605001.503 7  84374173.33707       897.910 7        44.311
G24         3.000    22307323.671 7 117225748.09207     -3836.656 7        46.299                                    22307330.106 7  91344760.47707     -2989.600 7        44.867    22307330.429 7  91344757.48107     -2989.665 7        42.548
G29         4.000    23509373.121 7 123542757.06607      2891.594 7        43.913                                    23509381.020 6  96267199.11306      2253.181 6        38.766    23509381.223 6  96267202.13306      2253.342 6        39.147
S21         5.000    38537084.734 7 202513364.56507      -611.454 7        43.139
G06         6.000    23035239.219 7 121051113.68707      -992.091 7        43.435                                    23035246.309 6  94325633.57406      -773.060 6        40.238    23035247.641 6  94325624.58506      -773.015 6        40.870
E19         7.000    28304325.995 5 148740217.46005      1812.411 5        31.872                                                                    28304335.778 5 111072251.07505      1353.511 5        35.367    28304334.046 5 113969788.80205      1388.887 5        35.257
G03         8.000    25504278.324 5 134025877.49005      -537.745 5        34.805                                    25504280.477 3 104435743.39603      -419.034 3        23.657    25504281.058 5 104435749.36305      -418.476 5        32.677
G11         9.000    23055605.486 7 121158179.74007      1316.207 7        44.473                                    23055609.995 5  94409068.82905      1025.612 5        30.875    23055610.029 7  94409068.83807      1025.683 7        42.176
E30        10.000    23683913.777 8 124459949.12808      -558.246 8        48.527                                                                    23683920.590 8  92940979.30508      -416.848 8        51.071    23683919.430 8  95365515.36208      -427.747 8        51.295
C26        11.000                                                                                                                                    24741160.037 7 128833645.79107     -3308.192 7        45.437                                                                    24741168.007 7 104687889.77907     -2688.273 7        44.488
S27        12.000    39326719.986 6 206663155.01406      -626.660 6        36.227
R15        13.000    23574818.679 7 125976691.49007      2852.596 7        44.393                                                                    23574837.847 6  97981938.36706      2218.571 6        39.826
S36        14.000    38309313.522 7 201317145.92407      -611.963 7        44.813
G12        15.000    20382151.220 8 107109066.89808     -1381.901 8        49.794                                    20382151.866 8  83461685.37408     -1076.807 8        50.648    20382152.417 7  83461685.37507     -1076.735 7        45.789
E29        16.000    25962836.756 7 136435541.77207        -9.519 7        43.352                                                                    25962849.184 7 101883689.11707        -7.088 7        46.002    25962847.383 7 104541522.92207        -7.268 7        46.124
S45        17.000    63506241.674 6 333728552.16806      -675.934 6        36.321
R03        18.000    24660149.263 6 132007379.58006     -4832.439 6        38.982                                                                    24660169.926 5 102672337.75105     -3758.660 5        32.832
C35        19.000                                                                                                                                    23866524.208 7 124279368.50807     -2580.409 7        46.862                                                                    23866529.602 7 100987238.67107     -2096.844 7        46.033
E11        20.000    28300650.359 5 148721084.83105     -2621.294 5        32.228                                                                    28300652.953 6 111058058.77306     -1957.478 6        36.639    28300651.935 6 113955211.49206     -2008.543 6        36.454
R14        21.000    19938411.878 8 106283036.78608      1069.343 8        52.377                                                                    19938419.227 7  82664657.21007       831.714 7        47.903
I06        22.000    38620104.375 6 151553601.11706      -555.607 6        41.948
S28        23.000    41009809.451 5 215507800.60605      -618.100 5        35.190
E34        24.000    26317074.810 7 138297317.62707      2022.885 7        42.104                                                                    26317087.301 7 103274111.80007      1510.578 7        46.043    26317085.717 7 105968204.25807      1549.938 7        45.979
S23        25.000    38250536.373 7 201007736.41107      -616.398 7        45.494
E08        26.000    28143880.516 6 147896782.31406     -3825.916 6        38.547                                                                    28143903.029 6 110442309.10106     -2856.947 6        41.147    28143900.244 6 113323421.12906     -2931.477 6        41.878
C07        27.000                                                                                                                                    40753263.863 6 212212865.00506     -1536.478 6        36.227    40753267.936 6 164096442.65606     -1188.084 6        39.195    40753264.234 6 172440320.04506     -1248.751 6        37.384
R24        28.000    21376988.955 8 114312571.88508      3155.761 8        49.525                                                                    21376997.226 7  88909924.74207      2454.458 7        44.530
I02        29.000    37212914.892 7 146031448.51907      -681.975 7        42.762
G28        30.000    24453097.166 6 128501824.25106      2856.205 6        39.559                                    24453110.491 3 100131323.84803      2225.603 3        23.905    24453111.148 6 100131320.85906      2225.600 6        40.102
E07        31.000    25458416.386 7 133784762.04307     -2740.603 7        44.716                                                                    25458428.855 7  99904188.59807     -2046.565 7        47.516    25458427.334 8 102510384.49808     -2099.908 8        48.064
C12        32.000                                                                                                                                    23059883.850 7 120079020.59107      1748.907 7        46.466    23059888.217 8  92852812.77808      1352.390 8        51.400    23059885.661 8  97574108.25308      1421.137 8        48.674
R23        34.000    20267232.802 8 108416169.54708     -1059.304 8        48.168
C24        35.000                                                                                                                                    21492276.263 8 111915966.16408     -1195.004 8        51.360                                                                    21492277.464 8  90940913.11108      -971.074 8        49.650
R05        36.000    22268195.479 7 119036194.07307      -431.507 7        46.776                                                                    22268207.743 7  92583722.87407      -335.597 7        44.315
E27        37.000    25880165.931 7 136001252.36007      1432.573 7        43.202                                                                    25880179.082 7 101559477.29307      1069.707 7        46.025    25880177.395 7 104208841.11107      1097.738 7        46.551
R04        38.000    22368418.872 7 119781708.32807     -3670.422 7        47.303                                                                    22368429.971 6  93163520.21506     -2854.649 6        41.883
C33        39.000                                                                                                                                    27154932.927 6 141402641.50206     -3566.545 6        38.399                                                                    27154961.101 6 114901257.08106     -2898.114 6        38.676
C32        40.000                                                                                                                                    26772946.475 6 139413650.31106        25.477 6        40.021                                                                    26772957.609 6 113285020.28906        20.601 6        41.201
C34        41.000                                                                                                                                    24359462.365 7 126846262.71107      2677.527 7        44.673                                                                    24359472.118 7 103073078.22307      2175.700 7        44.807
S44        42.000    40842947.961 6 214631112.89206      -533.283 6        37.766
R22        43.000    22952816.032 7 122523799.04907     -4138.811 7        44.486                                                                    22952824.108 6  95296370.08706     -3219.090 6        41.754
C05        44.000                                                                                                                                    39562929.962 6 206014401.75406      -598.202 6        38.841    39562935.460 6 159303378.88806      -462.611 6        41.933    39562934.762 6 167403640.87006      -486.195 6        39.321
C40        45.000                                                                                                                                    41408526.182 5 215625093.69805     -1773.631 5        34.100                                                                    41408529.181 5 175213072.01805     -1441.190 5        34.819
G32        46.000    22937726.996 7 120538476.35607      -678.319 7        45.600                                    22937736.429 7  93926088.08507      -528.557 7        42.715    22937737.560 7  93926090.07907      -528.543 7        42.282
E36        47.000    26117430.332 7 137248123.22607      -338.133 7        42.514                                                                    26117441.860 7 102490598.23307      -252.369 7        45.543    26117440.260 7 105164248.84807      -258.959 7        45.704
C41        48.000                                                                                                                                    26097512.761 7 135896517.81507     -2373.974 7        42.186                                                                    26097533.233 6 110427107.99306     -1929.159 6        41.669
C10        49.000                                                                                                                                    39669374.917 6 206568811.05406     -1336.999 6        38.787    39669381.970 6 159732113.74906     -1033.994 6        41.507    39669377.607 6 167854074.81606     -1086.658 6        39.550
C44        50.000                                                                                                                                    22100271.541 8 115081941.58808       211.766 8        51.076                                                                    22100274.807 8  93513533.95508       172.008 8        48.974
S48        51.000    77246739.715 6 405935910.80006      -627.433 6        37.962
E02        53.000    25474231.473 7 133868021.93407     -2636.558 7        44.521                                                                    25474240.507 7  99966441.33207     -1968.866 7        46.998    25474238.901 7 102574244.88207     -2020.139 7        47.342
C60        54.000                                                                                                                                    40842948.313 6 212679938.48206      -528.489 6        40.031                                                                    40842942.877 6 172819796.26406      -429.520 6        39.688
C25        55.000                                                                                                                                    23043449.469 7 119993355.32307      1612.246 7        47.678                                                                    23043455.024 7  97504481.64207      1309.971 7        47.811
R12        56.000    24242919.257 6 129501268.05306     -4041.704 6        40.224                                                                    24242933.913 6 100723208.54906     -3143.440 6        38.778
C02        57.000                                                                                                                                    41029413.257 5 213650744.84405      -550.716 5        32.742    41029420.865 6 165208244.16406      -426.095 6        36.658    41029420.860 5 173608687.52505      -447.909 5        32.946
I03        58.000   118918030.520 5 390874339.69905       918.617 5        31.441
R13        60.000    20579896.673 7 109895560.57607     -2719.123 7        45.767
> 2025 01 01 13 30 15.0000000  0 57
G19         1.000    23911076.983 6 125653662.47006     -3998.393 6        39.462                                    23911081.044 3  97912019.74303     -3115.632 3        23.962
G25         2.000    20603899.798 8 108274321.72708      1150.313 8        48.356                                    20603905.438 8  84369678.13208       896.347 8        48.782    20603906.074 7  84369688.13507       896.367 7        44.336
G24         3.000    22310975.240 7 117244935.85307     -3838.335 7        46.500                                    22310981.504 7  91359711.95407     -2990.906 7        45.124    22310981.910 7  91359708.95207     -2990.835 7        42.705
G29         4.000    23506622.268 7 123528301.87607      2890.538 7        44.418                                    23506630.386 6  96255935.37306      2252.358 6        38.970    23506630.137 6  96255938.39506      2252.386 6        38.895
S21         5.000    38537666.403 7 202516422.02307      -611.453 7        43.100
G06         6.000    23036184.596 7 121056082.96107      -995.467 7        43.045                                    23036191.941 6  94329505.74206      -775.684 6        40.412    23036193.070 6  94329496.73406      -775.702 6        41.108
E19         7.000    28302602.589 5 148731157.84605      1811.405 5        32.341                                                                    28302612.055 5 111065485.60005      1352.464 5        35.067    28302610.533 5 113962846.86605      1387.865 5        35.281
G03         8.000    25504791.095 5 134028574.71005      -540.997 5        34.176                                    25504793.877 3 104437845.07203      -421.551 3        23.752    25504794.278 5 104437851.03805      -421.614 5        33.210
G11         9.000    23054353.891 7 121151605.15307      1313.612 7        44.194                                    23054358.808 5  94403945.79105      1023.589 5        31.064    23054359.305 7  94403945.80807      1023.583 7        42.518
E30        10.000    23684445.593 8 124462743.31508      -559.316 8        48.664                                                                    23684452.280 8  92943065.86708      -417.685 8        51.049    23684451.121 8  95367656.36108      -428.586 8        51.156
C26        11.000                                                                                                                                    24744337.941 7 128850189.64507     -3309.140 7        45.663                                                                    24744344.950 7 104701333.02107     -2689.019 7        44.426
S27        12.000    39327316.684 6 206666287.35206      -626.247 6        36.268
R15        13.000    23572149.620 7 125962428.90607      2852.590 7        44.611                                                                    23572168.428 6  97970845.31006      2218.618 6        40.446
S36        14.000    38309896.608 7 201320206.67507      -612.042 7        44.900
G12        15.000    20383466.647 8 107115981.89108     -1383.968 8        49.600                                    20383467.753 8  83467073.67708     -1078.416 8        50.791    20383468.280 7  83467073.67207     -1078.417 7        45.871
E29        16.000    25962846.524 7 136435595.46007       -11.917 7        43.427                                                                    25962859.429 7 101883729.20907        -8.886 7        46.008    25962857.686 7 104541564.05707        -9.176 7        46.143
S45        17.000    63506830.014 6 333731932.14006      -675.830 6        36.318
R03        18.000    24664662.701 5 132031540.75005     -4831.687 5        34.671                                                                    24664682.352 4 102691129.67104     -3758.170 4        28.938
C35        19.000                                                                                                                                    23869003.243 7 124292276.39407     -2582.650 7        46.727                                                                    23869008.477 7 100997727.40507     -2098.619 7        46.038
E11        20.000    28303145.780 5 148734196.14205     -2623.209 5        32.713                                                                    28303147.751 6 111067849.74906     -1958.716 6        37.013    28303146.623 6 113965257.90106     -2009.905 6        36.329
R14        21.000    19937410.027 8 106277694.87308      1067.490 8        52.297                                                                    19937416.935 8  82660502.40708       830.238 8        48.075
I06        22.000    38620812.812 7 151556379.34107      -555.476 7        42.013
S28        23.000    41010401.180 5 215510891.25105      -618.238 5        35.057
E34        24.000    26315150.935 7 138287206.86507      2021.625 7        42.324                                                                    26315163.167 7 103266561.56607      1509.635 7        46.041    26315161.819 7 105960457.06707      1549.002 7        45.932
S23        25.000    38251123.555 7 201010818.49407      -616.452 7        45.434
E08        26.000    28147520.574 6 147915911.02706     -3825.673 6        38.426                                                                    28147543.220 6 110456593.43006     -2856.776 6        41.228    28147540.283 6 113338078.10506     -2931.274 6        41.664
C07        27.000                                                                                                                                    40754739.169 6 212220548.13106     -1536.641 6        36.457    40754742.908 6 164102383.74306     -1188.068 6        39.264    40754739.729 6 172446563.21906     -1248.574 6        37.622
R24        28.000    21374040.182 8 114296799.44508      3153.288 8        49.681                                                                    21374047.609 7  88897657.31007      2452.502 7        45.193
I02        29.000    37213783.670 7 146034859.70007      -682.277 7        42.620
G28        30.000    24450379.311 6 128487545.13406      2855.514 6        39.682                                    24450393.434 4 100120197.29504      2225.075 4        24.045    24450393.861 6 100120194.31406      2225.062 6        39.988
E07        31.000    25461024.805 7 133798469.67107     -2742.462 7        44.813                                                                    25461037.406 7  99914424.78007     -2047.918 7        47.442    25461035.821 7 102520887.71207     -2101.319 7        47.989
C12        32.000                                                                                                                                    23058205.559 7 120070281.51107      1746.853 7        46.880    23058210.019 8  92846055.18108      1350.724 8        51.133    23058207.426 8  97567007.07208      1419.416 8        48.775
R23        34.000    20268224.957 8 108421478.29908     -1064.053 8        48.007
C24        35.000                                                                                                                                    21493424.613 8 111921945.93608     -1196.818 8        51.379                                                                    21493425.823 8  90945772.19208      -972.568 8        49.757
R05        36.000    22268600.537 7 119038362.97307      -436.053 7        46.936                                                                    22268613.390 7  92585409.76107      -339.115 7        44.048
E27        37.000    25878803.323 7 135994091.39407      1432.008 7        43.420                                                                    25878816.364 7 101554129.83407      1069.308 7        45.940    25878814.651 7 104203354.14807      1097.246 7        46.378
R04        38.000    22371846.637 7 119800067.15307     -3673.079 7        46.839                                                                    22371857.585 6  93177799.27506     -2856.902 6        41.890
C33        39.000                                                                                                                                    27158357.250 6 141420473.85406     -3566.315 6        38.354                                                                    27158385.639 6 114915747.30306     -2898.082 6        38.504
C32        40.000                                                                                                                                    26772923.181 6 139413530.05106        22.683 6        39.607                                                                    26772934.596 6 113284922.31506        18.552 6        40.670
C34        41.000                                                                                                                                    24356892.085 7 126832877.56907      2676.574 7        44.591                                                                    24356901.635 7 103062201.75207      2174.985 7        44.944
S44        42.000    40843455.611 6 214633779.50806      -533.328 6        37.807
R22        43.000    22956693.010 7 122544499.32507     -4141.164 7        43.100                                                                    22956702.135 6  95312470.29606     -3221.045 6        41.707
C05        44.000                                                                                                                                    39563504.347 6 206017393.13706      -598.341 6        38.901    39563510.166 6 159305692.01106      -462.528 6        41.967    39563509.258 6 167406071.64206      -486.169 6        39.234
C40        45.000                                                                                                                                    41410229.517 5 215633960.88005     -1773.545 5        34.200                                                                    41410231.993 5 175220277.42905     -1440.787 5        34.652
G32        46.000    22938374.684 7 120541876.50107      -681.528 7        45.582                                    22938383.446 7  93928737.53907      -531.059 7        42.899    22938383.643 6  93928739.54806      -531.130 6        41.468
E36        47.000    26117753.704 7 137249819.85607      -340.597 7        42.971                                                                    26117764.813 7 102491865.21407      -254.304 7        45.553    26117763.159 7 105165548.88707      -261.033 7        45.538
C41        48.000                                                                                                                                    26099794.152 7 135908393.17207     -2376.115 7        42.082                                                                    26099813.731 6 110436757.66806     -1930.762 6        41.683
C10        49.000                                                                                                                                    39670658.697 6 206575496.98006     -1337.037 6        38.874    39670665.833 6 159737283.73906     -1033.992 6        41.723    39670661.664 6 167859507.70606     -1086.617 6        39.547
C44        50.000                                                                                                                                    22100069.534 8 115080890.02108       208.981 8        50.981                                                                    22100072.874 8  93512679.50108       169.825 8        49.011
S48        51.000    77247326.034 6 405937448.15816      -627.566 6        38.081
E02        53.000    25476740.303 7 133881205.93707     -2636.984 7        44.524                                                                    25476749.404 7  99976286.50707     -1969.223 7        46.993    25476747.656 7 102584346.90207     -2020.605 7        47.249
C60        54.000                                                                                                                                    40843455.489 6 212682580.84006      -528.270 6        40.126                                                                    40843450.285 6 172821943.43706      -429.410 6        39.384
C25        55.000                                                                                                                                    23041901.965 7 119985297.02107      1611.274 7        47.717                                                                    23041907.510 7  97497933.65207      1309.152 7        47.891
R12        56.000    24246702.706 6 129521478.03006     -4042.005 6        39.985                                                                    24246717.438 6 100738927.40406     -3143.893 6        39.171
C02        57.000                                                                                                                                    41029941.382 5 213653499.99505      -551.162 5        32.748    41029949.639 6 165210374.61506      -426.092 6        36.692    41029949.831 5 173610926.33005      -448.044 5        32.467
I03        58.000   118916859.047 5 390869746.51805       918.936 5        31.751
R13        60.000    20582443.562 7 109909161.56107     -2721.104 7        45.374
> 2025 01 01 13 30 20.0000000  0 57
G19         1.000    23914881.844 6 125673657.13106     -3999.312 6        39.880                                    23914885.885 3  97927600.00103     -3116.344 3        23.905
G25         2.000    20602806.272 8 108268575.54308      1148.407 8        48.451                                    20602811.975 8  84365200.59508       894.860 8        48.839    20602812.547 7  84365210.60107       894.873 7        43.977
G24         3.000    22314627.985 7 117264132.23907     -3840.086 7        46.126                                    22314634.600 7  91374670.15207     -2992.272 7        45.238    22314634.659 7  91374667.14407     -2992.244 7        42.840
G29         4.000    23503872.698 7 123513852.85407      2889.286 7        43.898                                    23503880.808 6  96244676.43006      2251.385 6        39.060    23503880.545 6  96244679.43806      2251.534 6        38.435
S21         5.000    38538248.689 7 202519479.88307      -611.484 7        42.872
G06         6.000    23037133.003 7 121061069.63907      -998.967 7        43.554                                    23037140.945 6  94333391.46206      -778.419 6        40.508    23037141.870 6  94333382.45906      -778.349 6        41.056
E19         7.000    28300880.495 5 148722105.45205      1809.627 5        31.532                                                                    28300889.576 5 111058725.49405      1351.767 5        34.557    28300887.570 5 113955910.42305      1386.964 5        34.633
G03         8.000    25505308.138 5 134031288.15505      -544.365 5        33.802                                    25505310.403 3 104439959.34703      -424.185 3        23.314    25505310.786 5 104439965.33005      -424.311 5        32.365
