     3.04           OBSERVATION DATA    M                   RINEX VERSION / TYPE
ssrcrin-15.6.1x                         20250101 130000 UTC PGM / RUN BY / DATE 
(00000000023479385599111004) Septentrio proprietary         COMMENT             
rref                                                        MARKER NAME         
01                                                          MARKER NUMBER       
geodetic                                                    MARKER TYPE         
NFB                 CLIMERS@TUW                             OBSERVER / AGENCY   
3297213             SEPT ASTERX SB3 PROB4.14.4              REC # / TYPE / VERS 
Unknown             Unknown                                 ANT # / TYPE        
  4127831.5658  1207193.8393  4695247.6833                  APPROX POSITION XYZ 
        0.0000        0.0000        0.0000                  ANTENNA: DELTA H/E/N
G   23 X1  C1C L1C D1C S1C C1W S1W C2W L2W D2W S2W C2L L2L  SYS / # / OBS TYPES 
       D2L S2L C5Q L5Q D5Q S5Q C1L L1L D1L S1L              SYS / # / OBS TYPES 
E   21 X1  C1C L1C D1C S1C C6C L6C D6C S6C C5Q L5Q D5Q S5Q  SYS / # / OBS TYPES 
       C7Q L7Q D7Q S7Q C8Q L8Q D8Q S8Q                      SYS / # / OBS TYPES 
S    9 X1  C1C L1C D1C S1C C5I L5I D5I S5I                  SYS / # / OBS TYPES 
R   17 X1  C1C L1C D1C S1C C2P L2P D2P S2P C2C L2C D2C S2C  SYS / # / OBS TYPES 
       C3Q L3Q D3Q S3Q                                      SYS / # / OBS TYPES 
C   25 X1  C1P L1P D1P S1P C5P L5P D5P S5P C2I L2I D2I S2I  SYS / # / OBS TYPES 
       C7I L7I D7I S7I C6I L6I D6I S6I C7D L7D D7D S7D      SYS / # / OBS TYPES 
J   17 X1  C1C L1C D1C S1C C2L L2L D2L S2L C5Q L5Q D5Q S5Q  SYS / # / OBS TYPES 
       C1L L1L D1L S1L                                      SYS / # / OBS TYPES 
I    5 X1  C5A L5A D5A S5A                                  SYS / # / OBS TYPES 
SEPTENTRIO RECEIVERS OUTPUT ALIGNED CARRIER PHASES.         COMMENT             
NO FURTHER PHASE SHIFT APPLIED IN THE RINEX ENCODER.        COMMENT             
G L1C                                                       SYS / PHASE SHIFT   
G L2W                                                       SYS / PHASE SHIFT   
G L2L  0.00000                                              SYS / PHASE SHIFT   
G L5Q  0.00000                                              SYS / PHASE SHIFT   
G L1L  0.00000                                              SYS / PHASE SHIFT   
E L1C  0.00000                                              SYS / PHASE SHIFT   
E L6C  0.00000                                              SYS / PHASE SHIFT   
E L5Q  0.00000                                              SYS / PHASE SHIFT   
E L7Q  0.00000                                              SYS / PHASE SHIFT   
E L8Q  0.00000                                              SYS / PHASE SHIFT   
S L1C                                                       SYS / PHASE SHIFT   
S L5I                                                       SYS / PHASE SHIFT   
R L1C                                                       SYS / PHASE SHIFT   
R L2P  0.00000                                              SYS / PHASE SHIFT   
R L2C                                                       SYS / PHASE SHIFT   
R L3Q  0.00000                                              SYS / PHASE SHIFT   
C L1P  0.00000                                              SYS / PHASE SHIFT   
C L5P  0.00000                                              SYS / PHASE SHIFT   
C L2I                                                       SYS / PHASE SHIFT   
C L7I                                                       SYS / PHASE SHIFT   
C L6I                                                       SYS / PHASE SHIFT   
C L7D                                                       SYS / PHASE SHIFT   
J L1C                                                       SYS / PHASE SHIFT   
J L2L  0.00000                                              SYS / PHASE SHIFT   
J L5Q  0.00000                                              SYS / PHASE SHIFT   
J L1L  0.00000                                              SYS / PHASE SHIFT   
I L5A                                                       SYS / PHASE SHIFT   
  2025     1     1    13     0    0.0000000     GPS         TIME OF FIRST OBS   
 C1C    0.000 C2C    0.000 C2P    0.000                     GLONASS COD/PHS/BIS 
DBHZ                                                        SIGNAL STRENGTH UNIT
    18                                                      LEAP SECONDS        
 24 R01  1 R02 -4 R03  5 R04  6 R05  1 R06 -4 R07  5 R08  6 GLONASS SLOT / FRQ #
    R09 -2 R10 -7 R11  0 R12 -1 R13 -2 R14 -7 R15  0 R16 -1 GLONASS SLOT / FRQ #
    R17  4 R18 -3 R19  3 R20  2 R21  4 R22 -3 R23  3 R24  2 GLONASS SLOT / FRQ #
                                                            END OF HEADER       
> 2025 01 01 13 00  0.0000000  0 56
G19         1.000    22613028.808 7 118832380.76407     -3466.888 7        42.569                                    22613032.134 5  92596737.44805     -2701.471 5        30.106
G25         2.000    21114749.115 7 110958833.57407      1790.882 7        45.872                                    21114756.019 7  86461500.47307      1395.488 7        45.035    21114756.734 7  86461510.48507      1395.496 7        43.623
G24         3.000    21102936.422 7 110896675.35507     -3119.513 7        47.782                                    21102941.717 8  86413021.39708     -2430.785 8        49.330    21102942.144 7  86413018.39607     -2430.791 7        45.205
G29         4.000    24564850.956 6 129089247.88006      3197.507 6        40.298                                    24564864.703 5 100589118.64005      2491.544 5        32.431    24564865.407 6 100589121.67206      2491.647 6        36.325
S21         5.000    38328157.239 7 201415447.07407      -600.982 7        42.662
G06         6.000    22905523.534 7 120369447.40607       227.606 7        42.373                                    22905531.379 6  93794463.16606       177.353 6        40.331    22905532.351 6  93794454.17206       177.352 6        41.211
G17         7.000    25776045.124 3                     -4077.783 3        20.905
G11         9.000    23651462.872 6 124289390.81606      2088.021 6        41.757                                    23651469.250 4  96848963.58304      1627.029 4        26.467    23651469.736 6  96848963.61306      1626.826 6        40.298
E30        10.000    23563029.274 8 123824691.73908      -139.715 8        48.785                                                                    23563036.111 8  92466597.73608      -104.317 8        50.782    23563034.944 8  94878758.74208      -107.064 8        51.455
C26        11.000                                                                                                                                    23652470.895 7 123164577.90007     -2944.782 7        47.155                                                                    23652476.491 7 100081313.31007     -2392.843 7        45.908
S27        12.000    39111925.721 5 205534371.95705      -620.135 5        35.862
S36        14.000    38100255.638 7 200218542.02007      -601.439 7        44.352
G12        15.000    20042358.694 8 105323443.64408      -581.427 8        50.057                                    20042359.600 8  82070290.14608      -453.061 8        51.582    20042360.305 7  82070290.14007      -453.041 7        46.502
E29        16.000    26105947.246 7 137187582.74307       823.516 7        42.032                                                                    26105961.339 7 102445274.17507       615.014 7        45.077    26105959.513 7 105117758.49407       630.990 7        45.688
S45        17.000    63294802.821 6 332617932.16506      -664.832 6        36.087
R03        18.000    23024214.589 7 123250208.62307     -4757.903 7        45.937                                                                    23024228.199 6  95861233.91006     -3700.457 6        39.598
C35        19.000                                                                                                                                    23119794.664 8 120390966.61208     -1684.605 8        48.205                                                                    23119799.622 7  97827596.36507     -1368.834 7        46.539
E11        20.000    27524322.324 5 144641357.46105     -1858.538 5        34.443                                                                    27524331.498 6 108011480.99506     -1388.095 6        36.949    27524329.243 6 110829161.02006     -1424.175 6        36.571
R14        21.000    20407539.911 8 108783730.73408      1665.332 8        51.646                                                                    20407548.353 7  84609636.07107      1295.237 7        47.093
I06        22.000    38364009.767 6 150548629.25106      -554.021 6        41.364
S28        23.000    40798395.719 5 214396786.72105      -608.584 5        34.757
E34        24.000    27079765.524 6 142305225.27106      2363.730 6        38.976                                                                    27079782.489 7 106267012.34407      1765.068 7        43.302    27079780.452 7 109039182.51007      1811.149 7        44.420
S23        25.000    38039893.665 7 199900795.78207      -605.823 7        44.984
E08        26.000    26828881.192 6 140986504.03606     -3772.609 6        40.353                                                                    26828896.815 7 105282063.37907     -2817.201 7        43.691    26828893.947 7 108028557.13407     -2890.554 7        43.735
C07        27.000                                                                                                                                    40218592.590 6 209428676.34206     -1535.344 6        37.539    40218598.386 6 161943527.26606     -1187.137 6        39.550    40218593.916 6 170177935.35706     -1247.513 6        38.105
R24        28.000    22567941.669 7 120681060.78307      3797.213 7        45.883                                                                    22567954.655 7  93863175.84707      2953.533 7        42.267
I02        29.000    36910962.613 7 144846524.67407      -625.787 7        42.696
G28        30.000    25466664.867 6 133828186.87406      2990.900 6        39.955                                    25466678.093 2 104281742.88602      2330.584 2        17.811    25466676.793 5 104281739.74905      2330.532 5        35.109
E07        31.000    24634073.604 7 129452835.37607     -2017.372 7        46.216                                                                    24634084.169 8  96669315.61708     -1506.434 8        48.910    24634082.716 8  99191122.67708     -1545.743 8        49.503
C12        32.000                                                                                                                                    23788558.475 7 123873383.39807      2403.355 7        44.504    23788563.894 8  95786846.75608      1858.433 8        49.820    23788560.594 7 100657332.39607      1952.919 7        46.528
R23        34.000    20201884.517 8 108066597.87908       663.727 8        48.239
C24        35.000                                                                                                                                    21190676.281 8 110345454.58408      -547.155 8        51.160                                                                    21190677.605 8  89664743.52708      -444.622 8        49.500
R05        36.000    22395363.524 7 119715971.54307      1158.719 7        46.570                                                                    22395377.908 7  93112436.01207       901.227 7        42.925
E27        37.000    26410579.460 7 138788564.30807      1645.241 7        42.095                                                                    26410594.796 7 103640902.74807      1228.602 7        44.132    26410592.782 7 106344565.65007      1260.643 7        44.435
R04        38.000    21327091.830 8 114205493.50408     -2413.622 8        49.603                                                                    21327099.807 7  88826476.14807     -1877.217 7        44.500
C33        39.000                                                                                                                                    25932926.565 7 135039395.48507     -3411.837 7        42.646                                                                    25932951.833 6 109730611.49706     -2772.451 6        41.554
C32        40.000                                                                                                                                    26948212.811 6 140326400.67506       963.783 6        39.559                                                                    26948220.031 6 114026723.59606       783.218 6        39.565
C34        41.000                                                                                                                                    25337514.146 6 131939145.83606      2909.203 6        41.681                                                                    25337527.362 6 107211445.13206      2364.017 6        41.607
S44        42.000    40660222.868 6 213670904.94006      -527.152 6        37.119
R22        43.000    21730226.966 7 115997538.23707     -2996.298 7        46.369                                                                    21730235.190 7  90220389.77007     -2330.467 7        44.163
C05        44.000                                                                                                                                    39355044.283 6 204931881.15506      -597.190 6        38.724    39355050.845 7 158466303.56507      -461.745 7        42.502    39355049.812 6 166524002.81806      -485.144 6        39.432
C40        45.000                                                                                                                                    40786598.588 6 212386460.67206     -1798.975 6        37.981                                                                    40786605.377 6 172581398.68606     -1461.570 6        38.195
G32        46.000    22907285.252 7 120378501.16607       494.222 7        45.269                                    22907294.628 7  93801431.58107       385.105 7        42.154    22907295.181 6  93801433.58806       385.047 6        41.366
E36        47.000    26158900.972 7 137466037.58607       564.479 7        42.627                                                                    26158912.796 7 102653323.14307       421.568 7        45.126    26158911.035 7 105331219.16107       432.517 7        45.278
C41        48.000                                                                                                                                    25413469.441 7 132334568.17207     -1526.470 7        42.643                                                                    25413487.538 7 107532741.43407     -1240.230 7        43.255
C10        49.000                                                                                                                                    39209255.869 6 204172854.27706     -1305.327 6        39.450    39209262.846 7 157879408.41307     -1009.360 7        42.360    39209258.903 6 165907164.01906     -1060.638 6        39.736
C44        50.000                                                                                                                                    22343899.918 8 116350568.65408      1170.547 8        49.512                                                                    22343904.063 8  94544395.00308       951.173 8        48.050
S48        51.000    77036916.969 6 404831750.55506      -612.936 6        37.565
E02        53.000    24602084.564 7 129284870.20407     -2418.905 7        45.645                                                                    24602091.888 8  96543962.08708     -1806.294 8        48.134    24602090.624 8  99062483.08308     -1853.401 8        48.888
C60        54.000                                                                                                                                    40660229.730 6 211728459.51906      -522.403 6        39.021                                                                    40660226.146 6 172046637.60206      -424.497 6        40.303
C25        55.000                                                                                                                                    23660768.769 7 123207867.97307      1918.643 7        46.079                                                                    23660775.730 7 100116530.10007      1558.929 7        45.971
R12        56.000    22911546.102 7 122389340.28107     -3803.429 7        44.254                                                                    22911558.453 6  95191716.94606     -2958.237 6        41.988
C02        57.000                                                                                                                                    40837789.862 5 212652893.71605      -550.878 5        32.551    40837798.875 6 164436637.72706      -425.935 6        36.688    40837798.351 5 172797848.05105      -447.875 5        32.413
I03        58.000   119339627.030 5 392528744.80005       909.773 5        32.156
C14        59.000                                                                                                                                    26800453.778 6 139556686.51406     -3688.449 6        37.096    26800470.998 7 107913992.11007     -2852.051 7        42.425    26800463.979 6 113401160.15006     -2996.941 6        38.417
R13        60.000    19781758.886 7 105633558.14907     -1984.160 7        46.771
> 2025 01 01 13 00  5.0000000  0 56
G19         1.000    22616327.821 7 118849720.19107     -3469.156 7        42.262                                    22616331.650 5  92610248.67705     -2703.236 5        30.053
G25         2.000    21113046.234 7 110949883.11607      1788.963 7        46.036                                    21113052.773 7  86454526.10807      1393.995 7        45.059    21113053.575 7  86454536.10007      1394.141 7        43.143
G24         3.000    21105905.621 7 110912278.66907     -3122.041 7        47.941                                    21105910.946 8  86425179.81208     -2432.758 8        49.343    21105911.183 7  86425176.81307     -2432.806 7        45.380
G29         4.000    24561808.547 6 129073261.59506      3196.715 6        39.204                                    24561822.649 5 100576661.89205      2490.922 5        32.323    24561823.209 6 100576664.94106      2490.956 6        36.771
S21         5.000    38328730.156 7 201418451.47607      -601.167 7        42.470
G06         6.000    22905308.319 7 120368317.07907       224.227 7        42.406                                    22905316.321 6  93793582.39306       174.724 6        40.369    22905317.359 6  93793573.40006       174.718 6        41.201
G17         7.000    25779918.519 3                     -4082.037 3        22.057                                                                                                    25779915.880 4 105564696.38814     -3175.873 4        24.436
G11         9.000    23649477.174 7 124278955.25707      2086.002 7        43.092                                    23649483.196 4  96840832.02404      1625.448 4        27.078    23649483.680 6  96840832.03706      1625.440 6        40.462
E30        10.000    23563162.644 8 123825393.40108      -141.142 8        48.750                                                                    23563169.635 8  92467121.70608      -105.399 8        50.809    23563168.473 8  94879296.38608      -108.146 8        51.416
C26        11.000                                                                                                                                    23655299.279 7 123179304.40807     -2946.060 7        47.291                                                                    23655304.627 7 100093279.80907     -2393.889 7        46.182
S27        12.000    39112512.725 5 205537471.79405      -620.187 5        35.952
S36        14.000    38100827.111 7 200221549.59707      -601.957 7        44.274
G12        15.000    20042912.668 8 105326356.47008      -583.971 8        50.045                                    20042913.894 8  82072559.88008      -455.042 8        51.608    20042914.417 7  82072559.88207      -455.011 7        46.641
E29        16.000    26105164.828 6 137183470.48206       820.995 6        41.702                                                                    26105178.735 7 102442203.36307       613.170 7        45.144    26105177.101 7 105114607.56607       629.205 7        45.624
S45        17.000    63295376.414 5 332619656.73815      -665.156 5        35.914
R03        18.000    23028658.074 7 123274000.66207     -4758.922 7        45.484                                                                    23028673.795 6  95879738.80906     -3701.609 6        40.162
C35        19.000                                                                                                                                    23121413.799 8 120399396.39408     -1687.649 8        48.263                                                                    23121418.483 7  97834446.26107     -1371.314 7        46.796
E11        20.000    27526091.777 5 144650655.78505     -1861.030 5        33.970                                                                    27526100.967 6 108018424.57206     -1389.761 6        36.953    27526098.915 6 110836285.77206     -1426.131 6        36.268
R14        21.000    20405978.606 8 108775407.39608      1663.677 8        51.937                                                                    20405986.771 7  84603162.38207      1293.963 7        47.415
I06        22.000    38364715.559 6 150551398.93906      -554.260 6        41.616
S28        23.000    40798976.722 5 214399830.58705      -609.048 5        34.738
E34        24.000    27077516.415 6 142293408.19306      2362.729 6        38.799                                                                    27077533.660 7 106258187.98407      1764.470 7        43.562    27077531.789 7 109030127.93907      1810.515 7        44.328
S23        25.000    38040469.508 7 199903825.47907      -606.292 7        44.907
E08        26.000    26832470.992 6 141005368.15206     -3773.340 6        40.408                                                                    26832486.571 7 105296150.16507     -2817.754 7        44.006    26832483.847 7 108043011.41907     -2891.250 7        43.725
C07        27.000                                                                                                                                    40220066.777 6 209436352.58506     -1535.532 6        37.493    40220072.253 6 161949463.02506     -1187.171 6        39.628    40220068.010 6 170184172.93106     -1247.698 6        38.520
R24        28.000    22564392.500 7 120662077.31007      3795.912 7        45.764                                                                    22564404.200 7  93848410.98807      2952.429 7        42.209
I02        29.000    36911760.149 7 144849653.89207      -626.140 7        42.669
G28        30.000    25463818.959 6 133813231.66406      2990.837 6        37.516                                    25463832.133 2 104270089.39402      2330.566 2        17.887    25463831.791 5 104270086.31805      2330.812 5        34.724
E07        31.000    24635994.108 7 129462927.94607     -2019.889 7        45.958                                                                    24636004.720 8  96676852.27208     -1508.357 8        48.953    24636003.301 8  99198855.93908     -1547.678 8        49.471
C12        32.000                                                                                                                                    23786250.548 7 123861370.12107      2401.709 7        43.826    23786256.644 8  95777557.37808      1857.126 8        49.590    23786253.528 7 100647570.66507      1951.602 7        46.695
R23        34.000    20201266.466 8 108063290.84308       658.861 8        48.381
C24        35.000                                                                                                                                    21191202.438 8 110348194.73208      -549.144 8        51.082                                                                    21191203.817 8  89666970.12408      -446.234 8        49.752
R05        36.000    22394281.906 7 119710188.19107      1154.315 7        46.461                                                                    22394294.887 7  93107937.88207       897.888 7        43.420
E27        37.000    26409014.444 6 138780339.71506      1644.335 6        41.883                                                                    26409029.704 7 103634761.04807      1227.983 7        44.286    26409027.611 7 106338263.73107      1259.996 7        44.318
R04        38.000    21329346.612 8 114217571.83508     -2417.928 8        49.035                                                                    21329354.736 7  88835870.41207     -1880.646 7        44.512
C33        39.000                                                                                                                                    25936202.922 7 135056457.39907     -3413.021 7        42.038                                                                    25936228.438 6 109744475.65706     -2773.306 6        41.766
C32        40.000                                                                                                                                    26947288.182 6 140321587.31406       961.213 6        39.874                                                                    26947295.614 6 114022812.34506       781.134 6        40.179
C34        41.000                                                                                                                                    25334721.188 7 131924600.49507      2908.627 7        42.110                                                                    25334734.070 6 107199625.91906      2363.543 6        41.864
S44        42.000    40660725.778 6 213673540.78506      -527.427 6        36.711
R22        43.000    21733035.285 7 116012529.43307     -3000.325 7        46.663                                                                    21733043.261 7  90232049.57107     -2333.600 7        44.122
C05        44.000                                                                                                                                    39355617.751 6 204934866.85006      -597.624 6        38.742    39355624.424 7 158468612.30007      -461.945 7        42.569    39355623.396 6 166526428.94706      -485.317 6        39.775
C40        45.000                                                                                                                                    40788325.401 6 212395455.53706     -1799.263 6        37.936                                                                    40788332.621 6 172588707.80906     -1461.887 6        38.240
G32        46.000    22906816.950 7 120376038.01607       490.861 7        45.476                                    22906825.903 7  93799512.26007       382.487 7        42.180    22906826.641 6  93799514.26806       382.418 6        41.595
E36        47.000    26158364.681 7 137463221.06007       561.770 7        42.525                                                                    26158376.746 7 102651219.89907       419.609 7        45.169    26158375.060 7 105329061.03707       430.554 7        45.217
C41        48.000                                                                                                                                    25414936.583 7 132342206.39407     -1529.280 7        42.591                                                                    25414954.330 7 107538948.10007     -1242.536 7        43.382
C10        49.000                                                                                                                                    39210509.521 6 204179381.01806     -1305.846 6        39.501    39210516.160 7 157884455.28607     -1009.551 7        42.557    39210512.243 6 165912467.52306     -1060.869 6        40.000
C44        50.000                                                                                                                                    22342777.075 8 116344721.82508      1167.865 8        49.446                                                                    22342781.295 8  94539643.99408       949.015 8        48.237
S48        51.000    77037492.735 6 404834815.64806      -613.196 6        37.308
E02        53.000    24604386.493 7 129296966.24907     -2419.792 7        46.068                                                                    24604393.660 8  96552994.84908     -1807.018 8        48.209    24604392.351 8  99071751.48108     -1854.104 8        48.811
C60        54.000                                                                                                                                    40660731.227 6 211731071.39506      -522.731 6        38.883                                                                    40660727.862 6 172048759.98606      -424.703 6        40.403
C25        55.000                                                                                                                                    23658927.076 7 123198276.67707      1917.555 7        46.302                                                                    23658933.825 7 100108736.40307      1558.222 7        46.148
R12        56.000    22915106.173 7 122408359.35007     -3804.430 7        42.734                                                                    22915118.294 6  95206509.53106     -2958.947 6        41.828
C02        57.000                                                                                                                                    40838318.431 5 212655648.58305      -551.017 5        32.257    40838328.167 6 164438767.98606      -426.118 6        36.756    40838327.572 5 172800086.59705      -447.681 5        32.593
I03        58.000   119338467.626 5 392524195.07705       909.915 5        32.359
C14        59.000                                                                                                                                    26803994.651 6 139575127.54006     -3688.371 6        37.478    26804012.750 7 107928251.80307     -2852.053 7        42.946    26804005.514 6 113416144.93506     -2996.882 6        38.643
R13        60.000    19783616.969 7 105643484.19607     -1986.496 7        46.647
> 2025 01 01 13 00 10.0000000  0 56
G19         1.000    22619629.597 7 118867069.07907     -3470.531 7        42.398                                    22619633.107 5  92623767.28605     -2704.315 5        30.075
G25         2.000    21111344.311 7 110940940.76407      1787.955 7        45.825                                    21111351.084 7  86447558.05507      1393.208 7        45.114    21111352.020 7  86447568.06607      1393.287 7        43.699
G24         3.000    21108877.319 7 110927893.38107     -3123.801 7        47.861                                    21108882.348 8  86437347.10808     -2434.126 8        49.361    21108882.487 7  86437344.10707     -2434.175 7        45.168
G29         4.000    24558766.792 6 129057277.89406      3196.657 6        39.108                                    24558781.074 5 100564207.16205      2490.879 5        32.323    24558780.886 6 100564210.21606      2490.803 6        36.922
S21         5.000    38329303.378 7 201421455.86307      -600.642 7        42.565
G06         6.000    22905096.501 7 120367202.92907       221.440 7        42.516                                    22905104.366 6  93792714.22806       172.549 6        40.293    22905105.428 6  93792705.23506       172.581 6        41.542
G17         7.000    25783799.803 3                     -4078.010 3        20.310
G11         9.000    23647492.413 7 124268527.98507      2084.880 7        43.255                                    23647498.847 4  96832706.92104      1624.575 4        27.737    23647500.016 6  96832706.94306      1624.564 6        40.746
E30        10.000    23563297.213 8 123826101.01708      -141.918 8        48.665                                                                    23563304.303 8  92467650.11908      -105.953 8        50.951    23563303.141 8  94879838.58108      -108.750 8        51.413
C26        11.000                                                                                                                                    23658128.122 7 123194036.39107     -2946.662 7        47.139                                                                    23658133.764 7 100105250.75407     -2394.463 7        46.092
S27        12.000    39113098.239 5 205540572.07405      -619.764 5        35.524
S36        14.000    38101399.246 7 200224557.26907      -601.345 7        44.284
G12        15.000    20043469.136 8 105329280.73608      -585.751 8        50.037                                    20043470.365 8  82074838.53008      -456.429 8        51.630    20043470.765 7  82074838.53007      -456.413 7        46.773
E29        16.000    26104384.510 6 137179368.94706       819.448 6        41.428                                                                    26104398.270 7 102439140.54807       612.006 7        45.258    26104396.468 7 105111464.85307       627.957 7        45.565
S45        17.000    63295963.069 5 332622981.49405      -664.899 5        35.619
R03        18.000    23033103.599 7 123297797.41207     -4759.570 7        44.828                                                                    23033119.667 6  95898247.30206     -3701.873 6        41.294
C35        19.000                                                                                                                                    23123035.022 8 120407839.75708     -1689.806 8        48.020                                                                    23123039.911 7  97841307.18307     -1373.042 7        46.741
E11        20.000    27527862.836 5 144659965.76505     -1862.813 5        33.994                                                                    27527872.472 6 108025376.85406     -1391.090 6        36.745    27527870.520 6 110843419.39806     -1427.382 6        36.076
R14        21.000    20404418.456 8 108767091.29108      1662.757 8        51.474                                                                    20404426.734 7  84596694.31407      1293.265 7        47.463
I06        22.000    38365421.576 6 150554168.68006      -553.804 6        41.442
S28        23.000    40799554.844 5 214402874.55405      -608.464 5        34.552
E34        24.000    27075267.973 6 142281594.08506      2362.761 6        38.261                                                                    27075285.398 7 106249365.83107      1764.380 7        43.537    27075283.679 7 109021075.64907      1810.378 7        44.307
S23        25.000    38041045.457 7 199906855.24507      -605.749 7        44.883
E08        26.000    26836061.032 6 141024234.55906     -3773.286 6        40.458                                                                    26836076.780 7 105310238.64707     -2817.661 7        44.105    26836074.233 7 108057467.44207     -2891.147 7        43.818
C07        27.000                                                                                                                                    40221541.205 6 209444029.06806     -1535.008 6        37.629    40221546.404 6 161955398.97406     -1186.933 6        39.727    40221542.354 6 170190410.72406     -1247.421 6        38.447
R24        28.000    22560843.102 7 120643099.27707      3795.376 7        45.636                                                                    22560855.194 6  93833650.37606      2951.867 6        41.485
I02        29.000    36912558.033 7 144852783.81707      -625.777 7        42.751
G28        30.000    25460973.319 5 133798276.80105      2991.118 5        35.290                                    25460986.388 2 104258436.15802      2330.764 2        17.774    25460986.730 6 104258433.19406      2330.711 6        38.946
E07        31.000    24637916.751 7 129473031.60907     -2021.523 7        45.607                                                                    24637927.374 8  96684397.20408     -1509.598 8        49.067    24637925.963 8  99206597.70208     -1548.986 8        49.456
C12        32.000                                                                                                                                    23783944.210 7 123849364.17307      2400.794 7        43.801    23783950.968 8  95768273.65308      1856.335 8        49.581    23783947.934 7 100637814.89007      1950.850 7        46.662
R23        34.000    20200653.021 8 108060006.72308       654.782 8        48.499
C24        35.000                                                                                                                                    21191730.236 8 110350943.53708      -550.426 8        51.025                                                                    21191731.663 8  89669203.76808      -447.253 8        49.798
R05        36.000    22393204.015 7 119704425.31907      1150.701 7        46.910                                                                    22393216.770 7  93103455.66507       895.008 7        43.680
E27        37.000    26407449.844 6 138772117.97606      1644.339 6        41.757                                                                    26407465.307 7 103628621.48707      1227.840 7        44.296    26407463.083 7 106331963.99507      1259.896 7        44.307
R04        38.000    21331605.082 8 114229670.54708     -2421.473 8        48.732                                                                    21331614.172 7  88845280.50907     -1883.341 7        44.110
C33        39.000                                                                                                                                    25939480.570 7 135073523.63307     -3413.430 7        42.044                                                                    25939505.707 6 109758343.36306     -2773.779 6        41.726
C32        40.000                                                                                                                                    26946365.774 6 140316785.79606       959.238 6        39.568                                                                    26946373.499 6 114018910.63906       779.505 6        40.412
C34        41.000                                                                                                                                    25331928.267 7 131910056.67007      2908.906 7        42.525                                                                    25331940.984 7 107187807.96407      2363.642 7        42.174
S44        42.000    40661224.350 6 213676176.75806      -526.976 6        36.877
R22        43.000    21735847.361 7 116027539.41707     -3003.679 7        46.960                                                                    21735855.248 7  90243723.98307     -2336.178 7        43.537
C05        44.000                                                                                                                                    39356191.362 6 204937852.59206      -597.030 6        38.898    39356197.651 7 158470921.07407      -461.517 7        42.470    39356196.689 6 166528855.13706      -485.105 6        39.640
C40        45.000                                                                                                                                    40790053.123 6 212404450.39406     -1798.648 6        38.306                                                                    40790059.777 6 172596016.94906     -1461.722 6        38.282
G32        46.000    22906351.063 7 120373590.57907       488.197 7        45.217                                    22906360.175 7  93797605.17307       380.414 7        42.205    22906360.578 6  93797607.17706       380.496 6        41.917
E36        47.000    26157830.859 7 137460416.28207       559.988 7        42.299                                                                    26157842.976 7 102649125.43007       418.289 7        45.202    26157841.240 7 105326911.94007       429.122 7        45.255
C41        48.000                                                                                                                                    25416405.651 7 132349857.67607     -1531.245 7        42.880                                                                    25416423.667 7 107545165.41207     -1244.381 7        43.376
C10        49.000                                                                                                                                    39211762.671 6 204185908.46406     -1305.413 6        39.901    39211769.791 7 157889502.72107     -1009.347 7        42.482    39211765.925 6 165917771.62406     -1060.693 6        40.141
C44        50.000                                                                                                                                    22341656.609 8 116338887.31308      1165.904 8        49.273                                                                    22341660.835 8  94534903.00308       947.460 8        48.311
S48        51.000    77038065.255 6 404837880.93206      -612.788 6        37.622
E02        53.000    24606688.697 7 129309065.71007     -2419.920 7        45.875                                                                    24606696.074 8  96562030.14408     -1807.154 8        48.256    24606694.783 8  99081022.48608     -1854.282 8        48.837
C60        54.000                                                                                                                                    40661232.943 6 211733683.40006      -522.323 6        38.955                                                                    40661229.260 6 172050882.48106      -424.348 6        40.503
C25        55.000                                                                                                                                    23657085.843 7 123188688.77507      1917.557 7        46.041                                                                    23657092.527 7 100100945.48407      1558.193 7        46.177
R12        56.000    22918666.333 7 122427382.29807     -3804.792 7        42.749                                                                    22918679.398 6  95221305.09906     -2959.201 6        41.807
C02        57.000                                                                                                                                    40838848.085 5 212658403.50405      -550.896 5        32.072    40838856.852 6 164440898.33106      -426.076 6        36.597    40838856.503 5 172802325.25405      -447.545 5        32.377
I03        58.000   119337308.637 5 392519645.29705       909.961 5        32.503
C14        59.000                                                                                                                                    26807536.231 6 139593567.25606     -3687.606 6        37.062    26807553.676 7 107942510.47407     -2851.425 7        42.773    26807546.719 6 113431128.66206     -2996.388 6        38.715
R13        60.000    19785478.421 7 105653420.56907     -1988.083 7        46.771
> 2025 01 01 13 00 15.0000000  0 56
G19         1.000    22622932.898 7 118884427.20507     -3472.712 7        43.043                                    22622936.353 5  92637293.09405     -2706.009 5        30.000
G25         2.000    21109644.047 7 110932006.35207      1785.880 7        45.988                                    21109650.915 7  86440596.19007      1391.592 7        45.050    21109651.695 7  86440606.20307      1391.543 7        43.494
G24         3.000    21111850.880 8 110943519.28108     -3126.463 8        48.409                                    21111855.883 8  86449523.11808     -2436.202 8        49.297    21111855.714 7  86449520.12007     -2436.205 7        44.996
G29         4.000    24555726.116 6 129041296.61906      3195.813 6        39.772                                    24555739.919 5 100551754.32605      2490.220 5        32.449    24555740.327 6 100551757.37906      2490.038 6        36.752
S21         5.000    38329870.800 7 201424460.17107      -601.056 7        42.563
G06         6.000    22904887.336 7 120366104.79507       217.802 7        42.921                                    22904895.434 6  93791858.54606       169.715 6        40.210    22904896.531 6  93791849.54706       169.755 6        41.354
G17         7.000    25787673.891 3                     -4076.130 3        21.595                                                                                                    25787672.745 4 105596459.36704     -3176.456 4        24.030
G11         9.000    23645509.142 7 124258108.85207      2082.740 7        42.809                                    23645516.250 4  96824588.14904      1622.908 4        27.713    23645517.446 6  96824588.16006      1623.072 6        41.011
E30        10.000    23563432.880 8 123826814.40408      -143.389 8        48.758                                                                    23563439.986 8  92468182.84108      -107.066 8        50.978    23563438.874 8  94880385.19808      -109.864 8        51.528
C26        11.000                                                                                                                                    23660958.198 7 123208773.65907     -2948.156 7        46.876                                                                    23660963.936 7 100117225.95307     -2395.565 7        46.114
S27        12.000    39113693.045 5 205543672.09205      -620.284 5        35.857
S36        14.000    38101972.361 7 200227564.84907      -601.478 7        44.357
G12        15.000    20044027.810 8 105332216.23608      -588.345 8        50.178                                    20044028.982 8  82077125.93108      -458.452 8        51.556    20044029.584 7  82077125.93107      -458.474 7        46.647
E29        16.000    26103605.949 6 137175277.96206       817.018 6        41.678                                                                    26103619.786 7 102436085.61607       610.104 7        45.366    26103617.999 7 105108330.22207       626.044 7        45.682
S45        17.000    63296542.327 5 332626306.28905      -665.143 5        35.638
R03        18.000    23037550.273 7 123321598.58507     -4760.932 7        44.438                                                                    23037564.810 6  95916759.23306     -3702.866 6        41.061
C35        19.000                                                                                                                                    23124659.010 8 120416296.51608     -1692.833 8        48.122                                                                    23124664.026 7  97848178.96107     -1375.522 7        46.593
E11        20.000    27529637.005 5 144669287.15105     -1865.582 5        33.563                                                                    27529646.256 6 108032337.64806     -1393.176 6        36.703    27529644.174 6 110850561.76106     -1429.250 6        36.355
R14        21.000    20402859.229 8 108758781.97908      1661.015 8        51.347                                                                    20402867.873 7  84590231.54407      1291.898 7        47.810
I06        22.000    38366127.020 6 150556938.34106      -553.972 6        41.428
S28        23.000    40800134.496 5 214405918.69605      -608.949 5        34.671
E34        24.000    27073020.423 6 142269782.75906      2361.862 6        38.165                                                                    27073037.708 7 106240545.76907      1763.684 7        43.496    27073035.937 7 109012025.48307      1809.732 7        44.406
S23        25.000    38041624.456 7 199909885.10707      -606.096 7        44.874
E08        26.000    26839651.804 6 141043103.03906     -3774.204 6        40.410                                                                    26839667.366 7 105324328.69207     -2818.276 7        44.140    26839664.994 7 108071925.06107     -2891.836 7        44.008
C07        27.000                                                                                                                                    40223015.320 6 209451705.61806     -1535.585 6        37.395    40223020.860 6 161961334.95806     -1187.375 6        39.691    40223016.527 6 170196648.50806     -1247.560 6        38.655
R24        28.000    22557294.623 7 120624126.45407      3793.908 7        46.387                                                                    22557307.243 6  93818893.79506      2950.818 6        41.187
I02        29.000    36913355.412 7 144855914.56807      -626.385 7        42.804
G28        30.000    25458128.283 6 133783322.18406      2990.856 6        37.130                                    25458140.903 3 104246783.12103      2330.529 3        18.060    25458140.895 6 104246780.13906      2330.474 6        39.907
E07        31.000    24639841.598 7 129483146.18207     -2024.102 7        45.825                                                                    24639852.147 8  96691950.28508     -1511.566 8        49.051    24639850.713 8  99214347.81508     -1550.906 8        49.562
C12        32.000                                                                                                                                    23781640.429 7 123837365.38207      2398.899 7        43.799    23781646.786 8  95758995.45408      1854.954 8        50.011    23781643.676 7 100628064.88807      1949.348 7        46.534
R23        34.000    20200043.226 8 108056745.46308       649.836 8        48.251
C24        35.000                                                                                                                                    21192259.803 8 110353700.79808      -552.449 8        51.068                                                                    21192261.148 8  89671444.23908      -448.812 8        49.723
R05        36.000    22392129.379 7 119698683.04707      1146.206 7        46.257                                                                    22392143.051 7  93098989.50707       891.413 7        44.017
E27        37.000    26405885.989 6 138763898.91606      1643.350 6        41.642                                                                    26405901.318 7 103622483.90907      1227.137 7        44.298    26405898.964 7 106325666.30307      1259.239 7        44.432
R04        38.000    21333868.276 8 114241789.31308     -2425.937 8        48.470                                                                    21333877.541 7  88854706.19607     -1886.833 7        44.482
C33        39.000                                                                                                                                    25942758.464 6 135090594.00806     -3414.608 6        41.716                                                                    25942783.857 6 109772214.36606     -2774.534 6        41.716
C32        40.000                                                                                                                                    26945445.209 6 140311996.38906       956.379 6        38.754                                                                    26945453.974 6 114015018.83406       777.308 6        40.372
C34        41.000                                                                                                                                    25329135.276 7 131895514.21707      2908.184 7        42.717                                                                    25329148.262 7 107175991.05407      2363.200 7        42.114
S44        42.000    40661726.053 6 213678812.62606      -527.462 6        36.662
R22        43.000    21738663.393 7 116042568.03107     -3007.750 7        47.781                                                                    21738670.740 7  90255412.89207     -2339.371 7        42.811
C05        44.000                                                                                                                                    39356764.476 6 204940838.18706      -597.218 6        38.781    39356771.105 7 158473229.73007      -461.872 7        42.671    39356769.964 6 166531281.15706      -485.150 6        39.517
C40        45.000                                                                                                                                    40791780.369 6 212413444.90606     -1799.100 6        38.117                                                                    40791787.182 6 172603325.70006     -1461.763 6        38.339
G32        46.000    22905887.880 7 120371158.66507       484.686 7        45.172                                    22905897.407 7  93795710.18207       377.674 7        42.129    22905898.010 6  93795712.20006       377.610 6        41.809
E36        47.000    26157299.656 7 137457623.09407       557.368 7        42.394                                                                    26157311.451 7 102647039.61507       416.246 7        45.124    26157309.832 7 105324771.71207       427.056 7        45.428
C41        48.000                                                                                                                                    25417877.641 7 132357521.83207     -1534.303 7        43.206                                                                    25417895.569 7 107551393.12307     -1246.734 7        43.278
C10        49.000                                                                                                                                    39213016.605 6 204192436.40606     -1305.747 6        40.072    39213023.623 7 157894550.54507     -1009.676 7        42.489    39213019.596 6 165923076.08406     -1060.900 6        40.193
C44        50.000                                                                                                                                    22340538.552 8 116333064.95008      1163.073 8        49.561                                                                    22340542.663 8  94530171.84208       945.154 8        48.211
S48        51.000    77038638.964 6 404840946.27006      -613.368 6        37.902
E02        53.000    24608991.627 7 129321168.39307     -2421.066 7        45.866                                                                    24608999.139 8  96571067.84308     -1807.847 8        48.295    24608997.873 8  99090295.95008     -1855.054 8        48.929
C60        54.000                                                                                                                                    40661734.494 6 211736295.30106      -522.624 6        38.925                                                                    40661731.021 6 172053004.85506      -424.610 6        40.341
C25        55.000                                                                                                                                    23655244.988 7 123179104.10407      1916.449 7        46.091                                                                    23655251.877 7 100093157.14807      1557.350 7        46.098
R12        56.000    22922229.726 7 122446408.89207     -3805.811 7        44.030                                                                    22922241.408 6  95236103.55006     -2960.131 6        41.974
C02        57.000                                                                                                                                    40839376.345 5 212661158.22805      -551.144 5        32.461    40839385.867 6 164443028.46506      -426.228 6        36.737    40839385.634 5 172804563.68705      -447.578 5        32.683
I03        58.000   119336149.292 5 392515095.30205       909.586 5        32.150
C14        59.000                                                                                                                                    26811077.883 6 139612005.43006     -3687.573 6        36.684    26811094.753 7 107956767.95407     -2851.509 7        43.124    26811087.734 6 113446111.10506     -2996.298 6        38.628
R13        60.000    19787341.377 7 105663367.23907     -1990.478 7        47.039
> 2025 01 01 13 00 20.0000000  0 57
G19         1.000    22626237.760 7 118901794.40307     -3474.367 7        43.037                                    22626241.293 5  92650825.97405     -2707.303 5        30.000
G25         2.000    21107945.256 7 110923079.69107      1784.562 7        45.702                                    21107952.226 7  86433640.36807      1390.566 7        45.088    21107952.714 7  86433650.38107      1390.577 7        43.426
G24         3.000    21114826.367 8 110959156.15708     -3128.531 8        48.047                                    21114831.480 8  86461707.68508     -2437.814 8        49.269    21114831.666 7  86461704.68307     -2437.789 7        44.778
G29         4.000    24552685.586 6 129025317.56606      3195.519 6        40.005                                    24552699.082 5 100539303.22005      2489.996 5        32.389    24552699.117 6 100539306.25206      2490.133 6        36.405
S21         5.000    38330442.408 7 201427464.12407      -600.666 7        42.483
G06         6.000    22904681.559 7 120365022.45307       214.818 7        42.567                                    22904689.466 6  93791015.16606       167.391 6        40.074    22904690.351 6  93791006.16406       167.451 6        40.920
G17         7.000    25791559.624 3                     -4097.896 3        20.405                                                                                                    25791550.272 3 105612341.08303     -3176.363 3        23.771
G11         9.000    23643527.821 7 124247697.63807      2081.352 7        42.370                                    23643535.263 4  96816475.55804      1621.814 4        27.784    23643535.926 6  96816475.56306      1621.878 6        41.092
E30        10.000    23563569.738 8 123827533.35808      -144.405 8        48.611                                                                    23563576.870 8  92468719.73108      -107.829 8        50.918    23563575.694 8  94880936.09408      -110.633 8        51.510
C26        11.000                                                                                                                                    23663789.273 7 123223516.00707     -2949.025 7        46.524                                                                    23663795.016 7 100129205.33007     -2396.317 7        46.059
S27        12.000    39114280.786 6 205546771.99906      -619.830 6        36.110
R15        13.000    24527458.803 5 131067309.42715      2821.634 5        34.824
S36        14.000    38102544.451 7 200230571.94407      -601.528 7        44.373
G12        15.000    20044588.275 8 105335162.78208      -590.421 8        50.048                                    20044589.692 8  82079421.94108      -460.068 8        51.535    20044590.201 7  82079421.93107      -459.961 7        46.683
