     3.04           OBSERVATION DATA    M                   RINEX VERSION / TYPE
ssrcrin-15.6.1x                         20250102 223000 UTC PGM / RUN BY / DATE 
(00000000023479385599111004) Septentrio proprietary         COMMENT             
rref                                                        MARKER NAME         
01                                                          MARKER NUMBER       
geodetic                                                    MARKER TYPE         
NFB                 CLIMERS@TUW                             OBSERVER / AGENCY   
3297213             SEPT ASTERX SB3 PROB4.14.4              REC # / TYPE / VERS 
Unknown             Unknown                                 ANT # / TYPE        
  4127832.3064  1207193.3819  4695248.1506                  APPROX POSITION XYZ 
        0.0000        0.0000        0.0000                  ANTENNA: DELTA H/E/N
G   23 X1  C1C L1C D1C S1C C1W S1W C2W L2W D2W S2W C2L L2L  SYS / # / OBS TYPES 
       D2L S2L C5Q L5Q D5Q S5Q C1L L1L D1L S1L              SYS / # / OBS TYPES 
E   21 X1  C1C L1C D1C S1C C6C L6C D6C S6C C5Q L5Q D5Q S5Q  SYS / # / OBS TYPES 
       C7Q L7Q D7Q S7Q C8Q L8Q D8Q S8Q                      SYS / # / OBS TYPES 
S    9 X1  C1C L1C D1C S1C C5I L5I D5I S5I                  SYS / # / OBS TYPES 
R   17 X1  C1C L1C D1C S1C C2P L2P D2P S2P C2C L2C D2C S2C  SYS / # / OBS TYPES 
       C3Q L3Q D3Q S3Q                                      SYS / # / OBS TYPES 
C   25 X1  C1P L1P D1P S1P C5P L5P D5P S5P C2I L2I D2I S2I  SYS / # / OBS TYPES 
       C7I L7I D7I S7I C6I L6I D6I S6I C7D L7D D7D S7D      SYS / # / OBS TYPES 
J   17 X1  C1C L1C D1C S1C C2L L2L D2L S2L C5Q L5Q D5Q S5Q  SYS / # / OBS TYPES 
       C1L L1L D1L S1L                                      SYS / # / OBS TYPES 
I    5 X1  C5A L5A D5A S5A                                  SYS / # / OBS TYPES 
SEPTENTRIO RECEIVERS OUTPUT ALIGNED CARRIER PHASES.         COMMENT             
NO FURTHER PHASE SHIFT APPLIED IN THE RINEX ENCODER.        COMMENT             
G L1C                                                       SYS / PHASE SHIFT   
G L2W                                                       SYS / PHASE SHIFT   
G L2L  0.00000                                              SYS / PHASE SHIFT   
G L5Q  0.00000                                              SYS / PHASE SHIFT   
G L1L  0.00000                                              SYS / PHASE SHIFT   
E L1C  0.00000                                              SYS / PHASE SHIFT   
E L6C  0.00000                                              SYS / PHASE SHIFT   
E L5Q  0.00000                                              SYS / PHASE SHIFT   
E L7Q  0.00000                                              SYS / PHASE SHIFT   
E L8Q  0.00000                                              SYS / PHASE SHIFT   
S L1C                                                       SYS / PHASE SHIFT   
S L5I                                                       SYS / PHASE SHIFT   
R L1C                                                       SYS / PHASE SHIFT   
R L2P  0.00000                                              SYS / PHASE SHIFT   
R L2C                                                       SYS / PHASE SHIFT   
R L3Q  0.00000                                              SYS / PHASE SHIFT   
C L1P  0.00000                                              SYS / PHASE SHIFT   
C L5P  0.00000                                              SYS / PHASE SHIFT   
C L2I                                                       SYS / PHASE SHIFT   
C L7I                                                       SYS / PHASE SHIFT   
C L6I                                                       SYS / PHASE SHIFT   
C L7D                                                       SYS / PHASE SHIFT   
J L1C                                                       SYS / PHASE SHIFT   
J L2L  0.00000                                              SYS / PHASE SHIFT   
J L5Q  0.00000                                              SYS / PHASE SHIFT   
J L1L  0.00000                                              SYS / PHASE SHIFT   
I L5A                                                       SYS / PHASE SHIFT   
  2025     1     2    22    30    0.0000000     GPS         TIME OF FIRST OBS   
 C1C    0.000 C2C    0.000 C2P    0.000                     GLONASS COD/PHS/BIS 
DBHZ                                                        SIGNAL STRENGTH UNIT
    18                                                      LEAP SECONDS        
 24 R01  1 R02 -4 R03  5 R04  6 R05  1 R06 -4 R07  5 R08  6 GLONASS SLOT / FRQ #
    R09 -2 R10 -7 R11  0 R12 -1 R13 -2 R14 -7 R15  0 R16 -1 GLONASS SLOT / FRQ #
    R17  4 R18 -3 R19  3 R20  2 R21  4 R22 -3 R23  3 R24  2 GLONASS SLOT / FRQ #
                                                            END OF HEADER       
> 2025 01 02 22 30  0.0000000  0 51
G21         4.000    20682301.956 7 108686294.42007       160.879 7        44.907                                    20682296.645 6  84690624.95506       125.359 6        37.860
S21         5.000    38447568.882 6 202043065.20406      -350.869 6        41.120
E13         6.000    26368870.662 7 138569385.17807      1900.304 7        42.104                                                                    26368871.533 7 103477162.14307      1419.057 7        44.063    26368871.203 7 106176561.87907      1456.030 7        45.088
G10         7.000    22328092.306 7 117334984.66907     -2912.548 7        46.789                                    22328090.365 7  91429874.52207     -2269.518 7        45.207    22328090.706 7  91429868.52907     -2269.545 7        42.396
E15         8.000    23437836.697 8 123166776.98608       130.552 8        48.102                                                                    23437837.212 8  91975259.91708        97.480 8        51.376    23437836.536 8  94374602.25408       100.008 8        51.207
G27        10.000    22844303.661 7 120047771.67007     -3865.317 7        44.603                                    22844301.253 7  93543787.73907     -3011.938 7        43.113    22844302.070 7  93543789.73507     -3011.887 7        42.267
G14        11.000    23931081.355 6 125758684.22906       315.594 6        38.898                                    23931078.243 4  97993772.86304       245.916 4        24.376    23931078.516 6  97993776.86406       245.852 6        40.360
G32        12.000    21913912.616 8 115158417.63208       334.343 8        48.449                                    21913910.660 8  89733832.48708       260.525 8        48.839    21913911.308 7  89733805.48807       260.592 7        45.065
G03        13.000    23812907.125 6 125137701.88706      3193.787 6        39.673                                    23812906.029 5  97509908.29205      2488.662 5        34.733    23812906.543 6  97509913.30006      2488.557 6        38.120
S36        14.000    38215689.240 7 200825326.62107      -349.972 7        43.981
C13        15.000                                                                                                                                    40096280.485 6 208791910.65106     -1269.139 6        37.868    40096281.952 6 161451183.27906      -981.320 6        39.273    40096280.320 6 169660552.55806     -1031.140 6        38.673
C16        17.000                                                                                                                                    41005153.312 6 213524596.21306      1516.572 6        36.949    41005153.762 6 165110765.45106      1172.870 6        37.679    41005151.445 5 173506215.39105      1232.563 5        34.376
E27        18.000    26458098.831 7 139038263.12007     -2647.122 7        42.036                                                                    26458099.028 7 103827277.51307     -1976.681 7        44.506    26458098.634 7 106535812.53907     -2028.307 7        45.234
E05        20.000    23772325.585 7 124924439.79107      -562.075 7        43.962                                                                    23772325.186 7  93287736.19507      -419.759 7        47.240    23772325.060 8  95721331.36608      -430.722 8        48.204
C41        21.000                                                                                                                                    25612426.896 6 133370640.22106      3059.846 6        41.979                                                                    25612432.133 7 108374596.81707      2486.343 7        43.088
I06        22.000    38438248.221 6 150840175.68706      -156.555 6        41.657
E03        23.000    25311475.121 7 133012713.07407      2034.576 7        44.250                                                                    25311475.086 7  99327703.42607      1519.316 7        47.635    25311474.645 8 101918857.60908      1558.988 8        48.024
R22        24.000    21227364.880 8 113313155.44108      2706.658 8        48.935                                                                    21227363.883 7  88132467.72407      2105.123 7        44.784
S23        25.000    38172252.426 7 200596513.28607      -348.480 7        44.266
S45        26.000    63421801.417 6 333284568.82106      -391.984 6        37.221
G02        27.000    21732320.750 7 114204165.09607      1479.147 7        47.132                                    21732314.471 6  88990248.33906      1152.582 6        37.909
S27        28.000    39128260.002 5 205620472.04505      -320.650 5        35.619
C39        29.000                                                                                                                                    40420499.804 6 210480157.23906      1317.827 6        40.038                                                                    40420495.994 6 171032362.56706      1070.886 6        41.213
E21        30.000    26752959.480 6 140587761.75606      -279.915 6        40.122                                                                    26752959.949 7 104984373.71607      -209.058 7        43.848    26752959.544 7 107723092.88607      -214.595 7        44.203
C43        31.000                                                                                                                                    23008052.287 8 119809069.36508     -2668.448 8        48.700                                                                    23008050.768 7  97354724.75507     -2168.353 7        47.488
C42        32.000                                                                                                                                    23013148.075 7 119835524.32607     -2085.752 7        47.744                                                                    23013155.242 8  97376222.06708     -1694.872 8        49.308
C28        33.000                                                                                                                                    21804151.003 8 113539946.02508       823.098 8        50.198                                                                    21804149.584 8  92260507.51608       668.821 8        48.827
R13        34.000    23233702.167 6 124066689.19906      -519.894 6        39.802
E34        35.000    24884773.563 7 130770573.36407     -2061.750 7        45.481                                                                    24884773.457 8  97653460.89008     -1539.680 8        48.511    24884773.125 8 100200931.28008     -1579.894 8        49.047
C14        36.000                                                                                                                                    22005776.573 7 114589866.34307      -429.306 7        47.650    22005771.627 8  88608141.34408      -331.992 8        52.298    22005770.582 8  93113631.52308      -348.843 8        49.959
R21        37.000    19366143.130 8 103632201.58008      -604.230 8        51.267                                                                    19366141.972 7  80602845.35907      -469.971 7        46.239
R06        38.000    19531675.349 7 104224788.70807      1146.138 7        42.582
R05        39.000    21508184.615 7 114973596.49907     -3704.014 7        47.859                                                                    21508183.955 7  89423917.47207     -2880.951 7        44.789
C27        40.000                                                                                                                                    24776844.241 7 129019554.24707      2581.311 7        43.172                                                                    24776843.419 7 104838969.04207      2097.440 7        43.221
S44        42.000    40504149.043 6 212850959.79706      -390.060 6        37.134
G08        43.000    20845163.737 8 109542170.08908     -2225.757 8        49.215                                    20845161.875 8  85357576.27508     -1734.356 8        49.598    20845162.672 7  85357574.27007     -1734.364 7        45.457
C05        44.000                                                                                                                                    39157345.097 6 203902607.66906      -310.097 6        38.303    39157338.964 7 157670455.18607      -239.885 7        42.497    39157341.267 6 165687674.92706      -252.098 6        39.877
C11        45.000                                                                                                                                    24685461.959 7 128543811.85507     -3210.134 7        42.064    24685458.321 7  99398288.10407     -2482.319 7        46.349    24685457.601 7 104452414.91207     -2608.505 7        44.614
E09        46.000    28483263.521 5 149680580.15005     -2803.684 5        35.919                                                                    28483263.905 6 111774470.53006     -2093.666 6        39.871    28483263.524 6 114690323.33406     -2148.339 6        40.379
C33        47.000                                                                                                                                    22369975.620 8 116486359.21408      1282.276 8        50.480                                                                    22369986.901 8  94654766.29508      1041.945 8        49.575
C21        48.000                                                                                                                                    27093526.355 6 141083130.12606     -3647.982 6        39.529                                                                    27093521.249 6 114641587.18906     -2964.611 6        38.333
R07        49.000    22206482.165 7 118873080.03407      3916.046 7        47.742                                                                    22206480.515 7  92456836.93907      3045.761 7        42.514
S48        51.000    77200603.860 6 405692140.47506      -372.584 6        37.070
C08        52.000                                                                                                                                    40862351.449 5 212781093.92405     -1387.570 5        33.210    40862345.213 6 164535869.13806     -1073.236 6        37.977    40862345.081 5 172902086.73605     -1127.593 5        35.938
C60        54.000                                                                                                                                    40504155.221 6 210915970.51806      -386.482 6        39.931                                                                    40504138.659 6 171386473.28206      -314.131 6        40.489
R12        55.000    23373501.567 7 124857042.02207     -3064.749 7        42.954                                                                    23373504.249 6  97111032.22506     -2383.671 6        40.265
I09        56.000    37379977.800 7 146687097.88707        49.004 7        42.741
C02        57.000                                                                                                                                    40530570.906 5 211053372.11205      -344.060 5        32.737    40530565.193 6 163199849.82006      -265.980 6        40.076    40530568.506 6 171498156.87406      -279.399 6        36.299
I03        58.000    77960814.957 6 230149746.08806      1092.972 6        40.164
E30        59.000    28745891.953 6 151060869.65306     -3377.917 6        36.726                                                                    28745893.713 6 112805305.76006     -2522.764 6        39.042    28745892.966 6 115748037.19006     -2588.536 6        39.523
R20        60.000    22211749.177 5 118776407.12505     -3520.668 5        34.629                                                                    22211751.868 7  92381717.38707     -2738.296 7        43.007
> 2025 01 02 22 30  5.0000000  0 51
G21         4.000    20682149.663 7 108685493.85707       159.394 7        44.978                                    20682144.297 6  84690001.14106       124.204 6        37.902
S21         5.000    38447903.676 6 202044818.10106      -350.448 6        41.356
E13         6.000    26367062.347 6 138559883.82906      1900.312 6        41.981                                                                    26367063.488 7 103470067.00207      1418.946 7        44.129    26367063.161 7 106169281.64407      1456.097 7        45.123
G10         7.000    22330864.218 7 117349549.92207     -2913.402 7        46.932                                    22330862.047 7  91441224.07107     -2270.185 7        45.219    22330862.304 7  91441218.08607     -2270.240 7        42.500
E15         8.000    23437712.878 8 123166126.35908       129.734 8        48.051                                                                    23437713.477 8  91974774.05708        96.950 8        51.470    23437712.688 8  94374103.72108        99.477 8        51.272
G27        10.000    22847981.327 7 120067100.14507     -3866.146 7        44.578                                    22847979.507 7  93558848.88607     -3012.581 7        43.346    22847979.966 7  93558850.88407     -3012.577 7        42.521
G14        11.000    23930782.129 6 125757113.54506       312.814 6        39.447                                    23930779.391 4  97992548.95004       243.760 4        24.391    23930779.506 6  97992552.94806       243.641 6        40.641
G32        12.000    21913596.097 8 115156753.37808       331.492 8        48.364                                    21913593.962 8  89732535.66708       258.303 8        48.836    21913594.472 7  89732508.67207       258.254 7        45.287
G03        13.000    23809868.585 6 125121734.39606      3193.236 6        40.431                                    23809867.566 5  97497466.09905      2488.232 5        34.900    23809867.720 6  97497471.11006      2488.223 6        37.849
S36        14.000    38216024.916 7 200827075.94507      -349.685 7        43.513
C13        15.000                                                                                                                                    40097498.740 6 208798254.94806     -1268.606 6        38.111    40097500.444 6 161456089.10106      -980.852 6        39.198    40097498.717 6 169665707.81906     -1030.857 6        38.393
C16        17.000                                                                                                                                    41003697.224 6 213517013.58706      1516.594 6        36.832    41003697.441 6 165104902.10006      1172.573 6        37.917    41003694.950 5 173500053.88605      1232.338 5        34.462
E27        18.000    26460618.298 7 139051501.51007     -2648.222 7        42.108                                                                    26460618.269 7 103837163.31907     -1977.530 7        44.539    26460617.846 7 106545956.23607     -2029.147 7        45.171
E05        20.000    23772861.390 7 124927255.80107      -564.209 7        43.987                                                                    23772861.035 7  93289839.06507      -421.321 7        47.243    23772860.964 8  95723489.09108      -432.338 8        48.234
C41        21.000                                                                                                                                    25609489.116 7 133355342.20507      3059.512 7        42.027                                                                    25609494.359 7 108362165.93107      2486.094 7        43.300
I06        22.000    38438447.491 6 150840958.37206      -156.484 6        41.762
E03        23.000    25309539.948 7 133002543.53007      2033.298 7        44.199                                                                    25309539.748 7  99320109.29007      1518.378 7        47.747    25309539.495 8 101911065.36808      1557.960 8        48.100
R22        24.000    21224830.307 8 113299624.54108      2705.804 8        49.381                                                                    21224828.907 7  88121943.69107      2104.515 7        45.664
S23        25.000    38172584.239 7 200598255.21907      -348.121 7        44.110
S45        26.000    63422131.454 6 333286528.43306      -391.934 6        37.418
G02        27.000    21730913.804 7 114196771.50207      1478.263 7        47.469                                    21730907.475 6  88984487.10006      1151.892 6        37.932
S27        28.000    39128560.822 6 205622075.50906      -320.282 6        36.011
C39        29.000                                                                                                                                    40419234.244 6 210473569.34006      1317.336 6        39.793                                                                    40419230.861 6 171027009.35906      1070.496 6        40.963
E21        30.000    26753227.194 6 140589167.25006      -282.171 6        40.222                                                                    26753227.425 7 104985423.27607      -210.666 7        44.008    26753227.051 7 107724169.82807      -216.168 7        44.319
C43        31.000                                                                                                                                    23010615.108 8 119822414.86708     -2669.687 8        48.850                                                                    23010613.647 7  97365569.06107     -2169.304 7        47.513
C42        32.000                                                                                                                                    23015151.734 7 119845958.15207     -2087.667 7        47.896                                                                    23015158.985 8  97384700.39708     -1696.378 8        49.340
C28        33.000                                                                                                                                    21803361.527 8 113535834.63308       821.475 8        50.263                                                                    21803360.038 8  92257166.67308       667.478 8        48.971
R13        34.000    23234191.700 6 124069299.60006      -524.085 6        39.952
E34        35.000    24886735.609 7 130780883.95207     -2062.333 7        45.431                                                                    24886735.440 8  97661160.35408     -1540.047 8        48.503    24886735.167 8 100208831.59808     -1580.244 8        48.962
C14        36.000                                                                                                                                    22006189.871 7 114592019.18807      -431.787 7        47.701    22006185.324 8  88609806.06608      -333.917 8        52.563    22006184.013 8  93115380.88508      -350.845 8        50.038
R21        37.000    19366709.170 8 103635229.44008      -606.777 8        51.665                                                                    19366707.640 7  80605200.36107      -471.983 7        46.214
R06        38.000    19530602.466 7 104219067.67407      1142.335 7        42.455
R05        39.000    21511650.094 7 114992122.53107     -3706.391 7        47.644                                                                    21511649.666 7  89438326.61307     -2882.837 7        44.491
C27        40.000                                                                                                                                    24774366.105 7 129006648.76007      2580.952 7        43.333                                                                    24774364.977 7 104828482.25507      2097.385 7        43.299
S44        42.000    40504524.739 6 212852909.72706      -389.797 6        37.214
G08        43.000    20847282.837 8 109553304.95208     -2228.128 8        49.502                                    20847280.780 8  85366252.78808     -1736.203 8        49.645    20847281.785 7  85366250.79307     -1736.187 7        45.318
C05        44.000                                                                                                                                    39157642.697 6 203904157.87406      -309.981 6        38.270    39157636.797 7 157671653.90107      -239.713 7        42.516    39157638.911 6 165688934.57006      -251.862 6        39.889
C11        45.000                                                                                                                                    24688545.579 7 128559864.35407     -3210.898 7        42.288    24688540.979 7  99410700.92007     -2482.799 7        46.491    24688540.362 7 104465458.88607     -2609.018 7        44.972
E09        46.000    28485931.271 6 149694601.81606     -2804.848 6        36.072                                                                    28485932.070 6 111784941.24106     -2094.540 6        40.124    28485931.800 6 114701067.19206     -2149.177 6        40.384
C33        47.000                                                                                                                                    22368745.342 8 116479953.36808      1280.095 8        50.467                                                                    22368756.750 8  94649561.01408      1040.213 8        49.690
C21        48.000                                                                                                                                    27097029.633 6 141101370.35006     -3647.964 6        38.721                                                                    27097024.174 6 114656408.85906     -2964.306 6        38.174
R07        49.000    22202824.926 7 118853503.26207      3914.769 7        47.545                                                                    22202823.601 7  92441610.55707      3044.805 7        42.671
S48        51.000    77200939.862 6 405694002.88706      -372.404 6        36.987
C08        52.000                                                                                                                                    40863683.268 5 212788031.93805     -1387.329 5        33.521    40863677.899 6 164541234.05406     -1072.726 6        38.021    40863677.170 5 172907724.43805     -1127.036 5        35.929
C60        54.000                                                                                                                                    40504526.294 6 210917902.72806      -386.284 6        39.775                                                                    40504509.639 6 171388043.35206      -313.926 6        40.572
R12        55.000    23376371.578 7 124872371.27507     -3067.113 7        44.266                                                                    23376373.804 6  97122955.00506     -2385.478 6        40.574
I09        56.000    37379915.544 7 146686852.72007        49.021 7        43.075
C02        57.000                                                                                                                                    40530900.201 5 211055091.20405      -343.894 5        32.329    40530895.145 6 163201179.12706      -265.816 6        40.403    40530898.664 6 171499553.76506      -279.350 6        36.643
I03        58.000    77959422.265 6 230144280.82006      1093.152 6        40.186
E30        59.000    28749105.698 6 151077758.82106     -3377.499 6        36.783                                                                    28749107.544 6 112817917.77706     -2522.105 6        39.036    28749106.718 6 115760978.21506     -2587.909 6        39.471
R20        60.000    22215041.488 5 118794013.94305     -3522.097 5        35.038                                                                    22215044.492 7  92395411.58907     -2739.294 7        42.965
> 2025 01 02 22 30 10.0000000  0 51
G21         4.000    20681998.833 7 108684701.09007       157.564 7        45.398                                    20681993.428 6  84689383.40206       122.777 6        37.902
S21         5.000    38448239.406 6 202046570.27906      -350.535 6        41.483
E13         6.000    26365254.566 6 138550383.31206      1899.841 6        41.967                                                                    26365255.720 7 103462972.45607      1418.659 7        43.945    26365255.259 7 106162002.01407      1455.782 7        45.106
G10         7.000    22333636.856 7 117364120.81307     -2914.996 7        46.816                                    22333634.824 7  91452578.01007     -2271.427 7        45.284    22333634.974 7  91452572.01907     -2271.482 7        42.474
E15         8.000    23437590.121 8 123165480.30708       128.520 8        48.231                                                                    23437590.525 8  91974291.62108        95.916 8        51.326    23437589.748 8  94373608.69608        98.453 8        51.283
G27        10.000    22851660.100 7 120086434.28807     -3867.611 7        44.497                                    22851658.856 7  93573914.45207     -3013.721 7        43.281    22851659.135 7  93573916.45307     -3013.755 7        42.413
G14        11.000    23930486.350 6 125755557.75206       309.479 6        40.336                                    23930483.325 4  97991336.64804       241.129 4        24.526    23930483.122 6  97991340.65806       241.100 6        40.520
G32        12.000    21913282.311 8 115155104.20208       328.080 8        48.764                                    21913280.112 8  89731250.60108       255.645 8        48.874    21913280.764 7  89731223.60907       255.653 7        45.181
G03        13.000    23806830.539 6 125105770.72706      3192.114 6        40.918                                    23806829.729 5  97485026.88405      2487.360 5        35.071    23806830.289 6  97485031.89906      2487.471 6        38.387
S36        14.000    38216357.752 7 200828823.97107      -349.946 7        43.784
C13        15.000                                                                                                                                    40098716.752 6 208804597.69906     -1268.443 6        38.441    40098718.292 6 161460993.72106      -980.956 6        39.102    40098716.579 6 169670861.82506     -1030.754 6        38.252
C16        17.000                                                                                                                                    41002241.503 6 213509432.61906      1515.861 6        37.081    41002241.411 6 165099040.00006      1172.251 6        37.524    41002239.217 5 173493893.74705      1231.672 5        34.410
E27        18.000    26463138.523 7 139064746.39307     -2649.920 7        42.423                                                                    26463138.660 7 103847053.98507     -1978.920 7        44.479    26463138.178 7 106556104.90707     -2030.456 7        45.192
E05        20.000    23773399.791 7 124930083.59307      -566.953 7        43.869                                                                    23773399.222 7  93291950.72107      -423.374 7        47.058    23773399.071 8  95725655.83708      -434.475 8        48.234
C41        21.000                                                                                                                                    25606551.423 7 133340047.00107      3058.625 7        42.159                                                                    25606557.110 7 108349737.33807      2485.285 7        43.372
I06        22.000    38438646.997 6 150841740.58806      -156.593 6        41.971
E03        23.000    25307606.213 7 132992381.18207      2031.538 7        44.411                                                                    25307605.947 7  99312520.52707      1517.053 7        47.568    25307605.791 8 101903278.63308      1556.656 8        48.104
R22        24.000    21222296.550 8 113286098.55408      2704.486 8        49.025                                                                    21222295.243 7  88111423.48707      2103.472 7        45.521
S23        25.000    38172913.381 7 200599996.61007      -348.446 7        44.123
S45        26.000    63422461.106 6 333288487.39106      -391.912 6        37.505
G02        27.000    21729508.002 7 114189383.22107      1476.826 7        47.296                                    21729501.539 6  88978730.00506      1150.771 6        37.947
S27        28.000    39128870.831 5 205623678.02005      -320.583 5        35.924
C39        29.000                                                                                                                                    40417969.632 6 210466984.29206      1316.469 6        39.979                                                                    40417966.043 6 171021658.47406      1069.780 6        40.970
E21        30.000    26753496.710 6 140590584.45706      -284.788 6        40.393                                                                    26753497.083 7 104986481.59007      -212.758 7        43.881    26753496.607 7 107725255.74007      -218.341 7        44.354
C43        31.000                                                                                                                                    23013179.392 8 119835767.63908     -2671.490 8        48.952                                                                    23013177.960 7  97376419.29307     -2170.808 7        47.472
C42        32.000                                                                                                                                    23017157.605 8 119856402.28608     -2090.092 8        48.037                                                                    23017164.672 8  97393187.12108     -1698.320 8        49.292
C28        33.000                                                                                                                                    21802573.540 8 113531732.06808       819.395 8        50.258                                                                    21802572.189 8  92253833.00508       665.890 8        48.943
R13        34.000    23234684.162 6 124071930.57606      -528.447 6        39.207
E34        35.000    24888698.163 7 130791197.89607     -2063.356 7        45.335                                                                    24888698.117 8  97668862.32708     -1540.804 8        48.367    24888697.912 8 100216734.49308     -1581.043 8        49.044
C14        36.000                                                                                                                                    22006605.656 7 114594185.17607      -434.688 7        47.964    22006601.358 8  88611480.94908      -336.172 8        52.433    22006599.980 8  93117140.93408      -353.254 8        50.032
R21        37.000    19367277.949 8 103638271.06608      -609.948 8        52.009                                                                    19367275.798 7  80607566.06207      -474.376 7        46.204
R06        38.000    19529535.187 7 104213367.21407      1137.784 7        42.677
R05        39.000    21515118.057 7 115010661.08307     -3709.170 7        47.484                                                                    21515117.789 7  89452745.48307     -2884.948 7        45.162
C27        40.000                                                                                                                                    24771888.025 7 128993745.29107      2580.336 7        43.251                                                                    24771886.958 7 104817997.15407      2096.744 7        43.302
S44        42.000    40504894.377 6 212854859.21206      -390.148 6        37.183
G08        43.000    20849404.377 8 109564452.78908     -2231.160 8        49.326                                    20849402.135 8  85374939.41508     -1738.566 8        49.652    20849402.936 7  85374937.42007     -1738.624 7        44.957
C05        44.000                                                                                                                                    39157940.270 6 203905707.61706      -309.995 6        38.150    39157934.222 7 157672852.25307      -239.780 7        42.523    39157936.440 6 165690193.87406      -251.925 6        40.045
C11        45.000                                                                                                                                    24691628.581 7 128575921.12907     -3212.123 7        42.203    24691624.783 7  99423117.03607     -2483.700 7        46.208    24691623.908 7 104478506.33607     -2610.039 7        44.903
E09        46.000    28488600.665 5 149708629.52905     -2806.340 5        35.762                                                                    28488601.537 6 111795416.45606     -2095.623 6        39.799    28488601.157 6 114711815.69406     -2150.328 6        40.427
C33        47.000                                                                                                                                    22367517.299 8 116473559.19608      1277.400 8        50.372                                                                    22367528.828 8  94644365.23508      1038.071 8        49.686
C21        48.000                                                                                                                                    27100532.715 6 141119611.81606     -3648.567 6        39.132                                                                    27100527.203 6 114671231.51906     -2964.720 6        38.477
R07        49.000    22199168.794 7 118833933.46307      3913.013 7        47.507                                                                    22199167.395 7  92426389.60007      3043.494 7        42.603
S48        51.000    77201277.930 6 405695864.69006      -372.387 6        37.176
C08        52.000                                                                                                                                    40865014.876 5 212794968.17305     -1387.627 5        33.659    40865010.245 6 164546597.55506     -1072.809 6        37.497    40865009.540 5 172913360.70905     -1127.243 5        35.824
C60        54.000                                                                                                                                    40504896.906 6 210919834.49706      -386.568 6        39.967                                                                    40504880.609 6 171389613.08406      -314.140 6        40.572
R12        55.000    23379243.829 7 124887713.33207     -3069.852 7        44.137                                                                    23379244.853 6  97134887.68106     -2387.776 6        39.802
I09        56.000    37379853.049 7 146686608.40407        48.621 7        43.026
C02        57.000                                                                                                                                    40531230.126 5 211056809.87805      -343.964 5        32.623    40531225.003 6 163202508.11806      -265.952 6        39.970    40531228.576 6 171500950.34706      -279.481 6        36.333
I03        58.000    77958029.368 6 230138815.37806      1092.970 6        40.055
E30        59.000    28752319.034 6 151094644.99606     -3377.066 6        36.552                                                                    28752321.007 6 112830527.59206     -2521.931 6        38.928    28752320.103 6 115773916.96306     -2587.621 6        39.387
R20        60.000    22218336.203 5 118811627.64205     -3523.578 5        34.824                                                                    22218338.720 7  92409111.14807     -2740.599 7        43.769
> 2025 01 02 22 30 15.0000000  0 51
G21         4.000    20681849.583 7 108683916.59707       155.964 7        45.565                                    20681844.157 6  84688772.11006       121.530 6        37.981
S21         5.000    38448570.677 6 202048322.11706      -350.283 6        41.368
E13         6.000    26363446.918 6 138540884.04606      1899.674 6        41.695                                                                    26363447.993 7 103455878.87007      1418.497 7        43.949    26363447.659 7 106154723.37207      1455.636 7        45.163
G10         7.000    22336411.021 7 117378697.76307     -2916.081 7        46.130                                    22336408.772 7  91463936.67307     -2272.271 7        45.318    22336409.064 7  91463930.67007     -2272.136 7        42.567
E15         8.000    23437468.133 8 123164839.28708       127.618 8        48.048                                                                    23437468.525 8  91973812.94308        95.318 8        51.252    23437467.792 8  94373117.53208        97.774 8        51.362
G27        10.000    22855340.716 7 120105774.57907     -3868.871 7        44.077                                    22855339.238 7  93588984.80507     -3014.703 7        43.107    22855339.171 6  93588986.79706     -3014.531 6        41.838
G14        11.000    23930193.432 6 125754017.28006       306.418 6        40.365                                    23930190.139 4  97990136.28404       238.765 4        24.842    23930189.802 6  97990140.28806       238.716 6        40.884
G32        12.000    21912971.639 8 115153470.57508       325.078 8        49.031                                    21912969.218 8  89729977.65008       253.307 8        48.930    21912969.666 7  89729950.65007       253.296 7        45.144
G03        13.000    23803793.555 6 125089811.33306      3191.432 6        40.729                                    23803792.715 5  97472591.00105      2486.833 5        35.171    23803793.138 6  97472596.00306      2486.744 6        38.114
S36        14.000    38216689.359 7 200830572.36007      -349.841 7        43.653
C13        15.000                                                                                                                                    40099934.767 6 208810939.41706     -1268.378 6        38.673    40099936.523 6 161465897.54706      -980.689 6        39.159    40099934.467 6 169676015.00006     -1030.644 6        38.276
C16        17.000                                                                                                                                    41000785.791 6 213501853.73906      1515.627 6        37.164    41000786.576 6 165093179.53506      1171.952 6        37.490    41000783.914 5 173487735.27805      1231.417 5        34.405
E27        18.000    26465660.444 7 139077998.20707     -2651.104 7        42.442                                                                    26465660.356 7 103856949.82507     -1979.693 7        44.412    26465659.964 7 106566258.91107     -2031.430 7        45.243
E05        20.000    23773940.154 7 124932923.61807      -569.272 7        44.163                                                                    23773939.643 7  93294071.52807      -425.149 7        47.129    23773939.512 8  95727831.96108      -436.166 8        48.258
C41        21.000                                                                                                                                    25603614.871 7 133324755.05207      3057.961 7        42.290                                                                    25603620.522 7 108337311.37907      2484.827 7        43.242
I06        22.000    38438846.378 7 150842522.69707      -156.511 7        42.275
E03        23.000    25305673.748 7 132982226.50207      2030.115 7        44.621                                                                    25305673.693 7  99304937.49307      1515.996 7        47.494    25305673.341 8 101895497.77708      1555.579 8        48.088
R22        24.000    21219763.634 8 113272577.91808      2703.565 8        49.184                                                                    21219762.002 7  88100907.44707      2102.752 7        44.802
S23        25.000    38173246.088 7 200601737.77207      -348.235 7        44.271
S45        26.000    63422788.492 6 333290446.22506      -391.915 6        37.346
G02        27.000    21728103.110 7 114182000.69707      1475.811 7        47.473                                    21728096.707 6  88972977.39606      1149.983 6        37.985
S27        28.000    39129171.574 5 205625279.88305      -320.267 5        35.624
C39        29.000                                                                                                                                    40416705.847 6 210460402.54606      1316.128 6        39.934                                                                    40416701.820 6 171016310.25806      1069.379 6        40.751
E21        30.000    26753768.663 6 140592013.84406      -287.228 6        40.524                                                                    26753769.119 7 104987548.98807      -214.448 7        43.725    26753768.686 7 107726350.98107      -220.017 7        44.378
C43        31.000                                                                                                                                    23015745.157 8 119849128.13608     -2672.896 8        48.888                                                                    23015743.708 7  97387275.78607     -2172.017 7        47.576
C42        32.000                                                                                                                                    23019165.267 8 119866857.16908     -2092.067 8        48.273                                                                    23019172.473 8  97401682.56508     -1700.017 8        49.267
C28        33.000                                                                                                                                    21801787.270 8 113527638.78508       817.700 8        50.328                                                                    21801786.097 8  92250506.87608       664.382 8        48.976
R13        34.000    23235181.435 6 124074582.59106      -532.524 6        39.775
E34        35.000    24890661.822 7 130801515.67507     -2064.010 7        45.290                                                                    24890661.609 8  97676567.16708     -1541.308 8        48.355    24890661.339 8 100224640.32808     -1581.448 8        49.121
C14        36.000                                                                                                                                    22007024.401 7 114596364.77507      -437.343 7        47.868    22007019.733 8  88613166.35108      -338.187 8        52.412    22007018.550 8  93118912.03608      -355.429 8        50.091
R21        37.000    19367848.700 8 103641326.89408      -612.656 8        51.844                                                                    19367846.813 7  80609942.82907      -476.498 7        46.194
R06        38.000    19528470.417 7 104207687.94107      1133.570 7        42.434
R05        39.000    21518588.574 7 115029212.67507     -3711.674 7        47.602                                                                    21518588.571 7  89467174.50907     -2886.865 7        45.582
C27        40.000                                                                                                                                    24769411.006 7 128980844.35907      2579.849 7        43.953                                                                    24769409.447 7 104807514.09507      2096.306 7        43.228
S44        42.000    40505265.446 6 212856808.73306      -390.043 6        37.077
G08        43.000    20851528.197 8 109575614.04208     -2233.662 8        49.567                                    20851526.053 8  85383636.49708     -1740.516 8        49.650    20851526.932 7  85383634.49907     -1740.515 7        45.064
C05        44.000                                                                                                                                    39158237.776 6 203907257.33206      -310.097 6        38.450    39158231.683 7 157674050.60607      -239.695 7        42.322    39158234.254 6 165691453.14606      -251.886 6        39.946
C11        45.000                                                                                                                                    24694712.786 7 128591982.63607     -3212.874 7        42.190    24694709.467 7  99435536.82907     -2484.393 7        46.512    24694708.086 7 104491557.61807     -2610.739 7        44.691
E09        46.000    28491271.528 5 149722663.83005     -2807.529 5        35.629                                                                    28491272.237 6 111805896.60306     -2096.544 6        40.129    28491271.718 6 114722569.23106     -2151.276 6        40.589
C33        47.000                                                                                                                                    22366291.759 8 116467177.16008      1275.110 8        50.447                                                                    22366303.207 8  94639179.30308      1036.150 8        49.754
C21        48.000                                                                                                                                    27104036.026 6 141137854.90906     -3648.835 6        39.228                                                                    27104030.664 6 114686055.51806     -2965.003 6        38.315
R07        49.000    22195514.424 7 118814371.17507      3911.710 7        47.572                                                                    22195513.060 7  92411174.50507      3042.410 7        42.798
S48        51.000    77201621.306 6 405697726.37506      -372.396 6        37.471
C08        52.000                                                                                                                                    40866347.384 5 212801902.84605     -1386.903 5        34.024    40866341.553 6 164551959.93506     -1072.351 6        37.626    40866340.928 5 172918995.71605     -1126.944 5        35.814
C60        54.000                                                                                                                                    40505268.136 6 210921766.28906      -386.537 6        40.017                                                                    40505251.579 6 171391182.81806      -314.039 6        40.665
R12        55.000    23382119.338 7 124903068.63907     -3072.430 7        44.423                                                                    23382120.100 6  97146830.69106     -2389.604 6        40.625
I09        56.000    37379791.113 7 146686365.27707        48.416 7        42.876
C02        57.000                                                                                                                                    40531560.449 5 211058528.63205      -343.722 5        32.521    40531555.201 6 163203837.17606      -265.778 6        40.088    40531558.591 6 171502346.96806      -279.455 6        36.518
I03        58.000    77956636.820 6 230133350.09406      1093.051 6        40.195
E30        59.000    28755531.988 6 151111528.67106     -3376.286 6        36.677                                                                    28755534.044 6 112843135.50606     -2521.368 6        38.907    28755532.997 6 115786853.81106     -2587.262 6        39.658
R20        60.000    22221631.488 5 118829248.89705     -3524.993 5        34.609                                                                    22221633.447 7  92422816.54507     -2741.710 7        43.069
> 2025 01 02 22 30 20.0000000  0 51
G21         4.000    20681701.956 7 108683140.18107       154.305 7        45.696                                    20681696.405 6  84688167.11306       120.235 6        37.951
S21         5.000    38448905.298 6 202050073.52306      -350.537 6        41.578
E13         6.000    26361639.494 6 138531385.87206      1899.368 6        41.282                                                                    26361640.504 7 103448786.06207      1418.368 7        43.863    26361640.127 7 106147445.54607      1455.363 7        45.017
G10         7.000    22339185.743 7 117393280.57307     -2917.258 7        46.026                                    22339183.861 7  91475299.90207     -2273.183 7        45.254    22339183.772 7  91475293.90107     -2273.198 7        42.946
E15         8.000    23437347.093 7 123164203.10407       126.674 7        47.882                                                                    23437347.451 8  91973337.87208        94.524 8        51.172    23437346.719 8  94372630.06408        97.007 8        51.147
G27        10.000    22859022.498 7 120125120.78307     -3870.085 7        43.788                                    22859020.582 7  93604059.76707     -3015.650 7        42.840    22859020.465 6  93604061.76706     -3015.670 6        41.175
G14        11.000    23929902.577 6 125752491.93506       303.339 6        39.991                                    23929899.882 4  97988947.70604       236.351 4        24.662    23929900.229 6  97988951.70406       236.394 6        40.911
G32        12.000    21912663.445 8 115151852.28508       321.982 8        49.031                                    21912661.230 8  89728716.64908       250.895 8        48.927    21912661.843 7  89728689.65207       250.871 7        45.040
G03        13.000    23800756.865 6 125073856.04306      3190.545 6        40.305                                    23800756.510 5  97460158.31205      2486.134 5        35.105    23800757.120 6  97460163.30406      2486.171 6        37.811
S36        14.000    38217018.573 7 200832320.45007      -349.875 7        43.581
C13        15.000                                                                                                                                    40101152.102 6 208817279.76306     -1267.936 6        38.787    40101153.689 6 161470800.31306      -980.580 6        39.009    40101152.054 6 169681167.04706     -1030.459 6        38.081
C16        17.000                                                                                                                                    40999330.817 6 213494276.77406      1514.830 6        37.198    40999331.068 6 165087320.53406      1171.481 6        37.263    40999328.601 5 173481578.36005      1231.000 5        34.490
E27        18.000    26468183.153 7 139091256.78707     -2652.488 7        42.047                                                                    26468183.342 7 103866850.69107     -1980.751 7        44.349    26468183.102 7 106576418.05507     -2032.425 7        45.011
E05        20.000    23774482.874 7 124935775.67007      -571.778 7        44.137                                                                    23774482.448 7  93296201.29607      -426.907 7        46.973    23774482.195 8  95730017.29508      -438.121 8        48.077
C41        21.000                                                                                                                                    25600679.134 7 133309466.16907      3057.418 7        42.118                                                                    25600684.372 7 108324887.91807      2484.292 7        43.141
I06        22.000    38439045.658 7 150843304.51807      -156.407 7        42.203
E03        23.000    25303742.528 7 132972079.27907      2028.560 7        44.327                                                                    25303742.759 7  99297360.02407      1514.861 7        47.382    25303742.300 7 101887722.63407      1554.295 7        47.851
R22        24.000    21217232.341 8 113259062.49508      2702.459 8        49.512                                                                    21217230.427 7  88090395.44707      2101.875 7        45.258
S23        25.000    38173577.440 7 200603478.64107      -348.163 7        44.199
S45        26.000    63423117.612 6 333290804.71416      -391.829 6        37.497
G02        27.000    21726699.307 7 114174623.75407      1474.723 7        47.638                                    21726692.886 6  88967229.13006      1149.135 6        38.018
S27        28.000    39129470.770 5 205626881.49605      -320.347 5        35.481
C39        29.000                                                                                                                                    40415443.009 6 210453823.92706      1315.371 6        39.736                                                                    40415438.605 6 171010964.58406      1068.824 6        40.355
E21        30.000    26754043.229 6 140593455.18006      -289.593 6        40.539                                                                    26754043.409 7 104988625.30907      -216.294 7        43.733    26754042.970 7 107727455.38407      -221.888 7        44.224
C43        31.000                                                                                                                                    23018312.271 8 119862496.15208     -2674.497 8        48.656                                                                    23018310.978 7  97398138.38007     -2173.233 7        47.500
C42        32.000                                                                                                                                    23021175.101 8 119877322.60108     -2094.300 8        48.135                                                                    23021182.263 8  97410186.58408     -1701.841 8        49.360
C28        33.000                                                                                                                                    21801003.091 8 113523554.58708       815.800 8        50.127                                                                    21801001.751 8  92247188.12308       662.907 8        48.903
R13        34.000    23235682.702 6 124077255.40106      -536.699 6        39.303
E34        35.000    24892625.865 7 130811837.07707     -2064.794 7        45.214                                                                    24892625.625 8  97684274.70208     -1541.853 8        48.249    24892625.403 8 100232548.93008     -1582.076 8        49.022
C14        36.000                                                                                                                                    22007444.966 7 114598557.74407      -440.047 7        47.656    22007440.745 8  88614862.08608      -340.281 8        52.324    22007439.698 8  93120693.98908      -357.576 8        49.993
R21        37.000    19368421.844 8 103644396.77908      -615.551 8        51.267                                                                    19368421.007 7  80612330.50807      -478.662 7        46.415
