     3.04           OBSERVATION DATA    M                   RINEX VERSION / TYPE
ssrcrin-15.6.1x                         20250102 191500 UTC PGM / RUN BY / DATE 
(00000000023479385599111004) Septentrio proprietary         COMMENT             
rref                                                        MARKER NAME         
01                                                          MARKER NUMBER       
geodetic                                                    MARKER TYPE         
NFB                 CLIMERS@TUW                             OBSERVER / AGENCY   
3297213             SEPT ASTERX SB3 PROB4.14.4              REC # / TYPE / VERS 
Unknown             Unknown                                 ANT # / TYPE        
  4127831.6163  1207193.1158  4695247.4928                  APPROX POSITION XYZ 
        0.0000        0.0000        0.0000                  ANTENNA: DELTA H/E/N
G   23 X1  C1C L1C D1C S1C C1W S1W C2W L2W D2W S2W C2L L2L  SYS / # / OBS TYPES 
       D2L S2L C5Q L5Q D5Q S5Q C1L L1L D1L S1L              SYS / # / OBS TYPES 
E   21 X1  C1C L1C D1C S1C C6C L6C D6C S6C C5Q L5Q D5Q S5Q  SYS / # / OBS TYPES 
       C7Q L7Q D7Q S7Q C8Q L8Q D8Q S8Q                      SYS / # / OBS TYPES 
S    9 X1  C1C L1C D1C S1C C5I L5I D5I S5I                  SYS / # / OBS TYPES 
R   17 X1  C1C L1C D1C S1C C2P L2P D2P S2P C2C L2C D2C S2C  SYS / # / OBS TYPES 
       C3Q L3Q D3Q S3Q                                      SYS / # / OBS TYPES 
C   25 X1  C1P L1P D1P S1P C5P L5P D5P S5P C2I L2I D2I S2I  SYS / # / OBS TYPES 
       C7I L7I D7I S7I C6I L6I D6I S6I C7D L7D D7D S7D      SYS / # / OBS TYPES 
J   17 X1  C1C L1C D1C S1C C2L L2L D2L S2L C5Q L5Q D5Q S5Q  SYS / # / OBS TYPES 
       C1L L1L D1L S1L                                      SYS / # / OBS TYPES 
I    5 X1  C5A L5A D5A S5A                                  SYS / # / OBS TYPES 
SEPTENTRIO RECEIVERS OUTPUT ALIGNED CARRIER PHASES.         COMMENT             
NO FURTHER PHASE SHIFT APPLIED IN THE RINEX ENCODER.        COMMENT             
G L1C                                                       SYS / PHASE SHIFT   
G L2W                                                       SYS / PHASE SHIFT   
G L2L  0.00000                                              SYS / PHASE SHIFT   
G L5Q  0.00000                                              SYS / PHASE SHIFT   
G L1L  0.00000                                              SYS / PHASE SHIFT   
E L1C  0.00000                                              SYS / PHASE SHIFT   
E L6C  0.00000                                              SYS / PHASE SHIFT   
E L5Q  0.00000                                              SYS / PHASE SHIFT   
E L7Q  0.00000                                              SYS / PHASE SHIFT   
E L8Q  0.00000                                              SYS / PHASE SHIFT   
S L1C                                                       SYS / PHASE SHIFT   
S L5I                                                       SYS / PHASE SHIFT   
R L1C                                                       SYS / PHASE SHIFT   
R L2P  0.00000                                              SYS / PHASE SHIFT   
R L2C                                                       SYS / PHASE SHIFT   
R L3Q  0.00000                                              SYS / PHASE SHIFT   
C L1P  0.00000                                              SYS / PHASE SHIFT   
C L5P  0.00000                                              SYS / PHASE SHIFT   
C L2I                                                       SYS / PHASE SHIFT   
C L7I                                                       SYS / PHASE SHIFT   
C L6I                                                       SYS / PHASE SHIFT   
C L7D                                                       SYS / PHASE SHIFT   
J L1C                                                       SYS / PHASE SHIFT   
J L2L  0.00000                                              SYS / PHASE SHIFT   
J L5Q  0.00000                                              SYS / PHASE SHIFT   
J L1L  0.00000                                              SYS / PHASE SHIFT   
I L5A                                                       SYS / PHASE SHIFT   
  2025     1     2    19    15    0.0000000     GPS         TIME OF FIRST OBS   
 C1C    0.000 C2C    0.000 C2P    0.000                     GLONASS COD/PHS/BIS 
DBHZ                                                        SIGNAL STRENGTH UNIT
    18                                                      LEAP SECONDS        
 24 R01  1 R02 -4 R03  5 R04  6 R05  1 R06 -4 R07  5 R08  6 GLONASS SLOT / FRQ #
    R09 -2 R10 -7 R11  0 R12 -1 R13 -2 R14 -7 R15  0 R16 -1 GLONASS SLOT / FRQ #
    R17  4 R18 -3 R19  3 R20  2 R21  4 R22 -3 R23  3 R24  2 GLONASS SLOT / FRQ #
                                                            END OF HEADER       
> 2025 01 02 19 15  0.0000000  0 58
G23         1.000    20935572.604 8 110017258.78808       367.643 8        48.230                                    20935568.818 6  85727757.33006       286.472 6        39.243    20935569.187 7  85727755.32607       286.486 7        46.707
E11         2.000    28480336.255 5 149665369.10905     -3199.786 5        32.228                                                                    28480333.061 5 111763223.66405     -2389.917 5        35.571    28480332.938 5 114678772.45705     -2452.082 5        35.514
G16         3.000    20642035.051 8 108474833.83908     -1451.478 8        48.884                                    20642029.991 6  84525929.85706     -1131.022 6        39.877
S21         5.000    38425299.357 7 201926029.23507      -455.821 7        42.444
G26         6.000    22030364.499 7 115770582.44907     -3334.968 7        46.802                                    22030363.781 7  90210974.90607     -2598.675 7        45.133    22030363.626 7  90210961.90207     -2598.643 7        42.764
G10         7.000    22530705.228 7 118399712.24907      2596.129 7        47.082                                    22530703.589 7  92259530.43707      2022.958 7        45.157    22530703.080 7  92259524.43607      2023.139 7        42.197
E15         8.000    26881999.389 6 141265946.85306      2103.249 6        40.756                                                                    26882001.097 7 105490866.42507      1570.596 7        43.079    26882000.528 7 108242790.63607      1611.657 7        43.837
E36         9.000    24407883.758 7 128264485.69807     -2194.233 7        46.214                                                                    24407884.026 8  95782064.60608     -1638.543 8        49.064    24407883.731 8  98280714.44008     -1681.296 8        49.695
G27        10.000    20901043.844 8 109835875.04908      1545.041 8        48.524                                    20901042.256 8  85586465.50908      1203.928 8        49.889    20901042.617 7  85586467.51207      1203.997 7        45.282
G15        11.000    23787634.817 6 125004880.83906       555.648 6        41.097                                    23787630.862 5  97406391.99605       432.972 5        32.731    23787631.600 6  97406394.97306       433.210 6        36.333
G13        12.000    24825598.903 6 130459400.85906       -65.814 6        36.552                                    24825596.119 2 101656663.80702       -51.303 2        14.333
C23        13.000                                                                                                                                    23928729.077 7 124603223.89807     -1348.402 7        47.097                                                                    23928720.846 7 101250318.41007     -1095.696 7        47.511
S36        14.000    38195175.766 7 200717528.80007      -455.091 7        44.129
C13        15.000                                                                                                                                    37934526.776 7 197535097.52107     -1114.156 7        44.135    37934529.069 7 152746701.73107      -861.419 7        45.010    37934527.148 7 160513470.14407      -905.095 7        42.709
G18        16.000    21774311.688 7 114425010.89707     -2774.525 7        47.206                                    21774308.064 6  89162443.42706     -2161.968 6        36.234    21774308.312 7  89162451.42107     -2161.941 7        45.409
R10        17.000    20330378.298 7 108372392.69307     -1735.738 7        46.501
E27        18.000    26797199.722 6 140820242.30606      2020.625 6        41.454                                                                    26797200.451 7 105157974.12707      1508.920 7        44.223    26797199.843 7 107901223.23007      1548.184 7        44.752
E02        19.000    24954966.003 7 131139417.73107     -3024.643 7        46.148                                                                    24954965.594 8  97928894.74608     -2258.748 8        48.489    24954965.030 8 100483546.75108     -2317.624 8        48.525
S27        20.000    39176657.179 6 205874708.55006      -426.024 6        36.011
R11        21.000    21987202.123 7 117492958.64607      2310.643 7        46.824                                                                    21987201.382 7  91383414.75307      1797.192 7        44.786
I06        22.000    38666641.095 6 151736424.98606      -288.696 6        41.776
S28        23.000    40895173.463 5 214905592.50905      -448.732 5        34.219
E04        24.000    28128284.673 6 147815119.11806        34.616 6        36.715                                                                    28128284.431 6 110381419.99806        25.859 6        41.397    28128283.706 6 113260931.22306        26.570 6        41.354
S23        25.000    38151717.614 7 200488577.11207      -456.716 7        45.023
S45        26.000    63407776.652 6 333211134.05906      -508.066 6        37.826
R09        27.000    21755746.450 7 116174669.09407     -4490.161 7        47.811                                                                    21755745.581 7  90358185.74307     -3492.342 7        45.430
R18        28.000    24178845.106 6 129068592.09606     -3868.959 6        40.460                                                                    24178845.809 6 100386830.67206     -3008.980 6        37.834
C38        29.000                                                                                                                                    39639356.379 6 206412649.36406     -1605.332 6        41.306                                                                    39639354.243 6 167727230.21606     -1304.363 6        40.791
C44        30.000                                                                                                                                    25405844.020 7 132295106.62907     -3192.177 7        42.671                                                                    25405843.028 6 107500693.23906     -2593.727 6        41.230
C43        31.000                                                                                                                                    22214510.406 8 115676887.97408       992.858 8        50.246                                                                    22214509.197 8  93996988.58408       806.879 8        48.799
C42        32.000                                                                                                                                    25682561.956 6 133735843.66706      2856.731 6        41.793                                                                    25682570.776 7 108671365.79707      2321.461 7        43.755
I02        33.000    39553157.717 6 155215141.72106      -996.527 6        39.438
R03        34.000    22207283.386 7 118877365.03307     -1370.108 7        46.092                                                                    22207282.088 7  92460174.74707     -1065.666 7        42.100
E34        35.000    23496839.220 8 123476928.38708       352.237 8        49.349                                                                    23496839.153 8  92206907.65708       263.051 8        51.018    23496839.005 8  94612294.07108       269.915 8        51.571
G29        36.000    25198745.987 6 132420583.20006     -3757.088 6        39.210                                    25198742.439 5 103184976.19505     -2927.606 5        30.015    25198743.401 5 103184986.18805     -2927.602 5        34.467
R21        37.000    23679450.935 7 126713538.68807      2820.949 7        43.824                                                                    23679452.267 6  98554986.44106      2193.888 6        37.962
C22        38.000                                                                                                                                    24918059.671 7 129754899.18007     -1583.342 7        43.200                                                                    24918053.103 7 105436467.98507     -1286.597 7        43.668
C12        40.000                                                                                                                                    23645590.194 7 123128995.09807     -2650.492 7        45.257    23645586.773 8  95211246.06308     -2049.483 8        48.752    23645585.579 7 100052467.51507     -2153.646 7        46.648
R04        41.000    21759775.351 8 116522631.47008      2104.904 8        48.349                                                                    21759774.491 7  90628719.00007      1637.175 7        44.500
S44        42.000    40466397.195 6 212652549.49506      -428.861 6        37.512
G08        43.000    23454117.810 6 123252284.70606      2748.132 6        40.267                                    23454117.690 5  96040775.16105      2141.395 5        34.524    23454118.212 6  96040773.18106      2141.447 6        38.643
C05        44.000                                                                                                                                    39258882.566 6 204431334.51406      -385.330 6        38.414    39258877.006 7 158079298.47107      -297.896 7        42.518    39258880.019 6 166117307.38606      -313.139 6        40.355
C11        45.000                                                                                                                                    21569790.243 8 112319705.90208      -215.099 8        48.739    21569787.347 8  86852782.09308      -166.347 8        52.311    21569786.023 8  91269001.36308      -174.767 8        49.281
E09        46.000    28337292.747 6 148913480.30406      1807.360 6        36.922                                                                    28337293.956 6 111201631.17506      1349.765 6        40.038    28337293.500 6 114102540.91006      1385.143 6        41.344
G07        47.000    25180804.100 6 132326033.56506       214.301 6        39.883                                    25180799.894 5 103111181.88805       166.986 5        31.321    25180800.405 5 103111189.88405       167.068 5        35.829
C21        48.000                                                                                                                                    24145516.112 7 125732063.60607      1238.315 7        46.580                                                                    24145510.968 7 102167587.65507      1006.403 7        46.717
E06        49.000    27998731.066 6 147134338.68406      1053.605 6        37.259                                                                    27998731.925 6 109873048.07506       786.874 6        40.389    27998731.689 6 112739298.95306       807.417 6        40.584
R19        50.000    20930462.880 6 111964129.39306     -2981.447 6        38.823                                                                    20930462.985 7  87083325.01107     -2318.880 7        43.103
S48        51.000    77163312.626 6 405497122.45106      -494.433 6        37.826
C08        52.000                                                                                                                                    38249875.541 6 199177242.79506     -1383.831 6        40.770    38249869.070 7 154016508.34307     -1070.056 7        44.587    38249868.807 6 161847843.26706     -1124.388 6        41.871
C34        53.000                                                                                                                                    21707610.045 8 113037504.43108     -1490.679 8        50.921                                                                    21707609.543 8  91852348.54108     -1211.231 8        49.294
C60        54.000                                                                                                                                    40466401.101 6 210719363.86206      -424.942 6        40.238                                                                    40466384.813 6 171226712.05206      -345.263 6        39.351
C25        55.000                                                                                                                                    24676665.424 7 128498109.40907     -3528.930 7        44.272                                                                    24676664.032 7 104415330.82207     -2867.527 7        44.172
I09        56.000    39089865.787 6 153397047.85506       446.109 6        41.824
C02        57.000                                                                                                                                    40595743.124 5 211392725.50905      -381.336 5        34.176    40595736.628 6 163462256.58106      -294.961 6        39.547    40595740.415 6 171773907.03706      -309.838 6        36.318
I03        58.000    82122797.855 6 246482246.54406      1101.769 6        40.453
E30        59.000    24097322.150 8 126632502.20108      -379.927 8        48.587                                                                    24097321.646 8  94563352.26008      -283.686 8        50.550    24097321.344 8  97030205.56608      -291.106 8        51.323
R20        60.000    19937173.717 6 106613231.97906       815.500 6        41.108                                                                    19937175.621 7  82921471.28707       634.284 7        46.971
> 2025 01 02 19 15  5.0000000  0 58
G23         1.000    20935224.042 8 110015427.82708       364.430 8        48.164                                    20935220.371 6  85726330.60106       283.972 6        39.372    20935220.748 7  85726328.60107       283.995 7        46.921
E11         2.000    28483380.906 5 149681368.39605     -3199.782 5        32.228                                                                    28483377.722 5 111775171.18305     -2389.807 5        35.405    28483377.466 6 114691031.64006     -2451.737 6        36.004
G16         3.000    20643417.481 8 108482098.79808     -1454.773 8        49.009                                    20643412.465 6  84531590.86306     -1133.589 6        40.083
S21         5.000    38425739.785 7 201928307.25207      -455.628 7        42.341
G26         6.000    22033538.449 7 115787260.63607     -3336.725 7        46.687                                    22033537.506 7  90223970.89307     -2600.047 7        45.308    22033537.576 7  90223957.89407     -2599.920 7        42.328
G10         7.000    22528235.423 7 118386734.38707      2594.582 7        47.035                                    22528233.965 7  92249417.82107      2021.753 7        45.506    22528233.958 7  92249411.82707      2021.665 7        42.282
E15         8.000    26879998.110 6 141255431.62006      2102.566 6        41.309                                                                    26880000.038 7 105483014.13807      1570.118 7        42.967    26879999.631 7 108234733.51707      1611.065 7        43.924
E36         9.000    24409971.625 7 128275458.24407     -2195.153 7        46.263                                                                    24409972.063 8  95790258.38708     -1639.189 8        48.968    24409971.720 8  98289121.96708     -1681.958 8        49.833
G27        10.000    20899574.511 8 109828152.95008      1543.440 8        48.456                                    20899572.782 8  85580448.29208      1202.679 8        50.085    20899573.257 7  85580450.28807      1202.657 7        44.942
G15        11.000    23787107.187 6 125002108.93406       552.600 6        40.946                                    23787103.264 5  97404232.07305       430.595 5        33.078    23787103.869 6  97404235.07806       430.616 6        36.208
G13        12.000    24825662.570 6 130459736.60206       -68.707 6        36.200                                    24825660.135 2 101656925.45302       -53.525 2        15.476
C23        13.000                                                                                                                                    23930024.768 7 124609971.83707     -1351.055 7        46.888                                                                    23930016.634 7 101255801.64507     -1097.758 7        47.555
S36        14.000    38195607.215 7 200719802.65207      -455.025 7        44.173
C13        15.000                                                                                                                                    37935596.790 7 197540668.33407     -1114.654 7        44.041    37935599.091 7 152751009.43307      -861.909 7        45.132    37935597.010 7 160517996.88107      -905.657 7        42.777
G18        16.000    21776952.002 7 114438886.01307     -2775.828 7        47.168                                    21776948.338 6  89173255.20706     -2162.982 6        36.370    21776948.529 7  89173263.20707     -2163.050 7        45.291
R10        17.000    20332008.420 7 108381081.66507     -1740.154 7        46.604
E27        18.000    26795277.583 6 140810141.37306      2019.553 6        41.447                                                                    26795278.175 7 105150431.22107      1508.118 7        44.108    26795277.717 7 107893483.54907      1547.437 7        44.757
E02        19.000    24957844.366 7 131154543.54107     -3025.917 7        45.998                                                                    24957843.889 8  97940189.98608     -2259.640 8        48.374    24957843.173 8 100495136.65508     -2318.560 8        48.601
S27        20.000    39177059.799 5 205876838.94305      -426.339 5        35.976
R11        21.000    21985041.403 7 117481412.96407      2307.280 7        47.005                                                                    21985040.024 7  91374434.76707      1794.554 7        44.272
I06        22.000    38667008.157 6 151737867.65406      -288.583 6        41.826
S28        23.000    40895602.184 5 214907836.13305      -449.638 5        34.186
E04        24.000    28128252.252 6 147814950.76406        32.513 6        36.669                                                                    28128252.353 6 110381294.29106        24.277 6        41.824    28128251.724 7 113260802.24807        24.805 7        42.049
S23        25.000    38152153.472 7 200490859.36507      -456.574 7        45.032
S45        26.000    63408209.004 6 333213672.78806      -507.778 6        37.607
R09        27.000    21759951.386 8 116197123.42308     -4491.923 8        48.689                                                                    21759950.411 7  90375650.21807     -3493.682 7        44.948
R18        28.000    24182467.225 6 129087935.34406     -3868.676 6        40.048                                                                    24182469.534 6 100401875.42106     -3008.977 6        39.261
C38        29.000                                                                                                                                    39640897.600 6 206420675.92106     -1605.548 6        41.361                                                                    39640895.495 6 167733752.45606     -1304.806 6        40.865
C44        30.000                                                                                                                                    25408908.975 7 132311067.48407     -3192.511 7        42.358                                                                    25408908.380 6 107513662.73406     -2594.124 6        41.211
C43        31.000                                                                                                                                    22213557.543 8 115671925.63608       991.779 8        50.091                                                                    22213556.297 8  93992956.27808       805.904 8        48.821
C42        32.000                                                                                                                                    25679818.634 6 133721559.86706      2856.677 6        41.364                                                                    25679827.655 7 108659759.05907      2321.122 7        43.831
I02        33.000    39554427.287 6 155220123.29606      -996.463 6        39.709
R03        34.000    22208564.529 7 118884225.31507     -1374.357 7        46.495                                                                    22208564.297 7  92465510.52007     -1068.976 7        42.398
E34        35.000    23496504.699 8 123475169.95208       350.815 8        49.335                                                                    23496504.529 8  92205594.53308       261.982 8        50.954    23496504.371 8  94610946.69808       268.779 8        51.671
G29        36.000    25202321.065 6 132439368.98906     -3757.575 6        39.168                                    25202317.165 5 103199614.47505     -2927.977 5        30.287    25202317.533 5 103199624.46905     -2927.904 5        34.562
R21        37.000    23676815.686 7 126699434.43307      2820.489 7        44.773                                                                    23676815.613 6  98544016.43706      2193.584 6        36.839
C22        38.000                                                                                                                                    24919581.119 7 129762821.84007     -1586.015 7        43.259                                                                    24919574.402 7 105442905.79607     -1288.779 7        43.520
C12        40.000                                                                                                                                    23648135.399 7 123142248.45207     -2651.092 7        45.180    23648132.125 8  95221494.39908     -2050.047 8        48.915    23648130.685 7 100063236.94707     -2154.194 7        46.689
R04        41.000    21757811.144 8 116512114.47408      2101.652 8        48.085                                                                    21757810.270 7  90620539.12607      1634.556 7        44.015
S44        42.000    40466806.550 6 212654693.16906      -428.973 6        37.531
G08        43.000    23451502.810 6 123238544.70206      2747.670 6        40.667                                    23451503.034 5  96030068.67505      2141.035 5        34.752    23451503.140 6  96030066.70806      2140.683 6        38.670
C05        44.000                                                                                                                                    39259252.383 6 204433259.99906      -385.404 6        38.267    39259247.042 7 158080787.38707      -297.980 7        42.510    39259249.881 6 166118871.98106      -312.914 6        40.174
C11        45.000                                                                                                                                    21569997.660 8 112320784.03108      -216.487 8        48.593    21569994.279 8  86853615.76408      -167.348 8        52.217    21569993.048 8  91269877.42408      -175.825 8        49.246
E09        46.000    28335572.973 6 148904444.33906      1806.500 6        37.244                                                                    28335574.601 6 111194883.53106      1349.037 6        40.265    28335573.881 6 114095617.25406      1384.228 6        41.378
G07        47.000    25180601.698 6 132324968.14106       211.578 6        40.176                                    25180597.120 5 103110351.68405       164.867 5        31.517    25180598.061 6 103110359.68706       164.983 6        36.053
C21        48.000                                                                                                                                    24144328.370 7 125725876.88407      1236.012 7        46.711                                                                    24144322.859 7 102162560.43907      1004.454 7        46.642
E06        49.000    27997729.018 6 147129074.06506      1051.889 6        36.964                                                                    27997729.914 6 109869116.71906       785.482 6        40.365    27997729.759 6 112735265.03906       805.963 6        40.555
R19        50.000    20933250.047 6 111979037.95406     -2982.500 6        38.730                                                                    20933249.562 7  87094920.56607     -2319.650 7        43.304
S48        51.000    77163756.050 6 405499592.93006      -494.136 6        38.054
C08        52.000                                                                                                                                    38251204.924 6 199184162.11806     -1384.146 6        40.601    38251197.824 7 154021858.80207     -1070.345 7        44.403    38251197.581 6 161853465.78306     -1124.742 6        41.840
C34        53.000                                                                                                                                    21709041.903 8 113044960.05908     -1491.839 8        50.765                                                                    21709041.311 8  91858406.84108     -1212.215 8        49.236
C60        54.000                                                                                                                                    40466808.878 6 210721488.05106      -424.973 6        40.119                                                                    40466792.670 6 171228438.11906      -345.200 6        39.450
C25        55.000                                                                                                                                    24680054.409 7 128515754.99307     -3529.605 7        44.199                                                                    24680052.856 7 104429669.28807     -2868.038 7        44.092
I09        56.000    39089297.190 6 153394816.18906       446.236 6        41.778
C02        57.000                                                                                                                                    40596109.645 5 211394631.79805      -381.344 5        34.352    40596102.519 6 163463730.65006      -294.866 6        39.667    40596106.512 6 171775456.06106      -309.965 6        36.355
I03        58.000    82121393.825 6 246476736.77706      1101.870 6        40.284
E30        59.000    24097684.586 8 126634406.74008      -382.206 8        48.726                                                                    24097684.033 8  94564774.47908      -285.378 8        50.487    24097683.791 8  97031664.88808      -292.868 8        51.396
R20        60.000    19936411.346 6 106609158.83306       813.427 6        41.175                                                                    19936413.843 7  82918303.27107       632.715 7        47.106
> 2025 01 02 19 15 10.0000000  0 58
G23         1.000    20934878.748 8 110013613.40708       361.273 8        48.020                                    20934875.086 6  85724916.77006       281.510 6        39.357    20934875.439 7  85724914.77007       281.483 7        47.046
E11         2.000    28486425.226 5 149697366.90605     -3199.442 5        32.245                                                                    28486422.131 5 111787118.09405     -2389.572 5        35.310    28486421.952 5 114703290.23305     -2451.906 5        35.609
G16         3.000    20644803.110 8 108489380.48308     -1457.960 8        49.009                                    20644798.123 6  84537264.90306     -1136.072 6        40.043
S21         5.000    38426171.676 7 201930585.52107      -455.764 7        42.461
G26         6.000    22036713.902 7 115803948.48507     -3338.511 7        46.759                                    22036713.051 7  90236974.40607     -2601.437 7        45.243    22036713.271 7  90236961.40607     -2601.446 7        42.775
G10         7.000    22525767.324 7 118373765.16907      2592.952 7        46.965                                    22525766.099 7  92239311.94207      2020.482 7        45.615    22525765.989 7  92239305.94507      2020.493 7        42.825
E15         8.000    26877997.752 6 141244920.11906      2101.976 6        40.896                                                                    26877999.818 7 105475164.65407      1569.586 7        43.016    26877999.339 7 108226679.25907      1610.627 7        44.077
E36         9.000    24412060.596 7 128286435.76107     -2196.011 7        46.045                                                                    24412061.012 8  95798455.88008     -1639.876 8        48.929    24412060.708 8  98297533.31108     -1682.648 8        49.877
G27        10.000    20898106.804 8 109820440.17608      1541.599 8        48.479                                    20898105.097 8  85574438.33908      1201.247 8        50.031    20898105.524 7  85574440.33907      1201.327 7        44.968
G15        11.000    23786582.497 6 124999352.77506       549.675 6        40.265                                    23786578.832 5  97402084.42105       428.320 5        32.856    23786580.023 6  97402087.43406       428.412 6        36.828
G13        12.000    24825729.475 6 130460088.25706       -71.900 6        36.915                                    24825727.044 2 101657199.44302       -55.962 2        14.810
C23        13.000                                                                                                                                    23931323.401 7 124616733.23807     -1353.597 7        46.949                                                                    23931315.125 7 101261295.83507     -1099.753 7        47.448
S36        14.000    38196039.890 7 200722076.91307      -454.800 7        43.953
C13        15.000                                                                                                                                    37936667.679 7 197546242.19107     -1114.932 7        44.138    37936669.403 7 152755319.49707      -862.196 7        45.031    37936667.397 7 160522526.10107      -905.922 7        42.715
G18        16.000    21779593.716 7 114452768.39507     -2777.225 7        46.866                                    21779590.011 6  89184072.64506     -2164.069 6        36.276    21779590.387 7  89184080.64107     -2163.974 7        45.248
R10        17.000    20333642.687 7 108389792.90407     -1744.424 7        46.614
E27        18.000    26793356.140 6 140800046.36106      2018.479 6        40.677                                                                    26793357.100 7 105142892.73707      1507.249 7        44.093    26793356.678 7 107885748.40907      1546.678 7        44.777
E02        19.000    24960724.113 7 131169676.33307     -3027.275 7        45.621                                                                    24960723.576 8  97951490.43508     -2260.538 8        48.410    24960722.805 8 100506731.90208     -2319.588 8        48.657
S27        20.000    39177465.993 5 205878969.20005      -425.891 5        35.843
R11        21.000    21982884.198 7 117469884.55607      2303.976 7        46.654                                                                    21982883.473 7  91365468.23107      1791.959 7        45.273
I06        22.000    38667375.587 6 151739310.22406      -288.527 6        41.959
S28        23.000    40896024.895 5 214910079.70905      -448.467 5        33.916
E04        24.000    28128222.618 6 147814794.00306        30.089 6        36.851                                                                    28128222.425 6 110381177.21406        22.651 6        41.561    28128221.902 7 113260682.11707        23.162 7        42.045
S23        25.000    38152588.507 7 200493141.73007      -456.370 7        45.017
S45        26.000    63408641.754 6 333216211.63406      -507.646 6        37.800
R09        27.000    21764158.713 8 116219587.19408     -4493.671 8        48.638                                                                    21764157.765 7  90393122.02307     -3495.059 7        45.306
R18        28.000    24186090.064 6 129107277.78006     -3868.339 6        39.748                                                                    24186092.717 6 100416919.51406     -3008.672 6        39.330
C38        29.000                                                                                                                                    39642439.725 6 206428704.20906     -1605.800 6        41.321                                                                    39642437.299 6 167740276.07806     -1304.601 6        40.892
C44        30.000                                                                                                                                    25411974.356 7 132327029.81607     -3192.541 7        42.184                                                                    25411974.104 6 107526633.42706     -2594.100 6        41.654
C43        31.000                                                                                                                                    22212605.968 8 115666969.61808       990.592 8        50.207                                                                    22212604.502 8  93988929.10708       805.030 8        48.736
C42        32.000                                                                                                                                    25677076.287 6 133707277.83406      2856.225 6        41.349                                                                    25677084.915 7 108648153.72707      2321.033 7        43.678
I02        33.000    39555696.760 6 155225105.16606      -996.233 6        39.850
R03        34.000    22209850.771 7 118891107.44607     -1378.496 7        46.636                                                                    22209848.900 7  92470863.27307     -1072.182 7        42.299
E34        35.000    23496171.438 8 123473419.31408       349.357 8        49.316                                                                    23496171.355 8  92204287.23808       260.904 8        50.976    23496171.247 8  94609605.29708       267.696 8        51.734
G29        36.000    25205895.719 6 132458156.97506     -3757.727 6        39.174                                    25205892.491 5 103214254.46505     -2928.095 5        30.438    25205893.745 5 103214264.48005     -2928.353 5        35.648
R21        37.000    23674180.632 7 126685333.13407      2819.978 7        43.812                                                                    23674179.592 6  98533048.75706      2193.456 6        36.786
C22        38.000                                                                                                                                    24921104.946 7 129770758.30307     -1588.660 7        43.441                                                                    24921098.388 7 105449354.80807     -1290.764 7        43.285
C12        40.000                                                                                                                                    23650681.168 7 123155505.61107     -2651.800 7        45.369    23650677.678 8  95231745.67008     -2050.528 8        48.982    23650676.530 7 100074009.47707     -2154.705 7        46.647
R04        41.000    21755850.194 7 116501614.52007      2098.265 7        47.499                                                                    21755849.259 7  90612372.50607      1631.998 7        44.209
S44        42.000    40467210.377 6 212656837.09406      -428.818 6        37.293
G08        43.000    23448888.883 6 123224807.66606      2747.149 6        40.737                                    23448888.946 5  96019364.50905      2140.633 5        34.729    23448889.160 6  96019362.52506      2140.694 6        38.237
C05        44.000                                                                                                                                    39259621.842 6 204435185.63706      -385.185 6        38.598    39259616.898 7 158082276.40707      -297.817 7        42.457    39259619.612 6 166120436.73306      -312.914 6        40.136
C11        45.000                                                                                                                                    21570205.881 8 112321869.30908      -217.794 8        48.557    21570202.679 8  86854454.97208      -168.413 8        52.140    21570201.492 8  91270759.30108      -176.823 8        49.179
E09        46.000    28333854.395 6 148895414.03306      1805.460 6        37.036                                                                    28333856.299 6 111188140.13106      1348.367 6        40.532    28333855.299 6 114088697.94706      1383.421 6        41.223
G07        47.000    25180401.768 6 132323916.25606       209.038 6        40.200                                    25180396.943 5 103109532.03305       162.891 5        31.555    25180398.154 5 103109540.03105       162.952 5        35.971
C21        48.000                                                                                                                                    24143142.965 7 125719702.37007      1233.733 7        47.072                                                                    24143136.949 7 102157543.14007      1002.665 7        46.507
E06        49.000    27996728.577 6 147123818.69106      1050.231 6        36.654                                                                    27996730.062 6 109865192.23006       784.284 6        40.434    27996729.604 6 112731238.17206       804.702 6        40.429
R19        50.000    20936037.706 6 111993952.39706     -2983.484 6        39.276                                                                    20936037.499 7  87106520.67507     -2320.413 7        43.113
S48        51.000    77164199.831 6 405502063.72006      -494.103 6        38.006
C08        52.000                                                                                                                                    38252534.202 6 199191084.39506     -1384.832 6        40.791    38252527.523 7 154027211.53207     -1070.713 7        44.482    38252526.823 6 161859090.69206     -1125.131 6        41.962
C34        53.000                                                                                                                                    21710474.692 8 113052422.58908     -1493.215 8        50.551                                                                    21710474.384 8  91864470.74408     -1213.209 8        49.233
C60        54.000                                                                                                                                    40467216.944 6 210723612.47606      -424.894 6        40.334                                                                    40467200.763 6 171230164.38406      -345.063 6        39.363
C25        55.000                                                                                                                                    24683443.841 7 128533404.61007     -3530.283 7        44.445                                                                    24683442.343 7 104444011.04407     -2868.572 7        44.074
I09        56.000    39088728.482 6 153392585.07406       446.152 6        41.807
C02        57.000                                                                                                                                    40596475.200 5 211396538.29405      -381.305 5        34.300    40596469.040 6 163465204.87406      -294.915 6        39.456    40596472.554 6 171777005.23506      -309.696 6        36.416
I03        58.000    82119989.933 6 246471227.20906      1101.853 6        40.586
E30        59.000    24098049.248 8 126636322.91208      -384.332 8        48.607                                                                    24098048.684 8  94566205.38308      -287.046 8        50.494    24098048.419 8  97033133.11908      -294.511 8        51.470
R20        60.000    19935652.846 6 106605096.21306       811.490 6        41.166                                                                    19935654.011 7  82915143.45307       631.181 7        47.249
> 2025 01 02 19 15 15.0000000  0 58
G23         1.000    20934536.522 7 110011815.26007       358.141 7        47.963                                    20934532.890 6  85723515.61606       279.072 6        39.339    20934533.120 7  85723513.61807       279.107 7        47.152
E11         2.000    28489469.333 5 149713364.36605     -3199.259 5        32.473                                                                    28489466.703 5 111799064.20805     -2388.908 5        35.300    28489465.893 5 114715547.97605     -2451.155 5        35.724
G16         3.000    20646191.776 8 108496678.54108     -1461.148 8        48.903                                    20646186.888 6  84542951.70106     -1138.558 6        40.076
S21         5.000    38426605.450 7 201932863.71107      -455.509 7        42.425
G26         6.000    22039891.278 7 115820645.69107     -3340.170 7        46.490                                    22039890.385 7  90249985.21507     -2602.729 7        45.181    22039890.691 7  90249972.22007     -2602.752 7        42.463
G10         7.000    22523300.882 7 118360804.31007      2591.443 7        46.524                                    22523299.811 7  92229212.57407      2019.303 7        45.598    22523299.939 7  92229206.58407      2019.246 7        42.284
E15         8.000    26875998.327 6 141234412.10906      2101.282 6        41.178                                                                    26876000.057 7 105467317.75907      1569.273 7        43.103    26875999.595 7 108218627.66107      1610.140 7        44.030
E36         9.000    24414150.406 7 128297417.96107     -2196.744 7        46.049                                                                    24414150.850 8  95806656.87308     -1640.408 8        48.983    24414150.504 8  98305948.25208     -1683.267 8        49.955
G27        10.000    20896641.017 8 109812736.46108      1539.985 8        48.533                                    20896639.121 8  85568435.44608      1199.988 8        50.004    20896639.257 7  85568437.44807      1199.994 7        44.679
G15        11.000    23786060.788 6 124996612.08306       547.056 6        40.091                                    23786057.410 5  97399948.82205       426.274 5        32.647    23786058.412 6  97399951.83806       425.926 6        37.006
G13        12.000    24825799.984 6 130460455.54106       -75.002 6        37.017                                    24825797.056 2 101657485.61102       -58.424 2        14.857
C23        13.000                                                                                                                                    23932624.144 7 124623507.85307     -1356.146 7        46.854                                                                    23932616.110 7 101266800.76907     -1101.951 7        47.412
S36        14.000    38196470.869 7 200724351.08307      -454.622 7        44.062
C13        15.000                                                                                                                                    37937738.261 7 197551818.81007     -1115.501 7        44.063    37937740.263 7 152759631.68607      -862.513 7        45.118    37937738.363 7 160527057.56407      -906.520 7        42.645
G18        16.000    21782236.555 7 114466657.76007     -2778.459 7        47.222                                    21782233.076 6  89194895.52406     -2165.034 6        36.340    21782233.358 7  89194903.51907     -2164.996 7        45.205
R10        17.000    20335280.758 7 108398526.06207     -1748.674 7        46.573
E27        18.000    26791436.318 6 140789957.00806      2017.618 6        40.698                                                                    26791437.153 7 105135358.49407      1506.619 7        44.135    26791436.707 7 107878017.62507      1545.818 7        44.813
E02        19.000    24963605.392 7 131184815.81907     -3028.411 7        45.335                                                                    24963604.581 8  97962795.90308     -2261.503 8        48.371    24963603.936 8 100518332.29208     -2320.504 8        48.697
S27        20.000    39177870.585 5 205881099.19705      -425.830 5        35.805
R11        21.000    21980729.480 7 117458373.10807      2300.747 7        46.311                                                                    21980728.964 7  91356514.89707      1789.438 7        44.775
I06        22.000    38667743.538 6 151740752.50306      -288.226 6        41.836
S28        23.000    40896455.700 5 214912322.93505      -448.287 5        33.838
E04        24.000    28128195.110 6 147814648.57906        27.857 6        36.771                                                                    28128194.531 6 110381068.63206        20.998 6        41.528    28128194.236 7 113260570.69607        21.423 7        42.055
S23        25.000    38153021.910 7 200495424.11307      -456.301 7        45.008
S45        26.000    63409076.007 6 333217150.36716      -507.435 6        37.713
R09        27.000    21768367.001 8 116242060.00108     -4495.300 8        49.171                                                                    21768365.821 7  90410600.87007     -3496.324 7        45.020
R18        28.000    24189714.861 6 129126619.19406     -3867.893 6        40.751                                                                    24189716.098 6 100431962.82606     -3008.301 6        39.117
C38        29.000                                                                                                                                    39643981.550 6 206436733.94906     -1605.948 6        41.549                                                                    39643979.346 6 167746800.91806     -1304.972 6        40.944
C44        30.000                                                                                                                                    25415040.353 6 132342993.38806     -3192.580 6        41.969                                                                    25415039.921 6 107539605.13606     -2594.312 6        41.971
C43        31.000                                                                                                                                    22211655.453 8 115662019.65608       989.549 8        50.229                                                                    22211653.952 8  93984906.87108       803.964 8        48.751
C42        32.000                                                                                                                                    25674334.116 6 133692997.25306      2856.134 6        41.404                                                                    25674342.383 7 108636549.60007      2320.694 7        43.685
I02        33.000    39556965.861 6 155230087.18706      -996.322 6        39.790
R03        34.000    22211140.256 7 118898010.90707     -1382.755 7        45.789                                                                    22211138.513 7  92476232.64007     -1075.438 7        42.097
E34        35.000    23495839.564 8 123471676.22308       347.964 8        49.301                                                                    23495839.636 8  92202985.57708       259.872 8        50.996    23495839.544 8  94608269.68108       266.679 8        51.796
G29        36.000    25209471.124 6 132476946.93606     -3757.940 6        39.282                                    25209468.287 5 103228895.99505     -2928.269 5        30.566    25209469.094 5 103228905.98905     -2928.279 5        35.619
R21        37.000    23671544.471 7 126671234.58907      2819.534 7        43.498                                                                    23671544.139 6  98522083.23406      2192.945 6        36.091
C22        38.000                                                                                                                                    24922631.507 7 129778708.29507     -1591.166 7        43.206                                                                    24922625.159 7 105455814.84107     -1292.946 7        43.177
C12        40.000                                                                                                                                    23653228.236 7 123168766.40207     -2652.420 7        45.114    23653223.863 8  95241999.75008     -2050.967 8        49.072    23653223.147 7 100084784.96007     -2155.304 7        46.579
R04        41.000    21753891.906 7 116491131.38107      2095.123 7        47.481                                                                    21753891.685 7  90604218.96207      1629.524 7        44.497
S44        42.000    40467620.720 6 212658981.00306      -428.597 6        37.686
G08        43.000    23446275.421 6 123211073.36606      2746.817 6        40.503                                    23446275.341 5  96008662.47205      2140.373 5        34.781    23446274.962 6  96008660.49306      2140.263 6        37.698
C05        44.000                                                                                                                                    39259992.182 6 204437111.13106      -384.970 6        38.306    39259986.652 7 158083765.31707      -297.656 7        42.574    39259989.330 6 166122001.35106      -312.848 6        40.162
C11        45.000                                                                                                                                    21570415.271 8 112322961.46208      -218.950 8        48.411    21570412.392 8  86855299.49808      -169.341 8        52.296    21570411.229 8  91271646.77808      -177.982 8        49.167
E09        46.000    28332137.332 6 148886389.18606      1804.416 6        37.070                                                                    28332138.911 6 111181400.79706      1347.614 6        40.706    28332138.022 6 114081782.79506      1382.740 6        41.075
G07        47.000    25180204.090 6 132322877.61606       206.653 6        40.288                                    25180199.391 5 103108722.69205       161.028 5        31.592    25180201.344 5 103108730.71005       160.523 5        35.886
C21        48.000                                                                                                                                    24141959.202 7 125713539.81807      1231.436 7        46.953                                                                    24141953.547 7 102152535.57207      1000.649 7        46.526
E06        49.000    27995730.477 6 147118572.24506      1048.503 6        36.681                                                                    27995731.762 6 109861274.43706       783.013 6        40.555    27995731.260 6 112727218.17406       803.458 6        40.331
R19        50.000    20938827.230 6 112008872.52306     -2984.384 6        38.931                                                                    20938826.598 7  87118125.22607     -2321.278 7        43.005
S48        51.000    77164642.938 6 405504534.12606      -494.151 6        37.830
C08        52.000                                                                                                                                    38253863.540 6 199198009.25506     -1385.066 6        40.460    38253857.339 7 154032566.27407     -1071.014 7        44.625    38253856.762 6 161864717.70906     -1125.556 6        41.814
C34        53.000                                                                                                                                    21711908.867 8 113059891.72408     -1494.320 8        50.428                                                                    21711908.815 8  91870540.04008     -1214.365 8        49.163
C60        54.000                                                                                                                                    40467624.940 6 210725736.90006      -424.856 6        40.155                                                                    40467608.647 6 171231890.65806      -345.340 6        39.438
C25        55.000                                                                                                                                    24686833.908 7 128551057.93907     -3530.904 7        44.525                                                                    24686832.640 7 104458355.82707     -2869.183 7        44.029
I09        56.000    39088160.094 6 153390354.27006       446.275 6        41.833
C02        57.000                                                                                                                                    40596840.978 5 211398444.73105      -381.250 5        34.471    40596835.069 6 163466679.03506      -294.692 6        39.679    40596838.427 6 171778554.36606      -309.906 6        36.087
I03        58.000    82118585.700 6 246465717.63506      1102.001 6        40.474
E30        59.000    24098416.066 8 126638250.46008      -386.440 8        48.538                                                                    24098415.530 8  94567644.79208      -288.619 8        50.484    24098415.198 8  97034610.07708      -296.141 8        51.494
R20        60.000    19934895.023 6 106601043.80706       809.591 6        41.244                                                                    19934895.986 7  82911991.59207       629.724 7        46.950
> 2025 01 02 19 15 20.0000000  0 58
G23         1.000    20934197.682 7 110010033.52807       354.651 7        47.867                                    20934193.865 6  85722127.25106       276.353 6        39.399    20934194.156 7  85722125.25207       276.367 7        47.213
E11         2.000    28492513.376 5 149729360.87005     -3199.219 5        32.132                                                                    28492510.634 5 111811009.68205     -2389.209 5        35.400    28492509.838 5 114727805.07405     -2451.449 5        35.114
G16         3.000    20647583.535 8 108503993.07608     -1464.524 8        49.031                                    20647578.797 6  84548651.33906     -1141.190 6        40.131
S21         5.000    38427037.910 7 201935142.01007      -455.732 7        42.368
G26         6.000    22043070.332 7 115837352.38007     -3342.314 7        45.968                                    22043069.525 7  90263003.41207     -2604.399 7        45.186    22043069.930 7  90262990.41407     -2604.424 7        42.919
