     3.04           OBSERVATION DATA    M                   RINEX VERSION / TYPE
ssrcrin-15.6.1x                         20250102 060000 UTC PGM / RUN BY / DATE 
(00000000023479385599111004) Septentrio proprietary         COMMENT             
rref                                                        MARKER NAME         
01                                                          MARKER NUMBER       
geodetic                                                    MARKER TYPE         
NFB                 CLIMERS@TUW                             OBSERVER / AGENCY   
3297213             SEPT ASTERX SB3 PROB4.14.4              REC # / TYPE / VERS 
Unknown             Unknown                                 ANT # / TYPE        
  4127831.6944  1207193.1184  4695247.3679                  APPROX POSITION XYZ 
        0.0000        0.0000        0.0000                  ANTENNA: DELTA H/E/N
G   23 X1  C1C L1C D1C S1C C1W S1W C2W L2W D2W S2W C2L L2L  SYS / # / OBS TYPES 
       D2L S2L C5Q L5Q D5Q S5Q C1L L1L D1L S1L              SYS / # / OBS TYPES 
E   21 X1  C1C L1C D1C S1C C6C L6C D6C S6C C5Q L5Q D5Q S5Q  SYS / # / OBS TYPES 
       C7Q L7Q D7Q S7Q C8Q L8Q D8Q S8Q                      SYS / # / OBS TYPES 
S    9 X1  C1C L1C D1C S1C C5I L5I D5I S5I                  SYS / # / OBS TYPES 
R   17 X1  C1C L1C D1C S1C C2P L2P D2P S2P C2C L2C D2C S2C  SYS / # / OBS TYPES 
       C3Q L3Q D3Q S3Q                                      SYS / # / OBS TYPES 
C   25 X1  C1P L1P D1P S1P C5P L5P D5P S5P C2I L2I D2I S2I  SYS / # / OBS TYPES 
       C7I L7I D7I S7I C6I L6I D6I S6I C7D L7D D7D S7D      SYS / # / OBS TYPES 
J   17 X1  C1C L1C D1C S1C C2L L2L D2L S2L C5Q L5Q D5Q S5Q  SYS / # / OBS TYPES 
       C1L L1L D1L S1L                                      SYS / # / OBS TYPES 
I    5 X1  C5A L5A D5A S5A                                  SYS / # / OBS TYPES 
SEPTENTRIO RECEIVERS OUTPUT ALIGNED CARRIER PHASES.         COMMENT             
NO FURTHER PHASE SHIFT APPLIED IN THE RINEX ENCODER.        COMMENT             
G L1C                                                       SYS / PHASE SHIFT   
G L2W                                                       SYS / PHASE SHIFT   
G L2L  0.00000                                              SYS / PHASE SHIFT   
G L5Q  0.00000                                              SYS / PHASE SHIFT   
G L1L  0.00000                                              SYS / PHASE SHIFT   
E L1C  0.00000                                              SYS / PHASE SHIFT   
E L6C  0.00000                                              SYS / PHASE SHIFT   
E L5Q  0.00000                                              SYS / PHASE SHIFT   
E L7Q  0.00000                                              SYS / PHASE SHIFT   
E L8Q  0.00000                                              SYS / PHASE SHIFT   
S L1C                                                       SYS / PHASE SHIFT   
S L5I                                                       SYS / PHASE SHIFT   
R L1C                                                       SYS / PHASE SHIFT   
R L2P  0.00000                                              SYS / PHASE SHIFT   
R L2C                                                       SYS / PHASE SHIFT   
R L3Q  0.00000                                              SYS / PHASE SHIFT   
C L1P  0.00000                                              SYS / PHASE SHIFT   
C L5P  0.00000                                              SYS / PHASE SHIFT   
C L2I                                                       SYS / PHASE SHIFT   
C L7I                                                       SYS / PHASE SHIFT   
C L6I                                                       SYS / PHASE SHIFT   
C L7D                                                       SYS / PHASE SHIFT   
J L1C                                                       SYS / PHASE SHIFT   
J L2L  0.00000                                              SYS / PHASE SHIFT   
J L5Q  0.00000                                              SYS / PHASE SHIFT   
J L1L  0.00000                                              SYS / PHASE SHIFT   
I L5A                                                       SYS / PHASE SHIFT   
  2025     1     2     6     0    0.0000000     GPS         TIME OF FIRST OBS   
 C1C    0.000 C2C    0.000 C2P    0.000                     GLONASS COD/PHS/BIS 
DBHZ                                                        SIGNAL STRENGTH UNIT
    18                                                      LEAP SECONDS        
 24 R01  1 R02 -4 R03  5 R04  6 R05  1 R06 -4 R07  5 R08  6 GLONASS SLOT / FRQ #
    R09 -2 R10 -7 R11  0 R12 -1 R13 -2 R14 -7 R15  0 R16 -1 GLONASS SLOT / FRQ #
    R17  4 R18 -3 R19  3 R20  2 R21  4 R22 -3 R23  3 R24  2 GLONASS SLOT / FRQ #
                                                            END OF HEADER       
> 2025 01 02 06 00  0.0000000  0 55
G09         1.000    22017587.917 7 115703229.49707     -3057.219 7        45.309                                    22017586.207 7  90158363.60907     -2382.246 7        45.085    22017586.348 7  90158363.60107     -2382.162 7        42.377
G06         2.000    24611633.470 6 129335008.26706     -3996.227 6        38.964                                    24611633.042 5 100780526.27705     -3113.935 5        33.575    24611633.612 6 100780534.28106     -3114.112 6        38.547
E11         3.000    25694942.738 6 135027851.33306     -2708.151 6        40.501                                                                    25694938.713 7 100832476.24207     -2022.297 7        42.267    25694938.470 7 103462884.92707     -2075.041 7        42.709
G16         4.000    24828179.720 6 130472964.27906     -3322.247 6        36.949                                    24828174.885 2 101667225.19302     -2588.764 2        16.075
S21         5.000    38456904.481 7 202092097.09007      -478.806 7        42.588
E10         6.000    26916932.708 6 141449433.69906     -3538.329 6        41.936                                                                    26916931.797 7 105627817.33707     -2642.313 7        43.154    26916931.652 7 108383325.46907     -2711.311 7        44.382
G20         7.000    20799300.978 8 109301074.26808       420.293 8        48.195                                    20799295.914 6  85169649.42806       327.503 6        39.405
R02         8.000    22672616.091 7 120985424.82107      2943.046 7        46.416                                                                    22672615.044 6  94099775.71506      2289.079 6        40.746
R10         9.000    20837618.227 7 111076231.08707     -2904.260 7        44.652
R17        10.000    22445698.103 7 120111469.39507     -1692.833 7        47.392                                                                    22445695.046 7  93420025.93607     -1316.619 7        42.190
G30        11.000    20871539.522 8 109680690.59308      1034.951 8        50.690                                    20871537.147 8  85465465.42208       806.458 8        51.200    20871537.476 7  85465473.42307       806.443 7        44.506
S27        12.000    39104847.728 6 205497342.94606      -499.128 6        36.998
G13        13.000    23810679.080 6 125125966.90806      2747.733 6        40.465                                    23810674.003 3  97500732.25703      2141.097 3        20.643
S36        14.000    38225056.020 7 200874540.63907      -479.476 7        44.906
I09        15.000    38581577.461 6 151402367.47906      -880.468 6        41.833
E09        16.000    26124079.381 7 137282987.09407      1651.888 7        43.153                                                                    26124078.425 7 102516516.07707      1233.528 7        45.275    26124078.065 7 105190856.13907      1265.652 7        46.186
S45        17.000    63408413.259 6 333215023.67406      -521.047 6        36.907
E36        18.000    26087027.476 7 137088252.75107      -207.442 7        42.358                                                                    26087027.408 7 102371118.65607      -154.850 7        45.257    26087026.881 7 105041667.76207      -158.859 7        46.001
E12        19.000    28511772.907 5 149830357.88305     -3707.636 5        34.057                                                                    28511770.600 6 111886286.81606     -2768.825 6        36.922    28511770.745 6 114805059.91106     -2841.122 6        38.378
E21        20.000    25794917.030 7 135553196.43107      -411.257 7        43.820                                                                    25794916.354 7 101224804.01207      -307.044 7        45.792    25794916.060 7 103865447.47907      -315.132 7        47.056
G11        21.000    23139905.001 7 121601035.43007     -2903.568 7        44.411                                    23139901.578 5  94754034.76705     -2262.513 5        31.660    23139901.509 7  94754047.77207     -2262.634 7        42.923
I06        22.000    37978493.078 7 149035986.33707      -368.972 7        43.458
S28        23.000    40886731.603 5 214861153.60805      -481.399 5        34.929
R08        24.000    20835758.720 8 111574569.22808     -2856.456 8        48.630                                                                    20835756.048 7  86780222.40307     -2221.721 7        45.755
S23        25.000    38161285.357 7 200538884.69407      -475.984 7        44.847
R01        26.000    19496403.570 8 104219459.18308       789.253 8        48.665                                                                    19496403.211 7  81059572.47607       613.945 7        42.571
C44        27.000                                                                                                                                    26304449.535 6 136974178.79906     -2162.371 6        38.793                                                                    26304448.798 6 111302735.29606     -1757.151 6        37.958
R24        29.000    23656294.848 7 126500840.18307     -4218.484 7        44.670                                                                    23656293.506 6  98389528.77206     -3280.991 6        37.244
E19        30.000    25113409.201 6 131971878.18506     -2467.843 6        40.026                                                                    25113408.088 7  98550427.55007     -1843.009 7        42.709    25113407.352 7 101121305.42007     -1890.996 7        42.667
G14        31.000    24640675.005 6 129487618.80706      3089.696 6        40.105                                    24640674.035 4 100899441.85004      2407.547 4        24.165    24640673.576 6 100899427.83906      2407.758 6        39.535
C37        33.000                                                                                                                                    24026927.820 7 125114512.06207     -2590.008 7        46.534                                                                    24026930.749 7 101665800.13907     -2104.397 7        46.571
E04        34.000    23360317.072 8 122759330.55108      -153.473 8        48.009                                                                    23360314.800 8  91670939.89308      -114.600 8        50.816    23360314.699 8  94062351.20808      -117.520 8        51.894
C16        35.000                                                                                                                                    40986283.511 6 213426326.51506     -1459.349 6        37.289    40986286.207 6 165034775.87106     -1128.552 6        38.883    40986282.960 5 173426364.70105     -1185.873 5        33.593
R12        36.000    23440186.388 7 125213259.82507      4103.608 7        44.444                                                                    23440187.317 7  97388093.91207      3191.829 7        42.762
I01        37.000   386965201.263 6 215393721.51106     -3018.363 6        41.914
E27        38.000    28499607.954 5 149766443.32805     -2703.451 5        35.981                                                                    28499608.030 6 111838586.33406     -2018.990 6        40.060    28499607.673 6 114756111.30306     -2071.440 6        40.887
C19        39.000                                                                                                                                    21849579.019 8 113776495.53208      -160.397 8        51.594                                                                    21849573.950 8  92452700.18408      -130.206 8        49.774
E34        40.000    28849118.150 5 151603141.53405      1935.303 5        35.962                                                                    28849118.203 6 113210138.14606      1445.178 6        38.474    28849117.940 6 116163445.78006      1482.917 6        39.658
G05        41.000    22676347.981 7 119165027.15407      2502.162 7        44.536                                    22676343.209 6  92855847.91306      1949.738 6        41.075    22676343.365 6  92855856.90606      1949.661 6        41.333
S44        42.000    40855679.981 6 214698198.50106      -529.828 6        37.947
C36        43.000                                                                                                                                    24610969.267 7 128155778.75007      2830.196 7        43.304                                                                    24610974.844 7 104137087.95107      2299.911 7        44.882
C05        44.000                                                                                                                                    39261370.243 6 204444276.98506      -535.540 6        38.156    39261366.734 7 158089302.80907      -414.166 7        43.054    39261368.769 6 166127821.19606      -435.226 6        40.217
R18        45.000    23490380.188 6 125393261.91806      1395.076 6        41.445                                                                    23490379.998 6  97528076.20906      1085.005 6        41.383
G04        46.000    24497407.996 6 128734720.04606     -3610.367 6        37.856                                    24497408.746 3 100312739.67403     -2813.261 3        20.738    24497408.125 6 100312741.66106     -2813.260 6        39.526
R11        47.000    19801409.746 8 105812713.06208      1457.482 8        51.803                                                                    19801408.183 7  82298780.52707      1133.597 7        47.967
C20        49.000                                                                                                                                    23462917.983 8 122177583.19808     -2715.335 8        49.576                                                                    23462912.391 8  99279275.83008     -2206.325 8        48.002
C06        50.000                                                                                                                                    40433550.520 6 210548106.01806     -1505.355 6        36.072    40433546.393 6 162809126.01006     -1164.110 6        38.553    40433546.192 6 171087556.73106     -1223.263 6        36.491
S48        51.000    77185311.859 6 405611193.16806      -463.141 6        38.339
E06        52.000    24227855.284 7 127318265.70807       967.198 7        46.487                                                                    24227854.508 8  95075340.39808       722.280 8        49.397    24227854.556 8  97555564.46908       741.131 8        50.641
C09        53.000                                                                                                                                    39666426.075 6 206553502.15306     -1272.660 6        38.895    39666423.259 7 159720257.89107      -984.170 7        43.018    39666421.675 6 167841617.27206     -1034.248 6        39.447
C60        54.000                                                                                                                                    40855683.883 6 212746415.62206      -524.955 6        39.835                                                                    40855671.055 6 172873847.26806      -426.591 6        39.072
R09        55.000    24218004.471 6 129322804.17906     -4682.112 6        39.628                                                                    24218004.185 6 100584394.22206     -3641.642 6        40.105
G07        56.000    20918955.512 8 109929870.69808     -1287.263 8        48.839                                    20918950.555 8  85659622.77408     -1003.061 8        49.926    20918950.797 7  85659631.76807     -1003.059 7        45.684
C02        57.000                                                                                                                                    40831265.940 5 212619107.07805      -554.779 5        34.324    40831264.278 6 164410558.32706      -429.068 6        39.727    40831266.903 5 172770431.08805      -450.550 5        35.586
I03        58.000    98451394.630 6 310559100.89606       845.972 6        40.021
> 2025 01 02 06 00  5.0000000  0 55
G09         1.000    22020497.130 7 115718517.42607     -3058.204 7        45.369                                    22020495.387 7  90170276.27007     -2383.016 7        45.059    22020495.698 7  90170276.27407     -2382.953 7        42.353
G06         2.000    24615435.404 6 129354989.53506     -3996.310 6        39.033                                    24615435.549 5 100796096.07505     -3114.005 5        33.186    24615435.634 6 100796104.06306     -3113.876 6        38.438
E11         3.000    25697520.230 6 135041395.00106     -2709.573 6        40.515                                                                    25697515.951 7 100842590.00807     -2023.411 7        42.169    25697515.831 7 103473262.53307     -2076.259 7        42.857
G16         4.000    24831341.336 6 130489580.79606     -3324.504 6        36.548                                    24831336.966 2 101680173.11802     -2590.529 2        15.286
S21         5.000    38457361.780 7 202094489.95107      -478.635 7        42.728
E10         6.000    26920299.824 6 141467126.50706     -3538.824 6        41.566                                                                    26920298.780 7 105641029.48507     -2642.692 7        43.435    26920298.609 7 108396882.27807     -2711.667 7        44.537
G20         7.000    20798902.615 8 109298979.30908       417.415 8        48.312                                    20798897.274 6  85168016.98906       325.259 6        39.375
R02         8.000    22669859.094 7 120970709.63307      2942.900 7        46.799                                                                    22669856.813 6  94088330.55406      2288.985 6        40.250
R10         9.000    20840344.612 7 111090760.08607     -2907.691 7        44.238
R17        10.000    22447281.400 7 120119943.19907     -1696.831 7        47.332                                                                    22447279.499 6  93426616.65206     -1319.800 6        41.857
G30        11.000    20870555.753 8 109675520.64208      1032.812 8        50.551                                    20870553.341 8  85461436.88908       804.790 8        51.148    20870553.658 7  85461444.88607       804.821 7        44.456
S27        12.000    39105325.583 6 205499837.77406      -499.069 6        36.847
G13        13.000    23808065.282 6 125112228.50406      2747.387 6        40.150                                    23808059.767 3  97490027.01003      2140.827 3        20.714
S36        14.000    38225510.100 7 200876936.68607      -479.168 7        44.947
I09        15.000    38582699.322 6 151406769.73106      -880.472 6        41.819
E09        16.000    26122507.835 7 137274727.83607      1651.582 7        42.931                                                                    26122506.706 7 102510348.44907      1233.347 7        45.220    26122506.424 7 105184527.61407      1265.471 7        46.188
S45        17.000    63408870.008 6 333216027.67716      -521.066 6        36.934
E36        18.000    26087225.879 7 137089295.14507      -209.815 7        42.377                                                                    26087225.645 7 102371897.06107      -156.639 7        45.348    26087225.307 7 105042466.47507      -160.767 7        45.911
E12        19.000    28515300.034 5 149848895.29105     -3707.257 5        34.248                                                                    28515298.250 6 111900129.64506     -2768.534 6        36.877    28515298.308 6 114819263.86106     -2840.626 6        38.727
E21        20.000    25795308.895 7 135555257.57607      -413.405 7        43.619                                                                    25795308.606 7 101226343.17507      -308.731 7        45.941    25795308.378 7 103867026.80007      -316.855 7        47.094
G11        21.000    23142669.363 7 121615558.04807     -2905.658 7        43.283                                    23142665.036 5  94765351.09105     -2264.141 5        31.472    23142665.119 7  94765364.08007     -2264.077 7        42.544
I06        22.000    37978962.543 7 149037830.46407      -368.775 7        43.359
S28        23.000    40887184.976 5 214863558.71705      -481.163 5        34.990
R08        24.000    20838425.458 8 111588855.44008     -2858.201 8        48.347                                                                    20838423.181 7  86791333.90007     -2223.084 7        44.802
S23        25.000    38161740.242 7 200541263.32307      -475.637 7        44.867
R01        26.000    19495666.143 8 104215517.30408       787.223 8        48.923                                                                    19495665.848 7  81056506.57507       612.216 7        42.233
C44        27.000                                                                                                                                    26306527.233 6 136984994.62306     -2164.113 6        39.408                                                                    26306525.818 6 111311524.04406     -1758.529 6        37.667
R24        29.000    23660239.528 7 126521934.69907     -4219.482 7        43.763                                                                    23660238.411 6  98405935.63106     -3281.808 6        38.042
E19        30.000    25115757.602 6 131984218.05306     -2468.376 6        39.715                                                                    25115756.292 7  98559642.36907     -1843.263 7        42.616    25115755.524 7 101130760.63107     -1891.307 7        42.626
G14        31.000    24637735.064 6 129472168.24806      3090.145 6        39.742                                    24637733.782 4 100887402.45104      2407.901 4        24.030    24637733.589 6 100887388.45206      2408.083 6        39.643
C37        33.000                                                                                                                                    24029415.716 7 125127466.01007     -2591.859 7        46.751                                                                    24029418.469 7 101676326.27807     -2105.918 7        46.445
E04        34.000    23360463.439 8 122760098.97308      -154.252 8        48.197                                                                    23360461.048 8  91671513.71308      -115.199 8        50.966    23360460.962 8  94062939.99708      -118.156 8        51.998
C16        35.000                                                                                                                                    40987684.799 6 213433622.17706     -1459.023 6        37.573    40987686.964 6 165040417.30306     -1128.271 6        39.189    40987683.604 5 173432293.00105     -1185.430 5        33.623
R12        36.000    23436345.676 7 125192741.68807      4103.343 7        44.698                                                                    23436346.746 7  97372135.37107      3191.553 7        42.254
I01        37.000   386969046.959 7 215408812.70207     -3018.329 7        42.372
E27        38.000    28502180.793 5 149779963.94705     -2705.007 5        35.633                                                                    28502180.879 6 111848682.87906     -2019.771 6        39.946    28502180.602 6 114766471.24506     -2072.588 6        40.810
C19        39.000                                                                                                                                    21849733.778 8 113777301.21308      -162.094 8        51.780                                                                    21849728.723 8  92453354.87008      -131.665 8        49.641
E34        40.000    28847277.362 5 151593467.48905      1934.333 5        35.805                                                                    28847277.480 6 113202914.05406      1444.123 6        38.348    28847277.144 6 116156033.21806      1481.924 6        39.330
G05        41.000    22673967.568 7 119152519.82807      2500.569 7        43.846                                    22673963.161 6  92846101.94906      1948.497 6        41.006    22673963.358 6  92846110.95006      1948.594 6        41.223
S44        42.000    40856184.577 6 214700846.42306      -529.594 6        37.388
C36        43.000                                                                                                                                    24608252.643 7 128141628.51507      2829.558 7        44.009                                                                    24608257.421 7 104125589.73207      2299.333 7        44.685
C05        44.000                                                                                                                                    39261884.372 6 204446953.83206      -535.331 6        38.276    39261880.761 7 158091372.69007      -413.977 7        42.948    39261882.701 6 166129996.33306      -435.035 6        40.010
R18        45.000    23489075.153 7 125386295.08307      1391.388 7        42.464                                                                    23489075.102 6  97522657.57106      1082.166 6        40.613
G04        46.000    24500842.959 6 128752771.28106     -3610.369 6        38.051                                    24500843.860 3 100326805.52403     -2813.260 3        20.738    24500843.054 6 100326807.50206     -2813.202 6        39.504
R11        47.000    19800048.139 8 105805434.92608      1453.598 8        52.024                                                                    19800046.256 7  82293119.74507      1130.575 7        47.855
C20        49.000                                                                                                                                    23465525.497 8 122191162.15808     -2716.531 8        49.682                                                                    23465520.125 7  99290309.84107     -2207.352 7        47.933
C06        50.000                                                                                                                                    40434995.897 5 210555632.34205     -1505.154 5        35.819    40434992.270 6 162814945.80306     -1163.834 6        38.784    40434991.106 6 171093672.45706     -1223.060 6        36.234
S48        51.000    77185759.804 6 405613507.07506      -462.906 6        37.845
E06        52.000    24226935.417 7 127313430.45907       966.617 7        46.411                                                                    24226934.360 8  95071729.66208       721.808 8        49.484    24226934.445 8  97551859.54008       740.684 8        50.734
C09        53.000                                                                                                                                    39667648.358 6 206559864.78906     -1272.426 6        38.817    39667645.453 7 159725177.87207      -984.011 7        43.062    39667643.559 6 167846787.42806     -1034.112 6        39.441
C60        54.000                                                                                                                                    40856187.817 6 212749039.47306      -524.710 6        39.805                                                                    40856174.810 6 172875979.32606      -426.415 6        39.015
R09        55.000    24222389.370 6 129346215.89606     -4682.705 6        39.330                                                                    24222388.552 6 100602603.34306     -3642.213 6        40.017
G07        56.000    20920181.191 8 109936311.36708     -1289.244 8        48.932                                    20920176.191 8  85664641.47408     -1004.606 8        49.870    20920176.324 7  85664650.47807     -1004.590 7        45.789
C02        57.000                                                                                                                                    40831798.550 5 212621879.53505      -554.685 5        34.286    40831796.763 6 164412702.13106      -428.629 6        39.775    40831799.316 5 172772683.90205      -450.344 5        35.248
I03        58.000    98450316.663 6 310554870.47306       846.184 6        40.095
> 2025 01 02 06 00 10.0000000  0 55
G09         1.000    22023407.645 7 115733811.13707     -3059.354 7        44.928                                    22023405.716 7  90182193.44107     -2383.913 7        44.996    22023406.294 7  90182193.43707     -2383.855 7        42.518
G06         2.000    24619237.507 6 129374971.43006     -3996.667 6        39.111                                    24619238.034 5 100811666.36605     -3114.279 5        32.904    24619238.063 6 100811674.37506     -3114.198 6        38.589
E11         3.000    25700098.999 6 135054947.15706     -2711.268 6        40.813                                                                    25700094.780 7 100852710.11707     -2024.695 7        42.233    25700094.721 7 103483646.64007     -2077.488 7        43.082
G16         4.000    24834505.528 6 130506208.68106     -3326.754 6        36.454                                    24834501.077 2 101693129.90002     -2592.281 2        15.619
S21         5.000    38457815.632 7 202096882.67307      -478.481 7        42.529
E10         6.000    26923666.590 6 141484822.40906     -3539.555 6        40.317                                                                    26923666.418 7 105654243.92807     -2643.132 7        43.782    26923666.213 7 108410441.45107     -2712.058 7        44.676
G20         7.000    20798506.753 8 109296899.81008       414.368 8        48.106                                    20798501.562 6  85166396.59806       322.885 6        39.453
R02         8.000    22667101.358 7 120955995.58507      2942.612 7        46.200                                                                    22667099.886 6  94076886.32106      2288.722 6        40.660
R10         9.000    20843072.686 7 111105307.13107     -2911.271 7        44.372
R17        10.000    22448868.690 7 120128437.44807     -1701.021 7        47.180                                                                    22448866.686 7  93433223.29607     -1323.014 7        42.336
G30        11.000    20869573.891 8 109670362.39608      1030.412 8        50.582                                    20869571.766 8  85457417.47408       802.920 8        51.267    20869572.302 7  85457425.48507       802.899 7        45.034
S27        12.000    39105802.741 6 205502332.11606      -499.038 6        36.586
G13        13.000    23805451.241 6 125098492.46306      2746.939 6        39.760                                    23805445.929 3  97479323.58903      2140.471 3        20.833
S36        14.000    38225966.568 7 200879332.67307      -479.176 7        44.828
I09        15.000    38583820.988 6 151411172.46106      -880.675 6        41.969
E09        16.000    26120936.470 7 137266470.66507      1651.241 7        43.139                                                                    26120935.456 7 102504182.39307      1233.067 7        45.419    26120935.114 7 105178200.70507      1265.261 7        46.319
S45        17.000    63409319.214 6 333218631.52606      -520.898 6        36.892
E36        18.000    26087426.499 7 137090350.26507      -212.373 7        42.459                                                                    26087426.474 7 102372684.98107      -158.599 7        45.375    26087426.061 7 105043274.94007      -162.661 7        46.066
E12        19.000    28518827.217 5 149867431.20405     -3707.286 5        34.214                                                                    28518825.440 6 111913971.36906     -2768.207 6        37.380    28518825.571 6 114833466.69306     -2840.681 6        38.628
E21        20.000    25795703.530 7 135557331.04107      -415.946 7        43.833                                                                    25795703.168 7 101227891.54207      -310.650 7        46.026    25795702.946 7 103868615.55507      -318.732 7        47.193
G11        21.000    23145434.600 7 121630091.23607     -2907.758 7        44.856                                    23145430.560 5  94776675.64105     -2265.782 5        31.517    23145430.650 7  94776688.63707     -2265.729 7        42.317
I06        22.000    37979432.699 7 149039674.72907      -368.873 7        43.536
S28        23.000    40887642.799 5 214865963.42405      -480.698 5        34.795
R08        24.000    20841094.639 7 111603151.45407     -2860.142 7        47.666                                                                    20841093.803 7  86802453.01607     -2224.588 7        45.660
S23        25.000    38162191.437 7 200543641.80107      -475.707 7        44.846
R01        26.000    19494931.172 8 104211586.94708       784.902 8        48.735                                                                    19494930.965 7  81053449.61707       610.462 7        42.309
C44        27.000                                                                                                                                    26308605.967 6 136995819.61106     -2165.777 6        39.820                                                                    26308604.356 6 111320320.25806     -1760.201 6        37.546
R24        29.000    23664184.173 7 126543034.79107     -4220.554 7        43.424                                                                    23664183.548 6  98422346.81506     -3282.703 6        37.936
E19        30.000    25118106.256 6 131996560.68106     -2468.777 6        40.181                                                                    25118104.965 7  98568859.26007     -1843.691 7        42.688    25118104.231 7 101140217.96707     -1891.701 7        42.756
G14        31.000    24634794.411 6 129456716.98506      3090.333 6        39.766                                    24634793.498 3 100875362.50303      2408.056 3        23.962    24634793.552 6 100875348.52306      2407.947 6        40.007
C37        33.000                                                                                                                                    24031905.272 7 125140429.76107     -2593.783 7        46.658                                                                    24031908.054 7 101686860.41007     -2107.641 7        46.481
E04        34.000    23360610.569 8 122760872.57808      -155.217 8        48.441                                                                    23360608.228 8  91672091.40108      -115.888 8        50.954    23360608.154 8  94063532.75708      -118.919 8        52.043
C16        35.000                                                                                                                                    40989085.475 6 213440917.02306     -1458.957 6        36.953    40989088.030 6 165046058.10506     -1128.116 6        39.120    40989084.822 5 173438220.63905     -1185.357 5        33.419
R12        36.000    23432505.241 7 125172226.11607      4102.854 7        44.718                                                                    23432505.644 7  97356178.80507      3191.198 7        42.260
I01        37.000   386972892.234 7 215423904.51307     -3018.456 7        42.434
E27        38.000    28504755.241 6 149793492.19306     -2706.650 6        36.280                                                                    28504755.203 6 111858785.12106     -2021.112 6        39.919    28504754.948 6 114776837.02806     -2073.644 6        41.077
C19        39.000                                                                                                                                    21849890.307 8 113778116.38408      -163.997 8        51.708                                                                    21849885.269 8  92454017.27308      -133.159 8        49.685
E34        40.000    28845437.365 5 151583800.58105      1932.692 5        35.462                                                                    28845437.997 6 113195695.24506      1443.206 6        38.634    28845437.656 6 116148626.09306      1481.020 6        39.483
G05        41.000    22671589.084 7 119140021.30707      2498.724 7        43.651                                    22671584.759 6  92836362.84106      1947.058 6        40.915    22671585.447 6  92836371.84706      1947.069 6        41.137
S44        42.000    40856688.604 6 214703494.10006      -529.350 6        36.911
C36        43.000                                                                                                                                    24605536.230 7 128127482.45507      2828.789 7        44.202                                                                    24605540.702 7 104114094.90807      2298.625 7        44.739
C05        44.000                                                                                                                                    39262398.694 6 204449630.61106      -535.349 6        38.276    39262394.877 7 158093442.54607      -414.031 7        42.925    39262396.696 6 166132171.42806      -434.812 6        40.000
R18        45.000    23487774.132 7 125379347.27707      1387.599 7        42.976                                                                    23487773.126 6  97517253.70206      1079.096 6        40.336
G04        46.000    24504278.312 6 128770824.23906     -3610.803 6        37.905                                    24504279.175 3 100340872.71103     -2813.593 3        21.071    24504278.505 6 100340874.70006     -2813.674 6        39.060
R11        47.000    19798690.066 8 105798177.39108      1449.412 8        52.216                                                                    19798688.229 8  82287474.99208      1127.341 8        48.329
C20        49.000                                                                                                                                    23468134.627 8 122204748.09608     -2717.919 8        49.975                                                                    23468129.285 7  99301349.53707     -2208.451 7        47.977
C06        50.000                                                                                                                                    40436441.357 5 210563157.94005     -1504.963 5        35.867    40436437.534 6 162820765.07106     -1163.764 6        38.805    40436436.440 5 171099787.62505     -1222.900 5        35.990
S48        51.000    77186213.039 6 405615820.27006      -462.775 6        37.992
E06        52.000    24226015.897 7 127308599.25407       965.779 7        46.831                                                                    24226014.996 8  95068121.94108       721.170 8        49.555    24226015.131 8  97548157.70808       740.010 8        50.776
C09        53.000                                                                                                                                    39668870.511 6 206566227.23906     -1272.354 6        38.799    39668867.456 7 159730097.72207      -984.044 7        43.255    39668865.309 6 167851957.44006     -1034.019 6        39.471
C60        54.000                                                                                                                                    40856691.800 6 212751663.08606      -524.856 6        40.043                                                                    40856678.552 6 172878111.22006      -426.369 6        38.901
R09        55.000    24226773.609 6 129369631.93606     -4683.642 6        39.432                                                                    24226773.309 6 100620815.80006     -3642.866 6        40.176
G07        56.000    20921408.867 8 109942762.62008     -1291.352 8        48.967                                    20921403.826 8  85669668.42108     -1006.248 8        49.951    20921404.468 7  85669677.42307     -1006.260 7        46.176
C02        57.000                                                                                                                                    40832331.992 5 212624651.87105      -554.446 5        34.471    40832328.900 6 164414845.86006      -428.817 6        39.480    40832331.600 5 172774936.66505      -450.499 5        35.100
I03        58.000    98449238.119 6 310550639.96006       846.080 6        39.916
> 2025 01 02 06 00 15.0000000  0 55
G09         1.000    22026319.150 7 115749111.20207     -3060.639 7        44.497                                    22026317.279 7  90194115.55607     -2384.911 7        44.990    22026317.470 7  90194115.55707     -2385.005 7        42.660
G06         2.000    24623040.658 6 129394954.51106     -3996.864 6        38.877                                    24623040.643 5 100827237.58505     -3114.436 5        32.844    24623040.963 6 100827245.57706     -3114.250 6        38.030
E11         3.000    25702679.851 6 135068508.32206     -2713.188 6        40.956                                                                    25702675.458 7 100862836.96507     -2026.028 7        42.305    25702675.294 7 103494037.65907     -2078.858 7        42.955
G16         4.000    24837671.628 5 130522848.63505     -3329.504 5        35.957                                    24837667.527 2 101706096.07002     -2594.431 2        14.476
S21         5.000    38458267.347 7 202099275.87907      -478.730 7        42.356
E10         6.000    26927034.914 6 141502521.90506     -3540.467 6        40.923                                                                    26927034.442 7 105667461.06907     -2643.730 7        43.827    26927034.332 7 108424003.38507     -2712.666 7        44.689
G20         7.000    20798113.915 8 109294836.29008       411.037 8        48.281                                    20798108.882 6  85164788.65706       320.289 6        39.342
R02         8.000    22664343.859 7 120941283.33707      2942.205 7        44.906                                                                    22664343.483 6  94065443.46206      2288.354 6        41.754
R10         9.000    20845805.891 7 111119872.96007     -2915.151 7        44.764
R17        10.000    22450459.511 7 120136952.86307     -1705.331 7        47.131                                                                    22450457.938 6  93439846.40606     -1326.304 6        41.926
G30        11.000    20868594.739 8 109665216.40308      1027.885 8        50.659                                    20868592.516 8  85453407.60808       800.950 8        51.147    20868593.237 7  85453415.60807       800.937 7        44.725
S27        12.000    39106275.910 6 205504826.83506      -499.220 6        36.439
G13        13.000    23802838.099 6 125084759.32406      2746.276 6        39.225                                    23802832.588 3  97468622.44403      2139.948 3        20.310
S36        14.000    38226419.257 7 200881729.47407      -479.508 7        44.631
I09        15.000    38584943.028 7 151415576.07907      -880.861 7        42.110
E09        16.000    26119365.643 7 137258216.16407      1650.620 7        43.086                                                                    26119364.774 7 102498018.32207      1232.529 7        45.391    26119364.319 7 105171875.82807      1264.739 7        46.389
S45        17.000    63409774.953 6 333221235.87006      -521.160 6        36.832
E36        18.000    26087629.892 7 137091418.67507      -215.109 7        42.554                                                                    26087629.754 7 102373482.81207      -160.608 7        45.433    26087629.421 7 105044093.58707      -164.781 7        46.145
E12        19.000    28522354.529 5 149885966.14805     -3707.177 5        34.290                                                                    28522352.592 6 111927812.37806     -2768.214 6        37.565    28522352.716 6 114847668.76106     -2840.446 6        38.438
E21        20.000    25796100.649 7 135559417.35607      -418.661 7        44.068                                                                    25796100.170 7 101229449.49107      -312.565 7        46.091    25796099.987 7 103870214.15107      -320.802 7        47.285
G11        21.000    23148202.296 7 121644635.55307     -2910.033 7        45.026                                    23148198.155 5  94788008.87205     -2267.559 5        31.630    23148198.574 7  94788021.87707     -2267.604 7        42.356
I06        22.000    37979902.889 7 149041519.49107      -369.097 7        43.594
S28        23.000    40888101.238 5 214868368.32405      -481.276 5        34.824
R08        24.000    20843767.138 7 111617457.88807     -2862.420 7        47.596                                                                    20843765.112 7  86813580.23507     -2226.325 7        45.365
S23        25.000    38162644.243 7 200546020.66507      -475.953 7        44.724
R01        26.000    19494198.222 8 104207668.57408       782.393 8        48.575                                                                    19494197.517 7  81050401.99707       608.587 7        42.349
C44        27.000                                                                                                                                    26310686.705 6 137006654.35906     -2167.920 6        39.616                                                                    26310684.977 6 111329124.34906     -1761.555 6        37.543
R24        29.000    23668131.457 7 126564141.13707     -4221.939 7        42.840                                                                    23668130.426 6  98438762.86006     -3283.710 6        37.384
E19        30.000    25120455.357 6 132008906.58506     -2469.400 6        39.910                                                                    25120454.275 7  98578078.59007     -1844.145 7        42.671    25120453.742 7 101149677.80807     -1892.347 7        42.736
G14        31.000    24631853.880 6 129441265.57206      3090.197 6        40.081                                    24631853.156 4 100863322.44604      2407.946 4        24.000    24631853.255 6 100863308.44906      2408.067 6        39.685
C37        33.000                                                                                                                                    24034396.743 7 125153403.86007     -2595.948 7        46.668                                                                    24034399.632 7 101697402.90707     -2109.475 7        46.481
E04        34.000    23360758.784 8 122761651.93208      -156.515 8        48.445                                                                    23360756.555 8  91672673.38108      -116.877 8        51.015    23360756.464 8  94064129.92008      -119.903 8        52.081
C16        35.000                                                                                                                                    40990486.115 6 213448211.51406     -1458.863 6        37.059    40990488.767 6 165051698.63606     -1128.070 6        39.435    40990485.637 5 173444147.98105     -1185.354 5        33.485
R12        36.000    23428664.898 7 125151713.56007      4102.140 7        44.086                                                                    23428665.648 7  97340224.59807      3190.593 7        42.148
I01        37.000   386976738.437 7 215438997.31007     -3018.738 7        42.578
E27        38.000    28507330.714 6 149807028.54706     -2708.186 6        36.204                                                                    28507331.081 6 111868893.44906     -2022.267 6        39.784    28507330.666 6 114787209.06406     -2075.211 6        41.023
C19        39.000                                                                                                                                    21850048.740 8 113778941.58408      -166.113 8        51.534                                                                    21850043.718 8  92454687.80308      -135.011 8        49.584
E34        40.000    28843599.004 5 151574141.34405      1931.069 5        35.324                                                                    28843599.773 6 113188482.18206      1442.132 6        38.441    28843599.377 6 116141224.87406      1479.658 6        39.246
G05        41.000    22669212.876 7 119127532.16407      2496.907 7        44.135                                    22669208.141 6  92826631.04506      1945.645 6        41.004    22669208.773 6  92826640.04906      1945.661 6        41.256
S44        42.000    40857192.954 6 214706142.11706      -529.819 6        37.221
C36        43.000                                                                                                                                    24602820.319 7 128113341.08207      2827.682 7        44.352                                                                    24602824.925 7 104102603.87707      2297.734 7        44.709
C05        44.000                                                                                                                                    39262912.179 6 204452307.85206      -535.493 6        38.015    39262908.885 7 158095512.73507      -414.134 7        43.022    39262910.955 6 166134346.89206      -435.344 6        40.207
R18        45.000    23486475.751 7 125372419.00507      1383.616 7        42.554                                                                    23486475.683 6  97511865.07406      1076.104 6        40.346
G04        46.000    24507714.223 6 128788879.44006     -3611.293 6        38.078                                    24507714.906 3 100354941.64303     -2813.995 3        21.310    24507714.227 6 100354943.62406     -2813.963 6        38.550
R11        47.000    19797335.821 8 105790940.95308      1445.070 8        52.461                                                                    19797334.101 8  82281846.65208      1123.965 8        48.218
C20        49.000                                                                                                                                    23470745.230 8 122218341.56408     -2719.565 8        49.926                                                                    23470739.710 7  99312395.32007     -2209.750 7        47.961
C06        50.000                                                                                                                                    40437885.885 5 210570683.44005     -1505.202 5        35.924    40437882.367 6 162826584.24106     -1163.836 6        38.931    40437882.005 6 171105902.69106     -1223.277 6        36.246
S48        51.000    77186654.348 6 405618133.90106      -462.962 6        37.879
E06        52.000    24225097.280 7 127303772.61407       964.814 7        46.712                                                                    24225096.556 8  95064517.62808       720.450 8        49.605    24225096.625 8  97544459.36808       739.233 8        50.816
C09        53.000                                                                                                                                    39670092.521 6 206572590.09206     -1272.743 6        38.715    39670089.196 7 159735017.85507      -984.115 7        43.109    39670087.428 6 167857127.76606     -1034.259 6        39.462
C60        54.000                                                                                                                                    40857195.577 6 212754287.01106      -524.832 6        40.148                                                                    40857182.593 6 172880243.33906      -426.531 6        38.916
R09        55.000    24231159.910 6 129393052.94506     -4684.832 6        39.489                                                                    24231158.811 6 100639032.10106     -3643.633 6        40.105
G07        56.000    20922638.584 8 109949224.96408     -1293.659 8        48.859                                    20922633.562 8  85674704.01108     -1008.045 8        49.831    20922633.827 7  85674713.01107     -1008.117 7        46.159
C02        57.000                                                                                                                                    40832863.789 5 212627424.63405      -554.924 5        34.495    40832861.349 6 164416989.89006      -429.057 6        39.772    40832864.354 5 172777189.72205      -450.841 5        35.505
I03        58.000    98448160.447 6 310546409.72906       846.029 6        40.174
> 2025 01 02 06 00 20.0000000  0 55
G09         1.000    22029231.761 7 115764417.56107     -3061.873 7        44.491                                    22029229.959 7  90206042.57707     -2385.873 7        44.900    22029230.349 7  90206042.57107     -2385.803 7        42.722
G06         2.000    24626843.196 6 129414938.72606     -3996.902 6        39.030                                    24626843.320 5 100842809.68705     -3114.467 5        33.018    24626843.688 6 100842817.67906     -3114.516 6        37.966
E11         3.000    25705262.168 6 135082078.49306     -2714.800 6        40.551                                                                    25705257.711 7 100872970.51307     -2027.226 7        42.301    25705257.534 7 103504435.57307     -2080.262 7        42.961
G16         4.000    24840840.523 6 130539500.44606     -3331.550 6        36.832                                    24840836.307 2 101719071.51402     -2596.023 2        15.286
S21         5.000    38458725.469 7 202101669.40507      -478.722 7        42.428
E10         6.000    26930404.363 6 141520224.95906     -3540.986 6        41.499                                                                    26930403.098 7 105680680.88407     -2644.281 7        43.882    26930402.997 7 108437568.06607     -2713.211 7        44.483
G20         7.000    20797724.455 8 109292788.73808       407.936 8        48.479                                    20797719.247 6  85163193.15706       317.873 6        39.438
R02         8.000    22661587.228 7 120926572.89907      2941.925 7        46.789                                                                    22661585.959 6  94054002.01106      2288.150 6        40.856
R10         9.000    20848541.886 7 111134457.53907     -2918.760 7        44.156
R17        10.000    22452055.240 7 120145489.43307     -1709.359 7        46.767                                                                    22452053.377 6  93446485.94706     -1329.446 6        41.869
G30        11.000    20867618.013 8 109660082.61608      1025.576 8        50.596                                    20867615.588 8  85449407.25208       799.151 8        51.163    20867616.030 7  85449415.25207       799.216 7        44.644
S27        12.000    39106747.716 6 205507322.23306      -499.200 6        36.673
G13        13.000    23800225.142 6 125071029.09106      2745.842 6        40.164                                    23800219.993 3  97457923.56203      2139.606 3        20.381
S36        14.000    38226874.200 7 200884126.66107      -479.728 7        44.706
I09        15.000    38586065.865 6 151419980.55706      -880.969 6        41.852
E09        16.000    26117795.301 7 137249964.29407      1650.111 7        43.225                                                                    26117794.458 7 102491856.20607      1232.234 7        45.412    26117794.101 7 105165552.96507      1264.316 7        46.323
S45        17.000    63410222.714 6 333223840.69506      -521.079 6        37.077
E36        18.000    26087835.909 7 137092500.33307      -217.592 7        42.675                                                                    26087835.641 7 102374290.53607      -162.483 7        45.418    26087835.248 7 105044922.38807      -166.802 7        46.186
E12        19.000    28525881.409 5 149904500.09705     -3706.912 5        34.438                                                                    28525879.515 6 111941652.62906     -2767.831 6        37.569    28525879.510 6 114861870.08706     -2840.435 6        38.348
E21        20.000    25796499.925 7 135561516.48307      -421.024 7        44.084                                                                    25796499.639 7 101231017.02207      -314.445 7        46.073    25796499.453 7 103871822.57307      -322.705 7        47.276
G11        21.000    23150971.941 7 121659190.95507     -2912.252 7        44.724                                    23150967.958 5  94799350.74505     -2269.285 5        31.532    23150968.208 7  94799363.74707     -2269.302 7        42.095
I06        22.000    37980373.150 7 149043364.73607      -369.100 7        43.666
S28        23.000    40888558.417 5 214870773.85405      -480.723 5        34.924
R08        24.000    20846441.157 7 111631774.63507     -2864.372 7        47.510                                                                    20846438.958 7  86824715.46807     -2227.829 7        46.267
S23        25.000    38163097.835 7 200548400.07507      -475.836 7        44.894
R01        26.000    19493467.054 8 104203762.13208       780.177 8        48.734                                                                    19493466.514 6  81047363.65306       606.796 6        41.886
C44        27.000                                                                                                                                    26312768.952 6 137017498.80006     -2169.866 6        39.240                                                                    26312767.586 6 111337936.34606     -1763.248 6        37.735
R24        29.000    23672081.033 7 126585253.53507     -4223.083 7        43.448                                                                    23672079.056 6  98455183.60606     -3284.491 6        36.991
E19        30.000    25122805.480 6 132021255.77706     -2470.214 6        39.931                                                                    25122804.233 7  98587300.37507     -1844.580 7        42.722    25122803.601 7 101159140.15707     -1892.826 7        42.525
G14        31.000    24628913.959 6 129425813.97406      3090.496 6        40.129                                    24628912.644 3 100851282.23103      2408.195 3        23.867    24628912.769 6 100851268.23706      2408.008 6        39.670
C37        33.000                                                                                                                                    24036890.379 7 125166388.25807     -2597.825 7        46.680                                                                    24036893.217 7 101707953.77807     -2110.992 7        46.592
