     3.04           OBSERVATION DATA    M                   RINEX VERSION / TYPE
ssrcrin-15.6.1x                         20250102 050000 UTC PGM / RUN BY / DATE 
(00000000023479385599111004) Septentrio proprietary         COMMENT             
rref                                                        MARKER NAME         
01                                                          MARKER NUMBER       
geodetic                                                    MARKER TYPE         
NFB                 CLIMERS@TUW                             OBSERVER / AGENCY   
3297213             SEPT ASTERX SB3 PROB4.14.4              REC # / TYPE / VERS 
Unknown             Unknown                                 ANT # / TYPE        
  4127831.6557  1207193.1369  4695247.4209                  APPROX POSITION XYZ 
        0.0000        0.0000        0.0000                  ANTENNA: DELTA H/E/N
G   23 X1  C1C L1C D1C S1C C1W S1W C2W L2W D2W S2W C2L L2L  SYS / # / OBS TYPES 
       D2L S2L C5Q L5Q D5Q S5Q C1L L1L D1L S1L              SYS / # / OBS TYPES 
E   21 X1  C1C L1C D1C S1C C6C L6C D6C S6C C5Q L5Q D5Q S5Q  SYS / # / OBS TYPES 
       C7Q L7Q D7Q S7Q C8Q L8Q D8Q S8Q                      SYS / # / OBS TYPES 
S    9 X1  C1C L1C D1C S1C C5I L5I D5I S5I                  SYS / # / OBS TYPES 
R   17 X1  C1C L1C D1C S1C C2P L2P D2P S2P C2C L2C D2C S2C  SYS / # / OBS TYPES 
       C3Q L3Q D3Q S3Q                                      SYS / # / OBS TYPES 
C   25 X1  C1P L1P D1P S1P C5P L5P D5P S5P C2I L2I D2I S2I  SYS / # / OBS TYPES 
       C7I L7I D7I S7I C6I L6I D6I S6I C7D L7D D7D S7D      SYS / # / OBS TYPES 
J   17 X1  C1C L1C D1C S1C C2L L2L D2L S2L C5Q L5Q D5Q S5Q  SYS / # / OBS TYPES 
       C1L L1L D1L S1L                                      SYS / # / OBS TYPES 
I    5 X1  C5A L5A D5A S5A                                  SYS / # / OBS TYPES 
SEPTENTRIO RECEIVERS OUTPUT ALIGNED CARRIER PHASES.         COMMENT             
NO FURTHER PHASE SHIFT APPLIED IN THE RINEX ENCODER.        COMMENT             
G L1C                                                       SYS / PHASE SHIFT   
G L2W                                                       SYS / PHASE SHIFT   
G L2L  0.00000                                              SYS / PHASE SHIFT   
G L5Q  0.00000                                              SYS / PHASE SHIFT   
G L1L  0.00000                                              SYS / PHASE SHIFT   
E L1C  0.00000                                              SYS / PHASE SHIFT   
E L6C  0.00000                                              SYS / PHASE SHIFT   
E L5Q  0.00000                                              SYS / PHASE SHIFT   
E L7Q  0.00000                                              SYS / PHASE SHIFT   
E L8Q  0.00000                                              SYS / PHASE SHIFT   
S L1C                                                       SYS / PHASE SHIFT   
S L5I                                                       SYS / PHASE SHIFT   
R L1C                                                       SYS / PHASE SHIFT   
R L2P  0.00000                                              SYS / PHASE SHIFT   
R L2C                                                       SYS / PHASE SHIFT   
R L3Q  0.00000                                              SYS / PHASE SHIFT   
C L1P  0.00000                                              SYS / PHASE SHIFT   
C L5P  0.00000                                              SYS / PHASE SHIFT   
C L2I                                                       SYS / PHASE SHIFT   
C L7I                                                       SYS / PHASE SHIFT   
C L6I                                                       SYS / PHASE SHIFT   
C L7D                                                       SYS / PHASE SHIFT   
J L1C                                                       SYS / PHASE SHIFT   
J L2L  0.00000                                              SYS / PHASE SHIFT   
J L5Q  0.00000                                              SYS / PHASE SHIFT   
J L1L  0.00000                                              SYS / PHASE SHIFT   
I L5A                                                       SYS / PHASE SHIFT   
  2025     1     2     5     0    0.0000000     GPS         TIME OF FIRST OBS   
 C1C    0.000 C2C    0.000 C2P    0.000                     GLONASS COD/PHS/BIS 
DBHZ                                                        SIGNAL STRENGTH UNIT
    18                                                      LEAP SECONDS        
 24 R01  1 R02 -4 R03  5 R04  6 R05  1 R06 -4 R07  5 R08  6 GLONASS SLOT / FRQ #
    R09 -2 R10 -7 R11  0 R12 -1 R13 -2 R14 -7 R15  0 R16 -1 GLONASS SLOT / FRQ #
    R17  4 R18 -3 R19  3 R20  2 R21  4 R22 -3 R23  3 R24  2 GLONASS SLOT / FRQ #
                                                            END OF HEADER       
> 2025 01 02 05 00  0.0000000  0 56
G09         1.000    20551402.907 8 107998386.40008     -2032.446 8        48.437                                    20551400.060 8  84154593.02008     -1583.725 8        51.351    20551400.342 7  84154593.01807     -1583.765 7        46.238
G06         2.000    22374232.491 7 117577403.59107     -3162.075 7        45.290                                    22374230.701 7  91618760.64407     -2463.958 7        44.122    22374231.158 7  91618768.65307     -2464.028 7        42.857
E11         3.000    24644562.246 7 129508069.93007     -1131.723 7        43.219                                                                    24644557.609 7  96710563.40707      -845.095 7        45.041    24644557.367 7  99233443.71507      -867.133 7        45.144
G16         4.000    23547547.594 6 123743214.09406     -1137.632 6        40.684                                    23547542.627 3  96423267.43803      -886.466 3        22.838
S21         5.000    38424038.976 7 201919386.62807      -488.067 7        42.432
E10         6.000    25057330.241 7 131677168.95507     -2607.156 7        46.577                                                                    25057329.052 8  98330350.15708     -1946.920 8        49.128    25057328.926 8 100895489.20008     -1997.739 8        49.368
G20         7.000    22051881.563 7 115883430.75507      2198.242 7        45.824                                    22051876.161 5  90298758.77605      1712.913 5        32.742
R10         9.000    20203072.185 7 107693747.55307       262.843 7        45.091
R17        10.000    22659167.605 7 121253788.33507      1422.812 7        45.959                                                                    22659165.895 7  94308496.00307      1106.404 7        42.241
G30        11.000    22410923.055 7 117770205.96907      2493.779 7        46.016                                    22410920.684 7  91768983.99307      1943.204 7        44.309    22410921.429 6  91768991.98906      1943.209 6        41.757
S27        12.000    39060296.478 6 205263225.04706      -501.546 6        36.673
G26        13.000    25335380.699 5 133138329.07905     -3108.444 5        32.772                                    25335379.883 3 103744159.36803     -2422.160 3        21.810    25335379.751 5 103744159.39505     -2422.655 5        33.162
S36        14.000    38191870.880 7 200700157.64107      -488.633 7        45.019
I09        15.000    38106777.162 7 149539173.86607      -804.510 7        42.914
E09        16.000    27650193.053 6 145302764.78506      1920.257 6        39.279                                                                    27650191.636 6 108505310.47606      1434.070 6        40.803    27650191.535 6 111335880.03406      1471.343 6        41.409
S45        17.000    63377514.213 6 333051813.56606      -529.173 6        37.293
E36        18.000    26838975.576 6 141039764.33806      1451.447 6        40.856                                                                    26838975.233 7 105321922.40307      1083.802 7        44.108    26838974.943 7 108069449.03207      1112.099 7        44.382
E12        19.000    26304096.339 6 138228963.33106     -3452.458 6        40.281                                                                    26304092.320 7 103222914.96007     -2578.335 7        42.675    26304092.604 7 105915686.20107     -2645.458 7        43.399
E21        20.000    26393701.153 7 138699834.24007      1217.138 7        42.713                                                                    26393700.804 7 103574567.28507       909.021 7        45.481    26393700.096 7 106276508.76907       932.738 7        45.720
G11        21.000    22108611.335 7 116181555.11107      -826.115 7        45.973                                    22108606.757 5  90531064.77705      -643.726 5        35.105    22108607.084 7  90531077.77707      -643.717 7        45.398
I06        22.000    37947545.221 7 148914558.82107      -348.859 7        43.496
S28        23.000    40853041.120 5 214684179.12405      -487.774 5        35.171
R08        24.000    19705822.902 8 105523828.64008     -1385.570 8        50.352                                                                    19705820.104 7  82074093.79507     -1077.683 7        47.314
S23        25.000    38130583.393 7 200377559.43307      -484.395 7        44.879
R01        26.000    20786500.703 7 111115765.99907      2021.615 7        47.580                                                                    20786500.674 6  86423366.85306      1572.339 6        40.100
C44        27.000                                                                                                                                    25660336.579 6 133620108.63406      -464.812 6        41.044                                                                    25660334.617 6 108577278.58206      -377.643 6        40.694
R24        29.000    21632493.890 8 115678676.48208     -2341.894 8        48.625                                                                    21632492.115 7  89972292.64707     -1821.448 7        43.549
E19        30.000    23872577.016 7 125451272.97407     -2000.387 7        43.035                                                                    23872574.535 7  93681148.15707     -1493.848 7        44.877    23872574.282 7  96125000.90107     -1532.757 7        45.300
C23        31.000                                                                                                                                    26151164.689 6 136175986.88006     -3204.448 6        41.232                                                                    26151156.251 6 110654111.10906     -2603.936 6        40.405
R23        32.000    23672521.810 7 126632023.02207     -4856.430 7        42.082
E29        33.000    27899004.668 6 146610326.03806     -2971.909 6        37.149                                                                    27899003.760 6 109481747.00606     -2219.297 6        40.698    27899003.510 6 112337787.64906     -2277.216 6        41.383
E04        34.000    23808688.791 8 125115542.45608       589.337 8        48.076                                                                    23808686.491 8  93430449.42108       440.085 8        50.882    23808686.385 8  95867760.91508       451.554 8        51.535
C16        35.000                                                                                                                                    40246719.240 6 209575260.25006     -1523.228 6        39.568    40246718.369 6 162056897.27106     -1178.018 6        39.399    40246716.591 6 170297066.05806     -1237.765 6        36.015
C32        36.000                                                                                                                                    26300385.595 6 136953044.51406     -3325.831 6        41.538                                                                    26300386.434 7 111285583.69307     -2702.671 7        42.078
I01        37.000   384537267.697 7 205866018.85707     -2924.694 7        43.374
E27        38.000    27405367.546 6 144016182.34806     -1263.732 6        39.498                                                                    27405367.200 7 107544563.47907      -943.675 7        42.099    27405366.690 7 110350070.09207      -968.363 7        42.698
C19        39.000                                                                                                                                    22459874.760 8 116954468.65708       984.772 8        50.372                                                                    22459869.741 8  95035064.27408       800.134 8        49.873
C39        40.000                                                                                                                                    41172168.340 6 214394297.30006     -1660.013 6        38.673                                                                    41172163.894 6 174212921.49806     -1348.852 6        38.195
G05        41.000    24991987.192 6 131333783.96706      3196.438 6        39.949                                    24991982.039 5 102337994.13505      2490.726 5        30.204    24991983.514 5 102338003.15105      2490.719 5        34.890
S44        42.000    40782992.571 6 214316263.82806      -552.494 6        36.760
G29        43.000    25681961.006 6 134959609.55906      -744.727 6        37.410                                    25681956.863 4 105163318.02704      -580.312 4        28.626    25681957.331 5 105163317.06405      -580.581 5        35.362
C05        44.000                                                                                                                                    39188325.622 6 204063936.73206      -537.990 6        38.814    39188320.651 7 157795205.82207      -415.988 7        43.852    39188322.355 6 165818768.55006      -437.173 6        39.928
C29        45.000                                                                                                                                    26969888.186 5 140439294.65805     -3432.178 5        35.638                                                                    26969885.498 5 114118426.53005     -2789.260 5        33.748
G04        46.000    22444988.306 7 117949240.93107     -3195.010 7        44.009                                    22444984.617 5  91908485.33105     -2489.616 5        31.072    22444984.109 7  91908487.32407     -2489.556 7        42.914
R11        47.000    21917621.425 7 117121105.26207      3646.064 7        46.816                                                                    21917619.797 7  91094196.57107      2835.856 7        44.498
C20        49.000                                                                                                                                    22253238.908 8 115878481.50508     -1631.042 8        52.319                                                                    22253232.694 8  94160742.63708     -1325.382 8        49.762
C06        50.000                                                                                                                                    39672761.409 6 206586509.97906     -1537.033 6        38.315    39672754.911 6 159745777.29206     -1188.587 6        41.700    39672755.416 6 167868442.37506     -1249.029 6        38.261
S48        51.000    77158480.644 6 405469078.85006      -472.827 6        38.099
E06        52.000    25377949.760 7 133362053.35907      1505.423 7        44.433                                                                    25377948.981 7  99588558.56007      1124.160 7        46.667    25377949.001 7 102186518.73807      1153.449 7        47.680
C09        53.000                                                                                                                                    39094823.386 6 203577025.20906     -1218.612 6        40.176    39094818.749 7 157418660.54607      -942.314 7        44.760    39094817.449 6 165422988.71106      -990.294 6        41.044
C60        54.000                                                                                                                                    40782994.716 6 212367953.56906      -547.545 6        40.412                                                                    40782978.280 6 172566327.24406      -444.844 6        39.378
R09        55.000    21782449.484 7 116317090.00307     -3119.940 7        46.782                                                                    21782447.359 7  90468842.70807     -2426.674 7        45.087
G07        56.000    20910026.477 8 109882951.10008       437.433 8        49.344                                    20910021.347 8  85623062.65508       340.859 8        49.323    20910021.757 7  85623071.65507       340.862 7        45.300
C02        57.000                                                                                                                                    40741566.573 5 212152075.95205      -566.852 5        34.829    40741561.066 6 164049435.68806      -438.212 6        39.306    40741564.276 5 172390942.45805      -460.702 5        35.595
I03        58.000    99522589.990 6 314762775.85106       840.333 6        40.868
R07        59.000    22662109.763 7 121312102.53007     -3585.334 7        45.096                                                                    22662109.644 6  94353908.76006     -2788.618 6        41.442
> 2025 01 02 05 00  5.0000000  0 56
G09         1.000    20553337.544 8 108008553.41808     -2034.150 8        48.426                                    20553334.780 8  84162515.37008     -1585.051 8        51.388    20553334.984 7  84162515.36807     -1584.982 7        46.380
G06         2.000    22377242.049 7 117593219.73407     -3164.165 7        44.662                                    22377240.371 7  91631084.91107     -2465.584 7        44.166    22377241.248 7  91631092.90507     -2465.485 7        43.771
E11         3.000    24645640.151 7 129513734.63507     -1134.010 7        43.026                                                                    24645635.490 7  96714793.54207      -846.903 7        44.972    24645635.360 7  99237784.20107      -868.997 7        45.375
G16         4.000    23548631.983 6 123748910.86306     -1141.045 6        40.732                                    23548626.982 3  96427706.48003      -889.130 3        22.629
S21         5.000    38424501.794 7 201921826.66407      -487.913 7        42.870
E10         6.000    25059811.728 7 131690209.52907     -2608.955 7        46.553                                                                    25059810.598 8  98340088.25008     -1948.230 8        49.050    25059810.421 8 100905481.33308     -1999.042 8        49.546
G20         7.000    22049790.635 7 115872443.74107      2196.604 7        45.329                                    22049785.423 5  90290197.46605      1711.641 5        32.719
R10         9.000    20202828.049 7 107692445.12807       258.245 7        44.649
R17        10.000    22657840.701 7 121246684.31107      1418.985 7        46.701                                                                    22657838.177 7  94302970.63407      1103.791 7        42.366
G30        11.000    22408550.899 7 117757741.10307      2492.324 7        45.862                                    22408548.680 7  91759271.10807      1942.069 7        44.385    22408549.589 7  91759279.11707      1942.123 7        42.483
S27        12.000    39060772.590 6 205265732.71106      -501.469 6        36.688
G26        13.000    25338339.044 5 133153878.11805     -3110.816 5        33.168                                    25338338.711 3 103756275.49703     -2424.014 3        21.762    25338338.442 5 103756275.50005     -2423.848 5        32.521
S36        14.000    38192335.074 7 200702600.33107      -488.081 7        45.266
I09        15.000    38107802.283 7 149543196.65007      -804.530 7        42.796
E09        16.000    27648365.897 6 145293164.14806      1920.111 6        39.339                                                                    27648364.792 6 108498141.18706      1433.821 6        40.653    27648364.559 6 111328523.70106      1471.331 6        41.583
S45        17.000    63377974.329 6 333054460.23606      -529.374 6        37.486
E36        18.000    26837594.823 6 141032512.08406      1449.744 6        40.994                                                                    26837595.261 7 105316506.75707      1082.537 7        44.072    26837595.008 7 108063892.10707      1110.794 7        44.491
E12        19.000    26307381.902 6 138246228.65106     -3453.531 6        40.555                                                                    26307377.712 7 103235807.87107     -2578.876 7        42.440    26307378.070 7 105928915.46007     -2646.146 7        43.805
E21        20.000    26392543.798 7 138693752.88207      1215.474 7        42.514                                                                    26392543.461 7 103570026.01107       907.656 7        45.517    26392542.967 7 106271849.03207       931.348 7        45.940
G11        21.000    22109398.840 7 116185694.20707      -829.402 7        46.152                                    22109394.385 5  90534290.04505      -646.291 5        35.076    22109394.331 7  90534303.04407      -646.235 7        45.213
I06        22.000    37947989.587 7 148916302.96807      -348.735 7        43.435
S28        23.000    40853503.163 5 214686618.47905      -487.635 5        35.305
R08        24.000    19707116.812 8 105530761.82708     -1387.520 8        49.993                                                                    19707114.671 7  82079486.27907     -1079.177 7        47.308
S23        25.000    38131045.325 7 200379981.63407      -484.309 7        45.061
R01        26.000    20784610.579 7 111105661.06407      2020.434 7        47.071                                                                    20784609.260 6  86415507.47506      1571.380 6        40.572
C44        27.000                                                                                                                                    25660783.851 6 133622439.44906      -467.405 6        40.739                                                                    25660782.256 6 108579172.55106      -379.715 6        40.756
R24        29.000    21634685.727 8 115690395.79608     -2345.724 8        49.048                                                                    21634684.285 7  89981407.65907     -1824.386 7        43.818
E19        30.000    23874480.644 7 125461277.10807     -2001.131 7        42.923                                                                    23874478.189 7  93688618.77707     -1494.339 7        44.907    23874477.981 7  96132666.41107     -1533.274 7        45.384
C23        31.000                                                                                                                                    26154242.566 6 136192012.90606     -3205.875 6        41.290                                                                    26154233.929 6 110667133.56506     -2605.061 6        40.749
R23        32.000    23677060.999 7 126656305.41407     -4856.404 7        42.548
E29        33.000    27901832.400 6 146625186.07106     -2971.789 6        37.074                                                                    27901831.578 6 109492843.77306     -2219.307 6        40.434    27901831.355 6 112349173.88506     -2277.101 6        41.344
E04        34.000    23808128.590 8 125112598.39708       588.484 8        48.259                                                                    23808126.243 8  93428250.94008       439.430 8        50.864    23808126.109 8  95865505.08208       450.915 8        51.752
C16        35.000                                                                                                                                    40248182.254 6 209582877.37406     -1523.179 6        39.763    40248181.496 6 162062787.31706     -1177.953 6        39.330    40248179.609 6 170303255.60806     -1237.902 6        36.291
C32        36.000                                                                                                                                    26303579.380 6 136969674.42406     -3326.083 6        41.421                                                                    26303580.050 6 111299096.82506     -2702.704 6        41.950
I01        37.000   384540994.057 7 205880642.70607     -2924.820 7        43.266
E27        38.000    27406571.323 6 144022506.51506     -1265.936 6        39.595                                                                    27406570.596 7 107549286.06407      -945.268 7        42.047    27406569.854 7 110354915.88007      -970.017 7        42.711
C19        39.000                                                                                                                                    22458930.007 8 116949548.25608       983.571 8        50.468                                                                    22458924.881 8  95031066.04108       799.297 8        49.910
C39        40.000                                                                                                                                    41173761.744 6 214402596.89806     -1659.558 6        38.982                                                                    41173757.599 6 174219665.62006     -1348.690 6        38.135
G05        41.000    24988946.439 6 131317803.84606      3196.130 6        38.766                                    24988941.112 5 102325542.09505      2490.489 5        30.060    24988941.853 5 102325551.07805      2490.580 5        35.157
S44        42.000    40783515.130 6 214319026.19006      -552.320 6        37.009
G29        43.000    25682671.068 6 134963341.03506      -747.516 6        36.862                                    25682666.894 4 105166225.67404      -582.477 4        28.493    25682667.757 5 105166224.66805      -582.536 5        35.367
C05        44.000                                                                                                                                    39188841.960 6 204066626.61006      -537.897 6        38.949    39188837.392 7 157797285.79907      -415.895 7        43.746    39188838.894 6 165820954.28406      -436.909 6        40.083
C29        45.000                                                                                                                                    26973183.400 5 140456453.59605     -3431.347 5        34.129                                                                    26973180.842 5 114132369.56705     -2788.004 5        32.234
G04        46.000    22448028.519 7 117965217.89107     -3195.654 7        44.158                                    22448024.828 5  91920934.91005     -2490.115 5        31.170    22448024.553 7  91920936.90607     -2490.196 7        42.851
R11        47.000    21914210.961 7 117102879.35907      3644.481 7        46.832                                                                    21914208.861 7  91080020.87907      2834.541 7        44.864
C20        49.000                                                                                                                                    22254805.812 8 115886640.73408     -1632.496 8        52.400                                                                    22254799.559 8  94167372.67308     -1326.460 8        49.881
C06        50.000                                                                                                                                    39674237.383 6 206594195.00706     -1537.062 6        38.228    39674231.111 6 159751719.83906     -1188.448 6        41.549    39674231.224 6 167874687.07806     -1248.748 6        38.492
S48        51.000    77158936.280 6 405471442.66506      -472.733 6        38.336
E06        52.000    25376517.357 7 133354528.12407      1504.814 7        44.086                                                                    25376516.945 7  99582939.05307      1123.759 7        46.684    25376516.992 7 102180752.64307      1153.064 7        47.903
C09        53.000                                                                                                                                    39095993.328 6 203583118.98406     -1218.792 6        40.229    39095989.181 7 157423372.63607      -942.397 7        44.590    39095987.688 6 165427940.38706      -990.168 6        41.111
C60        54.000                                                                                                                                    40783520.377 6 212370690.81606      -547.292 6        40.586                                                                    40783503.959 6 172568551.46706      -444.699 6        39.471
R09        55.000    21785371.828 7 116332698.73107     -3123.373 7        46.098                                                                    21785370.632 7  90480982.82807     -2429.257 7        45.541
G07        56.000    20909611.386 8 109880770.25408       435.048 8        49.048                                    20909606.349 8  85621363.29408       338.998 8        49.376    20909606.564 7  85621372.28907       339.006 7        45.595
C02        57.000                                                                                                                                    40742110.631 5 212154909.69905      -566.742 5        34.976    40742105.164 6 164051626.92306      -438.119 6        39.111    40742108.356 5 172393245.10005      -460.188 5        35.729
I03        58.000    99521519.127 6 314758574.01706       840.507 6        40.760
R07        59.000    22665459.335 7 121330031.64207     -3586.100 7        44.984                                                                    22665458.306 6  94367853.59906     -2789.065 6        41.182
> 2025 01 02 05 00 10.0000000  0 56
G09         1.000    20555273.915 8 108018729.15808     -2036.089 8        48.538                                    20555271.171 8  84170444.51508     -1586.562 8        51.452    20555271.208 7  84170444.51307     -1586.539 7        46.114
G06         2.000    22380253.986 7 117609046.98107     -3166.500 7        44.829                                    22380252.170 7  91643417.82807     -2467.402 7        44.224    22380252.999 7  91643425.82907     -2467.472 7        43.553
E11         3.000    24646720.605 7 129519412.20607     -1136.847 7        42.993                                                                    24646715.986 7  96719033.28307      -848.934 7        44.922    24646715.755 7  99242134.54307      -871.072 7        45.171
G16         4.000    23549719.500 6 123754625.49806     -1144.724 6        40.377                                    23549714.615 3  96432159.43703      -891.980 3        22.705
S21         5.000    38424967.285 7 201924266.91207      -488.093 7        42.842
E10         6.000    25062295.178 7 131703259.93107     -2611.100 7        46.389                                                                    25062294.018 8  98349833.67408     -1949.856 8        48.948    25062293.800 8 100915480.98508     -2000.710 8        49.381
G20         7.000    22047701.580 7 115861465.68007      2194.625 7        45.034                                    22047696.339 5  90281643.13205      1710.102 5        32.784
R10         9.000    20202587.744 7 107691166.09307       253.450 7        44.969
R17        10.000    22656516.870 7 121239600.46707      1414.701 7        46.638                                                                    22656514.808 7  94297460.99107      1100.342 7        42.226
G30        11.000    22406180.537 7 117745284.40907      2490.463 7        45.780                                    22406178.255 7  91749564.59207      1940.619 7        44.489    22406178.877 7  91749572.60107      1940.660 7        42.023
S27        12.000    39061254.461 6 205268240.99606      -501.649 6        36.851
G26        13.000    25341300.099 5 133169438.05005     -3113.024 5        32.850                                    25341299.511 3 103768400.11703     -2425.750 3        21.595    25341299.556 5 103768400.14005     -2425.651 5        32.048
S36        14.000    38192798.858 7 200705042.36107      -488.486 7        45.308
I09        15.000    38108827.087 7 149547220.19407      -804.794 7        42.516
E09        16.000    27646539.303 6 145283565.46006      1919.558 6        39.192                                                                    27646538.498 6 108490973.33706      1433.398 6        40.710    27646537.971 6 111321168.87706      1470.816 6        41.406
S45        17.000    63378435.117 6 333057107.31006      -529.554 6        37.611
E36        18.000    26836216.971 6 141025269.64406      1447.456 6        40.939                                                                    26836216.994 7 105311098.43607      1080.962 7        44.006    26836216.781 7 108058342.70907      1109.101 7        44.424
E12        19.000    26310668.458 6 138263499.29606     -3454.756 6        41.163                                                                    26310664.123 7 103248704.77707     -2579.736 7        42.419    26310664.582 7 105942148.80807     -2647.052 7        43.634
E21        20.000    26391388.240 7 138687681.26707      1213.266 7        42.248                                                                    26391388.028 7 103565492.02207       906.084 7        45.418    26391387.531 7 106267196.76307       929.724 7        45.833
G11        21.000    22110189.602 7 116189850.49607      -833.013 7        45.968                                    22110185.312 5  90537528.71405      -649.102 5        35.133    22110185.099 7  90537541.71207      -649.067 7        45.311
I06        22.000    37948434.210 7 148918047.48607      -348.979 7        43.215
S28        23.000    40853972.675 5 214689058.59405      -487.937 5        35.200
R08        24.000    19708413.900 8 105537705.59208     -1389.802 8        50.306                                                                    19708410.903 7  82084886.97507     -1080.897 7        46.671
S23        25.000    38131506.828 7 200382404.28207      -484.543 7        45.118
R01        26.000    20782721.380 7 111095562.45007      2019.017 7        47.309                                                                    20782720.144 6  86407652.98306      1570.376 6        40.496
C44        27.000                                                                                                                                    25661233.781 6 133624783.89206      -470.302 6        40.894                                                                    25661232.691 6 108581077.60506      -382.080 6        40.713
R24        29.000    21636880.717 8 115702134.87908     -2349.819 8        48.813                                                                    21636878.905 7  89990538.06307     -1827.612 7        44.107
E19        30.000    23876385.285 7 125471285.51207     -2002.189 7        42.889                                                                    23876382.702 7  93696092.57307     -1495.048 7        44.859    23876382.517 7  96140335.17907     -1534.038 7        45.258
C23        31.000                                                                                                                                    26157321.772 6 136208046.50206     -3207.414 6        41.316                                                                    26157313.116 6 110680162.16206     -2606.426 6        40.868
R23        32.000    23681599.152 6 126680589.75506     -4857.144 6        41.571
E29        33.000    27904660.210 6 146640046.46406     -2972.066 6        37.195                                                                    27904659.322 6 109503940.79206     -2219.381 6        40.377    27904659.309 6 112360560.39406     -2277.336 6        41.218
E04        34.000    23807569.339 8 125109659.80508       587.101 8        48.335                                                                    23807567.056 8  93426056.53408       438.452 8        50.800    23807566.944 8  95863253.43208       449.873 8        51.567
C16        35.000                                                                                                                                    40249645.651 6 209590494.84706     -1523.675 6        39.856    40249644.458 6 162068677.61506     -1178.159 6        39.601    40249642.364 6 170309445.37306     -1237.957 6        36.314
C32        36.000                                                                                                                                    26306773.206 6 136986306.86106     -3326.747 6        41.731                                                                    26306773.926 6 111312612.02706     -2703.309 6        41.733
I01        37.000   384544720.712 7 205895267.44007     -2925.054 7        43.118
E27        38.000    27407777.101 6 144028842.69306     -1268.464 6        39.712                                                                    27407776.237 7 107554017.64607      -947.265 7        42.047    27407775.641 7 110359770.88607      -971.933 7        42.525
C19        39.000                                                                                                                                    22457986.255 8 116944634.49708       982.057 8        50.461                                                                    22457981.218 8  95027073.19808       798.041 8        49.903
C39        40.000                                                                                                                                    41175355.332 6 214410896.28706     -1660.030 6        38.946                                                                    41175351.414 6 174226409.50506     -1348.903 6        38.057
G05        41.000    24985905.275 6 131301825.03106      3195.788 6        38.598                                    24985900.458 5 102313091.07305      2490.214 5        30.008    24985900.922 5 102313100.09305      2490.057 5        35.157
S44        42.000    40784040.272 6 214321788.73006      -552.530 6        36.828
G29        43.000    25683383.730 5 134967087.64605      -750.866 5        35.738                                    25683379.819 4 105169145.10704      -585.094 4        28.076    25683379.547 5 105169144.12205      -585.135 5        34.400
C05        44.000                                                                                                                                    39189358.835 6 204069316.79406      -538.121 6        38.898    39189354.128 7 157799366.01507      -416.060 7        43.824    39189355.559 6 165823140.27306      -437.285 6        40.036
C29        45.000                                                                                                                                    26976478.287 5 140473609.79105     -3430.705 5        32.072                                                                    26976475.485 5 114146310.36405     -2787.853 5        32.120
G04        46.000    22451069.472 7 117981199.35607     -3196.726 7        44.530                                    22451065.974 5  91933387.98905     -2490.956 5        31.426    22451066.006 7  91933389.98207     -2490.890 7        42.897
R11        47.000    21910801.367 7 117084662.44707      3642.395 7        47.042                                                                    21910800.229 7  91065852.17507      2832.980 7        45.375
C20        49.000                                                                                                                                    22256374.124 8 115894807.99808     -1634.302 8        52.292                                                                    22256368.045 8  94174009.23308     -1327.963 8        49.868
C06        50.000                                                                                                                                    39675713.126 6 206601880.60706     -1537.400 6        38.303    39675707.129 6 159757662.82906     -1188.616 6        41.585    39675706.917 6 167880932.25006     -1249.192 6        38.508
S48        51.000    77159389.282 6 405473806.60806      -473.023 6        38.048
E06        52.000    25375086.190 7 133347006.66407      1504.021 7        43.949                                                                    25375085.661 7  99577322.39007      1123.091 7        46.635    25375085.703 7 102174989.45807      1152.286 7        47.672
C09        53.000                                                                                                                                    39097163.968 6 203589214.01506     -1219.106 6        40.010    39097159.795 7 157428085.69407      -942.693 7        44.569    39097158.212 6 165432893.08006      -990.563 6        41.027
C60        54.000                                                                                                                                    40784046.263 6 212373428.24406      -547.572 6        40.360                                                                    40784029.661 6 172570775.83706      -444.854 6        39.673
R09        55.000    21788298.347 7 116348324.79507     -3126.978 7        47.156                                                                    21788297.178 7  90493136.43607     -2432.089 7        45.923
G07        56.000    20909198.763 8 109878602.25108       432.268 8        49.321                                    20909193.784 8  85619673.94008       336.831 8        49.481    20909193.919 7  85619682.94807       336.850 7        45.273
C02        57.000                                                                                                                                    40742655.078 5 212157743.64705      -566.797 5        34.943    40742649.065 6 164053818.30106      -438.422 6        39.063    40742652.642 5 172395547.90205      -460.541 5        35.714
I03        58.000    99520448.218 6 314754372.42306       840.224 6        40.634
R07        59.000    22668808.776 7 121347965.40007     -3587.226 7        44.295                                                                    22668808.454 7  94381802.08607     -2790.020 7        42.017
> 2025 01 02 05 00 15.0000000  0 56
G09         1.000    20557212.053 8 108028913.71708     -2038.088 8        48.779                                    20557209.235 8  84178380.53908     -1588.119 8        51.604    20557209.347 7  84178380.53807     -1588.159 7        46.067
G06         2.000    22383267.954 7 117624885.43307     -3169.131 7        44.793                                    22383266.102 7  91655759.47707     -2469.453 7        44.340    22383267.023 7  91655767.47507     -2469.429 7        43.518
E11         3.000    24647803.571 7 129525102.78307     -1139.731 7        42.851                                                                    24647798.843 7  96723282.74207      -851.107 7        45.111    24647798.685 7  99246494.85707      -873.317 7        45.106
G16         4.000    23550810.247 6 123760358.07706     -1148.592 6        40.269                                    23550805.391 3  96436626.38703      -895.001 3        23.067
S21         5.000    38425430.210 7 201926707.47707      -488.568 7        42.762
E10         6.000    25064780.686 7 131716320.24107     -2613.326 7        46.421                                                                    25064779.305 8  98359586.50508     -1951.478 8        49.166    25064779.088 8 100925488.23308     -2002.400 8        49.325
G20         7.000    22045614.287 7 115850496.69907      2192.664 7        45.081                                    22045608.945 5  90273095.87505      1708.571 5        32.868
R10         9.000    20202352.416 7 107689910.70607       248.421 7        45.214
R17        10.000    22655196.653 7 121232537.05307      1410.433 7        46.470                                                                    22655194.153 6  94291967.21606      1097.050 6        41.661
G30        11.000    22403811.756 7 117732835.98007      2488.612 7        46.222                                    22403809.387 7  91739864.52007      1939.179 7        44.590    22403809.789 6  91739872.52206      1939.127 6        41.571
S27        12.000    39061725.953 6 205270749.17706      -501.842 6        36.991
G26        13.000    25344263.334 5 133185008.97005     -3115.458 5        33.234                                    25344262.471 3 103780533.31203     -2427.603 3        21.524    25344262.664 5 103780533.31905     -2427.956 5        32.365
S36        14.000    38193264.421 7 200707485.08607      -488.486 7        45.320
I09        15.000    38109852.676 7 149551244.57207      -805.134 7        42.618
E09        16.000    27644713.258 6 145273968.82206      1918.807 6        39.640                                                                    27644712.318 6 108483807.01606      1432.910 6        41.013    27644711.880 6 111313815.61106      1470.206 6        41.440
S45        17.000    63378898.086 6 333059754.57406      -529.898 6        37.338
E36        18.000    26834840.969 6 141018037.13106      1445.347 6        40.534                                                                    26834840.572 7 105305697.54707      1079.232 7        44.102    26834840.388 7 108052800.91307      1107.397 7        44.441
E12        19.000    26313955.890 6 138280775.32706     -3455.874 6        41.254                                                                    26313951.661 7 103261605.72207     -2580.850 7        42.406    26313951.925 7 105955386.28807     -2648.050 7        43.443
E21        20.000    26390234.730 6 138681619.51706      1211.099 6        41.883                                                                    26390234.316 7 103560965.39007       904.411 7        45.437    26390234.059 7 106262552.04807       927.996 7        45.831
G11        21.000    22110983.431 7 116194024.07107      -836.686 7        45.871                                    22110979.517 5  90540780.84805      -651.964 5        35.186    22110979.852 7  90540793.85507      -651.958 7        45.023
I06        22.000    37948878.863 7 148919792.47207      -349.291 7        43.344
S28        23.000    40854433.762 5 214691498.81205      -488.429 5        35.333
R08        24.000    19709713.052 8 105544659.99708     -1392.191 8        50.255                                                                    19709710.225 7  82090295.95807     -1082.845 7        46.757
S23        25.000    38131967.012 7 200384827.26607      -484.791 7        45.112
R01        26.000    20780833.433 7 111085470.23607      2017.556 7        47.341                                                                    20780832.340 6  86399803.49506      1569.158 6        40.122
C44        27.000                                                                                                                                    25661686.839 6 133627142.06206      -473.268 6        41.309                                                                    25661685.491 6 108582993.82806      -384.541 6        40.636
R24        29.000    21639078.894 8 115713893.97408     -2354.163 8        48.551                                                                    21639077.681 7  89999684.03107     -1830.937 7        44.023
E19        30.000    23878290.641 7 125481298.07407     -2003.128 7        42.609                                                                    23878288.026 7  93703569.49407     -1495.847 7        44.960    23878287.793 7  96148007.15407     -1534.965 7        45.217
C23        31.000                                                                                                                                    26160402.321 6 136224087.75706     -3209.219 6        41.323                                                                    26160393.780 6 110693196.98006     -2607.655 6        40.753
R23        32.000    23686138.194 6 126704875.85906     -4857.485 6        40.775
E29        33.000    27907488.383 6 146654907.30106     -2972.339 6        36.813                                                                    27907487.343 6 109515038.15906     -2219.607 6        40.360    27907487.301 6 112371947.25206     -2277.674 6        41.228
E04        34.000    23807011.395 8 125106726.79608       585.746 8        48.210                                                                    23807008.944 8  93423866.30208       437.386 8        50.889    23807008.786 8  95861006.06408       448.798 8        51.513
C16        35.000                                                                                                                                    40251108.802 6 209598112.72806     -1523.820 6        39.985    40251107.726 6 162074568.23306     -1178.387 6        39.598    40251105.576 6 170315635.54106     -1238.249 6        36.284
C32        36.000                                                                                                                                    26309968.103 7 137002941.93207     -3327.546 7        42.146                                                                    26309968.578 6 111326129.36506     -2703.779 6        41.206
I01        37.000   384548447.749 7 205909893.14607     -2925.327 7        43.079
E27        38.000    27408984.764 6 144035191.03006     -1271.130 6        39.655                                                                    27408984.237 7 107558758.27807      -949.323 7        42.129    27408983.556 7 110364635.18607      -973.920 7        42.521
C19        39.000                                                                                                                                    22457044.130 8 116939727.47408       980.483 8        50.494                                                                    22457038.895 8  95023085.84108       796.732 8        49.795
C39        40.000                                                                                                                                    41176949.380 6 214419195.49006     -1659.945 6        38.517                                                                    41176945.325 6 174233153.27906     -1348.845 6        37.792
G05        41.000    24982865.204 6 131285847.74806      3195.210 6        39.024                                    24982860.139 5 102300641.24705      2489.779 5        30.121    24982861.132 5 102300650.25405      2489.477 5        35.400
S44        42.000    40784565.196 6 214324551.56506      -552.837 6        36.881
G29        43.000    25684099.249 6 134970849.50106      -754.059 6        36.079                                    25684095.524 4 105172076.42704      -587.580 4        27.521    25684095.731 5 105172075.43505      -587.572 5        34.833
C05        44.000                                                                                                                                    39189875.956 6 204072007.40506      -538.524 6        38.961    39189870.704 7 157801446.56107      -416.347 7        43.854    39189872.219 6 165825326.60906      -437.548 6        39.775
C29        45.000                                                                                                                                    26979772.210 5 140490763.28505     -3430.501 5        30.023                                                                    26979769.879 5 114160249.00405     -2787.373 5        30.083
G04        46.000    22454111.464 7 117997185.40307     -3197.855 7        44.421                                    22454108.064 5  91945844.65005     -2491.838 5        31.479    22454108.266 7  91945846.65207     -2491.846 7        42.954
R11        47.000    21907394.119 7 117066454.60707      3640.392 7        47.427                                                                    21907392.376 7  91051690.52607      2831.396 7        45.055
C20        49.000                                                                                                                                    22257944.272 8 115902983.41108     -1636.161 8        52.277                                                                    22257938.055 8  94180652.42908     -1329.440 8        49.726
C06        50.000                                                                                                                                    39677189.458 6 206609566.89506     -1537.770 6        38.354    39677183.430 6 159763606.35306     -1189.038 6        41.602    39677183.111 6 167887177.97706     -1249.358 6        38.456
S48        51.000    77159847.659 6 405476170.88306      -473.262 6        38.270
E06        52.000    25373655.765 7 133339489.12307      1502.809 7        44.212                                                                    25373655.137 7  99571708.63007      1122.303 7        46.758    25373655.147 7 102169229.25107      1151.491 7        47.699
C09        53.000                                                                                                                                    39098334.524 6 203595310.37006     -1219.609 6        40.019    39098330.655 7 157432799.78707      -943.130 7        44.649    39098328.870 6 165437846.88706      -991.165 6        40.984
C60        54.000                                                                                                                                    40784571.607 6 212376165.93806      -547.695 6        40.634                                                                    40784555.452 6 172573000.44206      -445.287 6        39.495
R09        55.000    21791228.570 7 116363968.41807     -3130.696 7        46.355                                                                    21791226.222 7  90505303.70307     -2435.037 7        45.148
G07        56.000    20908788.888 8 109876447.24408       429.413 8        49.664                                    20908783.696 8  85617994.71508       334.606 8        49.604    20908783.896 7  85618003.71807       334.568 7        45.035
C02        57.000                                                                                                                                    40743199.927 5 212160577.98505      -567.060 5        34.871    40743193.297 6 164056009.99506      -438.597 6        39.174    40743196.888 5 172397851.02805      -460.919 5        35.586
I03        58.000    99519377.545 6 314750171.11206       839.945 6        40.455
R07        59.000    22672160.680 7 121365903.83807     -3588.448 7        44.867                                                                    22672159.863 7  94395754.19307     -2791.107 7        42.042
> 2025 01 02 05 00 20.0000000  0 56
G09         1.000    20559151.675 8 108039106.67708     -2039.503 8        48.913                                    20559148.891 8  84186323.10208     -1589.224 8        51.596    20559149.154 7  84186323.10407     -1589.200 7        46.197
G06         2.000    22386283.911 7 117640734.60507     -3170.917 7        44.754                                    22386282.095 7  91668109.47707     -2470.848 7        44.397    22386282.948 7  91668117.48107     -2470.899 7        43.323
E11         3.000    24648888.690 7 129530805.87007     -1141.936 7        43.124                                                                    24648884.117 7  96727541.55207      -852.816 7        44.877    24648883.897 7  99250864.75907      -875.008 7        45.153
G16         4.000    23551904.221 6 123766108.19606     -1151.792 6        40.398                                    23551899.544 3  96441106.99303      -897.501 3        22.933
S21         5.000    38425895.531 7 201929147.83907      -488.169 7        42.508
E10         6.000    25067267.690 7 131729390.01307     -2614.852 7        46.424                                                                    25067266.334 8  98369346.40008     -1952.707 8        49.069    25067266.176 8 100935502.73408     -2003.623 8        49.313
G20         7.000    22043528.988 7 115839536.36907      2191.163 7        45.499                                    22043523.228 5  90264555.36105      1707.399 5        32.958
R10         9.000    20202121.277 7 107688678.51107       244.053 7        45.117
R17        10.000    22653879.748 7 121225493.52407      1406.687 7        46.055                                                                    22653878.640 7  94286488.94607      1094.140 7        42.112
G30        11.000    22401444.385 7 117720395.40307      2487.321 7        45.818                                    22401442.020 7  91730170.56807      1938.171 7        44.638    22401442.515 6  91730178.57106      1938.217 6        41.716
S27        12.000    39062206.711 6 205273257.12506      -501.700 6        36.726
G26        13.000    25347228.942 5 133200590.50705     -3117.469 5        32.605                                    25347227.353 3 103792674.76003     -2429.195 3        21.190    25347227.599 5 103792674.77905     -2429.150 5        32.090
S36        14.000    38193729.867 7 200709927.77607      -488.702 7        45.145
I09        15.000    38110878.270 7 149555269.48107      -805.036 7        42.595
E09        16.000    27642887.167 6 145264373.78106      1918.718 6        39.057                                                                    27642886.408 6 108476641.88906      1432.873 6        40.865    27642885.891 6 111306463.55806      1470.185 6        41.702
S45        17.000    63379360.318 6 333062401.75306      -529.690 6        37.297
E36        18.000    26833466.115 6 141010814.09406      1443.571 6        40.079                                                                    26833466.048 7 105300303.73107      1078.028 7        44.119    26833465.911 7 108047266.39307      1106.197 7        44.450
E12        19.000    26317244.251 6 138298056.37206     -3456.908 6        40.779                                                                    26317240.143 7 103274510.38007     -2581.274 7        42.432    26317240.475 7 105968627.60107     -2648.650 7        43.354
E21        20.000    26389083.293 6 138675567.17906      1209.511 6        41.836                                                                    26389082.454 7 103556445.79407       903.233 7        45.242    26389082.276 7 106257914.55307       926.718 7        45.738
G11        21.000    22111781.432 7 116198214.50107      -839.812 7        46.029                                    22111776.950 5  90544046.11905      -654.398 5        35.162    22111777.107 7  90544059.11607      -654.346 7        45.369
I06        22.000    37949323.618 7 148921537.57107      -349.114 7        43.346
S28        23.000    40854894.594 5 214693938.92705      -488.059 5        34.681
R08        24.000    19711013.202 8 105551624.56308     -1393.945 8        50.303                                                                    19711010.849 7  82095712.84807     -1084.146 7        47.181
S23        25.000    38132428.143 7 200387250.03507      -484.487 7        44.932
R01        26.000    20778945.933 7 111075383.91507      2016.647 7        46.738                                                                    20778944.863 6  86391958.56606      1568.591 6        39.850
