     3.04           OBSERVATION DATA    M                   RINEX VERSION / TYPE
ssrcrin-15.6.1x                         20250102 153000 UTC PGM / RUN BY / DATE 
(00000000023479385599111004) Septentrio proprietary         COMMENT             
rref                                                        MARKER NAME         
01                                                          MARKER NUMBER       
geodetic                                                    MARKER TYPE         
NFB                 CLIMERS@TUW                             OBSERVER / AGENCY   
3297213             SEPT ASTERX SB3 PROB4.14.4              REC # / TYPE / VERS 
Unknown             Unknown                                 ANT # / TYPE        
  4127831.8513  1207193.3807  4695247.3572                  APPROX POSITION XYZ 
        0.0000        0.0000        0.0000                  ANTENNA: DELTA H/E/N
G   23 X1  C1C L1C D1C S1C C1W S1W C2W L2W D2W S2W C2L L2L  SYS / # / OBS TYPES 
       D2L S2L C5Q L5Q D5Q S5Q C1L L1L D1L S1L              SYS / # / OBS TYPES 
E   21 X1  C1C L1C D1C S1C C6C L6C D6C S6C C5Q L5Q D5Q S5Q  SYS / # / OBS TYPES 
       C7Q L7Q D7Q S7Q C8Q L8Q D8Q S8Q                      SYS / # / OBS TYPES 
S    9 X1  C1C L1C D1C S1C C5I L5I D5I S5I                  SYS / # / OBS TYPES 
R   17 X1  C1C L1C D1C S1C C2P L2P D2P S2P C2C L2C D2C S2C  SYS / # / OBS TYPES 
       C3Q L3Q D3Q S3Q                                      SYS / # / OBS TYPES 
C   25 X1  C1P L1P D1P S1P C5P L5P D5P S5P C2I L2I D2I S2I  SYS / # / OBS TYPES 
       C7I L7I D7I S7I C6I L6I D6I S6I C7D L7D D7D S7D      SYS / # / OBS TYPES 
J   17 X1  C1C L1C D1C S1C C2L L2L D2L S2L C5Q L5Q D5Q S5Q  SYS / # / OBS TYPES 
       C1L L1L D1L S1L                                      SYS / # / OBS TYPES 
I    5 X1  C5A L5A D5A S5A                                  SYS / # / OBS TYPES 
SEPTENTRIO RECEIVERS OUTPUT ALIGNED CARRIER PHASES.         COMMENT             
NO FURTHER PHASE SHIFT APPLIED IN THE RINEX ENCODER.        COMMENT             
G L1C                                                       SYS / PHASE SHIFT   
G L2W                                                       SYS / PHASE SHIFT   
G L2L  0.00000                                              SYS / PHASE SHIFT   
G L5Q  0.00000                                              SYS / PHASE SHIFT   
G L1L  0.00000                                              SYS / PHASE SHIFT   
E L1C  0.00000                                              SYS / PHASE SHIFT   
E L6C  0.00000                                              SYS / PHASE SHIFT   
E L5Q  0.00000                                              SYS / PHASE SHIFT   
E L7Q  0.00000                                              SYS / PHASE SHIFT   
E L8Q  0.00000                                              SYS / PHASE SHIFT   
S L1C                                                       SYS / PHASE SHIFT   
S L5I                                                       SYS / PHASE SHIFT   
R L1C                                                       SYS / PHASE SHIFT   
R L2P  0.00000                                              SYS / PHASE SHIFT   
R L2C                                                       SYS / PHASE SHIFT   
R L3Q  0.00000                                              SYS / PHASE SHIFT   
C L1P  0.00000                                              SYS / PHASE SHIFT   
C L5P  0.00000                                              SYS / PHASE SHIFT   
C L2I                                                       SYS / PHASE SHIFT   
C L7I                                                       SYS / PHASE SHIFT   
C L6I                                                       SYS / PHASE SHIFT   
C L7D                                                       SYS / PHASE SHIFT   
J L1C                                                       SYS / PHASE SHIFT   
J L2L  0.00000                                              SYS / PHASE SHIFT   
J L5Q  0.00000                                              SYS / PHASE SHIFT   
J L1L  0.00000                                              SYS / PHASE SHIFT   
I L5A                                                       SYS / PHASE SHIFT   
  2025     1     2    15    30    0.0000000     GPS         TIME OF FIRST OBS   
 C1C    0.000 C2C    0.000 C2P    0.000                     GLONASS COD/PHS/BIS 
DBHZ                                                        SIGNAL STRENGTH UNIT
    18                                                      LEAP SECONDS        
 24 R01  1 R02 -4 R03  5 R04  6 R05  1 R06 -4 R07  5 R08  6 GLONASS SLOT / FRQ #
    R09 -2 R10 -7 R11  0 R12 -1 R13 -2 R14 -7 R15  0 R16 -1 GLONASS SLOT / FRQ #
    R17  4 R18 -3 R19  3 R20  2 R21  4 R22 -3 R23  3 R24  2 GLONASS SLOT / FRQ #
                                                            END OF HEADER       
> 2025 01 02 15 30  0.0000000  0 56
E24         1.000    27102685.727 6 142425686.07606     -2896.196 6        40.498                                                                    27102689.045 7 106356909.64207     -2162.810 7        44.114    27102688.314 7 109131426.84507     -2219.217 7        44.700
E11         2.000    24056413.770 7 126417477.23907       231.203 7        44.939                                                                    24056412.749 7  94402777.85607       172.641 7        46.322    24056412.139 7  96865446.27107       177.113 7        46.683
E03         3.000    28380755.915 6 149141749.85006     -3344.479 6        36.911                                                                    28380771.918 6 111372059.67106     -2497.531 6        39.222    28380770.212 6 114277423.20706     -2562.613 6        40.119
G05         4.000    24609424.716 6 129323436.28906      2386.515 6        39.237                                    24609424.279 5 100771517.96305      1859.621 5        31.721    24609424.662 5 100771516.96205      1859.597 5        35.529
S21         5.000    38419581.350 7 201895867.63907      -486.402 7        43.253
G26         6.000    23640828.434 6 124233512.15606      2796.230 6        39.868                                    23640834.444 5  96805436.91405      2178.872 5        34.805    23640834.702 6  96805423.92406      2178.935 6        38.946
G25         7.000    20269631.976 8 106517806.15008     -2053.197 8        48.940                                    20269632.396 8  83000972.59308     -1599.892 8        49.990    20269633.155 7  83000973.58207     -1599.840 7        45.074
G04         8.000    25512915.080 6 134071276.31506      1074.798 6        36.004                                    25512915.154 2 104471111.57002       837.457 2        16.113    25512914.791 5 104471120.57405       837.657 5        35.729
E36         9.000    25799936.429 7 135579701.70907      2483.089 7        43.755                                                                    25799941.713 7 101244705.57507      1854.173 7        46.148    25799940.858 7 103885861.45407      1902.529 7        46.882
R08        10.000    23812652.432 6 127515669.82906       160.704 6        39.336                                                                    23812653.740 6  99178849.02606       124.895 6        40.794
G20        11.000    23754944.297 6 124833162.01406       563.031 6        40.064                                    23754942.899 4  97272647.00604       438.728 4        24.301
S27        12.000    39217449.735 6 206089114.57106      -483.190 6        36.930
E08        13.000    27209062.495 6 142984700.96606     -2362.422 6        40.477                                                                    27209070.066 6 106774382.32506     -1764.138 6        41.464    27209068.724 7 109559788.82207     -1810.162 7        42.536
S36        14.000    38190872.742 7 200694822.04807      -486.235 7        44.655
C13        15.000                                                                                                                                    39249339.236 6 204381618.40806      1284.855 6        41.077    39249344.826 7 158040852.50607       993.442 7        42.243    39249342.072 6 166076818.37906      1044.010 6        40.398
G18        16.000    23858213.937 6 125375892.89306      3203.502 6        40.586                                    23858216.672 4  97695573.36604      2496.220 4        28.199    23858217.102 7  97695581.39607      2496.274 7        42.637
G12        17.000    23231035.002 7 122080084.16207     -3644.671 7        43.380                                    23231034.117 6  95127420.00106     -2840.006 6        39.294    23231033.816 6  95127417.00406     -2839.950 6        40.393
G32        18.000    25541988.133 6 134223961.90806     -3421.180 6        38.066                                    25541999.638 4 104590118.30404     -2665.842 4        26.707    25542000.559 5 104590122.30905     -2665.979 5        32.293
E02        19.000    24333277.082 7 127872374.70207      1216.985 7        46.226                                                                    24333279.575 8  95489206.83108       908.802 8        49.235    24333278.619 8  97980216.31008       932.476 8        49.966
E10        21.000    24938138.225 7 131050998.98807     -1404.202 7        45.756                                                                    24938140.204 8  97862886.62308     -1048.616 8        48.395    24938139.825 8 100415817.19608     -1075.953 8        49.170
I06        22.000    38653957.036 6 151686569.84506      -419.344 6        41.049
S28        23.000    40898029.063 5 214920567.20105      -487.668 5        34.538
S23        25.000    38138920.049 7 200421279.66907      -490.623 7        45.124
S45        26.000    63395838.095 6 333148695.34306      -549.878 6        36.325
R09        27.000    23281040.710 7 124319541.12707      3532.461 7        44.557                                                                    23281047.163 7  96693056.58907      2747.417 7        42.438
R18        28.000    19534426.469 8 104276356.56308      1546.425 8        51.752                                                                    19534428.638 7  81103976.52907      1202.786 7        47.626
C38        29.000                                                                                                                                    39134381.801 7 203783073.03907       624.822 7        42.679                                                                    39134381.569 7 165590475.28907       507.841 7        42.584
C44        30.000                                                                                                                                    21403134.408 8 111451931.83908       258.877 8        51.359                                                                    21403134.295 8  90563903.30408       210.347 8        49.855
E12        31.000    26599117.132 6 139779457.20206     -2554.450 6        38.060                                                                    26599117.797 6 104380866.10006     -1907.597 6        41.502    26599117.115 7 107103829.31707     -1957.267 7        42.197
G11        32.000    23453786.959 7 123250661.93407     -3052.210 7        42.004                                    23453786.422 4  96039571.36004     -2378.348 4        29.090    23453786.708 7  96039562.36407     -2378.298 7        42.123
I02        33.000    37686816.513 6 147891171.64906      -759.625 6        41.928
R15        34.000    20121676.623 8 107524275.42908     -2888.181 8        52.020                                                                    20121678.589 7  83630060.81207     -2246.369 7        47.095
R07        35.000    23841021.297 7 127622766.77207     -2632.212 7        44.212                                                                    23841030.112 6  99262133.81906     -2047.293 6        40.169
G29        36.000    20358822.640 8 106986607.52708       -18.339 8        50.143                                    20358820.476 8  83366291.67808       -14.292 8        53.243    20358821.000 7  83366301.67707       -14.283 7        47.323
G31        37.000    22125868.493 7 116272406.09807      1349.302 7        45.774                                    22125867.952 7  90601961.77007      1051.398 7        43.050    22125868.464 7  90601967.78207      1051.336 7        42.445
C10        38.000                                                                                                                                    40573575.234 5 211277263.60705     -1162.231 5        35.538    40573575.633 6 163372986.06406      -898.776 6        40.112    40573572.682 6 171680074.36606      -944.524 6        36.302
E25        39.000    23418708.258 8 123066339.91008     -1175.499 8        48.171                                                                    23418710.546 8  91900314.00808      -877.796 8        50.686    23418709.963 8  94297698.33208      -900.689 8        51.439
C12        40.000                                                                                                                                    22662822.741 7 118011422.67907      1677.080 7        47.108    22662821.373 8  91254003.35308      1296.848 8        51.702    22662819.775 8  95894011.81908      1362.732 8        49.360
E07        41.000    27819036.903 6 146189993.43806      -122.028 6        38.084                                                                    27819046.827 6 109167861.02206       -91.097 6        41.676    27819045.358 7 112015715.33407       -93.589 7        42.286
S44        42.000    40610582.737 6 213410166.90506      -406.535 6        38.120
G28        43.000    21282733.834 7 111841697.23707      -364.850 7        46.655                                    21282732.840 6  87149461.18006      -284.301 6        37.834    21282733.127 7  87149461.17907      -284.314 7        47.094
C05        44.000                                                                                                                                    39407579.516 6 205205572.75206      -440.048 6        39.228    39407577.684 7 158677972.78907      -340.261 7        42.449    39407578.337 6 166746426.64206      -357.505 6        39.763
R16        46.000    19445052.044 8 103872155.34108      1137.081 8        52.154                                                                    19445053.590 7  80789562.36807       884.381 7        47.873
R17        47.000    19692047.059 8 105376346.20108     -2404.695 8        51.170                                                                    19692048.000 7  81959509.68207     -1870.356 7        47.368
C35        48.000                                                                                                                                    22770076.103 8 118569914.10608     -2515.835 8        48.148                                                                    22770076.689 8  96347829.54308     -2044.366 8        48.366
C24        49.000                                                                                                                                    21387708.698 8 111371469.76308      -615.034 8        51.351                                                                    21387707.113 8  90498461.15908      -499.798 8        50.189
R19        50.000    22624362.694 5 121025247.54305      3751.527 5        34.524                                                                    22624367.506 6  94130835.51006      2918.078 6        38.589
S48        51.000    77134781.729 6 405347018.47606      -515.161 6        37.966
C08        52.000                                                                                                                                    39023993.099 6 203208230.30606      1227.289 6        38.814    39023990.122 7 157133511.17707       949.117 7        43.297    39023988.875 6 165123340.81406       997.387 6        40.810
C34        53.000                                                                                                                                    24483280.008 7 127491048.48207      2606.170 7        44.483                                                                    24483284.567 7 103597016.40407      2117.707 7        44.254
C60        54.000                                                                                                                                    40610580.379 6 211470093.38006      -402.705 6        39.216                                                                    40610567.802 6 171836730.06706      -327.374 6        40.243
C25        55.000                                                                                                                                    23946723.034 7 124697043.35607      2185.783 7        45.559                                                                    23946724.758 7 101326640.19507      1776.094 7        45.242
C26        56.000                                                                                                                                    23705572.131 7 123441220.38307     -3271.421 7        47.023                                                                    23705574.188 7 100306144.99207     -2658.321 7        46.484
C02        57.000                                                                                                                                    40810856.175 5 212512829.48405      -397.000 5        33.820    40810854.826 6 164328378.92306      -307.184 6        39.838    40810856.131 5 172684072.74505      -322.839 5        34.929
I03        58.000    87100349.139 6 266015154.32106      1068.368 6        37.728
R24        60.000    23825860.051 7 127407745.38307     -4739.297 7        42.408                                                                    23825860.475 6  99094987.81006     -3686.176 6        37.660
> 2025 01 02 15 30  5.0000000  0 56
E24         1.000    27105441.918 6 142440167.66806     -2896.750 6        40.641                                                                    27105444.777 7 106367723.81607     -2162.994 7        44.021    27105443.851 7 109142523.13107     -2219.529 7        44.430
E11         2.000    24056195.082 7 126416326.67307       228.840 7        44.757                                                                    24056193.799 7  94401918.66907       170.905 7        46.228    24056193.247 7  96864564.66707       175.367 7        46.482
E03         3.000    28383937.979 6 149158470.20406     -3344.209 6        37.217                                                                    28383953.734 6 111384545.58306     -2497.229 6        38.757    28383952.042 6 114290234.83906     -2562.225 6        40.160
G05         4.000    24607154.072 6 129311505.91206      2385.388 6        39.273                                    24607153.830 5 100762221.58605      1858.741 5        31.064    24607154.070 5 100762220.60305      1858.650 5        34.995
S21         5.000    38420042.634 7 201898298.03607      -486.075 7        43.372
G26         6.000    23638167.930 6 124219531.00006      2795.737 6        39.760                                    23638173.914 5  96794542.54705      2178.489 5        34.724    23638174.563 6  96794529.57906      2178.526 6        38.994
G25         7.000    20271586.168 8 106528076.14708     -2055.154 8        48.901                                    20271586.732 8  83008975.18808     -1601.420 8        49.769    20271587.299 7  83008976.19407     -1601.514 7        44.772
G04         8.000    25511893.379 5 134065907.47105      1072.335 5        35.962                                    25511893.594 2 104466928.12002       835.578 2        15.810    25511892.709 5 104466937.14305       835.609 5        35.767
E36         9.000    25797574.318 7 135567288.27507      2482.136 7        43.922                                                                    25797579.581 7 101235435.82307      1853.521 7        46.092    25797578.565 7 103876349.88507      1901.864 7        46.970
R08        10.000    23812504.882 6 127514875.36206       156.878 6        39.655                                                                    23812505.404 6  99178231.09006       122.007 6        40.446
G20        11.000    23754409.389 6 124830352.41106       560.412 6        40.279                                    23754408.133 4  97270457.71504       436.677 4        24.105
S27        12.000    39217912.570 6 206091529.86506      -483.296 6        37.002
E08        13.000    27211311.327 6 142996516.10606     -2363.894 6        40.136                                                                    27211318.388 6 106783205.29806     -1765.206 6        41.418    27211317.118 7 109568841.96307     -1811.375 7        42.546
S36        14.000    38191334.128 7 200697252.14207      -486.112 7        44.823
C13        15.000                                                                                                                                    39248105.746 6 204375195.17506      1284.201 6        40.953    39248111.147 6 158035885.66006       993.074 6        41.945    39248108.669 6 166071599.01006      1043.479 6        40.498
G18        16.000    23855166.416 6 125359876.08306      3202.929 6        41.564                                    23855168.800 4  97683092.78904      2495.792 4        27.725    23855168.638 6  97683100.79806      2495.796 6        41.390
G12        17.000    23234502.555 7 122098308.79507     -3645.503 7        43.471                                    23234502.119 6  95141621.00606     -2840.653 6        38.991    23234501.843 6  95141618.01506     -2840.718 6        39.661
G32        18.000    25545242.667 6 134241066.97706     -3421.058 6        37.274                                    25545254.685 4 104603446.86304     -2665.745 4        26.168    25545255.361 5 104603450.84605     -2665.415 5        32.180
E02        19.000    24332119.032 7 127866290.59707      1216.376 7        46.287                                                                    24332121.780 8  95484663.51708       908.343 8        49.159    24332120.853 8  97975554.47508       932.052 8        49.848
E10        21.000    24939474.827 7 131058024.59507     -1406.287 7        45.713                                                                    24939477.093 8  97868133.02508     -1050.183 8        48.251    24939476.703 8 100421200.46608     -1077.622 8        49.067
I06        22.000    38654490.935 6 151688665.62706      -419.128 6        41.354
S28        23.000    40898493.459 5 214923004.43705      -487.442 5        34.657
S23        25.000    38139384.450 7 200423731.78707      -490.547 7        45.311
S45        26.000    63396303.774 6 333151443.89006      -549.827 6        36.510
R09        27.000    23277732.947 7 124301878.15707      3532.472 7        43.600                                                                    23277740.155 7  96679318.78407      2747.440 7        42.849
R18        28.000    19532979.289 8 104268632.43808      1542.894 8        51.893                                                                    19532981.906 7  81097968.88707      1200.053 7        47.592
C38        29.000                                                                                                                                    39133782.162 7 203779950.01507       623.993 7        42.783                                                                    39133781.774 7 165587937.61407       507.013 7        42.360
C44        30.000                                                                                                                                    21402886.660 8 111450642.15508       256.680 8        51.267                                                                    21402886.680 8  90562855.35008       208.557 8        49.803
E12        31.000    26601548.217 6 139792232.40706     -2556.103 6        37.996                                                                    26601548.764 6 104390406.02906     -1908.650 6        41.371    26601548.202 7 107113618.11907     -1958.578 7        42.157
G11        32.000    23456691.847 7 123265926.61007     -3054.296 7        42.576                                    23456691.116 4  96051465.91404     -2379.973 4        28.938    23456691.219 7  96051456.90507     -2379.922 7        42.049
I02        33.000    37687784.157 7 147894968.76807      -759.529 7        42.055
R15        34.000    20124379.736 8 107538722.09908     -2890.818 8        51.546                                                                    20124381.636 7  83641297.11607     -2248.469 7        46.427
R07        35.000    23843481.192 7 127635934.35407     -2635.177 7        43.117                                                                    23843489.993 6  99272375.26606     -2049.769 6        39.799
G29        36.000    20358841.017 8 106986703.93508       -20.527 8        50.296                                    20358838.823 8  83366366.80708       -15.997 8        53.054    20358839.436 7  83366376.81007       -16.040 7        47.167
G31        37.000    22124585.162 7 116265665.68407      1346.564 7        45.816                                    22124585.280 7  90596709.51407      1049.268 7        42.883    22124585.519 7  90596715.52107      1049.266 7        42.444
C10        38.000                                                                                                                                    40574691.217 5 211283073.89905     -1162.020 5        35.857    40574691.657 6 163377478.96306      -898.606 6        39.865    40574688.257 5 171684795.71705      -944.082 5        35.919
E25        39.000    23419826.929 8 123072219.40608     -1176.636 8        48.195                                                                    23419829.387 8  91904704.54108      -878.615 8        50.601    23419828.794 8  94302203.40208      -901.552 8        51.326
C12        40.000                                                                                                                                    22661212.597 7 118003040.71707      1675.392 7        46.748    22661211.906 8  91247521.90708      1295.479 8        51.658    22661210.140 8  95887200.81308      1361.365 8        49.183
E07        41.000    27819153.869 6 146190607.96606      -124.050 6        38.333                                                                    27819163.622 6 109168319.95806       -92.612 6        41.549    27819162.316 7 112016186.22507       -95.081 7        42.076
S44        42.000    40610968.137 6 213412197.80006      -406.244 6        38.369
G28        43.000    21283082.387 7 111843528.82707      -368.148 7        46.910                                    21283081.376 6  87150888.39906      -286.873 6        37.682    21283081.542 7  87150888.40307      -286.837 7        46.977
C05        44.000                                                                                                                                    39408001.373 6 205207771.40006      -439.824 6        39.027    39407999.989 7 158679672.94007      -339.998 7        42.311    39408000.574 6 166748213.25406      -357.334 6        39.808
R16        46.000    19443988.965 8 103866476.10908      1134.344 8        52.138                                                                    19443990.906 7  80785145.19107       882.276 7        47.447
R17        47.000    19694295.248 8 105388377.65408     -2408.067 8        51.058                                                                    19694296.261 7  81968867.47807     -1872.975 7        47.506
C35        48.000                                                                                                                                    22772492.250 8 118582496.04208     -2517.270 8        48.215                                                                    22772492.934 8  96358053.41108     -2045.483 8        48.289
C24        49.000                                                                                                                                    21388300.345 8 111374549.65908      -617.259 8        51.281                                                                    21388298.584 8  90500963.84208      -501.596 8        50.084
R19        50.000    22620856.355 5 121006491.08005      3750.520 5        35.033                                                                    22620860.899 6  94116247.20306      2917.039 6        38.850
S48        51.000    77135250.377 6 405349593.81406      -515.231 6        38.000
C08        52.000                                                                                                                                    39022814.787 6 203202094.41206      1226.607 6        38.820    39022811.767 7 157128766.53707       948.531 7        43.289    39022810.585 6 165118354.94606       996.847 6        40.648
C34        53.000                                                                                                                                    24480777.253 7 127478018.73107      2605.399 7        44.093                                                                    24480782.341 7 103586428.70807      2117.050 7        44.158
C60        54.000                                                                                                                                    40610966.789 6 211472105.81606      -402.614 6        38.901                                                                    40610954.078 6 171838365.35006      -327.021 6        40.236
C25        55.000                                                                                                                                    23944624.912 7 124686116.08607      2184.731 7        45.579                                                                    23944626.229 7 101317760.91507      1775.283 7        45.207
C26        56.000                                                                                                                                    23708713.919 7 123457579.98007     -3272.702 7        46.638                                                                    23708715.886 7 100319438.51007     -2659.394 7        46.446
C02        57.000                                                                                                                                    40811237.801 5 212514814.63705      -397.186 5        33.964    40811235.853 6 164329913.97606      -307.056 6        39.751    40811237.507 5 172685685.85105      -322.656 5        35.081
I03        58.000    87098988.287 6 266009812.09706      1068.444 6        38.036
R24        60.000    23830291.057 7 127431441.77507     -4739.554 7        42.273                                                                    23830292.170 6  99113418.36206     -3686.278 6        37.656
> 2025 01 02 15 30 10.0000000  0 56
E24         1.000    27108198.395 6 142454652.75706     -2897.270 6        40.927                                                                    27108201.281 7 106378540.61507     -2163.533 7        43.975    27108200.159 7 109153622.10307     -2220.005 7        44.364
E11         2.000    24055978.717 7 126415189.06307       226.259 7        44.754                                                                    24055977.274 7  94401069.16107       168.960 7        46.207    24055976.753 7  96863693.00507       173.351 7        46.476
E03         3.000    28387119.502 6 149175190.24206     -3344.074 6        37.172                                                                    28387135.428 6 111397031.25906     -2497.038 6        38.778    28387133.756 6 114303046.23206     -2562.141 6        40.131
G05         4.000    24604885.217 6 129299581.96706      2384.316 6        38.910                                    24604884.669 5 100752930.21405      1857.904 5        30.536    24604885.901 5 100752929.23405      1857.853 5        35.176
S21         5.000    38420505.639 7 201900729.06207      -486.130 7        43.372
G26         6.000    23635507.890 6 124205553.50906      2795.232 6        40.184                                    23635514.000 5  96783651.02805      2178.095 5        34.714    23635514.047 6  96783638.04206      2178.195 6        38.895
G25         7.000    20273542.656 8 106538358.14508     -2057.564 8        48.930                                    20273543.353 8  83016987.13208     -1603.296 8        49.687    20273544.090 7  83016988.13307     -1603.235 7        45.207
G04         8.000    25510874.716 5 134060552.44805      1069.828 5        35.452                                    25510874.542 2 104462755.40802       833.630 2        14.714    25510873.309 5 104462764.41505       833.524 5        35.343
E36         9.000    25795212.739 7 135554880.87807      2481.065 7        44.038                                                                    25795218.374 7 101226170.58507      1852.680 7        46.073    25795217.484 7 103866842.93907      1901.033 7        46.936
R08        10.000    23812360.555 6 127514101.98606       152.817 6        38.970                                                                    23812359.956 6  99177629.59206       118.717 6        39.892
G20        11.000    23753877.661 6 124827557.18106       557.639 6        40.110                                    23753876.300 4  97268279.61804       434.529 4        24.015
S27        12.000    39218370.433 6 206093944.95906      -482.839 6        37.017
E08        13.000    27213561.070 6 143008340.17006     -2365.684 6        40.222                                                                    27213568.424 6 106792034.94106     -1766.627 6        41.254    27213567.087 7 109577901.94207     -1812.599 7        42.360
S36        14.000    38191796.606 7 200699683.47607      -486.386 7        44.828
C13        15.000                                                                                                                                    39246873.359 6 204368776.25806      1283.406 6        41.147    39246878.515 7 158030922.14307       992.492 7        42.157    39246875.903 6 166066383.07706      1043.126 6        40.496
G18        16.000    23852119.661 7 125343863.70807      3202.144 7        42.055                                    23852121.492 4  97670615.64804      2495.169 4        27.545    23852121.253 6  97670623.65206      2495.092 6        40.656
G12        17.000    23237971.831 7 122116539.12807     -3646.597 7        43.433                                    23237971.048 6  95155826.46306     -2841.502 6        38.913    23237971.037 6  95155823.46806     -2841.537 6        38.985
G32        18.000    25548497.851 6 134258172.70206     -3421.158 6        37.493                                    25548509.860 4 104616775.95604     -2665.818 4        26.407    25548510.769 5 104616779.91105     -2665.705 5        33.605
E02        19.000    24330962.231 7 127860211.10807      1215.518 7        46.182                                                                    24330964.835 8  95480123.64708       907.693 8        49.188    24330963.977 8  97970896.17008       931.419 8        49.734
E10        21.000    24940814.357 7 131065062.58307     -1408.731 7        45.923                                                                    24940816.336 8  97873388.66608     -1051.954 8        48.259    24940815.965 8 100426593.21008     -1079.388 8        48.912
I06        22.000    38655025.063 6 151690761.68506      -419.223 6        41.180
S28        23.000    40898956.921 5 214925442.31505      -487.643 5        34.724
S23        25.000    38139851.341 7 200426184.69407      -490.577 7        45.148
S45        26.000    63396768.268 6 333152492.95716      -549.610 6        36.480
R09        27.000    23274425.425 7 124284217.16807      3532.200 7        43.956                                                                    23274432.666 7  96665582.51207      2747.318 7        42.468
R18        28.000    19531536.223 8 104260927.95308      1539.058 8        51.946                                                                    19531538.089 7  81091976.51807      1197.063 7        47.524
C38        29.000                                                                                                                                    39133183.319 7 203776832.58607       622.963 7        42.908                                                                    39133183.187 7 165585404.44607       506.210 7        42.415
C44        30.000                                                                                                                                    21402641.364 8 111449364.91408       254.318 8        51.353                                                                    21402641.377 8  90561817.47408       206.750 8        49.864
E12        31.000    26603980.867 6 139805016.91406     -2557.770 6        37.365                                                                    26603981.494 6 104399952.91706     -1910.023 6        41.478    26603980.997 6 107123414.05406     -1959.804 6        41.971
G11        32.000    23459598.630 7 123281203.08607     -3056.415 7        43.234                                    23459598.176 4  96063369.67004     -2381.620 4        28.900    23459598.081 6  96063360.67306     -2381.795 6        41.866
I02        33.000    37688751.940 6 147898766.83306      -759.754 6        41.814
R15        34.000    20127085.640 8 107553183.72708     -2893.707 8        51.519                                                                    20127087.883 7  83652545.04307     -2250.643 7        46.667
R07        35.000    23845943.373 7 127649118.64007     -2638.474 7        43.862                                                                    23845953.308 6  99282629.67506     -2052.052 6        40.870
G29        36.000    20358861.761 8 106986812.87208       -22.973 8        50.346                                    20358859.540 8  83366451.69808       -17.904 8        52.987    20358859.966 7  83366461.70107       -17.919 7        47.213
G31        37.000    22123305.830 7 116258940.49207      1343.573 7        45.946                                    22123305.497 7  90591469.11607      1046.935 7        42.836    22123305.500 7  90591475.12207      1046.874 7        42.000
C10        38.000                                                                                                                                    40575806.871 6 211288884.56806     -1162.223 6        36.076    40575807.104 6 163381972.16406      -898.585 6        40.002    40575804.308 6 171689517.37806      -944.207 6        36.034
E25        39.000    23420947.147 8 123078105.95008     -1177.951 8        48.126                                                                    23420949.517 8  91909100.34808      -879.641 8        50.598    23420948.951 8  94306713.87608      -902.571 8        51.301
C12        40.000                                                                                                                                    22659604.326 7 117994669.04207      1673.407 7        46.936    22659603.991 8  91241048.40508      1293.957 8        51.639    22659602.404 8  95880398.12408      1359.870 8        49.324
E07        41.000    27819272.680 6 146191234.93006      -126.655 6        38.087                                                                    27819282.933 6 109168788.15406       -94.546 6        41.657    27819281.635 6 112016666.62706       -96.886 6        41.869
S44        42.000    40611356.350 6 213414229.32706      -406.454 6        38.222
G28        43.000    21283434.277 7 111845378.08007      -371.593 7        47.193                                    21283433.270 6  87152329.37906      -289.552 6        37.543    21283433.343 7  87152329.37307      -289.440 7        46.619
C05        44.000                                                                                                                                    39408424.151 6 205209970.55306      -439.818 6        39.231    39408422.038 7 158681373.47007      -340.001 7        42.398    39408422.892 6 166750000.22206      -357.155 6        39.886
R16        46.000    19442928.124 8 103860812.39108      1131.191 8        51.966                                                                    19442930.290 7  80780740.08407       879.875 7        47.867
R17        47.000    19696546.801 8 105400427.08008     -2411.705 8        51.104                                                                    19696547.837 7  81978239.24407     -1875.679 7        46.983
C35        48.000                                                                                                                                    22774910.156 8 118595086.88708     -2518.950 8        48.615                                                                    22774910.865 8  96368284.49608     -2046.808 8        48.393
C24        49.000                                                                                                                                    21388894.105 8 111377642.43908      -619.753 8        51.373                                                                    21388892.491 8  90503476.96308      -503.564 8        50.179
R19        50.000    22617351.680 5 120987742.57005      3748.908 5        35.424                                                                    22617356.454 6  94101665.08006      2915.884 6        39.676
S48        51.000    77135720.693 6 405352169.48506      -515.065 6        38.051
C08        52.000                                                                                                                                    39021637.610 6 203195963.56406      1225.717 6        39.168    39021634.516 7 157124025.79107       947.817 7        43.412    39021633.257 6 165113373.12806       996.028 6        40.953
C34        53.000                                                                                                                                    24478276.230 7 127464994.42407      2604.335 7        44.182                                                                    24478281.110 7 103575845.38907      2116.412 7        44.191
C60        54.000                                                                                                                                    40611353.232 6 211474118.87006      -402.555 6        39.048                                                                    40611340.717 6 171840001.13006      -327.058 6        40.234
C25        55.000                                                                                                                                    23942527.446 7 124675195.32007      2183.638 7        45.884                                                                    23942528.876 7 101308886.90407      1774.471 7        45.300
C26        56.000                                                                                                                                    23711856.639 7 123473947.13807     -3274.105 7        47.124                                                                    23711858.902 7 100332738.14407     -2660.439 7        46.482
C02        57.000                                                                                                                                    40811618.948 5 212516800.31105      -397.373 5        34.010    40811617.041 6 164331449.43506      -306.989 6        39.805    40811618.762 5 172687299.34305      -322.504 5        35.010
I03        58.000    87097626.135 6 266004470.18006      1068.335 6        37.970
R24        60.000    23834722.387 7 127455140.75507     -4739.961 7        42.233                                                                    23834724.018 6  99131850.95306     -3686.688 6        37.837
> 2025 01 02 15 30 15.0000000  0 56
E24         1.000    27110955.262 6 142469140.18706     -2897.753 6        41.042                                                                    27110957.936 7 106389359.15107     -2163.790 7        43.956    27110956.867 7 109164722.85807     -2220.340 7        44.202
E11         2.000    24055764.206 7 126414063.26307       223.873 7        44.474                                                                    24055763.051 7  94400228.47007       167.231 7        46.371    24055762.529 7  96862830.37607       171.611 7        46.369
E03         3.000    28390300.719 6 149191908.77006     -3343.657 6        36.669                                                                    28390316.702 6 111409515.81806     -2496.932 6        38.664    28390315.221 6 114315856.48006     -2561.923 6        40.198
G05         4.000    24602617.237 6 129287663.33506      2383.183 6        38.880                                    24602616.649 5 100743642.99305      1857.019 5        30.664    24602617.550 5 100743642.01105      1857.032 5        35.376
S21         5.000    38420966.574 7 201903159.48307      -486.149 7        43.192
G26         6.000    23632848.477 6 124191578.53506      2794.663 6        40.477                                    23632854.628 5  96772761.48505      2177.653 5        34.776    23632854.478 6  96772748.49606      2177.692 6        38.574
G25         7.000    20275501.349 8 106548650.96408     -2059.723 8        48.930                                    20275502.022 8  83025007.51108     -1604.979 8        49.776    20275502.464 7  83025008.51107     -1604.930 7        44.770
G04         8.000    25509857.780 5 134055210.25805      1066.933 5        35.405                                    25509857.977 2 104458592.67302       831.369 2        14.714    25509856.852 5 104458601.65705       831.774 5        34.510
E36         9.000    25792852.143 7 135542478.37307      2479.994 7        43.549                                                                    25792858.075 7 101216908.98807      1851.975 7        46.263    25792857.373 7 103857339.73907      1900.294 7        46.968
R08        10.000    23812218.268 6 127513348.38006       148.835 6        38.577                                                                    23812219.555 6  99177043.49806       115.715 6        40.272
G20        11.000    23753348.652 6 124824775.21006       555.046 6        40.365                                    23753346.860 4  97266111.86204       432.497 4        24.060
S27        12.000    39218830.702 6 206096359.60906      -483.114 6        36.994
E08        13.000    27215812.596 6 143020171.99106     -2367.097 6        39.874                                                                    27215819.924 6 106800870.37206     -1767.623 6        41.447    27215818.700 7 109586967.86607     -1813.687 7        42.370
S36        14.000    38192259.799 7 200702114.11407      -486.105 7        44.640
C13        15.000                                                                                                                                    39245640.877 6 204362360.49306      1282.845 6        40.865    39245646.576 7 158025961.11207       991.871 7        42.163    39245643.758 6 166061169.76806      1042.464 6        40.505
G18        16.000    23849072.517 6 125327854.63306      3201.445 6        41.585                                    23849074.828 4  97658141.07404      2494.632 4        27.581    23849074.913 6  97658149.09706      2494.626 6        40.727
G12        17.000    23241441.769 7 122134773.97607     -3647.446 7        44.182                                    23241440.785 6  95170035.44006     -2842.169 6        39.021    23241441.145 6  95170032.46606     -2842.119 6        38.634
G32        18.000    25551753.332 6 134275277.97206     -3421.081 6        38.309                                    25551764.938 4 104630104.65904     -2665.779 4        26.000    25551764.685 5 104630108.70505     -2666.058 5        30.883
E02        19.000    24329806.216 7 127854135.07207      1214.820 7        46.051                                                                    24329808.667 8  95475586.35608       907.209 8        49.368    24329807.756 8  97966240.51608       930.883 8        49.684
E10        21.000    24942155.921 7 131072111.78207     -1411.015 7        45.669                                                                    24942157.797 8  97878652.68608     -1053.653 8        48.395    24942157.449 8 100431994.54808     -1081.118 8        48.912
I06        22.000    38655558.751 6 151692857.13706      -419.049 6        41.189
S28        23.000    40899422.023 5 214927879.95405      -487.709 5        34.338
S23        25.000    38140318.335 7 200428636.83007      -490.458 7        45.129
S45        26.000    63397238.612 6 333155241.48806      -549.599 6        36.541
R09        27.000    23271118.551 7 124266556.56907      3532.073 7        44.084                                                                    23271125.051 7  96651846.55207      2747.057 7        42.480
R18        28.000    19530096.091 8 104253241.77508      1535.362 8        51.768                                                                    19530098.223 7  81085998.39207      1194.143 7        47.354
C38        29.000                                                                                                                                    39132585.259 7 203773719.59007       622.105 7        43.107                                                                    39132585.390 7 165582874.88807       505.615 7        42.301
C44        30.000                                                                                                                                    21402398.340 8 111448098.99108       252.020 8        51.621                                                                    21402398.199 8  90560788.80408       204.903 8        49.853
E12        31.000    26606415.308 6 139817809.61206     -2559.365 6        36.979                                                                    26606415.808 6 104409505.90206     -1911.302 6        41.504    26606415.535 7 107133216.24207     -1961.162 7        42.015
G11        32.000    23462507.638 7 123296490.24507     -3058.428 7        42.821                                    23462507.284 4  96075281.74904     -2383.196 4        29.005    23462507.019 6  96075272.75506     -2383.327 6        41.535
I02        33.000    37689719.857 6 147902565.16106      -759.645 6        41.642
R15        34.000    20129794.922 8 107567659.24708     -2896.541 8        52.206                                                                    20129797.181 7  83663803.77507     -2252.811 7        47.368
R07        35.000    23848409.598 7 127662318.40507     -2641.516 7        43.649                                                                    23848418.896 6  99292896.13806     -2054.635 6        40.100
G29        36.000    20358884.689 8 106986933.18508       -25.213 8        50.370                                    20358882.430 8  83366545.45808       -19.648 8        53.066    20358882.843 7  83366555.46007       -19.669 7        47.003
G31        37.000    22122029.144 7 116252229.33707      1340.826 7        45.589                                    22122028.384 7  90586239.66207      1044.797 7        42.927    22122028.564 6  90586245.67206      1044.804 6        41.948
C10        38.000                                                                                                                                    40576923.205 5 211294694.48105     -1161.910 5        35.938    40576922.806 6 163386464.77006      -898.378 6        39.949    40576920.189 5 171694238.39705      -943.927 5        35.867
E25        39.000    23422068.460 7 123083998.40507     -1179.173 7        47.958                                                                    23422070.799 8  91913500.55908      -880.549 8        50.708    23422070.259 8  94311228.87608      -903.438 8        51.240
C12        40.000                                                                                                                                    22657998.645 7 117986306.52307      1671.553 7        47.218    22657998.019 8  91234581.98008      1292.588 8        51.727    22657996.444 8  95873602.89008      1358.429 8        49.316
E07        41.000    27819394.808 6 146191873.31106      -128.720 6        37.773                                                                    27819404.349 7 109169264.90007       -96.073 7        42.045    27819403.020 7 112017155.81607       -98.643 7        42.017
S44        42.000    40611741.008 6 213416260.32406      -406.080 6        38.207
G28        43.000    21283789.281 7 111847243.83907      -374.820 7        47.144                                    21283788.353 6  87153783.22306      -292.071 6        37.713    21283788.313 7  87153783.23007      -292.129 7        46.496
C05        44.000                                                                                                                                    39408846.049 6 205212169.06106      -439.746 6        39.255    39408844.222 7 158683073.51307      -339.976 7        42.444    39408844.973 6 166751786.70506      -357.237 6        39.766
R16        46.000    19441870.494 8 103855163.16108      1128.420 8        51.839                                                                    19441873.140 7  80776346.25107       877.651 7        47.551
R17        47.000    19698801.934 8 105412493.63508     -2414.944 8        51.328                                                                    19698802.934 7  81987624.36007     -1878.321 7        47.394
C35        48.000                                                                                                                                    22777329.698 8 118607685.47908     -2520.465 8        48.669                                                                    22777330.314 8  96378521.87308     -2047.986 8        48.332
C24        49.000                                                                                                                                    21389490.242 8 111380746.96508      -622.104 8        51.545                                                                    21389488.695 8  90505999.63308      -505.356 8        50.118
R19        50.000    22613848.663 5 120969000.61005      3747.623 5        34.995                                                                    22613853.182 6  94087088.05906      2914.871 6        40.088
S48        51.000    77136189.574 6 405354744.14606      -515.168 6        37.974
C08        52.000                                                                                                                                    39020461.890 6 203189836.80106      1224.937 6        39.601    39020457.990 7 157119288.19307       947.247 7        43.462    39020456.565 6 165108394.62306       995.482 6        41.035
C34        53.000                                                                                                                                    24475775.778 7 127451974.42707      2603.424 7        43.824                                                                    24475780.724 7 103565265.59007      2115.705 7        44.001
C60        54.000                                                                                                                                    40611739.951 6 211476131.40506      -402.402 6        39.264                                                                    40611727.217 6 171841636.48006      -326.884 6        40.207
C25        55.000                                                                                                                                    23940430.917 7 124664279.95907      2182.500 7        46.008                                                                    23940432.677 7 101300017.28807      1773.537 7        45.261
C26        56.000                                                                                                                                    23715001.071 7 123490320.72107     -3275.406 7        47.444                                                                    23715003.192 7 100346043.01307     -2661.363 7        46.304
C02        57.000                                                                                                                                    40812000.539 5 212518785.36005      -396.953 5        34.167    40811998.497 6 164332984.41906      -306.997 6        39.886    40812000.075 5 172688912.35905      -322.451 5        35.262
I03        58.000    87096265.421 6 265999127.69706      1068.479 6        37.769
R24        60.000    23839155.053 7 127478841.31907     -4740.290 7        42.362                                                                    23839156.386 6  99150284.74306     -3686.935 6        37.932
> 2025 01 02 15 30 20.0000000  0 56
E24         1.000    27113712.492 6 142483630.60406     -2898.402 6        41.232                                                                    27113715.322 7 106400179.93307     -2164.288 7        43.962    27113714.338 7 109175825.91807     -2220.790 7        44.152
E11         2.000    24055552.393 7 126412949.92407       221.412 7        44.513                                                                    24055551.196 7  94399397.08307       165.409 7        46.550    24055550.628 7  96861977.30307       169.721 7        46.442
E03         3.000    28393482.162 6 149208626.48106     -3343.452 6        36.287                                                                    28393498.107 6 111421999.74706     -2496.759 6        38.904    28393496.530 6 114328666.08406     -2561.841 6        40.195
G05         4.000    24600350.388 6 129275750.65406      2381.907 6        39.571                                    24600349.742 5 100734360.41105      1856.028 5        31.072    24600350.737 5 100734359.42705      1856.258 5        35.695
S21         5.000    38421430.187 7 201905589.85207      -485.994 7        43.236
G26         6.000    23630189.290 6 124177606.74806      2794.123 6        40.400                                    23630195.815 5  96761874.41705      2177.234 5        34.790    23630195.986 6  96761861.42406      2177.200 6        38.700
G25         7.000    20277462.458 8 106558955.25208     -2061.879 8        49.178                                    20277462.851 8  83033036.82908     -1606.660 8        49.747    20277463.246 7  83033037.83207     -1606.697 7        44.479
G04         8.000    25508844.333 5 134049881.41005      1064.593 5        35.386                                    25508844.023 2 104454440.34002       829.579 2        15.095    25508843.243 5 104454449.36105       829.520 5        35.233
E36         9.000    25790493.329 7 135530081.41707      2478.881 7        43.492                                                                    25790499.029 7 101207651.54707      1851.169 7        46.360    25790498.293 7 103847840.79307      1899.498 7        46.856
R08        10.000    23812081.423 6 127512615.36206       144.592 6        38.210                                                                    23812082.924 6  99176473.36606       112.372 6        41.077
G20        11.000    23752822.095 6 124822007.13606       552.325 6        40.517                                    23752820.135 4  97263954.93904       430.390 4        24.135
