     3.04           OBSERVATION DATA    M                   RINEX VERSION / TYPE
ssrcrin-15.6.1x                         20250102 011500 UTC PGM / RUN BY / DATE 
(00000000023479385599111004) Septentrio proprietary         COMMENT             
rref                                                        MARKER NAME         
01                                                          MARKER NUMBER       
geodetic                                                    MARKER TYPE         
NFB                 CLIMERS@TUW                             OBSERVER / AGENCY   
3297213             SEPT ASTERX SB3 PROB4.14.4              REC # / TYPE / VERS 
Unknown             Unknown                                 ANT # / TYPE        
  4127831.6583  1207193.0344  4695247.7734                  APPROX POSITION XYZ 
        0.0000        0.0000        0.0000                  ANTENNA: DELTA H/E/N
G   23 X1  C1C L1C D1C S1C C1W S1W C2W L2W D2W S2W C2L L2L  SYS / # / OBS TYPES 
       D2L S2L C5Q L5Q D5Q S5Q C1L L1L D1L S1L              SYS / # / OBS TYPES 
E   21 X1  C1C L1C D1C S1C C6C L6C D6C S6C C5Q L5Q D5Q S5Q  SYS / # / OBS TYPES 
       C7Q L7Q D7Q S7Q C8Q L8Q D8Q S8Q                      SYS / # / OBS TYPES 
S    9 X1  C1C L1C D1C S1C C5I L5I D5I S5I                  SYS / # / OBS TYPES 
R   17 X1  C1C L1C D1C S1C C2P L2P D2P S2P C2C L2C D2C S2C  SYS / # / OBS TYPES 
       C3Q L3Q D3Q S3Q                                      SYS / # / OBS TYPES 
C   25 X1  C1P L1P D1P S1P C5P L5P D5P S5P C2I L2I D2I S2I  SYS / # / OBS TYPES 
       C7I L7I D7I S7I C6I L6I D6I S6I C7D L7D D7D S7D      SYS / # / OBS TYPES 
J   17 X1  C1C L1C D1C S1C C2L L2L D2L S2L C5Q L5Q D5Q S5Q  SYS / # / OBS TYPES 
       C1L L1L D1L S1L                                      SYS / # / OBS TYPES 
I    5 X1  C5A L5A D5A S5A                                  SYS / # / OBS TYPES 
SEPTENTRIO RECEIVERS OUTPUT ALIGNED CARRIER PHASES.         COMMENT             
NO FURTHER PHASE SHIFT APPLIED IN THE RINEX ENCODER.        COMMENT             
G L1C                                                       SYS / PHASE SHIFT   
G L2W                                                       SYS / PHASE SHIFT   
G L2L  0.00000                                              SYS / PHASE SHIFT   
G L5Q  0.00000                                              SYS / PHASE SHIFT   
G L1L  0.00000                                              SYS / PHASE SHIFT   
E L1C  0.00000                                              SYS / PHASE SHIFT   
E L6C  0.00000                                              SYS / PHASE SHIFT   
E L5Q  0.00000                                              SYS / PHASE SHIFT   
E L7Q  0.00000                                              SYS / PHASE SHIFT   
E L8Q  0.00000                                              SYS / PHASE SHIFT   
S L1C                                                       SYS / PHASE SHIFT   
S L5I                                                       SYS / PHASE SHIFT   
R L1C                                                       SYS / PHASE SHIFT   
R L2P  0.00000                                              SYS / PHASE SHIFT   
R L2C                                                       SYS / PHASE SHIFT   
R L3Q  0.00000                                              SYS / PHASE SHIFT   
C L1P  0.00000                                              SYS / PHASE SHIFT   
C L5P  0.00000                                              SYS / PHASE SHIFT   
C L2I                                                       SYS / PHASE SHIFT   
C L7I                                                       SYS / PHASE SHIFT   
C L6I                                                       SYS / PHASE SHIFT   
C L7D                                                       SYS / PHASE SHIFT   
J L1C                                                       SYS / PHASE SHIFT   
J L2L  0.00000                                              SYS / PHASE SHIFT   
J L5Q  0.00000                                              SYS / PHASE SHIFT   
J L1L  0.00000                                              SYS / PHASE SHIFT   
I L5A                                                       SYS / PHASE SHIFT   
  2025     1     2     1    15    0.0000000     GPS         TIME OF FIRST OBS   
 C1C    0.000 C2C    0.000 C2P    0.000                     GLONASS COD/PHS/BIS 
DBHZ                                                        SIGNAL STRENGTH UNIT
    18                                                      LEAP SECONDS        
 24 R01  1 R02 -4 R03  5 R04  6 R05  1 R06 -4 R07  5 R08  6 GLONASS SLOT / FRQ #
    R09 -2 R10 -7 R11  0 R12 -1 R13 -2 R14 -7 R15  0 R16 -1 GLONASS SLOT / FRQ #
    R17  4 R18 -3 R19  3 R20  2 R21  4 R22 -3 R23  3 R24  2 GLONASS SLOT / FRQ #
                                                            END OF HEADER       
> 2025 01 02 01 15  0.0000000  0 54
G09         1.000    23669971.335 6 124386558.97506      3186.639 6        40.195                                    23669968.852 6  96924593.96206      2483.094 6        36.008    23669968.381 6  96924593.96306      2482.836 6        36.234
G06         2.000    25129023.684 6 132053913.81906      3077.256 6        37.440                                    25129022.247 4 102899155.20404      2397.867 4        29.886    25129023.261 6 102899163.20506      2397.973 6        37.388
R15         4.000    23436588.338 7 125238028.87407      1061.253 7        45.226                                                                    23436588.092 6  97407342.33606       825.444 6        38.592
S21         5.000    38398051.028 6 201782831.60306      -467.325 6        41.805
E10         6.000    26960266.733 6 141677165.01306      2234.487 6        40.472                                                                    26960265.960 7 105797878.54107      1668.642 7        43.623    26960265.747 7 108557822.80607      1712.136 7        44.867
G28         7.000    23096324.474 7 121372021.99907      -704.676 7        43.604                                    23096320.489 5  94575584.56305      -549.096 5        30.453    23096321.148 7  94575592.56107      -549.069 7        42.135
G03         8.000    19901972.161 8 104585668.25608      -175.958 8        50.237                                    19901969.869 8  81495367.57708      -137.113 8        52.245    19901970.662 7  81495365.57607      -137.102 7        45.607
G02         9.000    21378369.757 8 112344143.94808     -2349.171 8        49.058                                    21378362.818 6  87540886.47806     -1830.525 6        40.069
G31        10.000    22535784.802 7 118426356.25407      1135.558 7        44.718                                    22535779.420 6  92280261.30206       884.849 6        41.275    22535780.124 6  92280266.30506       884.888 6        41.085
C30        11.000                                                                                                                                    22268390.018 8 115957368.43308     -1926.995 8        50.247                                                                    22268390.342 8  94224863.75208     -1565.852 8        48.561
S27        12.000    39036855.280 6 205140066.76806      -452.201 6        36.098
S36        14.000    38165493.422 7 200561529.58807      -467.457 7        44.274
I09        15.000    37113769.878 7 145642405.87807      -451.786 7        43.331
G19        16.000    22694525.131 7 119260556.05207      1322.365 7        42.267                                    22694518.662 5  92930287.30805      1030.411 5        30.302
S45        17.000    63363046.506 6 332976572.27006      -507.960 6        37.490
E12        19.000    25190203.918 6 132375424.64506      1583.104 6        41.850                                                                    25190200.410 7  98851766.58807      1182.142 7        45.380    25190200.368 7 101430507.80807      1213.000 7        46.087
G17        20.000    22196833.734 7 116645176.00007      -747.044 7        45.782                                    22196829.084 7  90892335.72707      -582.112 7        43.763    22196829.299 6  90892334.73006      -582.134 6        41.847
E26        21.000    26209696.112 7 137733222.77207     -3087.666 7        42.095                                                                    26209694.312 7 102852926.27907     -2305.796 7        45.514    26209694.000 7 105536021.89207     -2365.917 7        46.601
I06        22.000    38127116.234 7 149619232.38807      -254.048 7        42.610
S28        23.000    40837073.850 5 214600267.46505      -461.081 5        34.443
R08        24.000    23898213.606 6 127973867.75106      3329.943 6        39.706                                                                    23898213.033 6  99535229.18706      2590.058 6        38.309
S23        25.000    38114606.970 7 200293580.92807      -463.610 7        45.145
C25        26.000                                                                                                                                    25729530.393 7 133980410.46307       916.835 7        42.400                                                                    25729527.742 6 108870053.89006       744.923 6        40.830
R16        27.000    24584399.710 5 131325456.60205      3117.079 5        32.162
R21        29.000    20166005.206 8 107912369.95308     -3386.310 8        51.745                                                                    20166003.626 7  83931846.26007     -2633.769 7        46.280
E19        30.000    24394007.873 7 128191404.14907      1899.170 7        42.163                                                                    24394005.693 7  95727348.14007      1418.113 7        43.238    24394005.564 7  98224580.25107      1455.044 7        44.525
R05        31.000    23897925.803 6 127748137.77306     -4435.450 6        41.876                                                                    23897924.383 6  99359669.92906     -3449.730 6        39.063
R23        32.000    22915105.715 7 122580372.44007      3661.582 7        42.317
E29        33.000    23404370.423 8 122990881.63808      -401.436 8        48.567                                                                    23404368.367 8  91843855.67508      -299.848 8        51.083    23404368.103 8  94239776.77808      -307.629 8        51.599
C16        35.000                                                                                                                                    38751335.134 7 201788403.13307      -112.316 7        42.671    38751334.521 7 156035605.54407       -86.858 7        44.328    38751332.496 6 163969606.89706       -91.250 6        39.414
C32        36.000                                                                                                                                    21735402.513 8 113182002.87908      -493.117 8        51.180                                                                    21735402.150 8  91969669.97008      -400.756 8        49.556
G32        37.000    25329396.970 6 133106910.20606     -3893.053 6        37.977                                    25329395.796 4 103719669.88904     -3033.548 4        29.469    25329396.420 6 103719678.90106     -3033.705 6        36.189
E07        38.000    26160325.856 6 137473455.71906     -2928.514 6        41.423                                                                    26160325.680 7 102658787.23607     -2186.857 7        44.883    26160325.251 7 105336834.95307     -2243.911 7        45.749
C41        39.000                                                                                                                                    24197162.794 7 126001006.91007     -3034.010 7        46.201                                                                    24197168.173 7 102386168.20907     -2465.436 7        46.983
C39        40.000                                                                                                                                    38850568.749 7 202305135.65607      -566.237 7        42.942                                                                    38850564.566 7 164389489.82207      -460.214 7        43.141
E33        41.000    23275745.149 8 122314956.12008     -1142.646 8        48.627                                                                    23275742.760 8  91339124.34108      -853.259 8        50.689    23275742.463 8  93721879.94508      -875.506 8        51.353
S44        42.000    40564772.458 6 213169552.12006      -541.215 6        36.302
R06        43.000    19449527.601 7 103786467.21407     -1905.792 7        42.095
C05        44.000                                                                                                                                    39079257.050 6 203495984.12506      -468.173 6        38.856    39079251.025 7 157356028.93507      -362.023 7        43.937    39079252.652 6 165357260.60906      -380.478 6        39.913
C29        45.000                                                                                                                                    23514445.585 7 122445909.92607      1384.704 7        47.186                                                                    23514442.876 7  99497329.86607      1125.129 7        46.025
G04        46.000    21523025.922 7 113104295.49707      2304.671 7        46.473                                    21523022.713 5  88133202.46105      1795.845 5        35.890    21523022.862 7  88133204.46007      1795.833 7        45.193
E25        47.000    28587660.279 6 150229188.54106     -1330.493 6        36.684                                                                    28587660.331 6 112184138.99506      -993.666 6        38.228    28587660.159 6 115110678.96306     -1019.458 6        40.136
R22        48.000    19637909.699 8 104828523.10708      1113.020 8        52.587                                                                    19637907.157 8  81533293.56808       865.691 8        48.304
C20        49.000                                                                                                                                    24325563.015 7 126669611.60007      2122.015 7        46.687                                                                    24325557.429 7 102929418.46907      1724.322 7        45.645
C06        50.000                                                                                                                                    38335063.847 6 199620762.82506         7.365 6        41.490    38335056.936 7 154359419.55807         5.756 7        44.999    38335056.958 6 162208202.04906         6.035 6        41.597
S48        51.000    77151577.670 6 405435426.34806      -467.329 6        37.894
G21        52.000    22801474.409 7 119822623.38107     -3218.001 7        42.982                                    22801468.981 4  93368298.60804     -2507.533 4        29.526
C09        53.000                                                                                                                                    38935015.213 7 202744856.71307       481.771 7        42.167    38935011.296 7 156775173.77507       372.599 7        45.989    38935009.408 6 164746782.55106       391.654 6        41.294
C60        54.000                                                                                                                                    40564779.267 6 211231666.65106      -536.272 6        39.757                                                                    40564762.996 6 171643003.87106      -435.650 6        39.429
C27        55.000                                                                                                                                    24659595.433 7 128408996.72007     -3846.162 7        44.038                                                                    24659594.080 7 104342831.04307     -3125.369 7        44.111
R14        56.000    23996007.126 7 127912236.04107     -1964.207 7        42.165                                                                    23996008.533 6  99487312.97006     -1527.790 6        40.451
C02        57.000                                                                                                                                    40527830.759 5 211039110.35005      -514.092 5        34.552    40527823.763 6 163188824.15906      -397.601 6        40.467    40527827.233 6 171486570.00006      -417.738 6        36.718
I03        58.000   103726338.987 6 331259208.43906       919.756 6        41.001
R07        59.000    20001555.990 8 107069959.66908      1577.036 8        51.813                                                                    20001554.388 7  83276688.85107      1226.632 7        47.151
> 2025 01 02 01 15  5.0000000  0 54
G09         1.000    23666939.228 6 124370627.13206      3185.836 6        40.484                                    23666936.904 5  96912179.53605      2482.471 5        35.862    23666937.706 6  96912179.54806      2482.366 6        36.945
G06         2.000    25126096.044 6 132038527.32806      3077.268 6        37.864                                    25126094.550 5 102887165.75105      2397.865 5        30.196    25126094.526 6 102887173.75706      2397.749 6        37.077
R15         4.000    23435597.198 7 125232731.15807      1057.522 7        45.121                                                                    23435596.329 6  97403221.86806       822.513 6        38.417
S21         5.000    38398499.443 7 201785167.93707      -467.356 7        42.028
E10         6.000    26958140.991 6 141665992.91606      2234.126 6        40.889                                                                    26958139.984 7 105789535.75007      1668.232 7        43.740    26958139.804 7 108549262.36607      1711.845 7        44.843
G28         7.000    23096996.583 7 121375553.05507      -707.941 7        43.261                                    23096992.332 5  94578336.03905      -551.645 5        30.143    23096993.131 7  94578344.03407      -551.590 7        42.313
G03         8.000    19902140.107 8 104586552.30908      -178.020 8        50.389                                    19902138.096 8  81496056.44708      -138.716 8        52.146    19902138.954 7  81496054.43807      -138.640 7        45.547
G02         9.000    21380605.851 8 112355894.54908     -2351.388 8        48.574                                    21380598.866 6  87550042.78906     -1832.251 6        39.976
G31        10.000    22534705.589 7 118420685.31507      1132.538 7        44.677                                    22534700.292 6  92275842.38906       882.495 6        41.149    22534701.209 6  92275847.39706       882.395 6        40.737
C30        11.000                                                                                                                                    22270241.527 8 115967009.45608     -1929.589 8        50.194                                                                    22270241.788 8  94232697.87108     -1567.777 8        48.556
S27        12.000    39037281.037 5 205142327.57105      -452.300 5        35.624
S36        14.000    38165937.132 7 200563865.89207      -467.177 7        44.218
I09        15.000    37114345.407 7 145644664.26007      -451.832 7        43.164
G19        16.000    22693268.574 7 119253951.58007      1319.191 7        42.597                                    22693261.791 5  92925140.97205      1027.948 5        30.347
S45        17.000    63363488.879 6 332977511.88116      -508.115 6        37.535
E12        19.000    25188698.081 6 132367511.15706      1582.013 6        41.857                                                                    25188694.448 7  98845857.15707      1181.401 7        45.387    25188694.509 7 101424444.21607      1212.222 7        46.048
G17        20.000    22197545.765 7 116648918.19607      -750.072 7        45.666                                    22197541.172 7  90895251.72607      -584.473 7        43.651    22197541.173 6  90895250.73506      -584.498 6        41.707
E26        21.000    26212634.363 7 137748663.16907     -3088.763 7        42.246                                                                    26212632.518 7 102864456.44307     -2306.541 7        45.661    26212632.020 7 105547852.84407     -2366.651 7        46.464
I06        22.000    38127439.718 7 149620501.82307      -254.040 7        42.336
S28        23.000    40837506.940 5 214602570.58005      -460.761 5        34.548
R08        24.000    23895105.196 6 127957219.33306      3329.017 6        39.997                                                                    23895103.820 6  99522280.39706      2589.272 6        37.641
S23        25.000    38115050.640 7 200295898.74607      -463.725 7        45.276
C25        26.000                                                                                                                                    25728649.983 6 133975830.77006       914.587 6        41.683                                                                    25728648.208 6 108866332.50306       743.418 6        40.918
R16        27.000    24581481.434 5 131309871.63705      3116.669 5        31.917
R21        29.000    20169170.536 8 107929309.14208     -3389.657 8        50.984                                                                    20169169.277 7  83945021.17007     -2636.378 7        46.732
E19        30.000    24392201.426 7 128181911.55307      1897.615 7        42.349                                                                    24392199.374 7  95720259.50907      1417.141 7        43.310    24392199.301 7  98217306.69407      1454.075 7        44.439
R05        31.000    23902073.605 6 127770313.38406     -4435.209 6        41.819                                                                    23902073.863 6  99376917.62306     -3449.566 6        39.069
R23        32.000    22911684.219 7 122562066.70007      3660.397 7        42.053
E29        33.000    23404753.352 8 122992893.53708      -403.538 8        48.543                                                                    23404751.202 8  91845358.05708      -301.380 8        51.123    23404750.964 8  94241318.35408      -309.219 8        51.561
C16        35.000                                                                                                                                    38751443.948 7 201788966.41607      -113.344 7        42.870    38751443.026 7 156036041.11407       -87.532 7        44.412    38751440.610 6 163970064.61206       -91.786 6        39.694
C32        36.000                                                                                                                                    21735876.716 8 113184472.51708      -494.955 8        51.156                                                                    21735876.404 8  91971676.74808      -401.953 8        49.569
G32        37.000    25333100.712 6 133126376.00606     -3893.541 6        37.856                                    25333100.008 4 103734838.03404     -3033.929 4        29.194    25333099.922 5 103734847.03005     -3034.080 5        35.590
E07        38.000    26163112.333 6 137488100.06206     -2929.491 6        41.814                                                                    26163112.278 7 102669722.95407     -2187.643 7        44.868    26163111.803 7 105348055.93807     -2244.670 7        45.570
C41        39.000                                                                                                                                    24200076.375 7 126016177.86107     -3034.601 7        46.330                                                                    24200081.602 7 102398495.85407     -2465.627 7        47.038
C39        40.000                                                                                                                                    38851112.978 7 202307968.56607      -567.143 7        42.806                                                                    38851108.605 7 164391791.77907      -460.652 7        43.234
E33        41.000    23276833.099 8 122320672.89708     -1144.383 8        48.693                                                                    23276830.606 8  91343393.36308      -854.595 8        50.702    23276830.329 8  93726260.33208      -876.871 8        51.269
S44        42.000    40565289.579 6 213172257.25306      -541.139 6        36.473
R06        43.000    19451313.652 6 103796001.96006     -1908.344 6        41.878
C05        44.000                                                                                                                                    39079705.746 6 203498324.44406      -468.367 6        38.928    39079700.526 7 157357838.60807      -361.986 7        43.862    39079702.144 6 165359162.29306      -380.153 6        39.970
C29        45.000                                                                                                                                    23513116.727 7 122438991.18107      1382.514 7        46.869                                                                    23513114.235 7  99491707.81407      1123.652 7        46.104
G04        46.000    21520833.867 7 113092776.53307      2302.682 7        46.444                                    21520830.741 5  88124226.64305      1794.295 5        35.724    21520830.784 7  88124228.64907      1794.239 7        44.954
E25        47.000    28588926.680 6 150235845.78706     -1332.735 6        36.673                                                                    28588927.153 6 112189110.29506      -995.237 6        38.447    28588926.960 6 115115779.95706     -1021.147 6        40.136
R22        48.000    19636868.831 8 104822966.86808      1109.290 8        52.600                                                                    19636866.376 8  81528972.05508       862.747 8        48.625
C20        49.000                                                                                                                                    24323525.828 7 126659003.43407      2121.000 7        46.674                                                                    24323520.248 7 102920798.46607      1723.691 7        45.717
C06        50.000                                                                                                                                    38335056.867 6 199620727.12406         6.653 6        41.654    38335049.902 7 154359391.95407         5.055 7        44.766    38335050.018 6 162208173.05206         5.521 6        41.626
S48        51.000    77152019.556 6 405437762.13706      -467.533 6        37.335
G21        52.000    22804536.419 7 119838716.14607     -3219.247 7        42.646                                    22804531.179 4  93380838.42304     -2508.505 4        29.479
C09        53.000                                                                                                                                    38934552.924 7 202742448.36007       481.078 7        42.220    38934548.616 7 156773311.47807       372.091 7        45.922    38934546.869 6 164744825.57206       391.157 6        41.404
C60        54.000                                                                                                                                    40565294.326 6 211234347.21306      -536.340 6        39.811                                                                    40565277.742 6 171645182.03706      -435.504 6        39.568
C27        55.000                                                                                                                                    24663288.679 7 128428228.53507     -3846.798 7        43.854                                                                    24663287.367 7 104358458.46607     -3125.675 7        44.150
R14        56.000    23997850.697 7 127922065.65907     -1967.868 7        42.315                                                                    23997852.575 6  99494958.23106     -1530.500 6        40.348
C02        57.000                                                                                                                                    40528324.319 5 211041680.84205      -514.427 5        34.614    40528317.327 6 163190811.81706      -397.651 6        40.551    40528320.976 6 171488658.73006      -417.683 6        36.801
I03        58.000   103725167.116 6 331254609.15106       919.754 6        40.856
R07        59.000    20000084.316 8 107062080.65008      1574.294 8        51.750                                                                    20000082.098 7  83270560.73307      1224.432 7        47.143
> 2025 01 02 01 15 10.0000000  0 54
G09         1.000    23663908.902 6 124354700.08106      3184.913 6        40.212                                    23663906.029 5  96899768.85105      2481.748 5        35.886    23663906.792 6  96899768.85306      2481.723 6        37.633
G06         2.000    25123166.926 6 132023142.17806      3076.836 6        37.656                                    25123166.822 5 102875177.33105      2397.539 5        30.151    25123166.640 6 102875185.30806      2397.644 6        36.537
R15         4.000    23434608.975 7 125227452.52707      1053.876 7        43.613                                                                    23434609.368 6  97399116.28906       819.638 6        38.847
S21         5.000    38398935.614 7 201787504.57807      -467.242 7        42.119
E10         6.000    26956015.674 6 141654823.17806      2233.865 6        40.772                                                                    26956014.335 7 105781194.71007      1668.061 7        43.918    26956014.279 7 108540703.74207      1711.587 7        45.035
G28         7.000    23097671.734 7 121379101.28807      -711.340 7        42.845                                    23097667.547 5  94581100.89705      -554.286 5        30.083    23097667.760 6  94581108.87806      -554.238 6        41.812
G03         8.000    19902310.572 8 104587447.17308      -179.999 8        50.169                                    19902308.380 8  81496753.74408      -140.258 8        52.180    19902309.209 7  81496751.74207      -140.308 7        45.466
G02         9.000    21382843.865 8 112367656.57208     -2353.496 8        48.773                                    21382837.101 6  87559208.00006     -1833.890 6        39.976
G31        10.000    22533629.957 7 118415030.15007      1129.519 7        44.033                                    22533624.174 6  92271435.77206       880.144 6        41.070    22533624.900 6  92271440.78206       880.080 6        40.675
C30        11.000                                                                                                                                    22272095.703 8 115976663.83908     -1932.132 8        50.331                                                                    22272095.839 8  94240542.85308     -1570.065 8        48.534
S27        12.000    39037716.148 5 205144588.81605      -452.071 5        35.810
S36        14.000    38166386.217 7 200566202.00007      -467.089 7        44.129
I09        15.000    37114921.380 7 145646923.92007      -451.934 7        43.221
G19        16.000    22692015.132 7 119247363.43707      1316.070 7        42.466                                    22692008.105 5  92920007.35205      1025.511 5        30.294
S45        17.000    63363926.307 6 332980052.09406      -507.968 6        37.459
E12        19.000    25187193.192 7 132359603.41007      1581.055 7        42.100                                                                    25187189.648 7  98839952.02007      1180.735 7        45.443    25187189.698 7 101418385.04107      1211.423 7        46.106
G17        20.000    22198260.715 7 116652676.17207      -753.151 7        45.518                                    22198256.283 7  90898180.01907      -586.869 7        43.630    22198256.749 6  90898179.02806      -586.913 6        41.831
E26        21.000    26215573.659 7 137764108.84507     -3089.614 7        42.136                                                                    26215571.675 7 102875990.54107     -2307.183 7        45.728    26215571.182 7 105559687.83607     -2367.302 7        46.564
I06        22.000    38127763.621 7 149621771.82507      -253.997 7        42.305
S28        23.000    40837949.130 5 214604873.88305      -460.707 5        34.495
R08        24.000    23891996.637 6 127940575.83606      3328.356 6        40.069                                                                    23891995.412 6  99509335.47506      2588.700 6        37.251
S23        25.000    38115490.616 7 200298217.08307      -463.678 7        45.138
C25        26.000                                                                                                                                    25727772.191 6 133971262.43606       912.576 6        40.942                                                                    25727770.984 6 108862620.36506       741.492 6        40.906
R16        27.000    24578566.525 5 131294291.48005      3115.505 5        31.600
R21        29.000    20172339.161 8 107946265.44308     -3392.906 8        51.653                                                                    20172337.477 7  83958209.40707     -2638.933 7        46.047
E19        30.000    24390396.249 7 128172426.85507      1896.105 7        42.015                                                                    24390394.429 7  95713176.78307      1415.961 7        43.323    24390394.391 7  98210039.19807      1452.894 7        44.590
R05        31.000    23906222.523 6 127792488.64206     -4434.946 6        41.611                                                                    23906221.541 6  99394165.04306     -3449.365 6        39.342
R23        32.000    22908263.022 7 122543767.06607      3659.290 7        42.694
E29        33.000    23405138.412 8 122994916.67308      -405.690 8        48.636                                                                    23405136.200 8  91846868.84208      -302.932 8        51.033    23405135.994 8  94242868.55008      -310.807 8        51.627
C16        35.000                                                                                                                                    38751553.283 7 201789534.90007      -114.014 7        43.132    38751552.065 7 156036480.71607       -88.247 7        44.432    38751549.705 6 163970526.57506       -92.749 6        39.550
C32        36.000                                                                                                                                    21736352.906 8 113186952.10708      -496.863 8        51.189                                                                    21736352.587 8  91973691.62708      -403.766 8        49.575
G32        37.000    25336805.458 6 133145844.02406     -3893.677 6        37.966                                    25336804.537 4 103750007.91304     -3034.040 4        28.938    25336804.686 5 103750016.92805     -3034.207 5        34.967
E07        38.000    26165900.064 6 137502749.92506     -2930.468 6        41.874                                                                    26165900.049 7 102680662.78707     -2188.374 7        44.870    26165899.568 7 105359281.16407     -2245.374 7        45.583
C41        39.000                                                                                                                                    24202990.807 7 126031352.69607     -3035.290 7        46.192                                                                    24202995.788 7 102410826.64807     -2466.418 7        47.105
C39        40.000                                                                                                                                    38851657.797 7 202310806.62207      -567.938 7        42.982                                                                    38851653.596 7 164394097.94607      -461.583 7        43.274
E33        41.000    23277922.841 8 122326399.41408     -1146.264 8        48.755                                                                    23277920.370 8  91347669.65308      -855.899 8        50.668    23277920.005 8  93730648.17908      -878.250 8        51.340
S44        42.000    40565804.124 6 213174963.04106      -540.986 6        36.204
R06        43.000    19453103.220 6 103805551.02406     -1911.138 6        41.752
C05        44.000                                                                                                                                    39080155.784 6 203500665.45606      -468.238 6        39.018    39080149.986 7 157359648.83807      -362.091 7        43.846    39080151.761 6 165361064.57106      -380.466 6        39.982
C29        45.000                                                                                                                                    23511790.118 7 122432084.30407      1380.229 7        46.764                                                                    23511787.830 7  99486095.41207      1121.611 7        46.079
G04        46.000    21518644.277 7 113081268.29007      2300.630 7        46.195                                    21518640.831 5  88115259.18705      1792.695 5        35.729    21518640.687 7  88115261.18707      1792.693 7        44.722
E25        47.000    28590195.429 6 150242514.44506     -1334.937 6        37.622                                                                    28590196.210 6 112194090.13406      -996.737 6        38.853    28590196.004 6 115120889.69906     -1022.827 6        40.505
R22        48.000    19635831.210 8 104817430.13408      1105.449 8        52.191                                                                    19635829.246 8  81524665.70608       859.803 8        48.653
C20        49.000                                                                                                                                    24321490.402 7 126648401.30007      2119.817 7        47.118                                                                    24321484.188 7 102912183.36807      1722.535 7        45.704
C06        50.000                                                                                                                                    38335050.598 6 199620696.73006         5.543 6        41.747    38335044.165 7 154359368.44607         4.377 7        44.668    38335044.259 6 162208148.36806         4.466 6        41.557
S48        51.000    77152460.234 6 405440098.47706      -467.446 6        37.444
G21        52.000    22807599.797 7 119854815.63407     -3220.524 7        42.525                                    22807594.862 4  93393383.47504     -2509.497 4        29.668
C09        53.000                                                                                                                                    38934091.243 7 202740044.73507       480.323 7        42.233    38934086.889 7 156771452.83907       371.433 7        45.871    38934085.250 6 164742872.44706       390.268 6        41.423
C60        54.000                                                                                                                                    40565809.041 6 211237028.40306      -536.304 6        39.982                                                                    40565792.596 6 171647360.72706      -435.662 6        39.384
C27        55.000                                                                                                                                    24666983.005 7 128447464.72707     -3847.665 7        43.562                                                                    24666981.250 7 104374089.44307     -3126.491 7        44.009
R14        56.000    23999698.921 7 127931914.52507     -1971.584 7        42.313                                                                    23999699.398 6  99502618.46306     -1533.622 6        39.583
C02        57.000                                                                                                                                    40528818.107 5 211044252.00605      -514.171 5        34.705    40528811.231 6 163192800.00806      -397.558 6        40.479    40528814.634 6 171490748.02606      -417.879 6        36.911
I03        58.000   103723995.757 6 331250010.51506       919.663 6        40.899
R07        59.000    19998614.875 8 107054216.19908      1571.491 8        52.125                                                                    19998612.772 7  83264443.94307      1222.179 7        46.603
> 2025 01 02 01 15 15.0000000  0 54
G09         1.000    23660878.645 6 124338777.11106      3184.147 6        40.045                                    23660876.107 6  96887361.34406      2481.150 6        36.008    23660876.493 6  96887361.35506      2481.226 6        37.826
G06         2.000    25120239.143 6 132007757.52706      3076.918 6        37.819                                    25120239.103 4 102863189.30004      2397.601 4        29.867    25120239.443 6 102863197.30806      2397.509 6        36.000
R15         4.000    23433623.679 7 125222192.15207      1050.253 7        43.975                                                                    23433624.846 6  97395024.90206       816.902 6        39.240
S21         5.000    38399381.278 7 201789841.06507      -467.267 7        42.146
E10         6.000    26953890.134 6 141643655.07306      2233.339 6        40.653                                                                    26953889.208 7 105772854.89607      1667.754 7        43.714    26953889.031 7 108532146.36007      1711.339 7        45.109
G28         7.000    23098350.464 7 121382665.95807      -714.545 7        42.540                                    23098345.826 5  94583878.55705      -556.789 5        30.015    23098346.378 6  94583886.54906      -556.742 6        41.681
G03         8.000    19902482.887 8 104588352.14408      -182.096 8        50.254                                    19902480.591 8  81497458.91308      -141.895 8        52.240    19902481.169 7  81497456.91307      -141.887 7        45.184
G02         9.000    21385084.468 8 112379429.32708     -2355.665 8        48.756                                    21385077.370 6  87568381.57306     -1835.582 6        40.040
G31        10.000    22532556.435 7 118409390.07007      1126.476 7        44.054                                    22532550.922 6  92267040.90106       877.773 6        41.056    22532552.238 6  92267045.91106       877.778 6        40.377
C30        11.000                                                                                                                                    22273952.072 8 115986330.89208     -1934.747 8        50.280                                                                    22273952.290 8  94248398.11608     -1572.140 8        48.677
S27        12.000    39038142.763 5 205146849.63805      -452.250 5        35.919
S36        14.000    38166827.057 7 200568537.20607      -466.875 7        44.333
I09        15.000    37115497.238 7 145649184.30407      -452.177 7        43.270
G19        16.000    22690763.747 7 119240790.91207      1312.950 7        42.906                                    22690757.455 5  92914885.91305      1023.078 5        30.347
S45        17.000    63364366.422 6 332982592.30406      -507.902 6        37.754
E12        19.000    25185689.663 6 132351700.68906      1580.097 6        41.812                                                                    25185685.900 7  98834050.64307      1179.939 7        45.398    25185685.856 7 101412329.70807      1210.680 7        46.239
G17        20.000    22198979.010 7 116656449.22307      -756.186 7        45.732                                    22198974.274 7  90901120.06007      -589.234 7        43.644    22198974.443 6  90901119.06706      -589.246 6        41.535
E26        21.000    26218513.417 6 137779559.09906     -3090.572 6        41.995                                                                    26218511.781 7 102887528.06007     -2307.831 7        45.589    26218511.211 7 105571526.33907     -2368.115 7        46.607
I06        22.000    38128087.191 7 149623041.82007      -254.021 7        42.444
S28        23.000    40838387.894 5 214607177.12905      -460.807 5        34.567
R08        24.000    23888890.329 6 127923936.65906      3327.378 6        40.994                                                                    23888887.937 6  99496393.88506      2587.854 6        36.722
S23        25.000    38115933.316 7 200300535.45907      -463.888 7        45.139
C25        26.000                                                                                                                                    25726896.982 6 133966704.78706       910.441 6        40.636                                                                    25726895.760 6 108858916.89606       739.668 6        40.896
R16        27.000    24575652.115 5 131278715.35105      3114.885 5        30.672
R21        29.000    20175511.638 8 107963238.26508     -3396.216 8        51.714                                                                    20175509.246 7  83971410.49107     -2641.523 7        45.672
E19        30.000    24388592.694 6 128162949.30706      1894.749 6        41.571                                                                    24388590.955 7  95706099.39207      1414.835 7        43.236    24388590.765 7  98202777.17407      1451.836 7        44.742
R05        31.000    23910370.901 6 127814662.93406     -4434.936 6        41.507                                                                    23910370.578 6  99411411.70306     -3449.290 6        39.718
R23        32.000    22904843.574 7 122525472.74007      3658.325 7        42.544
E29        33.000    23405525.372 8 122996950.35208      -407.853 8        48.585                                                                    23405523.161 8  91848387.49908      -304.524 8        51.099    23405522.925 8  94244426.82608      -312.489 8        51.725
C16        35.000                                                                                                                                    38751663.104 7 201790107.92407      -115.036 7        43.365    38751662.241 7 156036923.80007       -88.920 7        44.500    38751659.800 6 163970992.17706       -93.517 6        39.799
C32        36.000                                                                                                                                    21736830.916 8 113189440.94208      -498.764 8        51.174                                                                    21736830.520 8  91975714.00308      -405.303 8        49.675
G32        37.000    25340510.594 6 133165313.60206     -3894.165 6        38.045                                    25340509.352 4 103765179.01204     -3034.412 4        28.739    25340509.796 5 103765188.03605     -3034.607 5        35.029
E07        38.000    26168688.686 6 137517404.63106     -2931.494 6        41.559                                                                    26168688.773 7 102691606.23707     -2189.097 7        44.837    26168688.333 7 105370510.09307     -2246.242 7        45.762
C41        39.000                                                                                                                                    24205905.293 7 126046530.65907     -3035.979 7        46.244                                                                    24205910.500 7 102423159.97907     -2466.973 7        47.143
C39        40.000                                                                                                                                    38852203.743 7 202313649.15707      -569.036 7        42.935                                                                    38852199.390 7 164396407.72507      -462.387 7        43.405
E33        41.000    23279014.122 8 122332134.95208     -1148.056 8        48.730                                                                    23279011.807 8  91351952.68308      -857.316 8        50.662    23279011.411 8  93735042.94208      -879.698 8        51.450
S44        42.000    40566318.316 6 213177668.76506      -541.101 6        36.446
R06        43.000    19454895.240 7 103815113.58507     -1913.871 7        42.106
C05        44.000                                                                                                                                    39080605.236 6 203503006.51606      -468.237 6        39.135    39080599.791 7 157361459.08407      -362.076 7        43.755    39080601.204 6 165362966.86006      -380.587 6        40.031
C29        45.000                                                                                                                                    23510466.084 7 122425188.56807      1378.047 7        46.733                                                                    23510463.605 7  99480492.05707      1119.687 7        46.245
G04        46.000    21516456.022 7 113069770.07007      2298.623 7        46.338                                    21516452.795 5  88106299.53505      1791.134 5        35.748    21516452.876 7  88106301.53507      1791.161 7        44.266
E25        47.000    28591466.866 6 150249193.79406     -1337.013 6        36.144                                                                    28591467.321 6 112199077.94806      -998.429 6        38.796    28591467.163 6 115126007.63006     -1024.436 6        40.403
R22        48.000    19634797.519 8 104811912.19408      1101.744 8        52.366                                                                    19634795.642 8  81520373.98908       856.857 8        48.377
C20        49.000                                                                                                                                    24319454.826 7 126637804.49107      2118.812 7        47.050                                                                    24319449.162 7 102903572.59207      1721.649 7        45.759
C06        50.000                                                                                                                                    38335045.151 6 199620670.94106         4.598 6        41.678    38335039.152 7 154359348.50307         3.659 7        44.629    38335039.282 6 162208127.39106         3.801 6        41.845
S48        51.000    77152895.802 6 405442434.66006      -467.441 6        37.342
G21        52.000    22810665.046 7 119870921.17007     -3221.619 7        42.184                                    22810659.735 4  93405933.24604     -2510.352 4        29.716
C09        53.000                                                                                                                                    38933630.042 7 202737645.13907       479.478 7        42.055    38933626.447 7 156769597.32207       370.734 7        45.743    38933624.327 6 164740922.56006       389.541 6        41.542
C60        54.000                                                                                                                                    40566323.899 6 211239709.54006      -536.372 6        39.913                                                                    40566307.459 6 171649539.36306      -435.812 6        39.523
C27        55.000                                                                                                                                    24670677.552 7 128466704.56807     -3848.328 7        43.221                                                                    24670676.004 7 104389723.37207     -3127.171 7        43.700
R14        56.000    24001549.475 7 127941781.89907     -1975.474 7        42.652                                                                    24001550.478 6  99510293.11106     -1536.624 6        39.859
C02        57.000                                                                                                                                    40529311.801 5 211046823.22705      -514.263 5        34.686    40529304.796 6 163194788.22306      -397.589 6        40.400    40529308.435 6 171492837.33806      -418.112 6        36.862
I03        58.000   103722823.272 6 331245411.96306       919.746 6        40.923
R07        59.000    19997148.700 8 107046365.45708      1568.708 8        52.279                                                                    19997146.459 7  83258337.79407      1220.099 7        46.756
> 2025 01 02 01 15 20.0000000  0 54
G09         1.000    23657849.825 6 124322858.80206      3182.943 6        40.548                                    23657847.048 6  96874957.47806      2480.212 6        36.057    23657847.052 6  96874957.50506      2480.155 6        37.637
G06         2.000    25117313.033 6 131992374.10206      3076.517 6        38.117                                    25117311.644 4 102851202.22804      2397.284 4        29.640    25117312.318 5 102851210.22105      2397.275 5        35.948
R15         4.000    23432643.568 7 125216950.55407      1046.195 7        44.280                                                                    23432643.207 6  97390948.09706       813.761 6        39.018
S21         5.000    38399827.318 7 201792178.04607      -467.664 7        42.078
E10         6.000    26951765.365 6 141632489.19106      2232.733 6        40.415                                                                    26951764.360 7 105764516.73607      1667.322 7        43.776    26951764.185 7 108523590.68707      1710.837 7        45.031
G28         7.000    23099032.165 7 121386247.66607      -718.242 7        42.612                                    23099027.359 4  94586669.49504      -559.675 4        29.659    23099028.055 7  94586677.49107      -559.557 7        42.027
G03         8.000    19902657.190 8 104589267.79308      -184.401 8        50.261                                    19902654.837 8  81498172.40708      -143.688 8        52.107    19902655.538 7  81498170.40707      -143.704 7        45.397
G02         9.000    21387326.764 8 112391213.40608     -2358.106 8        48.875                                    21387319.822 6  87577563.97106     -1837.480 6        39.835
G31        10.000    22531486.298 7 118403765.64307      1123.077 7        44.772                                    22531480.688 6  92262658.23406       875.123 6        41.144    22531481.270 6  92262663.24006       875.316 6        40.703
C30        11.000                                                                                                                                    22275811.066 8 115996011.15108     -1937.638 8        50.484                                                                    22275811.271 8  94256264.12208     -1574.442 8        48.721
S27        12.000    39038572.410 6 205149111.27406      -452.434 6        36.238
S36        14.000    38167274.112 7 200570873.05807      -467.460 7        44.354
I09        15.000    37116073.616 7 145651445.86307      -452.620 7        43.278
G19        16.000    22689516.305 7 119234234.62407      1309.451 7        42.612                                    22689509.850 5  92909777.11505      1020.357 5        30.219
S45        17.000    63364805.356 6 332985132.91606      -508.415 6        37.803
E12        19.000    25184186.802 6 132343803.60206      1578.601 6        41.640                                                                    25184183.070 7  98828153.46607      1178.884 7        45.282    25184183.122 7 101406278.68807      1209.667 7        46.182
G17        20.000    22199699.687 7 116660237.90807      -759.432 7        45.422                                    22199695.238 7  90904072.28707      -591.766 7        43.553    22199695.286 6  90904071.28806      -591.735 6        41.373
E26        21.000    26221454.823 7 137795014.48307     -3091.821 7        42.671                                                                    26221452.854 7 102899069.42607     -2308.730 7        45.407    26221452.289 7 105583368.77907     -2368.998 7        46.585
I06        22.000    38128410.945 7 149624312.26807      -254.309 7        42.605
S28        23.000    40838821.601 5 214609481.03905      -461.302 5        34.667
R08        24.000    23885784.542 6 127907302.12606      3326.355 6        39.949                                                                    23885781.686 6  99483455.94406      2586.978 6        37.962
S23        25.000    38116372.067 7 200302854.31707      -464.005 7        45.172
C25        26.000                                                                                                                                    25726024.166 6 133962158.37606       907.999 6        40.749                                                                    25726022.668 6 108855222.56506       737.827 6        41.030
R16        27.000    24572735.124 5 131263144.08905      3114.261 5        30.581
R21        29.000    20178686.276 8 107980228.08708     -3399.805 8        51.873                                                                    20178684.445 7  83984624.79007     -2644.342 7        45.911
E19        30.000    24386791.009 6 128153479.46406      1893.001 6        41.566                                                                    24386788.969 7  95699027.74907      1413.684 7        43.350    24386788.700 7  98195521.06207      1450.528 7        44.649
R05        31.000    23914519.163 6 127836836.51906     -4434.787 6        41.764                                                                    23914518.054 6  99428657.81006     -3449.282 6        39.294
R23        32.000    22901425.792 7 122507184.52707      3656.868 7        43.731
E29        33.000    23405914.513 8 122998995.13908      -410.207 8        48.507                                                                    23405912.264 8  91849914.45008      -306.344 8        51.127    23405912.069 8  94245993.61008      -314.323 8        51.728
C16        35.000                                                                                                                                    38751773.932 7 201790686.00907      -116.281 7        43.355    38751773.056 7 156037370.82307       -89.883 7        44.578    38751770.935 6 163971461.93506       -94.448 6        39.850
C32        36.000                                                                                                                                    21737310.665 8 113191939.58308      -500.859 8        51.213                                                                    21737310.369 8  91977744.35508      -407.007 8        49.781
G32        37.000    25344216.175 6 133184785.25306     -3894.816 6        38.195                                    25344214.646 4 103780351.72704     -3034.922 4        28.749    25344214.551 5 103780360.73605     -3034.784 5        34.576
E07        38.000    26171478.404 6 137532064.73406     -2932.729 6        41.223                                                                    26171478.547 7 102702553.70707     -2189.986 7        44.935    26171478.222 7 105381743.15007     -2247.163 7        45.728
