     3.04           OBSERVATION DATA    M                   RINEX VERSION / TYPE
ssrcrin-15.6.1x                         20250102 041500 UTC PGM / RUN BY / DATE 
(00000000023479385599111004) Septentrio proprietary         COMMENT             
rref                                                        MARKER NAME         
01                                                          MARKER NUMBER       
geodetic                                                    MARKER TYPE         
NFB                 CLIMERS@TUW                             OBSERVER / AGENCY   
3297213             SEPT ASTERX SB3 PROB4.14.4              REC # / TYPE / VERS 
Unknown             Unknown                                 ANT # / TYPE        
  4127831.7886  1207193.1728  4695247.5158                  APPROX POSITION XYZ 
        0.0000        0.0000        0.0000                  ANTENNA: DELTA H/E/N
G   23 X1  C1C L1C D1C S1C C1W S1W C2W L2W D2W S2W C2L L2L  SYS / # / OBS TYPES 
       D2L S2L C5Q L5Q D5Q S5Q C1L L1L D1L S1L              SYS / # / OBS TYPES 
E   21 X1  C1C L1C D1C S1C C6C L6C D6C S6C C5Q L5Q D5Q S5Q  SYS / # / OBS TYPES 
       C7Q L7Q D7Q S7Q C8Q L8Q D8Q S8Q                      SYS / # / OBS TYPES 
S    9 X1  C1C L1C D1C S1C C5I L5I D5I S5I                  SYS / # / OBS TYPES 
R   17 X1  C1C L1C D1C S1C C2P L2P D2P S2P C2C L2C D2C S2C  SYS / # / OBS TYPES 
       C3Q L3Q D3Q S3Q                                      SYS / # / OBS TYPES 
C   25 X1  C1P L1P D1P S1P C5P L5P D5P S5P C2I L2I D2I S2I  SYS / # / OBS TYPES 
       C7I L7I D7I S7I C6I L6I D6I S6I C7D L7D D7D S7D      SYS / # / OBS TYPES 
J   17 X1  C1C L1C D1C S1C C2L L2L D2L S2L C5Q L5Q D5Q S5Q  SYS / # / OBS TYPES 
       C1L L1L D1L S1L                                      SYS / # / OBS TYPES 
I    5 X1  C5A L5A D5A S5A                                  SYS / # / OBS TYPES 
SEPTENTRIO RECEIVERS OUTPUT ALIGNED CARRIER PHASES.         COMMENT             
NO FURTHER PHASE SHIFT APPLIED IN THE RINEX ENCODER.        COMMENT             
G L1C                                                       SYS / PHASE SHIFT   
G L2W                                                       SYS / PHASE SHIFT   
G L2L  0.00000                                              SYS / PHASE SHIFT   
G L5Q  0.00000                                              SYS / PHASE SHIFT   
G L1L  0.00000                                              SYS / PHASE SHIFT   
E L1C  0.00000                                              SYS / PHASE SHIFT   
E L6C  0.00000                                              SYS / PHASE SHIFT   
E L5Q  0.00000                                              SYS / PHASE SHIFT   
E L7Q  0.00000                                              SYS / PHASE SHIFT   
E L8Q  0.00000                                              SYS / PHASE SHIFT   
S L1C                                                       SYS / PHASE SHIFT   
S L5I                                                       SYS / PHASE SHIFT   
R L1C                                                       SYS / PHASE SHIFT   
R L2P  0.00000                                              SYS / PHASE SHIFT   
R L2C                                                       SYS / PHASE SHIFT   
R L3Q  0.00000                                              SYS / PHASE SHIFT   
C L1P  0.00000                                              SYS / PHASE SHIFT   
C L5P  0.00000                                              SYS / PHASE SHIFT   
C L2I                                                       SYS / PHASE SHIFT   
C L7I                                                       SYS / PHASE SHIFT   
C L6I                                                       SYS / PHASE SHIFT   
C L7D                                                       SYS / PHASE SHIFT   
J L1C                                                       SYS / PHASE SHIFT   
J L2L  0.00000                                              SYS / PHASE SHIFT   
J L5Q  0.00000                                              SYS / PHASE SHIFT   
J L1L  0.00000                                              SYS / PHASE SHIFT   
I L5A                                                       SYS / PHASE SHIFT   
  2025     1     2     4    15    0.0000000     GPS         TIME OF FIRST OBS   
 C1C    0.000 C2C    0.000 C2P    0.000                     GLONASS COD/PHS/BIS 
DBHZ                                                        SIGNAL STRENGTH UNIT
    18                                                      LEAP SECONDS        
 24 R01  1 R02 -4 R03  5 R04  6 R05  1 R06 -4 R07  5 R08  6 GLONASS SLOT / FRQ #
    R09 -2 R10 -7 R11  0 R12 -1 R13 -2 R14 -7 R15  0 R16 -1 GLONASS SLOT / FRQ #
    R17  4 R18 -3 R19  3 R20  2 R21  4 R22 -3 R23  3 R24  2 GLONASS SLOT / FRQ #
                                                            END OF HEADER       
> 2025 01 02 04 15  0.0000000  0 55
G09         1.000    20063045.051 8 105432048.26508     -1000.110 8        50.757                                    20063042.095 8  82154849.10208      -779.305 8        53.615    20063042.214 7  82154849.10807      -779.266 7        46.338
G06         2.000    21411237.943 8 112516837.83208     -1655.783 8        48.037                                    21411236.274 8  87675463.47308     -1290.218 8        49.001    21411237.292 7  87675471.46407     -1290.133 7        45.588
E11         3.000    24718231.989 7 129895206.00307       242.351 7        43.369                                                                    24718226.809 7  96999658.59007       180.963 7        44.245    24718226.862 7  99530080.50207       185.688 7        45.305
G16         4.000    23749392.012 6 124803910.57906       719.076 6        39.474                                    23749386.983 3  97249783.79203       560.311 3        21.952
S21         5.000    38475691.860 7 202190811.47807      -477.145 7        42.385
E10         6.000    24316328.895 8 127783182.86208     -1395.394 8        48.056                                                                    24316327.267 8  95422504.23408     -1042.062 8        50.326    24316327.261 8  97911786.32608     -1069.223 8        51.236
G20         7.000    23671742.866 6 124395856.59606      2841.256 6        40.801                                    23671738.185 3  96931816.76403      2213.969 3        23.962
G03         8.000    23527021.437 6 123635421.30706     -3836.993 6        40.915                                    23527019.418 6  96339328.79106     -2989.865 6        36.030    23527019.832 6  96339326.77606     -2989.701 6        38.778
R10         9.000    21228155.077 7 113158011.54507      2475.812 7        44.150
R17        10.000    24152466.603 6 129244726.09506      3147.403 6        41.132                                                                    24152466.023 6 100523667.68906      2448.007 6        39.171
G30        11.000    24171345.152 6 127021282.63106      3105.173 6        41.392                                    24171343.097 5  98977613.96805      2419.614 5        35.910    24171343.953 6  98977621.97106      2419.656 6        37.970
S27        12.000    39106435.910 5 205505758.62005      -485.064 5        35.486
G26        13.000    24387398.876 6 128156652.22706     -1663.163 6        38.111                                    24387397.467 5  99862333.57705     -1295.976 5        30.083    24387397.430 5  99862333.57305     -1296.009 5        35.871
S36        14.000    38243330.969 7 200970563.10007      -477.630 7        44.840
I09        15.000    37876998.039 7 148637474.24207      -734.605 7        42.980
E09        16.000    28982130.856 5 152302134.78605      2089.624 5        35.100                                                                    28982131.418 6 113732109.01006      1560.406 6        37.524    28982130.313 6 116699030.25306      1601.118 6        37.667
S45        17.000    63431064.276 6 333333405.27606      -517.994 6        37.115
E36        18.000    28113078.166 6 147735213.58706      2262.490 6        38.303                                                                    28113079.476 6 110321768.26506      1689.351 6        41.476    28113078.732 7 113199725.96107      1733.581 7        42.152
E12        19.000    25015450.484 7 131457088.21207     -2653.333 7        44.464                                                                    25015446.531 7  98165996.16407     -1981.374 7        45.682    25015446.737 7 100726847.68307     -2033.068 7        46.876
E21        20.000    27544313.238 6 144746338.42506      2010.744 6        38.559                                                                    27544313.285 7 108089812.45907      1501.545 7        42.341    27544313.053 7 110909543.12607      1540.832 7        43.164
G11        21.000    22455293.636 7 118003383.71607       981.678 7        45.216                                    22455289.396 5  91950671.34905       764.942 5        33.539    22455289.680 7  91950684.35307       764.865 7        44.138
I06        22.000    38016725.831 7 149186040.99707      -321.199 7        43.435
S28        23.000    40905194.821 5 214958262.59005      -475.600 5        34.790
R08        24.000    19585333.396 8 104878611.62308      -288.658 8        50.548                                                                    19585330.628 7  81572258.33007      -224.431 7        47.314
S23        25.000    38184117.243 7 200658886.90707      -473.434 7        44.596
R01        26.000    22247310.938 7 118924633.30407      2531.032 7        44.117                                                                    22247311.808 6  92496929.54606      1968.811 6        37.433
R16        27.000    24004981.058 6 128230312.48506     -4055.830 6        40.184                                                                    24004981.136 6  99734688.73606     -3154.646 6        39.679
R24        29.000    21337475.894 7 114101085.53907        45.595 7        47.680                                                                    21337474.566 7  88745277.50507        35.415 7        44.751
E19        30.000    23268211.225 7 122275308.68707     -1491.578 7        43.625                                                                    23268208.170 7  91309486.64307     -1113.814 7        45.595    23268208.467 7  93691469.96207     -1142.927 7        47.384
C23        31.000                                                                                                                                    25043659.007 7 130408916.09107     -2138.541 7        43.272                                                                    25043650.131 7 105967894.47507     -1737.906 7        44.387
R23        32.000    21668486.294 7 115911803.50107     -4065.344 7        46.001
E29        33.000    26684448.888 6 140227807.17506     -2904.498 6        40.462                                                                    26684447.067 7 104715584.79207     -2168.914 7        44.033    26684446.867 7 107447290.24907     -2225.517 7        45.059
E04        34.000    24558939.478 7 129058134.83907      1165.304 7        46.466                                                                    24558937.241 8  96374592.77608       870.185 8        49.595    24558936.857 8  98888708.04608       892.878 8        50.165
C16        35.000                                                                                                                                    39769458.588 6 207090040.59206     -1456.133 6        40.110    39769458.233 6 160135168.40806     -1126.017 6        41.740    39769455.662 6 168277622.01706     -1183.380 6        37.123
C32        36.000                                                                                                                                    24951788.628 7 129930564.55107     -3014.876 7        44.305                                                                    24951788.828 7 105579247.13007     -2449.850 7        44.853
I01        37.000   382852630.331 7 199255145.14807     -2844.144 7        42.508
E27        38.000    27392067.782 6 143946289.85106        44.702 6        39.850                                                                    27392066.370 6 107492370.92606        33.273 6        41.194    27392066.695 7 110296516.00207        34.153 7        43.299
C19        39.000                                                                                                                                    23430837.619 7 122010525.62707      1567.975 7        47.573                                                                    23430832.570 8  99143524.44908      1274.023 8        48.502
C39        40.000                                                                                                                                    40606198.723 6 211447162.98206     -1664.247 6        38.225                                                                    40606195.328 6 171818135.36706     -1352.398 6        38.520
E33        41.000                                                                                                                                    28215157.059 4 110722431.19404     -2841.690 4        29.355    28215157.637 5 113610838.71705     -2916.220 5        30.015
S44        42.000    40799529.875 6 214403175.80506      -548.997 6        37.871
C05        44.000                                                                                                                                    39213583.135 6 204195460.72006      -520.038 6        39.069    39213577.306 7 157896909.40507      -402.131 7        43.733    39213578.960 6 165925643.27406      -422.648 6        40.012
C29        45.000                                                                                                                                    25460126.577 7 132577574.26307     -3440.835 7        42.792                                                                    25460123.841 6 107730135.96906     -2796.282 6        41.816
G04        46.000    21246479.121 7 111651037.67007     -2587.891 7        45.762                                    21246475.495 5  87000795.18005     -2016.537 5        35.690    21246475.374 7  87000797.17807     -2016.578 7        45.407
C20        49.000                                                                                                                                    21926041.802 8 114174681.70308      -792.238 8        52.336                                                                    21926035.790 8  92776265.89308      -643.865 8        49.837
C06        50.000                                                                                                                                    39196126.751 6 204104548.48006     -1439.725 6        38.955    39196120.178 7 157826567.74607     -1113.172 7        42.931    39196120.086 6 165851645.75206     -1169.847 6        39.613
S48        51.000    77214662.360 6 405764422.63306      -463.110 6        37.565
E06        52.000    26548414.388 6 139512884.73106      1876.944 6        41.962                                                                    26548413.856 7 104181711.20307      1401.626 7        43.391    26548413.756 7 106899492.83107      1438.152 7        44.766
C09        53.000                                                                                                                                    38802134.681 6 202052922.02906     -1048.198 6        41.578    38802131.145 7 156240127.35607      -810.614 7        46.485    38802129.343 6 164184530.05306      -851.891 6        41.740
C60        54.000                                                                                                                                    40799531.107 6 212454075.53506      -543.957 6        40.670                                                                    40799514.966 6 172636310.45506      -442.121 6        39.510
R09        55.000    21040806.973 8 112356762.67308      -902.107 8        48.424                                                                    21040805.388 7  87388588.20107      -701.603 7        46.389
G07        56.000    21774822.896 8 114427484.18508      1724.708 8        48.243                                    21774817.640 7  89164256.71807      1343.931 7        46.215    21774818.245 7  89164265.72807      1343.831 7        42.851
C02        57.000                                                                                                                                    40750263.914 5 212197372.23805      -554.973 5        34.810    40750255.648 6 164084464.63706      -428.992 6        39.535    40750259.950 6 172427751.81006      -451.027 6        36.594
I03        58.000   100404865.018 6 318225026.16106       853.938 6        41.077
R07        59.000    21287468.415 8 113953552.14708     -3028.284 8        48.423                                                                    21287467.466 7  88630594.03307     -2355.311 7        44.420
> 2025 01 02 04 15  5.0000000  0 56
G09         1.000    20063997.443 8 105437053.87108     -1002.359 8        50.661                                    20063994.627 8  82158749.57308      -781.059 8        53.630    20063994.756 7  82158749.57707      -781.054 7        46.613
G06         2.000    21412815.143 7 112525124.91607     -1659.211 7        47.859                                    21412813.254 8  87681920.94208     -1292.891 8        49.026    21412814.162 7  87681928.94207     -1292.950 7        45.499
E11         3.000    24718002.847 7 129894000.93407       239.622 7        43.122                                                                    24717997.519 7  96998758.69407       179.038 7        44.409    24717997.593 7  99529157.13707       183.597 7        45.336
G16         4.000    23748709.181 6 124800323.28006       715.740 6        39.880                                    23748704.412 3  97246988.49103       557.732 3        22.038
S21         5.000    38476147.639 7 202193197.74907      -477.451 7        42.688
E10         6.000    24317657.742 7 127790166.24607     -1398.107 7        47.959                                                                    24317656.175 8  95427719.09408     -1044.015 8        50.415    24317656.152 8  97917137.22808     -1071.275 8        51.316
G20         7.000    23669039.884 6 124381652.10006      2840.261 6        41.170                                    23669035.170 4  96920748.33104      2213.195 4        24.045
G03         8.000    23530672.660 6 123654608.88206     -3838.189 6        40.794                                    23530670.699 6  96354280.14806     -2990.795 6        36.132    23530671.166 6  96354278.15206     -2990.894 6        38.420
R10         9.000    21225835.064 7 113145640.86407      2472.232 7        44.664
R17        10.000    24149527.714 6 129228995.00506      3144.894 6        41.576                                                                    24149525.573 6 100511432.40006      2445.955 6        39.072
G30        11.000    24168390.568 6 127005758.09006      3104.374 6        40.787                                    24168389.032 5  98965516.92705      2418.992 5        35.881    24168389.639 6  98965524.93806      2418.957 6        37.732
S27        12.000    39106900.337 5 205508184.10605      -485.153 5        35.514
G26        13.000    24388982.387 6 128164975.89606     -1666.447 6        38.201                                    24388981.459 4  99868819.55804     -1298.521 4        29.991    24388982.320 5  99868819.57005     -1298.392 5        35.486
S36        14.000    38243782.948 7 200972951.51707      -477.812 7        44.826
I09        15.000    37877934.094 7 148641147.35407      -734.886 7        42.828
E09        16.000    28980143.058 5 152291687.36505      2089.381 5        35.238                                                                    28980143.229 6 113724307.37206      1560.140 6        36.964    28980142.118 6 116691025.08206      1600.674 6        37.599
S45        17.000    63431515.892 6 333335995.42406      -518.379 6        37.233
E36        18.000    28110925.974 6 147723904.08806      2261.222 6        37.595                                                                    28110927.273 6 110313322.86306      1688.611 6        41.623    28110926.403 6 113191060.25306      1732.502 6        41.950
E12        19.000    25017976.073 7 131470359.89507     -2655.443 7        44.322                                                                    25017972.028 7  98175906.83007     -1982.914 7        45.756    25017972.334 7 100737016.89207     -2034.681 7        46.984
E21        20.000    27542401.193 6 144736286.91906      2009.686 6        38.655                                                                    27542400.431 7 108082306.47307      1500.799 7        42.464    27542400.274 7 110901841.34307      1539.824 7        43.249
G11        21.000    22454360.840 7 117998483.25407       978.322 7        45.762                                    22454356.835 5  91946852.81105       762.330 5        33.479    22454357.160 7  91946865.80407       762.376 7        44.158
I06        22.000    38017135.505 7 149187647.14707      -321.357 7        43.336
S28        23.000    40905639.921 5 214960639.95805      -476.054 5        34.581
R08        24.000    19585604.080 8 104880060.30108      -290.859 8        50.849                                                                    19585600.893 7  81573385.08507      -226.248 7        47.044
S23        25.000    38184568.313 7 200661254.11107      -473.620 7        44.752
R01        26.000    22244943.763 7 118911979.61407      2530.186 7        44.184                                                                    22244943.552 6  92487087.81706      1967.803 6        37.414
R16        27.000    24008778.202 6 128250597.46506     -4058.325 6        40.377                                                                    24008777.720 6  99750465.94706     -3156.561 6        39.802
R24        29.000    21337435.997 8 114100869.31208        40.689 8        48.174                                                                    21337434.053 7  88745109.33407        31.574 7        45.147
E19        30.000    23269630.969 7 122282769.72907     -1492.976 7        43.323                                                                    23269628.058 7  91315058.20407     -1114.838 7        45.658    23269628.246 7  93697186.86507     -1143.963 7        47.454
C23        31.000                                                                                                                                    25045713.612 7 130419615.01807     -2141.179 7        43.327                                                                    25045704.835 7 105976588.25707     -1740.005 7        44.286
R23        32.000    21672287.626 7 115932136.84107     -4068.124 7        46.231
E29        33.000    26687212.824 6 140242330.10606     -2904.906 6        40.584                                                                    26687210.532 7 104726429.83507     -2169.140 7        44.126    26687210.337 7 107458418.21107     -2225.760 7        45.064
E04        34.000    24557831.352 7 129052311.25307      1163.997 7        46.540                                                                    24557829.031 8  96370243.99208       869.248 8        49.744    24557828.676 8  98884245.82008       891.836 8        50.181
C16        35.000                                                                                                                                    39770857.206 6 207097322.17506     -1456.546 6        39.835    39770856.787 6 160140799.00006     -1126.328 6        41.781    39770854.044 6 168283538.92406     -1183.618 6        37.077
C32        36.000                                                                                                                                    24954683.774 7 129945640.38607     -3015.570 7        44.521                                                                    24954683.834 7 105591497.51507     -2450.576 7        44.897
I01        37.000   382856254.396 7 199269366.45907     -2844.518 7        42.633
E27        38.000    27392026.490 6 143946072.35806        42.064 6        40.105                                                                    27392025.073 6 107492208.51206        31.538 6        41.247    27392025.325 7 110296349.35507        32.373 7        43.365
C19        39.000                                                                                                                                    23429332.380 7 122002687.90207      1566.870 7        47.397                                                                    23429327.446 8  99137155.68108      1273.069 8        48.459
C39        40.000                                                                                                                                    40607796.878 6 211455484.64406     -1664.479 6        38.408                                                                    40607793.349 6 171824897.43006     -1352.666 6        38.565
E33        41.000                                                                                                                                    28218777.867 4 110736639.94504     -2842.371 4        29.346    28218778.741 4 113625418.11604     -2915.853 4        29.365
S44        42.000    40800052.612 6 214405920.98906      -549.246 6        38.048
C05        44.000                                                                                                                                    39214082.302 6 204198060.94306      -520.194 6        38.841    39214076.826 7 157898920.06207      -402.148 7        43.627    39214078.284 6 165927756.20006      -422.985 6        39.979
C29        45.000                                                                                                                                    25463430.401 7 132594780.31607     -3441.680 7        42.368                                                                    25463428.136 6 107744117.31006     -2796.771 6        41.759
G04        46.000    21248942.199 7 111663980.93007     -2589.525 7        45.941                                    21248938.532 5  87010880.83405     -2017.811 5        35.733    21248938.449 7  87010882.83407     -2017.816 7        45.386
R22        48.000                                                                                                                                    24524528.773 3                     -3859.933 3        20.667
C20        49.000                                                                                                                                    21926803.128 8 114178646.45008      -793.887 8        52.197                                                                    21926797.078 8  92779487.59808      -645.253 8        49.813
C06        50.000                                                                                                                                    39197508.990 6 204111747.34706     -1440.100 6        38.553    39197502.803 7 157832134.38107     -1113.614 7        42.990    39197502.468 6 165857495.47606     -1170.449 6        39.544
S48        51.000    77215108.592 6 405766738.10906      -463.383 6        37.743
E06        52.000    26546628.671 6 139503501.76106      1876.108 6        41.731                                                                    26546628.220 7 104174704.44007      1401.016 7        43.460    26546628.371 7 106892303.29307      1437.522 7        44.718
C09        53.000                                                                                                                                    38803141.493 6 202058164.49806     -1048.911 6        41.318    38803137.770 7 156244181.16607      -811.096 7        46.416    38803136.140 6 164188790.01406      -852.415 6        41.671
C60        54.000                                                                                                                                    40800053.357 6 212456795.77506      -544.304 6        40.548                                                                    40800037.296 6 172638520.88506      -442.351 6        39.592
R09        55.000    21041654.108 8 112361284.55708      -906.842 8        48.558                                                                    21041652.324 7  87392105.22307      -705.319 7        46.608
G07        56.000    21773182.759 8 114418866.11908      1722.361 8        48.238                                    21773177.691 7  89157541.34207      1342.099 7        46.241    21773178.023 7  89157550.33907      1342.094 7        42.764
C02        57.000                                                                                                                                    40750796.359 5 212200146.98305      -555.005 5        34.705    40750788.630 6 164086610.26006      -429.385 6        39.420    40750792.815 6 172430006.55306      -451.369 6        36.488
I03        58.000   100403776.798 6 318220756.46506       853.886 6        41.180
R07        59.000    21290297.933 8 113968696.26608     -3029.663 8        48.717                                                                    21290296.274 7  88642372.78407     -2356.437 7        44.409
> 2025 01 02 04 15 10.0000000  0 56
G09         1.000    20064952.045 8 105442070.13708     -1004.167 8        50.516                                    20064949.180 8  82162658.35208      -782.466 8        53.493    20064949.439 7  82162658.35507      -782.474 7        46.540
G06         2.000    21414395.148 8 112533428.49408     -1662.270 8        48.126                                    21414393.369 8  87688391.26108     -1295.278 8        48.908    21414394.038 7  87688399.26307     -1295.302 7        45.427
E11         3.000    24717775.666 7 129892808.23407       237.381 7        43.289                                                                    24717770.569 7  96997868.04707       177.340 7        44.330    24717770.597 7  99528243.24907       181.878 7        45.395
G16         4.000    23748030.055 6 124796751.85206       712.880 6        39.625                                    23748024.860 3  97244205.56203       555.495 3        22.152
S21         5.000    38476601.164 7 202195584.49307      -477.312 7        42.512
E10         6.000    24318989.045 7 127797162.13207     -1400.312 7        47.896                                                                    24318987.450 8  95432943.29608     -1045.706 8        50.383    24318987.412 8  97922497.71708     -1073.016 8        51.426
G20         7.000    23666338.079 6 124367451.08906      2840.030 6        40.951                                    23666333.071 3  96909682.61103      2213.006 3        23.924
G03         8.000    23534324.893 6 123673801.45306     -3838.869 6        40.851                                    23534322.915 6  96369235.39006     -2991.326 6        36.011    23534323.672 6  96369233.37906     -2991.335 6        38.622
R10         9.000    21223517.480 7 113133286.93607      2469.207 7        44.746
R17        10.000    24146590.091 6 129213275.32906      3142.891 6        40.915                                                                    24146588.934 6 100499205.97406      2444.512 6        38.847
G30        11.000    24165437.193 6 126990236.94106      3103.891 6        40.420                                    24165435.520 5  98953422.53105      2418.612 5        35.595    24165435.943 6  98953430.51806      2418.792 6        37.221
S27        12.000    39107361.875 5 205510610.17905      -485.090 5        35.333
G26        13.000    24390569.770 6 128173315.16406     -1669.042 6        37.558                                    24390568.455 4  99875317.69404     -1300.555 4        29.602    24390568.422 5  99875317.72105     -1300.920 5        35.962
S36        14.000    38244237.689 7 200975340.09807      -477.822 7        44.971
I09        15.000    37878870.375 7 148644821.25307      -734.821 7        42.809
E09        16.000    28978155.644 5 152281241.46105      2088.929 5        34.824                                                                    28978155.307 6 113716506.86806      1559.834 6        36.922    28978154.619 6 116683021.07206      1600.649 6        38.057
S45        17.000    63431968.541 6 333338585.86606      -517.921 6        37.293
E36        18.000    28108774.903 6 147712600.05206      2260.499 6        37.826                                                                    28108775.991 6 110304881.54806      1687.932 6        41.402    28108775.338 7 113182398.72007      1731.993 7        42.085
E12        19.000    25020503.111 7 131483641.18407     -2657.093 7        44.251                                                                    25020499.345 7  98185824.67707     -1984.170 7        45.655    25020499.586 7 100747193.46307     -2036.028 7        47.076
E21        20.000    27540489.414 6 144726240.53406      2008.938 6        38.324                                                                    27540488.506 7 108074804.31507      1500.124 7        42.286    27540488.484 7 110894143.46807      1539.191 7        43.261
G11        21.000    22453431.513 7 117993598.51107       975.481 7        45.395                                    22453427.220 5  91943046.51605       760.111 5        33.323    22453427.257 7  91943059.52507       760.048 7        43.553
I06        22.000    38017544.815 7 149189253.70607      -321.247 7        43.316
S28        23.000    40906102.488 5 214963017.05405      -475.440 5        34.486
R08        24.000    19585876.395 8 104881519.00708      -292.684 8        50.931                                                                    19585873.329 7  81574519.63507      -227.580 7        47.521
S23        25.000    38185019.142 7 200663621.63207      -473.482 7        44.716
R01        26.000    22242577.304 7 118899329.55907      2529.729 7        43.543                                                                    22242576.880 6  92477248.89306      1967.533 6        37.138
R16        27.000    24012577.516 6 128270894.32906     -4060.548 6        40.303                                                                    24012577.916 6  99766252.39906     -3157.952 6        38.955
R24        29.000    21337400.459 8 114100676.28208        36.368 8        48.541                                                                    21337398.414 7  88744959.18607        28.223 7        44.900
E19        30.000    23271051.591 7 122290236.52807     -1493.745 7        43.348                                                                    23271048.921 7  91320634.06607     -1115.599 7        45.600    23271049.118 7  93702908.17807     -1144.643 7        47.490
C23        31.000                                                                                                                                    25047770.771 7 130430326.21007     -2143.318 7        43.456                                                                    25047761.747 7 105985291.94307     -1741.607 7        44.244
R23        32.000    21676089.984 7 115952483.43507     -4070.545 7        45.922
E29        33.000    26689976.629 6 140256854.41206     -2904.969 6        40.815                                                                    26689974.404 7 104737275.91607     -2169.257 7        43.867    26689974.127 7 107469547.22707     -2225.848 7        44.936
E04        34.000    24556724.299 7 129046493.15307      1163.245 7        46.501                                                                    24556721.908 8  96365899.31408       868.595 8        49.620    24556721.527 8  98879787.79608       891.320 8        50.255
C16        35.000                                                                                                                                    39772255.953 6 207104605.06506     -1456.526 6        39.781    39772255.327 6 160146430.57606     -1126.336 6        41.573    39772252.563 6 168289456.81906     -1183.619 6        36.994
C32        36.000                                                                                                                                    24957579.966 7 129960719.74307     -3016.075 7        44.643                                                                    24957579.489 7 105603750.70607     -2450.835 7        44.871
I01        37.000   382859878.518 7 199283588.60107     -2844.432 7        42.468
E27        38.000    27391987.294 6 143945866.88806        40.064 6        40.241                                                                    27391986.000 6 107492055.08206        29.885 6        41.108    27391986.194 7 110296191.91907        30.614 7        43.409
C19        39.000                                                                                                                                    23427828.168 7 121994854.80607      1566.287 7        47.411                                                                    23427823.201 8  99130790.62308      1272.698 8        48.425
C39        40.000                                                                                                                                    40609395.469 6 211463806.89306     -1664.476 6        38.324                                                                    40609391.519 6 171831659.89906     -1352.602 6        38.793
E33        41.000                                                                                                                                    28222399.028 4 110750848.65404     -2841.599 4        28.938    28222398.682 4 113639997.44604     -2915.389 4        29.659
S44        42.000    40800576.368 6 214408666.40906      -548.984 6        38.168
C05        44.000                                                                                                                                    39214581.532 6 204200661.54706      -520.137 6        38.700    39214576.110 7 157900931.01507      -402.264 7        43.623    39214577.580 6 165929869.36206      -422.591 6        40.029
C29        45.000                                                                                                                                    25466735.227 7 132611989.47707     -3441.972 7        42.514                                                                    25466732.849 6 107758101.12406     -2796.914 6        41.833
G04        46.000    21251406.798 7 111676931.41207     -2590.682 7        46.314                                    21251402.942 5  87020972.12105     -2018.719 5        35.638    21251402.905 7  87020974.12707     -2018.820 7        44.995
R22        48.000                                                                                                                                    24529180.321 3                     -3859.613 3        21.262
C20        49.000                                                                                                                                    21927566.068 8 114182618.97308      -795.160 8        52.259                                                                    21927559.996 8  92782715.56808      -646.152 8        49.795
C06        50.000                                                                                                                                    39198891.647 6 204118947.82506     -1440.220 6        38.294    39198885.713 7 157837702.24307     -1113.622 7        42.895    39198885.365 6 165863346.41406     -1170.383 6        39.772
S48        51.000    77215556.546 6 405769053.89406      -463.000 6        37.781
E06        52.000    26544844.134 6 139494122.20106      1875.721 6        41.623                                                                    26544843.328 7 104167700.23307      1400.501 7        43.395    26544843.532 7 106885116.35207      1437.267 7        44.838
C09        53.000                                                                                                                                    38804148.526 6 202063409.22106     -1049.059 6        41.142    38804144.919 7 156248236.71907      -811.258 7        46.338    38804143.313 6 164193051.75606      -852.522 6        41.712
C60        54.000                                                                                                                                    40800575.924 6 212459516.22006      -544.001 6        40.579                                                                    40800559.600 6 172640731.43506      -442.077 6        39.631
R09        55.000    21042504.819 8 112365829.21308      -911.078 8        48.237                                                                    21042503.184 7  87395639.96407      -708.607 7        46.575
G07        56.000    21771544.777 8 114410258.85208      1720.446 8        48.374                                    21771539.820 7  89150834.38407      1340.606 7        46.176    21771540.144 7  89150843.39407      1340.617 7        43.137
C02        57.000                                                                                                                                    40751329.775 5 212202922.04105      -554.791 5        34.681    40751321.831 6 164088756.10906      -429.144 6        39.363    40751325.658 6 172432261.50006      -450.963 6        36.370
I03        58.000   100402688.654 6 318216487.05006       853.942 6        41.261
R07        59.000    21293129.114 8 113983846.56508     -3030.525 8        49.726                                                                    21293126.479 7  88654156.35407     -2357.093 7        44.426
> 2025 01 02 04 15 15.0000000  0 56
G09         1.000    20065908.615 8 105447096.67108     -1006.744 8        50.511                                    20065905.696 8  82166575.13408      -784.478 8        53.611    20065905.819 7  82166575.13307      -784.494 7        46.586
G06         2.000    21415978.221 8 112541748.11608     -1665.923 8        48.175                                    21415976.547 8  87694874.08608     -1298.124 8        48.998    21415977.099 7  87694882.08107     -1298.140 7        45.445
E11         3.000    24717550.994 7 129891627.49507       234.520 7        43.355                                                                    24717545.867 7  96996986.32407       175.138 7        44.250    24717545.850 7  99527338.52507       179.693 7        45.347
G16         4.000    23747353.174 6 124793195.80806       709.227 6        39.937                                    23747348.241 3  97241434.62303       552.654 3        21.738
S21         5.000    38477053.652 7 202197970.90307      -477.555 7        42.518
E10         6.000    24320322.782 7 127804170.11107     -1403.158 7        47.851                                                                    24320320.981 8  95438176.52308     -1047.810 8        50.353    24320320.961 8  97927867.46308     -1075.145 8        51.292
G20         7.000    23663636.196 6 124353253.15506      2838.936 6        40.717                                    23663631.353 3  96898619.29003      2212.158 3        23.981
G03         8.000    23537978.048 6 123692998.59706     -3840.186 6        40.865                                    23537976.020 6  96384194.20206     -2992.353 6        36.227    23537976.424 6  96384192.20906     -2992.421 6        38.826
R10         9.000    21221202.323 7 113120949.31107      2465.598 7        44.438
R17        10.000    24143653.578 6 129197566.72106      3140.282 6        40.257                                                                    24143652.625 6 100486988.20906      2442.364 6        38.381
G30        11.000    24162484.606 6 126974718.74306      3102.984 6        40.117                                    24162482.492 5  98941330.42405      2417.910 5        35.543    24162483.056 6  98941338.41706      2418.130 6        37.255
S27        12.000    39107823.137 5 205513035.66905      -485.305 5        35.381
G26        13.000    24392159.381 6 128181669.62606     -1672.680 6        37.406                                    24392158.301 4  99881827.65904     -1303.402 4        29.659    24392158.592 6  99881827.66506     -1303.466 6        36.397
S36        14.000    38244693.222 7 200977728.42707      -478.112 7        44.847
I09        15.000    37879806.474 7 148648495.60607      -735.250 7        42.997
E09        16.000    28976166.901 5 152270796.62605      2088.568 5        34.343                                                                    28976167.999 6 113708707.16406      1559.395 6        36.673    28976167.120 6 116675017.91606      1600.217 6        37.028
S45        17.000    63432415.695 6 333341176.06106      -518.366 6        36.979
E36        18.000    28106625.374 6 147701301.06206      2259.022 6        38.048                                                                    28106625.663 6 110296443.99606      1686.728 6        41.256    28106625.342 6 113173741.06206      1730.834 6        41.871
E12        19.000    25023032.472 7 131496931.63607     -2659.398 7        44.311                                                                    25023028.461 7  98195749.36207     -1985.871 7        45.565    25023028.542 7 100757377.05807     -2037.687 7        46.941
E21        20.000    27538577.986 6 144716198.86306      2007.321 6        38.565                                                                    27538577.544 7 108067305.65307      1499.152 7        42.157    27538577.576 7 110886449.18607      1538.243 7        43.156
G11        21.000    22452504.820 7 117988729.08307       971.974 7        45.132                                    22452500.606 5  91939252.16205       757.384 5        33.503    22452500.846 7  91939265.15907       757.417 7        43.822
I06        22.000    38017954.077 7 149190860.33007      -321.600 7        43.359
S28        23.000    40906546.458 5 214965394.19805      -475.952 5        34.605
R08        24.000    19586150.480 8 104882987.43408      -295.026 8        50.910                                                                    19586147.708 7  81575661.74107      -229.495 7        47.797
S23        25.000    38185469.341 7 200665988.90207      -473.792 7        44.611
R01        26.000    22240211.535 7 118886682.94607      2528.593 7        43.928                                                                    22240210.837 6  92467412.64006      1966.633 6        37.202
R16        27.000    24016379.683 6 128291202.30706     -4063.016 6        41.325                                                                    24016379.527 6  99782047.51306     -3160.378 6        39.135
R24        29.000    21337368.086 8 114100505.91908        31.460 8        48.580                                                                    21337366.554 7  88744826.68907        24.382 7        45.178
E19        30.000    23272473.615 7 122297708.59107     -1495.279 7        43.448                                                                    23272470.842 7  91326213.85007     -1116.656 7        45.570    23272471.042 7  93708633.52507     -1145.781 7        47.394
C23        31.000                                                                                                                                    25049830.364 7 130441049.23707     -2146.163 7        43.395                                                                    25049821.063 7 105994005.30607     -1743.763 7        44.504
R23        32.000    21679896.530 7 115972842.82607     -4073.542 7        45.878
E29        33.000    26692740.788 6 140271379.65006     -2905.422 6        40.772                                                                    26692738.407 7 104748122.68607     -2169.719 7        43.824    26692738.166 7 107480676.95707     -2226.217 7        44.667
E04        34.000    24555617.890 7 129040680.15507      1161.700 7        46.310                                                                    24555615.713 8  96361558.43808       867.473 8        49.635    24555615.339 8  98875333.68108       890.111 8        50.124
C16        35.000                                                                                                                                    39773654.221 6 207111888.82206     -1457.312 6        39.889    39773653.814 6 160152062.84106     -1126.847 6        41.692    39773651.486 6 168295375.49306     -1183.911 6        37.047
C32        36.000                                                                                                                                    24960476.390 7 129975802.20507     -3017.166 7        44.494                                                                    24960475.751 7 105616006.44907     -2451.448 7        44.933
I01        37.000   382863502.626 7 199297811.26907     -2844.850 7        42.639
E27        38.000    27391950.208 6 143945673.01606        37.224 6        40.279                                                                    27391948.974 6 107491910.31306        27.720 6        41.087    27391949.254 7 110296043.36807        28.625 7        43.412
C19        39.000                                                                                                                                    23426324.919 7 121987025.92207      1565.026 7        47.560                                                                    23426319.747 8  99124429.02708      1271.869 8        48.601
C39        40.000                                                                                                                                    40610993.152 6 211472129.26506     -1664.788 6        38.420                                                                    40610989.706 6 171838422.53506     -1352.548 6        38.640
E33        41.000                                                                                                                                    28226019.694 4 110765057.00204     -2841.873 4        28.645    28226019.669 4 113654576.45704     -2915.959 4        29.194
S44        42.000    40801097.281 6 214411411.63606      -549.469 6        38.144
C05        44.000                                                                                                                                    39215081.008 6 204203262.06606      -520.543 6        38.997    39215075.536 7 157902941.89907      -402.437 7        43.689    39215077.079 6 165931982.51906      -422.678 6        40.181
C29        45.000                                                                                                                                    25470040.944 7 132629201.32707     -3442.975 7        42.876                                                                    25470038.124 6 107772087.18006     -2797.510 6        41.912
G04        46.000    21253872.355 7 111689888.69907     -2592.492 7        45.997                                    21253868.657 5  87031068.70505     -2020.126 5        35.781    21253868.711 7  87031070.70207     -2020.061 7        44.728
R22        48.000                                                                                                                                    24533824.472 3                     -3861.118 3        20.571
C20        49.000                                                                                                                                    21928330.459 8 114186598.85908      -797.082 8        52.354                                                                    21928324.259 8  92785949.56908      -647.546 8        49.927
C06        50.000                                                                                                                                    39200274.505 6 204126149.47406     -1440.728 6        38.342    39200268.452 7 157843271.00907     -1114.036 7        42.931    39200268.317 6 165869198.35206     -1170.471 6        39.829
S48        51.000    77216001.428 6 405771369.50006      -463.780 6        37.781
E06        52.000    26543059.891 6 139484745.61506      1874.536 6        41.197                                                                    26543058.890 7 104160698.21907      1399.994 7        43.448    26543059.104 7 106877931.68407      1436.508 7        44.727
C09        53.000                                                                                                                                    38805156.236 6 202068655.74806     -1049.825 6        41.261    38805152.510 7 156252293.67007      -811.943 7        46.412    38805150.863 6 164197315.01006      -852.962 6        41.921
C60        54.000                                                                                                                                    40801098.348 6 212462236.49206      -544.358 6        40.636                                                                    40801082.185 6 172642941.90106      -442.306 6        39.793
R09        55.000    21043359.487 8 112370396.16508      -916.010 8        48.318                                                                    21043358.897 7  87399192.03507      -712.428 7        46.540
G07        56.000    21769908.911 8 114401661.96408      1717.986 8        48.311                                    21769903.931 7  89144135.51207      1338.689 7        46.302    21769904.125 7  89144144.52207      1338.684 7        42.855
C02        57.000                                                                                                                                    40751862.054 5 212205697.02205      -555.353 5        34.695    40751854.651 6 164090901.89006      -429.436 6        39.498    40751858.828 6 172434516.39506      -451.064 6        36.805
I03        58.000   100401600.763 6 318212217.59206       853.627 6        41.225
R07        59.000    21295959.759 8 113999002.41908     -3032.153 8        49.261                                                                    21295957.816 7  88665944.23807     -2358.343 7        44.318
> 2025 01 02 04 15 20.0000000  0 55
G09         1.000    20066867.040 8 105452133.98408     -1008.504 8        50.477                                    20066864.260 8  82170500.31108      -785.847 8        53.430    20066864.224 7  82170500.31507      -785.843 7        46.337
G06         2.000    21417564.743 7 112550084.32107     -1668.961 7        47.798                                    21417562.887 8  87701369.82708     -1300.487 8        48.841    21417563.385 7  87701377.82807     -1300.519 7        45.242
E11         3.000    24717328.733 7 129890459.26207       232.433 7        43.060                                                                    24717323.573 7  96996113.95207       173.460 7        44.275    24717323.621 7  99526443.39407       178.030 7        45.217
G16         4.000    23746679.333 6 124789655.80706       706.506 6        39.562                                    23746674.577 3  97238676.18703       550.533 3        21.476
S21         5.000    38477507.084 7 202200357.50807      -477.361 7        42.432
E10         6.000    24321658.642 7 127811190.71607     -1405.431 7        47.968                                                                    24321656.956 8  95443419.18008     -1049.508 8        50.281    24321656.946 8  97933246.88108     -1076.904 8        51.222
G20         7.000    23660934.848 6 124339058.83106      2838.472 6        40.846                                    23660930.251 4  96887558.78204      2211.798 4        24.000
G03         8.000    23541631.922 6 123712200.86406     -3840.977 6        40.560                                    23541630.163 6  96399157.00606     -2992.966 6        36.060    23541630.708 6  96399154.98806     -2992.927 6        38.535
R10         9.000    21218890.769 7 113108628.33607      2462.361 7        44.057
R17        10.000    24140720.788 6 129181869.72806      3138.321 6        40.336                                                                    24140719.450 6 100474779.42206      2440.886 6        38.168
G30        11.000    24159531.964 6 126959204.02506      3102.635 6        40.336                                    24159530.139 5  98929241.03605      2417.634 5        35.348    24159530.721 6  98929249.03906      2417.590 6        37.493
S27        12.000    39108284.621 5 205515461.88005      -485.398 5        35.419
G26        13.000    24393752.388 6 128190039.75706     -1675.568 6        37.176                                    24393751.043 4  99888349.84304     -1305.632 4        29.393    24393751.435 5  99888349.83505     -1305.644 5        35.938
S36        14.000    38245144.865 7 200980117.67807      -477.892 7        44.831
I09        15.000    37880743.128 7 148652170.84407      -735.064 7        42.991
E09        16.000    28974179.227 5 152260353.39405      2088.590 5        33.838                                                                    28974180.746 6 113700908.63906      1559.647 6        37.070    28974180.094 6 116667015.96806      1600.217 6        38.072
S45        17.000    63432865.598 6 333342166.62116      -518.356 6        37.301
E36        18.000    28104476.338 6 147690007.68406      2258.010 6        37.879                                                                    28104476.638 6 110288010.63106      1686.265 6        41.192    28104476.369 6 113165087.69606      1730.168 6        41.964
E12        19.000    25025563.240 7 131510231.75007     -2661.012 7        43.788                                                                    25025559.417 7  98205681.27007     -1987.093 7        45.591    25025559.574 7 100767568.05107     -2038.964 7        46.855
E21        20.000    27536668.212 6 144706162.39106      2006.892 6        38.772                                                                    27536667.628 6 108059810.91206      1498.477 6        41.869    27536667.682 7 110878758.92407      1537.661 7        43.088
G11        21.000    22451580.800 7 117983875.51407       969.132 7        45.372                                    22451576.988 5  91935470.16205       755.169 5        33.299    22451577.330 7  91935483.15307       755.143 7        43.581
I06        22.000    38018363.805 7 149192467.44207      -321.599 7        43.537
S28        23.000    40907003.274 5 214967771.92005      -475.529 5        34.843
R08        24.000    19586426.651 8 104884466.09208      -296.752 8        51.003                                                                    19586423.778 7  81576811.81207      -230.817 7        47.782
S23        25.000    38185918.658 7 200668356.63907      -473.676 7        44.563
R01        26.000    22237846.860 7 118874040.22507      2528.096 7        44.394                                                                    22237846.591 6  92457579.41206      1966.223 6        36.639
R16        27.000    24020184.434 6 128311522.08206     -4065.205 6        41.611                                                                    24020183.794 6  99797851.76106     -3161.766 6        40.145
R24        29.000    21337339.901 8 114100358.86008        27.132 8        48.351                                                                    21337338.733 7  88744712.30607        21.086 7        44.600
