     3.04           OBSERVATION DATA    M                   RINEX VERSION / TYPE
ssrcrin-15.6.1x                         20250102 214500 UTC PGM / RUN BY / DATE 
(00000000023479385599111004) Septentrio proprietary         COMMENT             
rref                                                        MARKER NAME         
01                                                          MARKER NUMBER       
geodetic                                                    MARKER TYPE         
NFB                 CLIMERS@TUW                             OBSERVER / AGENCY   
3297213             SEPT ASTERX SB3 PROB4.14.4              REC # / TYPE / VERS 
Unknown             Unknown                                 ANT # / TYPE        
  4127831.8082  1207193.2273  4695247.4678                  APPROX POSITION XYZ 
        0.0000        0.0000        0.0000                  ANTENNA: DELTA H/E/N
G   23 X1  C1C L1C D1C S1C C1W S1W C2W L2W D2W S2W C2L L2L  SYS / # / OBS TYPES 
       D2L S2L C5Q L5Q D5Q S5Q C1L L1L D1L S1L              SYS / # / OBS TYPES 
E   21 X1  C1C L1C D1C S1C C6C L6C D6C S6C C5Q L5Q D5Q S5Q  SYS / # / OBS TYPES 
       C7Q L7Q D7Q S7Q C8Q L8Q D8Q S8Q                      SYS / # / OBS TYPES 
S    9 X1  C1C L1C D1C S1C C5I L5I D5I S5I                  SYS / # / OBS TYPES 
R   17 X1  C1C L1C D1C S1C C2P L2P D2P S2P C2C L2C D2C S2C  SYS / # / OBS TYPES 
       C3Q L3Q D3Q S3Q                                      SYS / # / OBS TYPES 
C   25 X1  C1P L1P D1P S1P C5P L5P D5P S5P C2I L2I D2I S2I  SYS / # / OBS TYPES 
       C7I L7I D7I S7I C6I L6I D6I S6I C7D L7D D7D S7D      SYS / # / OBS TYPES 
J   17 X1  C1C L1C D1C S1C C2L L2L D2L S2L C5Q L5Q D5Q S5Q  SYS / # / OBS TYPES 
       C1L L1L D1L S1L                                      SYS / # / OBS TYPES 
I    5 X1  C5A L5A D5A S5A                                  SYS / # / OBS TYPES 
SEPTENTRIO RECEIVERS OUTPUT ALIGNED CARRIER PHASES.         COMMENT             
NO FURTHER PHASE SHIFT APPLIED IN THE RINEX ENCODER.        COMMENT             
G L1C                                                       SYS / PHASE SHIFT   
G L2W                                                       SYS / PHASE SHIFT   
G L2L  0.00000                                              SYS / PHASE SHIFT   
G L5Q  0.00000                                              SYS / PHASE SHIFT   
G L1L  0.00000                                              SYS / PHASE SHIFT   
E L1C  0.00000                                              SYS / PHASE SHIFT   
E L6C  0.00000                                              SYS / PHASE SHIFT   
E L5Q  0.00000                                              SYS / PHASE SHIFT   
E L7Q  0.00000                                              SYS / PHASE SHIFT   
E L8Q  0.00000                                              SYS / PHASE SHIFT   
S L1C                                                       SYS / PHASE SHIFT   
S L5I                                                       SYS / PHASE SHIFT   
R L1C                                                       SYS / PHASE SHIFT   
R L2P  0.00000                                              SYS / PHASE SHIFT   
R L2C                                                       SYS / PHASE SHIFT   
R L3Q  0.00000                                              SYS / PHASE SHIFT   
C L1P  0.00000                                              SYS / PHASE SHIFT   
C L5P  0.00000                                              SYS / PHASE SHIFT   
C L2I                                                       SYS / PHASE SHIFT   
C L7I                                                       SYS / PHASE SHIFT   
C L6I                                                       SYS / PHASE SHIFT   
C L7D                                                       SYS / PHASE SHIFT   
J L1C                                                       SYS / PHASE SHIFT   
J L2L  0.00000                                              SYS / PHASE SHIFT   
J L5Q  0.00000                                              SYS / PHASE SHIFT   
J L1L  0.00000                                              SYS / PHASE SHIFT   
I L5A                                                       SYS / PHASE SHIFT   
  2025     1     2    21    45    0.0000000     GPS         TIME OF FIRST OBS   
 C1C    0.000 C2C    0.000 C2P    0.000                     GLONASS COD/PHS/BIS 
DBHZ                                                        SIGNAL STRENGTH UNIT
    18                                                      LEAP SECONDS        
 24 R01  1 R02 -4 R03  5 R04  6 R05  1 R06 -4 R07  5 R08  6 GLONASS SLOT / FRQ #
    R09 -2 R10 -7 R11  0 R12 -1 R13 -2 R14 -7 R15  0 R16 -1 GLONASS SLOT / FRQ #
    R17  4 R18 -3 R19  3 R20  2 R21  4 R22 -3 R23  3 R24  2 GLONASS SLOT / FRQ #
                                                            END OF HEADER       
> 2025 01 02 21 45  0.0000000  0 55
G23         1.000    24027369.754 6 126264758.48906     -3737.868 6        40.746                                    24027366.670 4  98388145.17804     -2912.643 4        24.767    24027366.698 6  98388143.17606     -2912.543 6        39.649
C37         2.000                                                                                                                                    26801989.030 6 139564978.95706     -2719.378 6        38.637                                                                    26801993.912 6 113407996.19406     -2209.821 6        39.099
G16         3.000    25859984.401 4                     -4009.399 4        25.744
G21         4.000    21285185.086 7 111854461.42307      1002.208 7        45.308                                    21285180.067 5  87159325.44705       780.944 5        35.757
S21         5.000    38562932.317 6 202649287.98506      -369.358 6        41.931
E13         6.000    27673446.516 6 145424965.34306      2000.989 6        38.637                                                                    27673448.401 6 108596585.28006      1494.317 6        40.267    27673447.703 6 111429535.59106      1533.357 6        41.058
G10         7.000    21341871.852 8 112152361.66508     -2010.771 8        49.945                                    21341869.971 8  87391467.19808     -1566.834 8        50.985    21341869.886 7  87391461.19607     -1566.827 7        45.774
E15         8.000    23936546.624 7 125787511.60707       631.785 7        47.834                                                                    23936547.180 8  93932301.09308       471.834 8        50.580    23936546.786 8  96382696.78508       484.093 8        51.710
E36         9.000    28320770.120 6 148826824.48306     -2778.635 6        36.673                                                                    28320772.032 6 111137052.30806     -2075.032 6        40.219    28320771.250 6 114036267.67906     -2129.085 6        40.911
G27        10.000    21376856.128 8 112336286.25808     -2925.206 8        48.834                                    21376853.769 8  87534838.73008     -2279.382 8        50.033    21376854.532 7  87534840.73007     -2279.356 7        44.397
G14        11.000    24795951.681 6 130303620.54406      1821.759 6        38.057                                    24795949.046 3 101535283.56203      1419.544 3        23.124    24795949.322 6 101535287.56506      1419.430 6        39.625
G32        12.000    22785950.524 7 119741002.94207      1814.846 7        46.356                                    22785949.349 7  93304676.42807      1414.166 7        44.331    22785950.166 7  93304649.42307      1414.231 7        42.557
S36        14.000    38331379.059 7 201433264.62907      -368.987 7        44.202
C13        15.000                                                                                                                                    39708554.424 6 206772916.25206     -1377.921 6        40.257    39708555.726 6 159889968.54506     -1065.375 6        40.474    39708553.885 6 168019954.06406     -1119.629 6        38.805
E27        18.000    25630159.440 7 134687416.61707     -1673.367 7        43.818                                                                    25630159.293 7 100578270.02607     -1249.628 7        46.606    25630158.994 8 103202048.18808     -1282.189 8        48.147
E05        20.000    24119654.252 7 126749660.24907       727.931 7        43.391                                                                    24119654.543 7  94650724.20907       543.562 7        46.753    24119654.173 8  97119875.73408       557.680 8        48.115
R11        21.000    23609170.140 7 126160251.27007     -4137.505 7        44.096                                                                    23609170.234 6  98124639.02006     -3218.076 6        40.284
I06        22.000    38624113.756 6 151569549.22906      -176.696 6        41.509
E03        23.000    26825327.504 6 140968054.55806      2603.953 6        40.005                                                                    26825328.204 7 105268378.11107      1944.515 7        44.120    26825328.094 7 108014506.70307      1995.247 7        46.191
R22        24.000    22996311.302 7 122755896.58407      3023.570 7        44.719                                                                    22996311.250 6  95476818.11506      2351.611 6        41.819
S23        25.000    38288553.355 7 201207706.04107      -367.589 7        44.153
S45        26.000    63539893.897 6 333905596.93006      -410.660 6        37.894
G02        27.000    22932008.946 7 120508560.13207      1989.520 7        45.037                                    22932002.968 5  93902761.87805      1550.269 5        32.156
S27        28.000    39259547.615 5 206310400.21005      -337.451 5        35.805
C39        29.000                                                                                                                                    41482540.203 6 216010470.05106      1595.795 6        36.760                                                                    41482536.973 6 175526192.38506      1296.695 6        36.696
E21        30.000    27238905.560 6 143141423.34506       977.356 6        39.018                                                                    27238906.176 7 106891328.26507       729.901 7        43.634    27238905.520 7 109679794.13907       748.851 7        44.187
C43        31.000                                                                                                                                    22153154.112 8 115357393.11308     -1767.216 8        50.848                                                                    22153152.601 8  93737373.60908     -1436.016 8        49.033
C42        32.000                                                                                                                                    22568168.118 8 117518398.44208      -729.470 8        49.167                                                                    22568175.814 8  95493367.36408      -592.792 8        50.134
C28        33.000                                                                                                                                    22757505.275 8 118504307.19408      1635.016 8        48.373                                                                    22757504.067 7  96294456.60407      1328.625 7        47.392
R13        34.000    23836101.655 6 127283463.69706      1662.577 6        39.198
E34        35.000    24231517.636 7 127337690.97507     -1645.529 7        46.785                                                                    24231517.538 8  95089944.89508     -1228.756 8        49.787    24231517.348 8  97570540.94808     -1260.765 8        51.130
C14        36.000                                                                                                                                    22467585.495 8 116994623.15308      1044.745 8        48.896    22467581.182 8  90467650.96308       807.860 8        51.742    22467579.802 8  95067692.70408       848.888 8        48.971
R21        37.000    19719151.701 8 105521218.94408       749.716 8        51.725                                                                    19719150.564 7  82072080.39507       583.146 7        46.686
R06        38.000    20938490.514 7 111731818.55407      3104.064 7        42.643
R05        39.000    20377682.108 8 108930415.19008     -1805.092 8        50.193                                                                    20377681.977 7  84723665.68907     -1403.909 7        47.181
C27        40.000                                                                                                                                    26453687.226 6 137751294.51006      2676.960 6        39.829                                                                    26453686.901 6 111934219.14306      2175.194 6        38.378
R04        41.000    23774536.029 7 127311584.54607     -4472.374 7        43.113                                                                    23774533.365 6  99020127.81606     -3478.397 6        39.264
S44        42.000    40602817.702 6 213369446.69406      -394.617 6        37.758
G08        43.000    20397290.698 8 107188581.19008      -656.822 8        50.607                                    20397288.824 8  83523610.91808      -511.809 8        51.181    20397289.628 7  83523608.92207      -511.829 7        45.344
C05        44.000                                                                                                                                    39294678.164 6 204617732.81806      -318.737 6        38.441    39294673.381 7 158223434.42107      -246.369 7        43.401    39294674.740 6 166268771.97606      -259.069 6        39.976
C11        45.000                                                                                                                                    23468294.706 7 122205705.88507     -2615.524 7        45.800    23468291.318 8  94497263.18108     -2022.487 8        49.405    23468289.984 7  99302185.17107     -2125.383 7        47.082
E09        46.000    27561348.523 6 144835888.33906     -1884.100 6        38.526                                                                    27561348.568 6 108156682.24206     -1406.946 6        41.287    27561348.502 7 110978157.82807     -1443.688 7        43.145
C33        47.000                                                                                                                                    23646155.153 8 123131755.39708      2418.414 8        48.518                                                                    23646166.864 7 100054693.78507      1965.171 7        47.619
C21        48.000                                                                                                                                    25592599.320 7 133267405.70807     -3207.237 7        42.718                                                                    25592593.465 7 108290670.89207     -2606.095 7        42.743
E06        49.000    28916036.587 4                     -2656.249 4        26.192                                                                    28916037.829 4 113472740.66704     -1983.796 4        29.450    28916037.327 5 116432896.89805     -2035.463 5        31.245
S48        51.000    77313866.420 6 406287109.56406      -396.912 6        38.006
C08        52.000                                                                                                                                    40403534.189 5 210391908.56905     -1534.084 5        35.590    40403527.569 6 162688398.97006     -1186.136 6        38.727    40403527.510 6 170960677.58506     -1246.653 6        36.423
C34        53.000                                                                                                                                    25464074.231 6 132598388.67706     -3317.454 6        41.108                                                                    25464074.726 7 107747166.57907     -2695.665 7        42.142
C60        54.000                                                                                                                                    40602820.732 6 211429743.89106      -391.115 6        39.940                                                                    40602804.206 6 171803955.40206      -317.741 6        39.568
R12        55.000    22567299.624 7 120550455.31607     -1175.204 7        47.308                                                                    22567300.863 7  93761466.17607      -913.923 7        43.293
I09        56.000    37756311.387 7 148163906.15707       171.699 7        42.828
C02        57.000                                                                                                                                    40652185.070 5 211686643.15205      -345.467 5        33.293    40652178.906 6 163689534.10406      -267.003 6        40.293    40652182.277 6 172012740.61106      -280.469 6        36.212
I03        58.000    79016889.919 6 234294005.80106      1103.603 6        40.574
E30        59.000    27281004.748 6 143362852.44506     -3408.657 6        40.684                                                                    27281005.224 7 107056791.32807     -2545.439 7        42.851    27281004.961 7 109849560.92407     -2611.828 7        44.456
R20        60.000    20952691.895 6 112043670.12406     -2627.406 6        36.888                                                                    20952694.352 7  87145145.54707     -2043.671 7        45.407
> 2025 01 02 21 45  5.0000000  0 55
G23         1.000    24030926.636 6 126283449.11306     -3738.637 6        40.224                                    24030923.242 4  98402709.29504     -2913.229 4        24.421    24030923.279 6  98402707.29606     -2913.150 6        39.123
C37         2.000                                                                                                                                    26804600.833 6 139578579.50306     -2720.759 6        39.667                                                                    26804605.728 6 113419047.77506     -2210.875 6        39.072
G16         3.000    25863799.920 3                     -4008.163 3        23.467
G21         4.000    21284232.079 7 111849454.18907      1000.598 7        45.153                                    21284227.195 5  87155423.70605       779.687 5        35.805
S21         5.000    38563287.480 7 202651134.78007      -369.370 7        42.080
E13         6.000    27671542.302 6 145414960.40306      2000.786 6        37.875                                                                    27671544.648 6 108589114.07706      1494.213 6        40.355    27671543.826 6 111421869.49506      1533.135 6        40.946
G10         7.000    21343786.050 8 112162421.10208     -2013.034 8        50.229                                    21343784.215 8  87399305.71808     -1568.599 8        50.960    21343784.168 7  87399299.73207     -1568.648 7        45.512
E15         8.000    23935945.944 7 125784355.08507       630.769 7        47.818                                                                    23935946.475 8  93929943.94808       471.056 8        50.633    23935946.113 8  96380278.15008       483.342 8        51.682
E36         9.000    28323414.356 6 148840718.31006     -2778.611 6        36.098                                                                    28323415.965 6 111147427.56606     -2075.150 6        40.100    28323415.111 6 114046913.60606     -2129.261 6        40.622
G27        10.000    21379640.659 8 112350918.32708     -2927.652 8        48.434                                    21379638.123 8  87546240.34108     -2281.290 8        50.023    21379638.513 7  87546242.34207     -2281.365 7        44.197
G14        11.000    24794219.857 6 130294519.09906      1819.032 6        38.676                                    24794217.321 3 101528191.53703      1417.431 3        22.724    24794217.211 6 101528195.54006      1417.244 6        39.682
G32        12.000    22784225.397 7 119731934.34707      1812.455 7        46.490                                    22784223.584 7  93297609.99207      1412.304 7        44.277    22784224.445 7  93297582.99107      1412.272 7        42.210
S36        14.000    38331730.149 7 201435108.26207      -368.914 7        44.292
C13        15.000                                                                                                                                    39709877.124 6 206779805.19506     -1377.795 6        40.107    39709878.461 6 159895295.50806     -1065.405 6        40.482    39709876.928 6 168025551.91906     -1119.496 6        38.850
E27        18.000    25631752.790 7 134695789.36707     -1675.707 7        43.460                                                                    25631752.583 7 100584522.39707     -1251.346 7        46.671    25631752.371 8 103208463.66508     -1283.991 8        48.122
E05        20.000    24118962.856 7 126746026.55807       725.540 7        43.200                                                                    24118963.068 7  94648010.73207       541.771 7        46.797    24118962.618 7  97117091.47307       555.952 7        47.999
R11        21.000    23613042.547 7 126180941.34507     -4138.668 7        44.667                                                                    23613042.415 6  98140731.31906     -3219.054 6        40.346
I06        22.000    38624339.234 6 151570432.77206      -176.767 6        41.383
E03        23.000    26822850.740 6 140955036.59106      2603.140 6        39.865                                                                    26822850.958 7 105258656.90107      1943.975 7        44.271    26822850.823 7 108004531.89907      1994.735 7        45.985
R22        24.000    22993479.303 7 122740779.83307      3023.143 7        44.904                                                                    22993479.834 7  95465060.66607      2351.352 7        42.125
S23        25.000    38288906.417 7 201209544.78507      -367.762 7        44.254
S45        26.000    63540239.562 6 333907650.64406      -410.726 6        37.531
G02        27.000    22930116.774 7 120498614.77307      1988.539 7        45.357                                    22930110.390 5  93895012.25205      1549.511 5        32.234
S27        28.000    39259869.652 5 206312087.36905      -337.670 5        35.462
C39        29.000                                                                                                                                    41481008.392 6 216002492.28306      1595.188 6        36.529                                                                    41481004.925 6 175519709.80206      1296.457 6        36.688
E21        30.000    27237976.897 6 143136542.30606       975.081 6        39.270                                                                    27237977.346 7 106887683.34507       728.146 7        43.606    27237976.615 7 109676054.13507       747.182 7        44.212
C43        31.000                                                                                                                                    22154852.012 8 115366234.07108     -1769.160 8        51.142                                                                    22154850.434 8  93744557.63708     -1437.573 8        48.969
C42        32.000                                                                                                                                    22568870.312 8 117522053.19908      -732.438 8        49.217                                                                    22568877.653 8  95496337.17508      -595.135 8        50.071
C28        33.000                                                                                                                                    22755935.700 8 118496135.13408      1633.690 8        48.356                                                                    22755934.674 7  96287816.14907      1327.601 7        47.371
R13        34.000    23834545.899 6 127275160.37206      1658.803 6        38.916
E34        35.000    24233083.853 7 127345920.60207     -1646.490 7        46.703                                                                    24233083.638 8  95096090.39508     -1229.452 8        49.913    24233083.386 8  97576846.76908     -1261.525 8        51.089
C14        36.000                                                                                                                                    22466583.461 8 116989406.50508      1041.923 8        48.908    22466579.387 8  90463617.12908       805.651 8        51.830    22466577.957 8  95063453.77408       846.637 8        48.960
R21        37.000    19718452.689 8 105517475.92108       747.487 8        52.111                                                                    19718451.300 7  82069169.15207       581.414 7        46.975
R06        38.000    20935583.217 7 111716305.37207      3101.170 7        42.499
R05        39.000    20379372.716 8 108939451.58108     -1809.505 8        50.563                                                                    20379372.094 7  84730693.99907     -1407.485 7        46.594
C27        40.000                                                                                                                                    26451116.841 6 137737910.11906      2676.635 6        39.619                                                                    26451116.511 6 111923343.26906      2175.024 6        38.351
R04        41.000    23778712.284 7 127333949.67407     -4473.928 7        43.164                                                                    23778710.921 6  99037522.90006     -3479.560 6        38.820
S44        42.000    40603189.759 6 213371419.73906      -394.712 6        37.448
G08        43.000    20397917.293 8 107191872.90408      -659.888 8        50.471                                    20397915.204 8  83526175.89208      -514.198 8        51.214    20397915.721 7  83526173.90307      -514.206 7        45.031
C05        44.000                                                                                                                                    39294984.265 6 204619326.50606      -318.826 6        38.790    39294979.097 7 158224666.77007      -246.538 7        43.096    39294980.747 6 166270067.00606      -259.036 6        39.979
C11        45.000                                                                                                                                    23470806.461 7 122218786.60307     -2616.900 7        45.670    23470803.596 8  94507378.01008     -2023.476 8        49.639    23470801.941 7  99312814.34007     -2126.410 7        47.058
E09        46.000    27563142.390 6 144845314.22706     -1886.255 6        38.489                                                                    27563142.249 6 108163721.06206     -1408.724 6        41.261    27563142.078 7 110985380.27207     -1445.430 7        43.005
C33        47.000                                                                                                                                    23643833.582 8 123119667.73508      2416.606 8        48.457                                                                    23643845.457 7 100044871.59207      1963.689 7        47.497
C21        48.000                                                                                                                                    25595679.780 7 133283445.66307     -3208.797 7        42.489                                                                    25595673.805 7 108303704.69007     -2607.483 7        42.813
E06        49.000    28918564.480 4                     -2658.768 4        24.496                                                                    28918566.663 4 113482663.05604     -1984.597 4        28.806    28918565.655 5 116443078.16705     -2036.834 5        31.072
S48        51.000    77314220.778 6 406289093.92906      -397.049 6        37.584
C08        52.000                                                                                                                                    40405007.327 6 210399578.78806     -1533.811 6        36.113    40405000.716 6 162694330.10106     -1186.153 6        39.072    40405000.222 6 170966910.26606     -1246.347 6        36.325
C34        53.000                                                                                                                                    25467259.822 6 132614977.67306     -3318.180 6        41.385                                                                    25467260.451 7 107760646.53007     -2696.436 7        42.019
C60        54.000                                                                                                                                    40603195.910 6 211431698.99606      -391.112 6        39.940                                                                    40603179.684 6 171805544.12006      -317.971 6        39.616
R12        55.000    22568401.944 7 120556341.93607     -1179.426 7        47.132                                                                    22568402.253 7  93766044.64107      -917.335 7        42.148
I09        56.000    37756092.945 7 148163048.24907       171.411 7        42.802
C02        57.000                                                                                                                                    40652517.222 5 211688370.02505      -345.407 5        33.359    40652510.477 6 163690869.44806      -266.970 6        40.241    40652513.973 6 172014143.90506      -280.740 6        36.079
I03        58.000    79015484.028 6 234288487.47006      1103.583 6        40.582
E30        59.000    27284248.111 6 143379897.06106     -3409.287 6        40.291                                                                    27284248.578 7 107069519.43307     -2545.896 7        42.743    27284248.466 7 109862621.07107     -2612.238 7        44.324
R20        60.000    20955150.038 6 112056812.80506     -2629.457 6        36.938                                                                    20955152.231 7  87155367.62207     -2045.241 7        45.517
> 2025 01 02 21 45 10.0000000  0 55
G23         1.000    24034483.536 6 126302142.69606     -3738.733 6        39.862                                    24034480.167 4  98417275.71404     -2913.297 4        24.045    24034480.400 6  98417273.72006     -2913.356 6        39.207
C37         2.000                                                                                                                                    26807214.003 6 139592185.17906     -2721.540 6        39.568                                                                    26807218.380 6 113430103.47906     -2211.663 6        39.285
G16         3.000    25867612.569 3                     -4009.060 3        22.000
G21         4.000    21283280.500 7 111844454.37007       999.212 7        45.029                                    21283275.737 5  87151527.74705       778.606 5        35.748
S21         5.000    38563637.916 7 202652981.36307      -369.348 7        42.131
E13         6.000    27669638.715 6 145404956.26506      2000.855 6        38.306                                                                    27669640.975 6 108581643.46606      1494.265 6        40.253    27669640.117 6 111414203.99906      1533.214 6        40.815
G10         7.000    21345702.361 8 112172491.28408     -2015.044 8        49.901                                    21345700.524 8  87407152.61408     -1570.164 8        50.951    21345700.430 7  87407146.61707     -1570.203 7        45.494
E15         8.000    23935345.976 7 125781203.01807       629.951 7        47.737                                                                    23935346.691 8  93927590.13508       470.496 8        50.570    23935346.347 8  96377862.93408       482.745 8        51.530
E36         9.000    28326058.189 6 148854612.44206     -2778.912 6        36.786                                                                    28326059.997 6 111157803.05606     -2075.189 6        40.253    28326059.211 6 114057559.75006     -2129.138 6        40.577
G27        10.000    21382426.730 8 112365561.51808     -2929.713 8        48.452                                    21382424.632 8  87557650.61908     -2282.892 8        49.997    21382425.004 7  87557652.62207     -2282.954 7        44.239
G14        11.000    24792490.869 6 130285429.67406      1816.590 6        39.045                                    24792487.639 3 101521108.85603      1415.547 3        22.705    24792487.297 6 101521112.85906      1415.460 6        39.517
G32        12.000    22782501.652 7 119722877.05607      1810.316 7        46.208                                    22782500.006 7  93290552.37107      1410.634 7        44.275    22782500.501 7  93290525.36607      1410.690 7        42.542
S36        14.000    38332082.361 7 201436952.50807      -368.847 7        44.430
C13        15.000                                                                                                                                    39711199.706 6 206786693.42506     -1377.602 6        40.031    39711201.394 6 159900621.92006     -1065.254 6        40.515    39711199.352 6 168031149.13406     -1119.278 6        38.817
E27        18.000    25633348.088 7 134704172.98607     -1677.786 7        43.738                                                                    25633347.896 7 100590782.89507     -1252.854 7        46.539    25633347.705 8 103214887.48208     -1285.547 8        48.016
E05        20.000    24118273.556 7 126742404.13207       723.439 7        43.511                                                                    24118273.674 7  94645305.68107       540.287 7        46.619    24118273.285 7  97114315.85107       554.305 7        47.934
R11        21.000    23616915.597 7 126201637.19207     -4139.687 7        43.829                                                                    23616915.047 6  98156828.06306     -3219.742 6        41.094
I06        22.000    38624564.455 6 151571316.13506      -176.527 6        41.461
E03        23.000    26820373.930 6 140942021.52906      2602.889 6        40.122                                                                    26820374.438 7 105248937.87607      1943.650 7        44.287    26820374.054 7 107994559.33607      1994.363 7        45.535
R22        24.000    22990647.974 7 122725664.12107      3023.058 7        45.378                                                                    22990647.533 7  95453304.00707      2351.190 7        42.476
S23        25.000    38289257.193 7 201211383.33307      -367.507 7        44.436
S45        26.000    63540584.051 6 333908004.21316      -410.666 6        37.543
G02        27.000    22928224.502 7 120488673.33407      1987.851 7        44.900                                    22928218.607 5  93887265.68705      1548.976 5        32.240
S27        28.000    39260189.824 5 206313773.86005      -337.362 5        35.614
C39        29.000                                                                                                                                    41479476.564 6 215994516.43706      1595.146 6        36.733                                                                    41479473.136 6 175513228.78106      1296.008 6        36.696
E21        30.000    27237049.979 6 143131672.04306       973.037 6        39.459                                                                    27237050.565 7 106884046.45307       726.660 7        43.399    27237049.842 7 109672322.37307       745.509 7        44.006
C43        31.000                                                                                                                                    22156551.451 8 115375083.86108     -1770.756 8        51.135                                                                    22156550.035 8  93751748.79208     -1438.884 8        49.022
C42        32.000                                                                                                                                    22569574.850 8 117525721.95408      -735.136 8        49.346                                                                    22569582.196 8  95499318.31008      -597.244 8        50.032
C28        33.000                                                                                                                                    22754367.703 8 118487968.95508      1632.663 8        48.362                                                                    22754366.491 7  96281180.43407      1326.804 7        47.377
R13        34.000    23832994.657 6 127266875.18806      1655.312 6        39.252
E34        35.000    24234650.745 7 127354154.28407     -1647.054 7        46.594                                                                    24234650.474 8  95102238.93408     -1229.976 8        49.673    24234650.209 8  97583155.70708     -1262.056 8        51.067
C14        36.000                                                                                                                                    22465584.234 8 116984203.03108      1039.425 8        48.899    22465580.105 8  90459593.46908       803.805 8        51.722    22465578.679 8  95059225.50108       844.678 8        48.983
R21        37.000    19717755.208 8 105513743.72608       745.464 8        51.866                                                                    19717753.725 7  82066266.34207       579.721 7        47.020
R06        38.000    20932678.050 7 111700806.52907      3098.627 7        42.392
R05        39.000    20381067.320 8 108948509.55508     -1813.750 8        50.616                                                                    20381066.125 7  84737739.09007     -1410.681 7        46.874
C27        40.000                                                                                                                                    26448546.390 6 137724525.36106      2677.022 6        40.236                                                                    26448546.269 6 111912467.02406      2175.415 6        38.321
R04        41.000    23782889.900 7 127356322.00307     -4475.074 7        43.223                                                                    23782889.139 6  99054923.60806     -3480.538 6        38.643
S44        42.000    40603564.601 6 213373392.79406      -394.606 6        37.138
G08        43.000    20398546.268 8 107195179.69408      -662.856 8        50.448                                    20398544.460 8  83528752.61208      -516.512 8        51.247    20398545.315 7  83528750.62207      -516.564 7        45.383
C05        44.000                                                                                                                                    39295290.611 6 204620920.16206      -318.737 6        38.688    39295285.095 7 158225899.07407      -246.413 7        43.088    39295286.847 6 166271361.93606      -258.862 6        39.883
C11        45.000                                                                                                                                    23473319.764 7 122231873.53607     -2617.998 7        45.589    23473316.775 8  94517497.65908     -2024.370 8        49.764    23473315.131 7  99323448.51307     -2127.293 7        47.094
E09        46.000    27564937.943 6 144854750.50106     -1888.156 6        38.799                                                                    27564937.784 6 108170767.63306     -1410.135 6        41.011    27564937.603 7 110992610.65707     -1446.778 7        42.811
C33        47.000                                                                                                                                    23641513.924 8 123107588.68708      2414.985 8        48.361                                                                    23641525.919 7 100035056.34907      1962.360 7        47.577
C21        48.000                                                                                                                                    25598761.285 7 133299492.35207     -3209.858 7        42.271                                                                    25598755.552 7 108316743.90407     -2608.289 7        43.064
E06        49.000    28921094.743 4                     -2659.079 4        25.414                                                                    28921096.525 4 113492590.78304     -1986.045 4        29.299    28921095.461 5 116453264.83305     -2037.949 5        31.125
S48        51.000    77314573.696 6 406291078.54506      -397.006 6        37.595
C08        52.000                                                                                                                                    40406480.430 6 210407247.93406     -1533.591 6        36.178    40406474.004 6 162700260.37706     -1186.040 6        39.003    40406473.075 6 170973142.06006     -1246.036 6        36.147
C34        53.000                                                                                                                                    25470446.596 6 132631569.84606     -3318.600 6        41.247                                                                    25470446.889 7 107774128.98107     -2696.567 7        42.159
C60        54.000                                                                                                                                    40603571.683 6 211433654.11306      -390.861 6        39.553                                                                    40603555.206 6 171807132.77806      -317.577 6        39.501
R12        55.000    22569507.433 7 120562249.39707     -1183.495 7        46.680                                                                    22569507.841 6  93770639.33106      -920.581 6        41.816
I09        56.000    37755874.686 7 148162191.50707       171.176 7        42.914
C02        57.000                                                                                                                                    40652848.936 5 211690096.98405      -345.231 5        33.497    40652842.374 6 163692204.85806      -267.057 6        40.276    40652845.392 6 172015547.17806      -280.707 6        36.098
I03        58.000    79014078.244 6 234282969.28506      1103.677 6        40.393
E30        59.000    27287492.154 6 143396943.79706     -3409.516 6        40.105                                                                    27287492.356 7 107082249.13507     -2545.945 7        42.576    27287492.103 7 109875682.85607     -2612.422 7        44.197
R20        60.000    20957610.296 6 112069964.44906     -2631.144 6        37.009                                                                    20957611.816 7  87165596.67407     -2046.391 7        45.857
> 2025 01 02 21 45 15.0000000  0 55
G23         1.000    24038041.821 6 126320838.81006     -3739.578 6        39.688                                    24038037.929 3  98431844.11003     -2913.957 3        23.676    24038039.007 6  98431842.12906     -2913.981 6        39.159
C37         2.000                                                                                                                                    26809828.421 6 139605795.54306     -2722.789 6        39.814                                                                    26809832.180 6 113441163.00006     -2212.250 6        38.985
G16         3.000    25871428.965 3                     -4013.045 3        22.000
G21         4.000    21282330.830 7 111839461.57307       997.778 7        44.828                                    21282325.669 5  87147637.25405       777.491 5        35.700
S21         5.000    38563988.988 7 202654827.29307      -369.171 7        42.027
E13         6.000    27667735.288 6 145394952.48306      2000.770 6        38.309                                                                    27667737.341 6 108574173.14006      1493.804 6        40.374    27667736.555 6 111406538.77906      1532.919 6        41.051
G10         7.000    21347620.543 8 112182571.73608     -2017.199 8        49.898                                    21347618.774 8  87415007.51208     -1571.845 8        50.849    21347618.714 7  87415001.51307     -1571.783 7        45.205
E15         8.000    23934747.232 7 125778054.94907       629.122 7        47.898                                                                    23934747.648 8  93925239.30508       469.829 8        50.488    23934747.233 8  96375450.77708       482.092 8        51.703
E36         9.000    28328702.036 6 148868506.39406     -2779.043 6        36.491                                                                    28328704.044 6 111168178.39906     -2075.176 6        40.563    28328703.362 6 114068205.76406     -2129.258 6        40.455
G27        10.000    21385215.336 8 112380215.38008     -2931.901 8        48.563                                    21385213.181 8  87569069.21008     -2284.598 8        49.874    21385213.846 7  87569071.20607     -2284.561 7        44.479
G14        11.000    24790763.207 6 130276351.79906      1814.386 6        38.991                                    24790760.140 3 101514035.16903      1413.807 3        22.762    24790760.131 6 101514039.14806      1413.783 6        39.829
G32        12.000    22780780.048 7 119713830.66407      1808.164 7        46.641                                    22780778.503 7  93283503.23607      1408.959 7        44.218    22780779.334 7  93283476.24507      1408.955 7        42.694
S36        14.000    38332431.876 7 201438796.53507      -368.872 7        44.152
C13        15.000                                                                                                                                    39712522.465 6 206793580.55206     -1377.563 6        40.019    39712523.805 6 159905947.48806     -1065.078 6        40.410    39712522.243 6 168036745.49406     -1119.263 6        38.838
E27        18.000    25634945.618 7 134712567.01207     -1679.980 7        43.427                                                                    25634945.153 7 100597051.15307     -1254.418 7        46.555    25634945.044 8 103221319.26308     -1287.216 8        48.132
E05        20.000    24117585.942 7 126738792.53107       721.059 7        43.845                                                                    24117586.300 7  94642608.70507       538.585 7        46.712    24117586.065 8  97111548.52508       552.574 8        48.096
R11        21.000    23620788.543 7 126222338.35207     -4140.704 7        43.437                                                                    23620789.403 6  98172928.96506     -3220.644 6        40.603
I06        22.000    38624789.586 6 151572199.01206      -176.528 6        41.321
E03        23.000    26817897.837 6 140929008.94506      2602.248 6        40.243                                                                    26817898.438 7 105239220.68707      1943.187 7        44.497    26817897.772 7 107984588.65907      1993.899 7        45.517
R22        24.000    22987817.148 7 122710549.02907      3022.932 7        45.917                                                                    22987816.015 6  95441547.81106      2351.119 6        41.712
S23        25.000    38289605.568 7 201213221.27407      -367.593 7        44.224
S45        26.000    63540931.979 6 333910057.18606      -410.794 6        37.221
G02        27.000    22926333.275 7 120478735.40007      1987.257 7        45.035                                    22926327.442 5  93879521.84205      1548.509 5        32.156
S27        28.000    39260513.391 5 206315460.17005      -337.389 5        35.371
C39        29.000                                                                                                                                    41477945.284 6 215986542.09806      1594.436 6        37.040                                                                    41477941.688 6 175506748.95306      1295.714 6        36.582
E21        30.000    27236124.826 6 143126812.08606       970.932 6        39.471                                                                    27236125.752 7 106880417.26107       725.052 7        43.456    27236124.921 7 109668598.50307       743.947 7        44.140
C43        31.000                                                                                                                                    22158252.528 8 115383942.03308     -1772.549 8        51.218                                                                    22158251.124 8  93758946.78208     -1440.309 8        49.027
C42        32.000                                                                                                                                    22570281.965 8 117529404.26608      -737.911 8        49.482                                                                    22570289.371 8  95502310.49908      -599.587 8        50.058
C28        33.000                                                                                                                                    22752800.580 8 118479808.23508      1631.483 8        48.532                                                                    22752799.310 7  96274549.18907      1325.760 7        47.372
R13        34.000    23831447.833 6 127258607.72006      1651.601 6        38.868
E34        35.000    24236218.159 7 127362391.59107     -1647.875 7        46.582                                                                    24236217.916 8  95108390.16708     -1230.579 8        49.741    24236217.714 8  97589467.40308     -1262.638 8        51.076
C14        36.000                                                                                                                                    22464587.521 8 116979012.27808      1036.798 8        49.022    22464583.007 8  90455579.64508       801.738 8        51.594    22464581.895 8  95055007.58608       842.562 8        48.970
R21        37.000    19717059.423 8 105510021.68108       743.274 8        52.223                                                                    19717058.059 7  82063371.41907       578.159 7        46.773
R06        38.000    20929777.074 7 111685321.55707      3095.510 7        42.427
R05        39.000    20382765.481 8 108957588.59708     -1818.009 8        49.883                                                                    20382765.070 7  84744800.55707     -1413.958 7        46.845
C27        40.000                                                                                                                                    26445975.819 6 137711139.78506      2677.130 6        40.856                                                                    26445975.542 6 111901590.16906      2175.500 6        38.366
R04        41.000    23787069.739 7 127378701.00007     -4476.598 7        43.105                                                                    23787068.039 6  99072329.48206     -3481.751 6        38.700
S44        42.000    40603944.340 6 213375365.40706      -394.490 6        37.384
G08        43.000    20399178.459 8 107198501.07608      -665.793 8        50.521                                    20399176.515 8  83531340.70308      -518.801 8        51.102    20399177.777 7  83531338.69807      -518.737 7        45.559
C05        44.000                                                                                                                                    39295596.349 6 204622513.32806      -318.749 6        39.117    39295591.093 7 158227131.01707      -246.420 7        43.183    39295592.492 6 166272656.53106      -259.076 6        39.727
C11        45.000                                                                                                                                    23475833.524 7 122244966.25507     -2619.206 7        45.800    23475830.977 8  94527621.78608     -2025.360 8        50.001    23475829.525 7  99334087.43107     -2128.337 7        47.106
E09        46.000    27566735.636 6 144864196.70506     -1890.320 6        38.667                                                                    27566735.406 6 108177821.60906     -1411.581 6        41.075    27566735.116 7 110999848.65207     -1448.402 7        43.075
C33        47.000                                                                                                                                    23639195.949 8 123095517.82708      2413.273 8        48.150                                                                    23639207.873 7 100025247.78807      1960.987 7        47.669
C21        48.000                                                                                                                                    25601843.837 7 133315545.34907     -3211.293 7        42.070                                                                    25601838.359 7 108329788.27707     -2609.480 7        42.973
E06        49.000    28923624.470 4                     -2660.427 4        24.316                                                                    28923627.449 4 113502523.50704     -1986.736 4        28.777    28923626.768 5 116463456.65105     -2039.109 5        30.626
S48        51.000    77314939.627 6 406293062.31806      -396.720 6        37.898
C08        52.000                                                                                                                                    40407953.861 6 210414915.50006     -1533.640 6        36.454    40407946.728 6 162706189.40006     -1185.560 6        39.541    40407945.467 5 170979372.58305     -1246.002 5        35.986
C34        53.000                                                                                                                                    25473633.412 6 132648164.70706     -3319.309 6        41.476                                                                    25473633.897 7 107787613.68607     -2697.314 7        42.233
C60        54.000                                                                                                                                    40603946.727 6 211435608.80606      -391.023 6        39.823                                                                    40603930.599 6 171808721.14706      -317.667 6        39.724
R12        55.000    22570616.972 7 120568177.23107     -1187.622 7        46.675                                                                    22570618.455 7  93775249.86907      -923.768 7        42.948
I09        56.000    37755656.413 7 148161335.57507       170.933 7        42.971
C02        57.000                                                                                                                                    40653179.859 5 211691823.51905      -345.098 5        33.210    40653173.569 6 163693539.92006      -267.121 6        40.131    40653177.101 5 172016950.12805      -280.624 5        35.852
I03        58.000    79012671.378 6 234277450.90106      1103.582 6        40.212
E30        59.000    27290736.231 6 143413992.23106     -3410.088 6        39.781                                                                    27290736.694 7 107094980.09807     -2546.397 7        42.580    27290736.285 7 109888745.93607     -2612.820 7        44.185
R20        60.000    20960071.726 6 112083124.58706     -2633.008 6        36.892                                                                    20960072.902 7  87175832.33307     -2047.897 7        46.110
> 2025 01 02 21 45 20.0000000  0 55
G23         1.000    24041600.492 6 126339538.01506     -3740.076 6        40.210                                    24041596.236 3  98446414.92903     -2914.360 3        23.962    24041597.140 6  98446412.92606     -2914.236 6        39.501
C37         2.000                                                                                                                                    26812443.223 6 139619411.17306     -2723.474 6        39.550                                                                    26812446.563 6 113452226.79906     -2213.023 6        38.946
G16         3.000    25875238.823 3                     -4011.521 3        23.200
G21         4.000    21281381.642 7 111834476.36707       996.442 7        44.907                                    21281377.019 5  87143752.68105       776.449 5        35.686
S21         5.000    38564340.131 6 202656673.12806      -369.077 6        41.449
E13         6.000    27665831.846 6 145384949.66906      2000.617 6        38.117                                                                    27665833.814 6 108566703.50906      1493.939 6        40.551    27665833.080 6 111398874.29306      1533.048 6        41.027
G10         7.000    21349541.153 8 112192663.04908     -2019.208 8        50.232                                    21349539.086 8  87422870.87408     -1573.408 8        50.846    21349538.973 7  87422864.87707     -1573.384 7        45.371
E15         8.000    23934148.983 7 125774911.49907       628.389 7        47.977                                                                    23934149.422 8  93922891.92608       469.259 8        50.603    23934149.064 8  96373042.16208       481.493 8        51.763
E36         9.000    28331346.165 6 148882400.77406     -2778.832 6        36.223                                                                    28331348.132 6 111178554.05906     -2075.003 6        40.701    28331347.549 6 114078852.11106     -2129.145 6        40.789
G27        10.000    21388006.463 8 112394880.50908     -2934.020 8        49.180                                    21388003.880 8  87580496.58208     -2286.248 8        49.905    21388004.337 7  87580498.58807     -2286.269 7        44.661
G14        11.000    24789037.894 6 130267286.05706      1811.997 6        39.150                                    24789035.001 3 101506970.95103      1411.952 3        22.686    24789034.767 6 101506974.93706      1412.024 6        39.631
G32        12.000    22779060.992 7 119704795.78707      1805.906 7        46.182                                    22779059.227 7  93276463.07407      1407.199 7        44.272    22779060.008 7  93276436.06907      1407.328 7        43.046
S36        14.000    38332779.142 7 201440641.10707      -368.907 7        43.693
C13        15.000                                                                                                                                    39713845.771 6 206800467.04906     -1376.977 6        39.847    39713846.452 6 159911272.57506     -1064.861 6        40.470    39713844.617 6 168042341.34306     -1118.959 6        38.544
E27        18.000    25636544.736 7 134720972.05607     -1681.972 7        43.412                                                                    25636544.654 7 100603327.65507     -1256.046 7        46.545    25636544.449 8 103227759.49208     -1288.799 8        48.073
E05        20.000    24116900.957 7 126735192.35907       719.008 7        43.522                                                                    24116901.083 7  94639920.26707       537.004 7        46.594    24116900.966 8  97108789.95008       550.951 8        48.098
R11        21.000    23624664.253 7 126243045.45007     -4141.945 7        43.962                                                                    23624663.054 6  98189034.45706     -3221.448 6        39.411
