     3.04           OBSERVATION DATA    M                   RINEX VERSION / TYPE
ssrcrin-15.6.1x                         20250102 131500 UTC PGM / RUN BY / DATE 
(00000000023479385599111004) Septentrio proprietary         COMMENT             
rref                                                        MARKER NAME         
01                                                          MARKER NUMBER       
geodetic                                                    MARKER TYPE         
NFB                 CLIMERS@TUW                             OBSERVER / AGENCY   
3297213             SEPT ASTERX SB3 PROB4.14.4              REC # / TYPE / VERS 
Unknown             Unknown                                 ANT # / TYPE        
  4127831.6915  1207193.2466  4695247.4989                  APPROX POSITION XYZ 
        0.0000        0.0000        0.0000                  ANTENNA: DELTA H/E/N
G   23 X1  C1C L1C D1C S1C C1W S1W C2W L2W D2W S2W C2L L2L  SYS / # / OBS TYPES 
       D2L S2L C5Q L5Q D5Q S5Q C1L L1L D1L S1L              SYS / # / OBS TYPES 
E   21 X1  C1C L1C D1C S1C C6C L6C D6C S6C C5Q L5Q D5Q S5Q  SYS / # / OBS TYPES 
       C7Q L7Q D7Q S7Q C8Q L8Q D8Q S8Q                      SYS / # / OBS TYPES 
S    9 X1  C1C L1C D1C S1C C5I L5I D5I S5I                  SYS / # / OBS TYPES 
R   17 X1  C1C L1C D1C S1C C2P L2P D2P S2P C2C L2C D2C S2C  SYS / # / OBS TYPES 
       C3Q L3Q D3Q S3Q                                      SYS / # / OBS TYPES 
C   25 X1  C1P L1P D1P S1P C5P L5P D5P S5P C2I L2I D2I S2I  SYS / # / OBS TYPES 
       C7I L7I D7I S7I C6I L6I D6I S6I C7D L7D D7D S7D      SYS / # / OBS TYPES 
J   17 X1  C1C L1C D1C S1C C2L L2L D2L S2L C5Q L5Q D5Q S5Q  SYS / # / OBS TYPES 
       C1L L1L D1L S1L                                      SYS / # / OBS TYPES 
I    5 X1  C5A L5A D5A S5A                                  SYS / # / OBS TYPES 
SEPTENTRIO RECEIVERS OUTPUT ALIGNED CARRIER PHASES.         COMMENT             
NO FURTHER PHASE SHIFT APPLIED IN THE RINEX ENCODER.        COMMENT             
G L1C                                                       SYS / PHASE SHIFT   
G L2W                                                       SYS / PHASE SHIFT   
G L2L  0.00000                                              SYS / PHASE SHIFT   
G L5Q  0.00000                                              SYS / PHASE SHIFT   
G L1L  0.00000                                              SYS / PHASE SHIFT   
E L1C  0.00000                                              SYS / PHASE SHIFT   
E L6C  0.00000                                              SYS / PHASE SHIFT   
E L5Q  0.00000                                              SYS / PHASE SHIFT   
E L7Q  0.00000                                              SYS / PHASE SHIFT   
E L8Q  0.00000                                              SYS / PHASE SHIFT   
S L1C                                                       SYS / PHASE SHIFT   
S L5I                                                       SYS / PHASE SHIFT   
R L1C                                                       SYS / PHASE SHIFT   
R L2P  0.00000                                              SYS / PHASE SHIFT   
R L2C                                                       SYS / PHASE SHIFT   
R L3Q  0.00000                                              SYS / PHASE SHIFT   
C L1P  0.00000                                              SYS / PHASE SHIFT   
C L5P  0.00000                                              SYS / PHASE SHIFT   
C L2I                                                       SYS / PHASE SHIFT   
C L7I                                                       SYS / PHASE SHIFT   
C L6I                                                       SYS / PHASE SHIFT   
C L7D                                                       SYS / PHASE SHIFT   
J L1C                                                       SYS / PHASE SHIFT   
J L2L  0.00000                                              SYS / PHASE SHIFT   
J L5Q  0.00000                                              SYS / PHASE SHIFT   
J L1L  0.00000                                              SYS / PHASE SHIFT   
I L5A                                                       SYS / PHASE SHIFT   
  2025     1     2    13    15    0.0000000     GPS         TIME OF FIRST OBS   
 C1C    0.000 C2C    0.000 C2P    0.000                     GLONASS COD/PHS/BIS 
DBHZ                                                        SIGNAL STRENGTH UNIT
    18                                                      LEAP SECONDS        
 24 R01  1 R02 -4 R03  5 R04  6 R05  1 R06 -4 R07  5 R08  6 GLONASS SLOT / FRQ #
    R09 -2 R10 -7 R11  0 R12 -1 R13 -2 R14 -7 R15  0 R16 -1 GLONASS SLOT / FRQ #
    R17  4 R18 -3 R19  3 R20  2 R21  4 R22 -3 R23  3 R24  2 GLONASS SLOT / FRQ #
                                                            END OF HEADER       
> 2025 01 02 13 15  0.0000000  0 55
E24         1.000    24344616.247 8 127931937.07108     -1761.555 8        48.014                                                                    24344618.831 8  95533657.04208     -1315.418 8        50.103    24344618.015 8  98025828.34308     -1349.752 8        51.089
E11         2.000    27678066.844 5 145449243.84005      2637.579 5        34.762                                                                    27678076.965 6 108614767.02506      1969.659 6        38.165    27678075.478 6 111448188.13906      2021.102 6        39.033
E03         3.000    25103110.613 7 131917736.80207     -1335.834 7        45.055                                                                    25103117.174 8  98510009.94908      -997.611 8        48.141    25103116.118 8 101079837.33308     -1023.676 8        48.992
G19         4.000    23493190.232 6 123457669.22806     -3743.035 6        41.924                                    23493191.240 4  96200802.98504     -2916.656 4        27.030
S21         5.000    38539878.300 7 202527995.84307      -512.231 7        42.775
E05         6.000    24826142.614 7 130462146.84807     -3440.695 7        42.267                                                                    24826151.803 7  97422984.20407     -2569.414 7        45.299    24826150.599 7  99964455.40207     -2636.413 7        45.834
G25         7.000    20845376.201 7 109543326.30307      1494.429 7        47.431                                    20845378.975 7  85358511.46107      1164.491 7        47.559    20845379.751 7  85358512.47607      1164.437 7        44.315
C29         8.000                                                                                                                                    23505282.637 7 122398200.37807     -2107.099 7        47.309                                                                    23505284.488 7  99458580.69107     -1712.271 7        46.326
R05         9.000    22091805.305 7 118093380.18707     -3325.369 7        47.382                                                                    22091811.973 7  91850450.79307     -2586.349 7        43.903
G24        10.000    21915529.091 7 115166866.20707     -3503.546 7        47.457                                    21915531.808 7  89740425.37607     -2730.037 7        47.075    21915532.677 7  89740430.38507     -2730.174 7        42.991
C14        11.000                                                                                                                                    25906743.770 6 134903166.82006     -2680.368 6        40.498    25906751.453 7 104315698.03507     -2072.609 7        44.033    25906747.394 6 109619872.78506     -2177.937 6        41.876
S27        12.000    39326654.802 6 206662873.65706      -529.010 6        36.189
E08        13.000    27175549.016 6 142808552.34006      1243.242 6        39.943                                                                    27175559.118 7 106642832.87507       928.398 7        43.973    27175557.483 7 109424808.80607       952.754 7        44.450
S36        14.000    38310971.733 7 201325940.63307      -512.434 7        44.831
G06        15.000    23017121.641 7 120955895.40707      -438.809 7        43.228                                    23017126.487 6  94251417.17406      -341.928 6        40.536    23017127.469 6  94251419.16606      -341.805 6        41.325
G12        17.000    20303835.442 8 106697551.82808      -996.309 8        50.594                                    20303833.949 8  83141032.61508      -776.343 8        52.174    20303834.415 7  83141029.62107      -776.330 7        46.730
G32        18.000    22960099.773 7 120656178.51907      -144.539 7        45.920                                    22960104.305 7  94017851.80307      -112.627 7        42.900    22960104.892 7  94017855.81307      -112.703 7        42.028
E02        19.000    27744964.117 6 145800771.53706      1914.864 6        39.099                                                                    27744977.174 6 108877253.80006      1430.098 6        40.389    27744975.127 6 111717521.52006      1467.185 6        40.808
E10        21.000    26640438.763 6 139996581.96806      2131.098 6        41.449                                                                    26640446.160 7 104543009.50107      1591.414 7        45.600    26640445.396 7 107270206.51207      1632.938 7        45.991
I06        22.000    38605870.958 6 151497829.35306      -483.993 6        41.938
S28        23.000    41011209.189 5 215515203.17905      -519.834 5        35.338
S23        25.000    38251627.520 7 201013523.34307      -517.157 7        45.147
S45        26.000    63505469.608 6 333723624.85006      -576.047 6        36.620
C07        27.000                                                                                                                                    40639674.423 6 211621368.67606     -1444.920 6        36.699    40639676.767 6 163639039.06806     -1117.343 6        40.312    40639673.401 6 171959662.55706     -1174.157 6        37.573
R04        28.000    24246296.167 7 129837612.66407     -4814.443 7        42.207                                                                    24246308.845 6 100984738.94806     -3744.395 6        37.758
C40        29.000                                                                                                                                    41266933.016 6 214887680.81506     -1692.581 6        37.531                                                                    41266936.636 6 174613833.29906     -1375.382 6        38.141
C44        30.000                                                                                                                                    25224328.379 7 131349766.35007      2965.916 7        42.055                                                                    25224334.681 6 106732497.31106      2409.975 6        41.909
E12        31.000    26374782.740 6 138600527.48006      1204.011 6        39.294                                                                    26374786.502 7 103500483.49307       899.096 7        42.872    26374785.777 7 106200481.72107       922.419 7        43.378
G11        32.000    23321184.280 7 122553784.80107      1732.142 7        43.659                                    23321186.221 5  95496538.71705      1349.717 5        30.611    23321186.364 7  95496529.72507      1349.817 7        42.159
I02        33.000    37177380.993 7 145892010.95907      -590.850 7        42.756
R15        34.000    20125772.029 8 107546137.64008      1343.324 8        51.332                                                                    20125776.015 7  83647058.10507      1044.794 7        46.986
R13        35.000    24417562.847 5 130388328.31605     -3957.906 5        34.714
G29        36.000    23965736.459 7 125940955.84207      3127.909 7        42.984                                    23965741.013 6  98135885.52306      2437.327 6        36.786    23965741.885 6  98135895.52706      2437.286 6        38.063
C42        37.000                                                                                                                                    26466635.741 6 137818601.45606     -3343.502 6        40.114                                                                    26466652.202 6 111988924.30806     -2716.879 6        40.660
C10        38.000                                                                                                                                    39582104.048 6 206114356.35806     -1234.437 6        38.880    39582107.420 6 159380684.11206      -954.631 6        41.511    39582104.150 6 167484777.62206     -1003.148 6        39.784
E25        39.000    23924483.132 8 125724175.32408       592.722 8        48.689                                                                    23924487.854 8  93885052.45408       442.611 8        50.766    23924486.791 8  96334213.58508       454.122 8        51.033
R23        41.000    22846870.025 7 122215409.80107     -4006.690 7        42.222
S44        42.000    40855019.173 6 214694638.25406      -435.781 6        37.508
G28        43.000    24903959.092 6 130871206.66406      3028.951 6        39.568                                    24903967.209 3 101977610.85303      2360.198 3        22.152    24903967.862 6 101977610.85706      2360.458 6        37.871
C05        44.000                                                                                                                                    39564513.976 6 206022716.74306      -503.673 6        38.805    39564515.995 7 159309825.72707      -389.525 7        42.427    39564515.565 6 167410411.27006      -409.374 6        39.520
R14        45.000    20021697.348 8 106727018.31308     -1977.579 8        51.402                                                                    20021701.552 8  83009983.75208     -1538.126 8        48.283
R16        46.000    24094608.008 7 128709064.81707      2953.914 7        44.479                                                                    24094619.808 6 100107112.37306      2297.408 6        37.837
R17        47.000    21884944.249 7 117110913.96907      3626.217 7        46.807                                                                    21884949.722 7  91086377.99207      2820.374 7        43.710
C35        48.000                                                                                                                                    22640089.710 8 117893012.18108      1417.369 8        50.095                                                                    22640091.856 8  95797785.26008      1151.693 8        48.823
C45        50.000                                                                                                                                    23979222.627 7 124866088.80807     -2940.368 7        45.527                                                                    23979218.824 7 101463904.99207     -2389.465 7        46.937
S48        51.000    77247951.940 6 405941098.97806      -525.316 6        38.640
C33        52.000                                                                                                                                    25920715.716 7 134975949.22907     -1612.990 7        42.036                                                                    25920735.820 7 109679093.39107     -1310.762 7        42.381
E33        53.000    27126496.522 6 142550822.12206     -1524.142 6        39.435                                                                    27126503.933 7 106450369.14807     -1138.068 7        42.235    27126502.734 7 109227323.26607     -1167.802 7        42.847
C60        54.000                                                                                                                                    40855024.457 6 212742886.88206      -431.829 6        39.393                                                                    40855017.603 6 172870959.47206      -351.060 6        40.455
E31        55.000    27941264.467 6 146832236.87106     -2966.002 6        36.938                                                                    27941275.825 6 109647451.08506     -2214.820 6        41.354    27941273.910 6 112507819.04506     -2272.591 6        40.703
C26        56.000                                                                                                                                    21733106.289 8 113170077.60708      -312.181 8        50.773                                                                    21733107.853 8  91960001.14208      -253.722 8        49.574
C02        57.000                                                                                                                                    41039756.463 5 213704665.01005      -456.501 5        31.849    41039759.783 6 165249954.54106      -353.327 6        36.189    41039760.731 5 173652514.85905      -371.501 5        32.192
I03        58.000    90115226.131 5 277846037.55205       986.201 5        32.287
R06        59.000    22924644.568 6 122330339.77006       804.182 6        36.340
R24        60.000    20198190.308 8 108008937.20508        55.734 8        50.878                                                                    20198193.885 7  84007018.21607        43.382 7        46.838
> 2025 01 02 13 15  5.0000000  0 55
E24         1.000    24346292.745 7 127940748.11607     -1762.867 7        47.964                                                                    24346295.542 8  95540236.71708     -1316.443 8        50.098    24346294.676 8  98032579.66008     -1350.761 8        50.950
E11         2.000    27675557.470 5 145436056.99505      2637.037 5        35.048                                                                    27675567.352 6 108604919.73706      1969.366 6        38.216    27675566.177 6 111438083.96406      2020.636 6        39.066
E03         3.000    25104383.086 7 131924423.48607     -1338.750 7        45.114                                                                    25104389.559 8  98515003.24508      -999.696 8        48.056    25104388.527 8 101084960.89008     -1025.822 8        48.929
G19         4.000    23496752.463 6 123476388.80606     -3744.718 6        41.404                                    23496753.603 4  96215389.65304     -2917.963 4        26.838
S21         5.000    38540365.604 7 202530557.28207      -512.571 7        42.671
E05         6.000    24829417.162 7 130479353.64707     -3441.958 7        42.491                                                                    24829426.192 7  97435833.39407     -2570.269 7        45.121    24829425.112 7  99977639.79407     -2637.309 7        45.931
G25         7.000    20843955.415 7 109535859.94907      1492.156 7        47.250                                    20843958.162 7  85352693.53007      1162.717 7        47.539    20843959.013 7  85352694.52807      1162.697 7        44.132
C29         8.000                                                                                                                                    23507307.477 7 122408742.98207     -2109.888 7        47.326                                                                    23507309.033 7  99467147.42707     -1714.448 7        46.249
R05         9.000    22094917.204 7 118110016.45707     -3329.121 7        47.047                                                                    22094924.110 7  91863390.09507     -2589.354 7        44.414
G24        10.000    21918863.822 7 115184390.36707     -3505.972 7        47.087                                    21918866.565 7  89754080.55907     -2731.926 7        47.079    21918867.515 7  89754085.55507     -2731.876 7        42.995
C14        11.000                                                                                                                                    25909319.540 6 134916573.67506     -2682.487 6        40.105    25909327.194 7 104326065.03307     -2074.167 7        45.108    25909322.014 6 109630766.94406     -2179.623 6        41.583
S27        12.000    39327160.699 6 206665520.32906      -529.614 6        36.072
E08        13.000    27174367.248 6 142802341.58606      1240.895 6        40.157                                                                    27174377.332 7 106638194.99107       926.695 7        43.896    27174375.515 7 109420049.93507       950.903 7        44.181
S36        14.000    38311459.068 7 201328503.53407      -512.867 7        44.647
G06        15.000    23017541.232 7 120958099.48507      -442.692 7        43.845                                    23017545.800 6  94253134.64706      -344.955 6        40.420    23017546.910 6  94253136.65506      -345.015 6        40.996
G12        17.000    20304784.518 8 106702539.99508      -998.905 8        50.588                                    20304783.167 8  83144919.50108      -778.366 8        52.141    20304783.730 7  83144916.50307      -778.371 7        46.582
G32        18.000    22960239.513 7 120656910.27807      -148.171 7        45.661                                    22960243.547 7  94018422.01007      -115.456 7        42.957    22960243.723 6  94018426.00406      -115.359 6        41.554
E02        19.000    27743142.548 6 145791198.63906      1914.323 6        38.718                                                                    27743155.574 6 108870105.23606      1429.335 6        40.391    27743153.549 6 111710186.46606      1466.762 6        40.779
E10        21.000    26638411.938 6 139985930.67906      2129.476 6        41.154                                                                    26638419.241 7 104535055.67907      1590.072 7        45.415    26638418.393 7 107262045.19207      1631.616 7        45.791
I06        22.000    38606487.787 7 151500250.60107      -484.480 7        42.044
S28        23.000    41011704.694 5 215517802.78405      -520.371 5        35.362
S23        25.000    38252122.001 7 201016110.19007      -517.538 7        45.257
S45        26.000    63505959.612 6 333726506.33806      -576.370 6        36.329
C07        27.000                                                                                                                                    40641062.014 6 211628594.23906     -1445.243 6        36.896    40641064.360 6 163644626.33906     -1117.618 6        40.215    40641061.055 6 171965533.93706     -1174.320 6        37.694
R04        28.000    24250791.530 6 129861684.98506     -4814.530 6        41.118                                                                    24250804.608 6 101003461.67906     -3744.544 6        37.036
C40        29.000                                                                                                                                    41268558.026 6 214896145.16106     -1693.070 6        37.520                                                                    41268562.110 6 174620711.28306     -1375.698 6        38.093
C44        30.000                                                                                                                                    25221480.792 7 131334939.40707      2965.067 7        42.118                                                                    25221487.072 6 106720449.23006      2409.285 6        41.714
E12        31.000    26373638.404 6 138594513.93306      1201.467 6        39.676                                                                    26373642.136 7 103495992.86107       897.222 7        43.009    26373641.407 7 106195873.93707       920.596 7        43.452
G11        32.000    23319537.889 7 122545130.86307      1729.512 7        44.089                                    23319539.305 5  95489795.40605      1347.666 5        30.460    23319539.804 7  95489786.41607      1347.662 7        42.061
I02        33.000    37178134.188 7 145894966.33707      -591.335 7        42.838
R15        34.000    20124516.458 8 107539426.46308      1341.241 8        51.577                                                                    20124520.083 7  83641838.32307      1043.130 7        47.139
R13        35.000    24421269.335 5 130408121.08205     -3959.246 5        34.590
G29        36.000    23962761.291 7 125925319.96207      3126.428 7        43.327                                    23962765.636 6  98123701.74906      2436.177 6        36.801    23962766.074 6  98123711.75206      2436.168 6        38.027
C42        37.000                                                                                                                                    26469846.210 6 137835321.56706     -3344.377 6        40.153                                                                    26469862.919 6 112002510.77006     -2717.680 6        40.482
C10        38.000                                                                                                                                    39583289.766 6 206120530.37306     -1234.931 6        38.817    39583292.959 6 159385458.25606      -955.135 6        41.375    39583289.889 6 167489794.51706     -1003.590 6        39.408
E25        39.000    23923919.851 8 125721215.62908       591.280 8        48.670                                                                    23923924.633 8  93882842.28908       441.547 8        50.690    23923923.572 8  96331945.76508       453.066 8        50.883
R23        41.000    22850617.097 7 122235451.45307     -4009.913 7        43.191
S44        42.000    40855438.307 6 214696819.03206      -436.187 6        37.675
G28        43.000    24901077.123 6 130856063.33806      3028.206 6        40.429                                    24901085.343 3 101965810.90003      2359.628 3        22.095    24901086.098 6 101965810.92306      2359.688 6        38.129
C05        44.000                                                                                                                                    39564997.412 6 206025236.28406      -503.991 6        39.087    39564999.932 7 159311774.00607      -389.959 7        42.728    39564999.502 6 167412458.60406      -409.694 6        39.345
R14        45.000    20023553.777 8 106736912.70308     -1980.115 8        51.853                                                                    20023557.738 7  83017679.39007     -1540.033 7        47.964
R16        46.000    24091844.063 7 128694296.59307      2953.435 7        43.972                                                                    24091856.351 6 100095626.00606      2297.192 6        38.538
R17        47.000    21881556.808 7 117092788.37807      3624.025 7        47.359                                                                    21881562.110 7  91072280.34307      2818.673 7        43.754
C35        48.000                                                                                                                                    22638730.390 8 117885932.39808      1414.525 8        50.361                                                                    22638732.208 8  95792032.37108      1149.497 8        48.613
C45        50.000                                                                                                                                    23982046.599 7 124880794.69707     -2941.921 7        45.856                                                                    23982043.006 7 101475854.71307     -2390.426 7        46.783
S48        51.000    77248440.961 6 405943725.82606      -525.562 6        38.529
C33        52.000                                                                                                                                    25922266.098 7 134984022.15807     -1616.066 7        42.017                                                                    25922286.246 7 109685653.30207     -1313.215 7        42.224
E33        53.000    27127947.681 6 142558449.56706     -1526.891 6        39.550                                                                    27127955.270 7 106456064.98307     -1140.264 7        42.222    27127954.143 7 109233167.68607     -1169.931 7        42.819
C60        54.000                                                                                                                                    40855439.508 6 212745047.83206      -432.462 6        39.318                                                                    40855432.539 6 172872715.41506      -351.255 6        40.362
E31        55.000    27944086.619 6 146847067.26306     -2966.252 6        37.202                                                                    27944098.099 6 109658525.73306     -2215.136 6        41.590    27944096.010 6 112519182.59906     -2272.950 6        40.696
C26        56.000                                                                                                                                    21733407.162 8 113171644.20208      -314.421 8        50.803                                                                    21733408.645 8  91961274.13608      -255.480 8        49.449
C02        57.000                                                                                                                                    41040195.241 5 213706950.21105      -457.202 5        32.204    41040198.633 6 165251721.60906      -353.448 6        36.461    41040199.656 5 173654371.78005      -371.708 5        32.180
I03        58.000    90113970.123 5 277841106.59805       986.515 5        32.048
R06        59.000    22923893.541 6 122326331.28806       799.233 6        36.922
R24        60.000    20198140.776 8 108008671.29808        50.683 8        51.115                                                                    20198143.667 7  84006811.39607        39.393 7        46.198
> 2025 01 02 13 15 10.0000000  0 55
E24         1.000    24347970.375 7 127949563.52707     -1763.687 7        47.986                                                                    24347973.037 8  95546819.65308     -1316.993 8        50.069    24347972.155 8  98039334.32708     -1351.421 8        51.129
E11         2.000    27673048.162 5 145422870.55305      2636.998 5        34.767                                                                    27673058.204 6 108595072.74506      1969.360 6        38.057    27673056.808 6 111427980.10106      2020.666 6        39.501
E03         3.000    25105657.754 7 131931121.97107     -1341.012 7        45.252                                                                    25105664.299 8  98520005.36108     -1001.400 8        48.040    25105663.252 8 101090093.49408     -1027.551 8        49.088
G19         4.000    23500315.852 6 123495114.91906     -3746.061 6        41.232                                    23500317.074 4  96229981.41904     -2919.002 4        26.754
S21         5.000    38540856.114 7 202533118.50507      -512.369 7        42.779
E05         6.000    24832692.181 7 130496564.54907     -3442.678 7        42.512                                                                    24832701.236 7  97448685.66107     -2570.848 7        45.052    24832700.393 7  99990827.35207     -2637.907 7        46.152
G25         7.000    20842536.173 7 109528402.36807      1490.414 7        47.099                                    20842539.021 7  85346882.43607      1161.361 7        47.704    20842539.530 7  85346883.43307      1161.442 7        44.265
C29         8.000                                                                                                                                    23509334.035 7 122419297.58607     -2112.288 7        47.136                                                                    23509335.983 7  99475723.90207     -1716.507 7        46.356
R05         9.000    22098032.624 7 118126668.37907     -3332.066 7        47.333                                                                    22098039.557 7  91876341.56207     -2591.543 7        44.855
G24        10.000    21922199.987 7 115201923.81307     -3507.708 7        46.897                                    21922203.142 7  89767742.97107     -2733.277 7        47.284    21922203.918 7  89767747.97707     -2733.255 7        43.264
C14        11.000                                                                                                                                    25911894.657 6 134929988.78706     -2684.116 6        40.088    25911903.013 7 104336438.42807     -2075.506 7        44.813    25911898.246 6 109641667.79106     -2181.007 6        41.909
S27        12.000    39327666.248 6 206668166.73806      -529.284 6        36.355
E08        13.000    27173186.981 6 142796140.52906      1239.155 6        40.017                                                                    27173197.354 7 106633564.36107       925.314 7        43.964    27173195.518 7 109415298.50007       949.409 7        44.423
S36        14.000    38311947.973 7 201331066.23807      -512.991 7        44.707
G06        15.000    23017963.986 7 120960320.37807      -445.967 7        43.060                                    23017968.333 6  94254865.21906      -347.509 6        40.522    23017968.992 6  94254867.23306      -347.583 6        40.892
G12        17.000    20305735.855 8 106707538.87308     -1000.950 8        50.839                                    20305734.411 8  83148814.73108      -779.961 8        52.264    20305734.679 7  83148811.74007      -780.040 7        46.715
G32        18.000    22960381.340 7 120657658.17407      -151.405 7        45.552                                    22960385.861 7  94019004.78707      -117.978 7        43.046    22960386.488 6  94019008.78706      -118.002 6        41.981
E02        19.000    27741320.662 6 145781626.92606      1914.166 6        38.483                                                                    27741334.188 6 108862957.56006      1429.379 6        40.546    27741332.089 6 111702852.31406      1466.685 6        40.789
E10        21.000    26636386.113 6 139975285.37906      2128.280 6        41.216                                                                    26636393.311 7 104527106.32507      1589.323 7        45.240    26636392.686 7 107253888.46307      1630.753 7        45.979
I06        22.000    38607104.642 7 151502671.70207      -484.216 7        42.021
S28        23.000    41012205.024 5 215520402.46705      -520.253 5        35.148
S23        25.000    38252613.298 7 201018697.05107      -517.693 7        45.102
S45        26.000    63506456.137 6 333729387.67006      -576.334 6        36.238
C07        27.000                                                                                                                                    40642449.916 6 211635819.54006     -1445.259 6        37.130    40642451.722 6 163650213.42706     -1117.605 6        40.248    40642448.690 6 171971405.11406     -1174.487 6        37.554
R04        28.000    24255286.766 6 129885756.26606     -4814.187 6        41.576                                                                    24255299.751 6 101022183.64006     -3744.432 6        37.028
C40        29.000                                                                                                                                    41270183.134 6 214904608.80606     -1692.812 6        38.270                                                                    41270187.501 6 174627588.70606     -1375.646 6        38.195
C44        30.000                                                                                                                                    25218633.975 7 131320114.66907      2964.625 7        42.415                                                                    25218639.891 6 106708402.94006      2408.933 6        41.678
E12        31.000    26372496.213 6 138588510.49306      1199.382 6        40.105                                                                    26372499.701 7 103491509.78107       895.800 7        42.946    26372498.931 7 106191273.91307       919.041 7        43.615
G11        32.000    23317893.096 7 122536488.03607      1727.259 7        44.491                                    23317894.499 5  95483060.75405      1345.919 5        30.574    23317895.557 7  95483051.75607      1346.031 7        42.294
I02        33.000    37178887.524 7 145897922.14507      -591.292 7        42.808
R15        34.000    20123262.213 8 107532723.79808      1339.557 8        51.604                                                                    20123265.866 7  83636625.14807      1041.916 7        47.659
R13        35.000    24424977.152 5 130427916.08005     -3959.336 5        35.467
G29        36.000    23959786.416 7 125909688.49107      3125.678 7        42.463                                    23959791.045 6  98111521.39506      2435.590 6        36.877    23959791.414 6  98111531.40506      2435.699 6        37.974
C42        37.000                                                                                                                                    26473057.230 6 137852044.28206     -3344.946 6        40.739                                                                    26473074.380 6 112016099.30906     -2718.074 6        40.865
C10        38.000                                                                                                                                    39584475.105 6 206126704.57206     -1234.950 6        38.937    39584478.940 6 159390232.53706      -955.050 6        41.318    39584475.435 6 167494811.57206     -1003.587 6        39.673
E25        39.000    23923357.606 8 125718260.81608       590.285 8        48.651                                                                    23923362.354 8  93880635.77808       440.802 8        50.714    23923361.292 8  96329681.69108       452.307 8        51.058
R23        41.000    22854366.055 7 122255506.45707     -4012.438 7        43.710
S44        42.000    40855850.112 6 214698999.64906      -436.143 6        37.331
G28        43.000    24898195.862 6 130840922.03006      3028.032 6        39.348                                    24898203.999 3 101954012.52103      2359.494 3        21.976    24898204.594 6 101954012.54106      2359.562 6        38.853
C05        44.000                                                                                                                                    39565481.461 6 206027755.59506      -503.846 6        39.144    39565483.904 7 159313722.08807      -389.660 7        42.741    39565483.323 6 167414505.74906      -409.716 6        39.562
R14        45.000    20025412.087 8 106746817.62908     -1982.220 8        51.647                                                                    20025415.918 8  83025383.21608     -1541.748 8        48.440
R16        46.000    24089078.180 7 128679527.55307      2953.768 7        43.748                                                                    24089091.472 6 100084138.97406      2297.392 6        38.303
R17        47.000    21878171.660 7 117074671.93707      3622.199 7        47.986                                                                    21878176.628 7  91058189.82107      2817.285 7        44.218
C35        48.000                                                                                                                                    22637372.869 8 117878864.25408      1412.342 8        50.494                                                                    22637374.854 8  95786288.93808      1147.553 8        48.857
C45        50.000                                                                                                                                    23984871.817 7 124895505.73607     -2942.827 7        46.239                                                                    23984868.184 7 101487808.62607     -2391.365 7        47.085
S48        51.000    77248931.995 6 405946352.53806      -525.482 6        38.411
C33        52.000                                                                                                                                    25923818.685 7 134992107.48007     -1618.453 7        42.324                                                                    25923839.014 7 109692223.26507     -1315.232 7        42.269
E33        53.000    27129401.868 6 142566088.94906     -1529.232 6        39.432                                                                    27129408.794 6 106461769.72506     -1141.995 6        41.983    27129407.874 7 109239021.24807     -1171.740 7        42.764
C60        54.000                                                                                                                                    40855854.578 6 212747208.62506      -432.208 6        39.742                                                                    40855847.483 6 172874471.24306      -351.332 6        40.565
E31        55.000    27946909.044 6 146861897.84706     -2966.288 6        37.871                                                                    27946920.217 6 109669600.50306     -2214.964 6        41.669    27946918.227 6 112530546.28006     -2272.773 6        41.011
C26        56.000                                                                                                                                    21733709.679 8 113173219.60308      -316.111 8        50.972                                                                    21733711.141 8  91962554.27308      -256.929 8        49.667
C02        57.000                                                                                                                                    41040632.919 5 213709235.13505      -456.797 5        32.461    41040637.487 6 165253488.50706      -353.502 6        36.681    41040638.323 5 173656228.50705      -371.216 5        32.234
I03        58.000    90112713.624 5 277836175.39205       986.228 5        32.419
R06        59.000    22923146.292 6 122322343.53706       795.352 6        36.820
R24        60.000    20198095.040 8 108008428.47708        46.140 8        50.862                                                                    20198097.990 7  84006622.54707        35.921 7        46.705
> 2025 01 02 13 15 15.0000000  0 55
E24         1.000    24349648.695 7 127958383.43007     -1764.482 7        47.770                                                                    24349651.357 8  95553405.94108     -1317.599 8        50.066    24349650.544 8  98046092.43008     -1351.980 8        51.248
E11         2.000    27670539.105 5 145409684.61605      2637.222 5        34.790                                                                    27670549.054 6 108585226.14606      1969.468 6        38.135    27670547.760 6 111417876.63906      2020.611 6        39.622
E03         3.000    25106934.668 7 131937832.37007     -1343.309 7        44.927                                                                    25106941.200 8  98525016.37708     -1003.112 8        48.109    25106940.228 8 101095235.23208     -1029.284 8        49.287
G19         4.000    23503881.022 6 123513847.63206     -3747.213 6        40.987                                    23503881.955 4  96244578.33204     -2919.901 4        26.299
S21         5.000    38541341.853 7 202535679.61307      -512.284 7        42.525
E05         6.000    24835968.244 7 130513779.68907     -3443.521 7        42.262                                                                    24835977.298 7  97461541.08507     -2571.473 7        45.124    24835976.178 7 100004018.13607     -2638.517 7        46.166
G25         7.000    20841118.869 7 109520953.66907      1488.774 7        47.272                                    20841121.570 7  85341078.26307      1160.082 7        47.617    20841122.452 7  85341079.26307      1160.148 7        44.111
C29         8.000                                                                                                                                    23511363.623 7 122429864.25207     -2114.585 7        47.028                                                                    23511365.113 7  99484310.17107     -1718.233 7        46.145
R05         9.000    22101150.992 7 118143336.00107     -3335.116 7        47.963                                                                    22101156.573 7  91889305.22107     -2594.035 7        44.730
G24        10.000    21925538.573 7 115219466.64507     -3509.519 7        47.137                                    21925541.531 7  89781412.70307     -2734.688 7        47.237    21925542.056 7  89781417.69907     -2734.681 7        43.431
C14        11.000                                                                                                                                    25914472.648 6 134943412.24506     -2685.549 6        40.338    25914479.791 7 104346818.26807     -2076.638 7        43.989    25914476.169 6 109652575.42606     -2182.241 6        41.681
S27        12.000    39328166.819 6 206670812.98706      -529.375 6        36.242
E08        13.000    27172009.210 6 142789949.28006      1237.384 6        40.174                                                                    27172018.956 7 106628941.04507       923.952 7        43.911    27172017.334 7 109410554.57707       947.992 7        44.439
S36        14.000    38312435.326 7 201333629.28507      -512.830 7        44.722
G06        15.000    23018389.625 7 120962558.24107      -449.270 7        42.978                                    23018394.103 6  94256609.01206      -350.084 6        40.374    23018395.074 6  94256611.01706      -350.127 6        40.708
G12        17.000    20306689.040 8 106712548.58508     -1003.040 8        50.776                                    20306687.720 8  83152718.40108      -781.589 8        52.186    20306688.278 7  83152715.40407      -781.620 7        46.747
G32        18.000    22960527.095 7 120658422.29607      -154.397 7        46.285                                    22960531.261 7  94019600.20607      -120.311 7        42.961    22960532.024 6  94019604.21606      -120.440 6        41.185
E02        19.000    27739499.930 6 145772056.52606      1913.920 6        38.649                                                                    27739513.056 6 108855810.84606      1429.195 6        40.381    27739510.905 6 111695519.19006      1466.375 6        40.918
E10        21.000    26634361.571 6 139964646.19406      2127.207 6        41.375                                                                    26634368.705 7 104519161.53207      1588.491 7        45.252    26634368.159 7 107245736.41407      1629.883 7        46.096
I06        22.000    38607721.763 7 151505092.73407      -484.233 7        42.023
S28        23.000    41012693.150 5 215523001.76405      -519.825 5        35.324
S23        25.000    38253104.117 7 201021284.12007      -517.341 7        45.148
S45        26.000    63506948.266 6 333732268.95406      -576.336 6        36.215
C07        27.000                                                                                                                                    40643837.138 6 211643044.69606     -1445.048 6        36.824    40643839.027 6 163655800.37606     -1117.323 6        40.243    40643836.366 6 171977276.14006     -1174.137 6        37.429
R04        28.000    24259782.375 6 129909826.48006     -4813.935 6        41.940                                                                    24259795.717 6 101040904.75206     -3744.271 6        37.055
C40        29.000                                                                                                                                    41271808.886 6 214913071.92106     -1692.340 6        38.414                                                                    41271812.690 6 174634465.69906     -1375.395 6        37.796
C44        30.000                                                                                                                                    25215787.418 7 131305292.22907      2964.194 7        42.521                                                                    25215793.575 6 106696358.50806      2408.780 6        41.507
E12        31.000    26371355.803 6 138582517.35706      1197.572 6        40.055                                                                    26371359.260 7 103487034.40707       894.279 7        42.946    26371358.480 7 106186681.77207       917.669 7        43.736
G11        32.000    23316250.327 7 122527856.41807      1725.213 7        44.432                                    23316251.996 5  95476334.83905      1344.321 5        30.687    23316252.714 7  95476325.85407      1344.272 7        42.811
I02        33.000    37179640.986 7 145900878.69907      -591.384 7        42.798
R15        34.000    20122009.345 8 107526029.50708      1338.016 8        51.712                                                                    20122013.178 7  83631418.49607      1040.622 7        47.841
R13        35.000    24428684.406 5 130447713.08205     -3959.567 5        35.276
G29        36.000    23956812.430 7 125894061.60307      3124.886 7        43.069                                    23956817.287 6  98099344.62406      2434.971 6        36.892    23956817.853 6  98099354.64006      2434.918 6        37.747
C42        37.000                                                                                                                                    26476269.361 6 137868769.69106     -3345.410 6        41.189                                                                    26476286.564 6 112029690.08006     -2718.465 6        40.348
C10        38.000                                                                                                                                    39585660.984 6 206132879.00006     -1234.832 6        39.132    39585665.059 6 159395007.01406      -954.973 6        41.266    39585661.248 6 167499828.80806     -1003.427 6        39.435
E25        39.000    23922796.340 8 125715310.98108       589.478 8        48.502                                                                    23922801.025 8  93878432.97808       440.193 8        50.723    23922799.976 8  96327421.42408       451.700 8        51.203
R23        41.000    22858117.894 7 122275574.79907     -4015.094 7        43.321
S44        42.000    40856267.717 6 214701180.23306      -436.119 6        37.637
G28        43.000    24895314.362 6 130825782.88106      3027.583 6        39.303                                    24895323.313 3 101942215.81703      2359.156 3        21.857    24895323.999 6 101942215.86406      2359.021 6        38.387
C05        44.000                                                                                                                                    39565965.031 6 206030274.80306      -503.797 6        39.132    39565967.403 7 159315670.08607      -389.474 7        42.652    39565967.179 6 167416552.79006      -409.404 6        39.249
R14        45.000    20027272.131 8 106756733.16508     -1984.119 8        51.556                                                                    20027276.158 8  83033095.29308     -1543.234 8        48.628
R16        46.000    24086313.661 7 128664757.89207      2954.070 7        43.321                                                                    24086326.316 6 100072651.47006      2297.461 6        38.387
R17        47.000    21874788.539 7 117056564.78607      3620.529 7        47.882                                                                    21874793.042 7  91044106.53707      2815.900 7        44.590
C35        48.000                                                                                                                                    22636017.904 8 117871807.88608      1410.045 8        50.581                                                                    22636019.825 8  95780555.06708      1145.798 8        48.666
C45        50.000                                                                                                                                    23987697.891 7 124910222.04307     -2943.765 7        46.140                                                                    23987694.371 7 101499766.81907     -2392.036 7        46.827
S48        51.000    77249419.898 6 405948979.52806      -525.616 6        38.435
C33        52.000                                                                                                                                    25925373.974 7 135000205.29407     -1620.798 7        42.110                                                                    25925394.084 7 109698803.39607     -1317.000 7        42.163
E33        53.000    27130857.745 6 142573740.32906     -1531.512 6        38.955                                                                    27130864.760 7 106467483.42607     -1143.667 7        42.097    27130863.609 7 109244884.00307     -1173.509 7        42.899
C60        54.000                                                                                                                                    40856269.862 6 212749369.37206      -432.060 6        39.718                                                                    40856262.472 6 172876227.03606      -351.249 6        40.381
E31        55.000    27949731.374 6 146876728.70906     -2966.184 6        37.308                                                                    27949742.621 6 109680675.48506     -2214.983 6        41.700    27949740.511 6 112541910.19906     -2272.918 6        41.132
C26        56.000                                                                                                                                    21734013.843 8 113174803.91608      -317.739 8        50.992                                                                    21734015.431 8  91963841.66008      -258.218 8        49.345
C02        57.000                                                                                                                                    41041071.885 5 213711520.00905      -456.877 5        32.653    41041075.822 6 165255255.29406      -353.190 6        36.488    41041077.110 5 173658085.15205      -371.491 5        31.389
I03        58.000    90111457.441 5 277831243.93905       986.172 5        32.359
R06        59.000    22922403.185 6 122318376.88006       791.182 6        36.994
R24        60.000    20198053.599 8 108008208.78208        41.594 8        50.969                                                                    20198057.454 7  84006451.67907        32.422 7        47.048
> 2025 01 02 13 15 20.0000000  0 55
E24         1.000    24351327.716 7 127967207.82007     -1765.452 7        47.607                                                                    24351330.556 8  95559995.58308     -1318.351 8        50.075    24351329.792 8  98052853.97608     -1352.756 8        51.119
E11         2.000    27668029.976 5 145396499.24305      2636.799 5        35.181                                                                    27668039.992 6 108575379.97306      1969.196 6        38.309    27668038.668 6 111407773.60206      2020.349 6        39.483
E03         3.000    25108214.224 7 131944554.71707     -1345.785 7        45.177                                                                    25108220.392 8  98530036.30308     -1004.966 8        48.081    25108219.423 8 101100386.11108     -1031.136 8        49.165
G19         4.000    23507446.907 6 123532586.95206     -3748.708 6        41.359                                    23507448.051 4  96259180.38704     -2921.060 4        26.491
S21         5.000    38541829.550 7 202538240.54407      -512.310 7        42.995
E05         6.000    24839244.784 7 130530999.04807     -3444.405 7        42.449                                                                    24839254.171 7  97474399.66007     -2572.072 7        45.017    24839252.789 7 100017212.15607     -2639.167 7        46.143
G25         7.000    20839703.149 7 109513513.88307      1487.034 7        47.161                                    20839705.814 7  85335281.03507      1158.729 7        47.733    20839706.628 7  85335282.05007      1158.546 7        44.251
C29         8.000                                                                                                                                    23513395.272 7 122440442.97507     -2117.005 7        46.996                                                                    23513396.642 7  99492906.25007     -1720.222 7        46.228
R05         9.000    22104272.121 7 118160019.09307     -3338.371 7        47.855                                                                    22104277.786 7  91902280.93907     -2596.443 7        44.004
G24        10.000    21928878.691 7 115237018.85707     -3511.430 7        47.512                                    21928881.676 7  89795089.74107     -2736.182 7        47.316    21928881.867 7  89795094.75307     -2736.270 7        43.488
C14        11.000                                                                                                                                    25917052.333 6 134956844.06606     -2687.350 6        39.763    25917059.261 7 104357204.55707     -2077.944 7        43.759    25917055.489 6 109663489.83606     -2183.500 6        41.697
S27        12.000    39328673.776 6 206673459.33406      -529.236 6        36.507
E08        13.000    27170833.090 6 142783767.87306      1235.256 6        40.279                                                                    27170842.574 7 106624325.07707       922.448 7        43.814    27170841.043 7 109405818.18707       946.465 7        44.367
S36        14.000    38312924.151 7 201336193.13907      -513.002 7        44.972
G06        15.000    23018819.193 7 120964813.04407      -452.752 7        42.783                                    23018823.146 6  94258366.00906      -352.794 6        40.472    23018823.994 6  94258368.00806      -352.757 6        41.151
G12        17.000    20307644.517 8 106717569.14608     -1005.325 8        50.700                                    20307643.096 8  83156630.53008      -783.369 8        52.267    20307643.758 7  83156627.53007      -783.344 7        46.911
G32        18.000    22960675.727 7 120659202.68507      -157.891 7        46.177                                    22960679.759 7  94020208.30507      -123.032 7        43.079    22960680.058 6  94020212.29806      -123.010 6        41.058
E02        19.000    27737678.996 6 145762487.42606      1913.510 6        39.252                                                                    27737692.033 6 108848665.12306      1429.027 6        40.465    27737689.829 6 111688187.02106      1466.319 6        40.648
E10        21.000    26632338.364 6 139954013.12006      2126.023 6        41.816                                                                    26632345.241 7 104511221.32507      1587.531 7        45.211    26632344.750 7 107237589.06007      1628.929 7        46.011
I06        22.000    38608338.789 7 151507513.67507      -484.210 7        42.445
S28        23.000    41013188.852 5 215525601.47205      -519.969 5        35.405
S23        25.000    38253596.465 7 201023871.22007      -517.590 7        45.303
S45        26.000    63507443.078 6 333735150.22106      -576.563 6        36.389
