     3.04           OBSERVATION DATA    M                   RINEX VERSION / TYPE
ssrcrin-15.6.1x                         20250102 053000 UTC PGM / RUN BY / DATE 
(00000000023479385599111004) Septentrio proprietary         COMMENT             
rref                                                        MARKER NAME         
01                                                          MARKER NUMBER       
geodetic                                                    MARKER TYPE         
NFB                 CLIMERS@TUW                             OBSERVER / AGENCY   
3297213             SEPT ASTERX SB3 PROB4.14.4              REC # / TYPE / VERS 
Unknown             Unknown                                 ANT # / TYPE        
  4127831.5375  1207193.0302  4695247.4055                  APPROX POSITION XYZ 
        0.0000        0.0000        0.0000                  ANTENNA: DELTA H/E/N
G   23 X1  C1C L1C D1C S1C C1W S1W C2W L2W D2W S2W C2L L2L  SYS / # / OBS TYPES 
       D2L S2L C5Q L5Q D5Q S5Q C1L L1L D1L S1L              SYS / # / OBS TYPES 
E   21 X1  C1C L1C D1C S1C C6C L6C D6C S6C C5Q L5Q D5Q S5Q  SYS / # / OBS TYPES 
       C7Q L7Q D7Q S7Q C8Q L8Q D8Q S8Q                      SYS / # / OBS TYPES 
S    9 X1  C1C L1C D1C S1C C5I L5I D5I S5I                  SYS / # / OBS TYPES 
R   17 X1  C1C L1C D1C S1C C2P L2P D2P S2P C2C L2C D2C S2C  SYS / # / OBS TYPES 
       C3Q L3Q D3Q S3Q                                      SYS / # / OBS TYPES 
C   25 X1  C1P L1P D1P S1P C5P L5P D5P S5P C2I L2I D2I S2I  SYS / # / OBS TYPES 
       C7I L7I D7I S7I C6I L6I D6I S6I C7D L7D D7D S7D      SYS / # / OBS TYPES 
J   17 X1  C1C L1C D1C S1C C2L L2L D2L S2L C5Q L5Q D5Q S5Q  SYS / # / OBS TYPES 
       C1L L1L D1L S1L                                      SYS / # / OBS TYPES 
I    5 X1  C5A L5A D5A S5A                                  SYS / # / OBS TYPES 
SEPTENTRIO RECEIVERS OUTPUT ALIGNED CARRIER PHASES.         COMMENT             
NO FURTHER PHASE SHIFT APPLIED IN THE RINEX ENCODER.        COMMENT             
G L1C                                                       SYS / PHASE SHIFT   
G L2W                                                       SYS / PHASE SHIFT   
G L2L  0.00000                                              SYS / PHASE SHIFT   
G L5Q  0.00000                                              SYS / PHASE SHIFT   
G L1L  0.00000                                              SYS / PHASE SHIFT   
E L1C  0.00000                                              SYS / PHASE SHIFT   
E L6C  0.00000                                              SYS / PHASE SHIFT   
E L5Q  0.00000                                              SYS / PHASE SHIFT   
E L7Q  0.00000                                              SYS / PHASE SHIFT   
E L8Q  0.00000                                              SYS / PHASE SHIFT   
S L1C                                                       SYS / PHASE SHIFT   
S L5I                                                       SYS / PHASE SHIFT   
R L1C                                                       SYS / PHASE SHIFT   
R L2P  0.00000                                              SYS / PHASE SHIFT   
R L2C                                                       SYS / PHASE SHIFT   
R L3Q  0.00000                                              SYS / PHASE SHIFT   
C L1P  0.00000                                              SYS / PHASE SHIFT   
C L5P  0.00000                                              SYS / PHASE SHIFT   
C L2I                                                       SYS / PHASE SHIFT   
C L7I                                                       SYS / PHASE SHIFT   
C L6I                                                       SYS / PHASE SHIFT   
C L7D                                                       SYS / PHASE SHIFT   
J L1C                                                       SYS / PHASE SHIFT   
J L2L  0.00000                                              SYS / PHASE SHIFT   
J L5Q  0.00000                                              SYS / PHASE SHIFT   
J L1L  0.00000                                              SYS / PHASE SHIFT   
I L5A                                                       SYS / PHASE SHIFT   
  2025     1     2     5    30    0.0000000     GPS         TIME OF FIRST OBS   
 C1C    0.000 C2C    0.000 C2P    0.000                     GLONASS COD/PHS/BIS 
DBHZ                                                        SIGNAL STRENGTH UNIT
    18                                                      LEAP SECONDS        
 24 R01  1 R02 -4 R03  5 R04  6 R05  1 R06 -4 R07  5 R08  6 GLONASS SLOT / FRQ #
    R09 -2 R10 -7 R11  0 R12 -1 R13 -2 R14 -7 R15  0 R16 -1 GLONASS SLOT / FRQ #
    R17  4 R18 -3 R19  3 R20  2 R21  4 R22 -3 R23  3 R24  2 GLONASS SLOT / FRQ #
                                                            END OF HEADER       
> 2025 01 02 05 30  0.0000000  0 56
G09         1.000    21347123.302 7 112179922.99207     -2593.821 7        46.825                                    21347120.621 8  87412932.57308     -2021.155 8        48.683    21347120.665 7  87412932.57607     -2021.139 7        44.302
G06         2.000    23571702.127 6 123870146.21006     -3765.661 6        41.416                                    23571700.599 6  96522195.34006     -2934.277 6        39.255    23571701.328 6  96522203.32806     -2934.248 6        40.186
E11         3.000    25183859.840 7 132342096.80407     -1996.065 7        42.637                                                                    25183855.619 7  98826881.51707     -1490.563 7        43.960    25183855.287 7 101404970.20307     -1529.469 7        44.662
G16         4.000    24149022.531 6 126903983.84606     -2345.621 6        39.405                                    24149017.973 3  98886204.11803     -1827.750 3        20.214
S21         5.000    38591572.886 7 202799792.62807      -486.139 7        42.536
E10         6.000    26057247.915 7 136931769.38907     -3191.514 7        44.503                                                                    26057246.815 7 102254239.30307     -2383.329 7        46.155    26057246.723 7 104921740.75407     -2445.488 7        47.235
G20         7.000    21422776.917 7 112577464.32707      1432.645 7        46.636                                    21422771.703 6  87722681.12306      1116.347 6        36.983
R02         8.000    23971678.320 7 127917465.74007      2957.862 7        43.951                                                                    23971677.490 6  99491362.24106      2300.553 6        37.546
R10         9.000    20399337.217 7 108739951.78107     -1415.188 7        44.752
R17        10.000    22436518.008 7 120062351.60907      -124.226 7        46.049                                                                    22436517.394 7  93381823.39707       -96.591 7        43.264
G30        11.000    21665580.526 8 113853405.19208      1832.687 8        48.967                                    21665577.984 8  88716931.72708      1428.071 8        48.778    21665578.324 7  88716939.72707      1428.048 7        43.826
S27        12.000    39233086.592 6 206171226.41506      -503.242 6        37.070
G13        13.000    25075928.152 6 131774898.33206      2874.007 6        37.270                                    25075924.592 2 102681717.09202      2239.507 2        12.909
S36        14.000    38359558.903 7 201581374.67507      -486.676 7        45.004
I09        15.000    38485743.857 7 151026317.07907      -844.872 7        42.536
E09        16.000    27014535.732 6 141962367.97106      1792.473 6        41.628                                                                    27014535.088 7 106010858.78807      1338.529 7        43.084    27014534.851 7 108776355.62807      1373.469 7        44.462
S45        17.000    63543977.942 6 333926176.55106      -527.950 6        37.244
E36        18.000    26470082.086 7 139101220.70007       679.782 7        42.186                                                                    26470082.149 7 103874309.08607       507.628 7        44.695    26470081.915 7 106584071.84007       520.933 7        45.944
E12        19.000    27536441.491 6 144704978.17506     -3699.741 6        36.310                                                                    27536438.535 6 108058898.28206     -2762.978 6        39.327    27536438.787 6 110877825.83506     -2835.124 6        40.808
E21        20.000    26103867.028 7 137176743.57707       453.879 7        43.107                                                                    26103866.096 7 102437194.32607       338.938 7        45.868    26103865.773 7 105109465.22307       347.743 7        47.064
G11        21.000    22594622.504 7 118735559.56207     -1982.128 7        45.836                                    22594618.275 5  92521197.55005     -1544.513 5        34.562    22594618.522 7  92521210.54907     -1544.439 7        44.840
I06        22.000    38111012.564 7 149556036.05207      -360.947 7        43.558
S28        23.000    41020771.736 5 215565571.14405      -487.287 5        35.252
R08        24.000    20296975.382 8 108689420.37608     -2128.802 8        49.700                                                                    20296972.288 7  84536220.14207     -1655.725 7        46.997
S23        25.000    38296980.299 7 201251969.23307      -483.060 7        45.040
R01        26.000    20188509.560 8 107919161.77908      1503.771 8        48.945                                                                    20188508.279 6  83937119.32306      1169.662 6        41.247
C44        27.000                                                                                                                                    25984451.583 6 135307862.23706     -1390.960 6        40.036                                                                    25984449.561 6 109948716.90806     -1130.284 6        40.012
R24        29.000    22635572.828 7 121042591.33007     -3537.760 7        47.444                                                                    22635571.886 6  94144225.63106     -2751.448 6        41.032
E19        30.000    24603524.600 6 129292426.43406     -2255.732 6        41.969                                                                    24603522.391 7  96549541.17407     -1684.398 7        43.496    24603522.081 7  99068221.66307     -1728.387 7        44.263
C23        31.000                                                                                                                                    27335874.622 6 142345069.45006     -3604.333 6        37.104                                                                    27335866.480 6 115666993.63206     -2928.689 6        36.972
E29        33.000    28917129.328 5 151960547.96905     -2965.076 5        32.515                                                                    28917132.908 6 113477025.26306     -2214.161 6        37.543    28917131.840 6 116437292.57306     -2272.084 6        37.834
E04        34.000    23671341.427 8 124393776.45208       216.781 8        48.848                                                                    23671339.039 8  92891468.26008       161.876 8        51.055    23671338.766 8  95314719.38108       166.103 8        51.725
C16        35.000                                                                                                                                    40772489.949 6 212313075.99806     -1508.766 6        38.429    40772490.741 6 164173947.36206     -1166.688 6        39.688    40772488.088 5 172521763.42205     -1225.996 5        35.329
C32        36.000                                                                                                                                                                                                                                                                    27475524.336 3                     -2812.261 3        18.328
I01        37.000   385890758.036 6 211177399.25406     -2973.868 6        41.511
E27        38.000    27978577.809 6 147028418.48706     -2060.281 6        38.664                                                                    27978576.990 6 109793959.90106     -1538.466 6        41.719    27978576.723 6 112658146.51406     -1578.679 6        41.435
C19        39.000                                                                                                                                    22206006.011 8 115632504.52408       468.316 8        51.094                                                                    22206000.419 8  93960860.07008       380.579 8        50.061
G05        41.000    23925720.864 6 125730520.99906      2989.960 6        41.070                                    23925715.690 6  97971816.73306      2329.839 6        36.299    23925716.078 6  97971825.74606      2329.769 6        39.574
S44        42.000    40971594.602 6 215307324.13006      -544.635 6        37.149
C36        43.000                                                                                                                                    25928017.411 6 135013988.66106      3016.745 6        40.312                                                                    25928021.841 7 109709945.48307      2451.333 7        42.900
C05        44.000                                                                                                                                    39375363.188 6 205037882.92206      -540.127 6        39.075    39375358.191 7 158548320.96707      -417.665 7        43.481    39375360.587 6 166610178.16106      -438.887 6        40.563
R18        45.000    24471675.698 6 130631483.91106      2580.442 6        40.052                                                                    24471676.768 6 101602247.75206      2007.062 6        38.018
G04        46.000    23586206.833 6 123946373.43606     -3448.635 6        41.290                                    23586203.608 4  96581572.53004     -2687.251 4        26.024    23586204.138 6  96581574.51406     -2687.013 6        39.943
R11        47.000    20823814.822 8 111276133.12008      2769.962 8        50.625                                                                    20823812.949 7  86548107.38307      2154.490 7        47.081
C20        49.000                                                                                                                                    22914231.969 8 119320441.97508     -2187.922 8        50.657                                                                    22914225.831 8  96957616.78608     -1777.875 8        49.725
C06        50.000                                                                                                                                    40206326.108 6 209364910.44906     -1540.169 6        36.193    40206320.015 6 161894210.54906     -1190.860 6        40.124    40206319.616 6 170126118.54606     -1251.444 6        36.836
S48        51.000    77322984.018 6 406334412.11106      -470.672 6        38.183
E06        52.000    24907244.770 7 130888481.41607      1244.134 7        45.622                                                                    24907243.704 8  97741410.86208       928.988 8        48.447    24907243.671 8 100291184.56708       953.203 8        49.425
C09        53.000                                                                                                                                    39526371.929 6 205824211.64306     -1267.434 6        38.856    39526368.620 7 159156326.83307      -979.992 7        44.337    39526366.625 6 167249011.08406     -1029.786 6        40.486
C60        54.000                                                                                                                                    40971591.242 6 213350004.01906      -539.516 6        40.026                                                                    40971576.948 6 173364318.48306      -438.449 6        39.462
R09        55.000    23018775.831 7 122918998.05007     -4135.983 7        43.297                                                                    23018774.038 7  95603659.28307     -3216.911 7        42.440
G07        56.000    20915912.020 8 109913879.33408      -463.304 8        49.375                                    20915906.682 8  85647162.60808      -361.016 8        50.705    20915906.806 7  85647171.61007      -360.962 7        46.652
C02        57.000                                                                                                                                    40937765.836 5 213173707.15505      -564.341 5        34.800    40937761.367 6 164839418.37706      -436.404 6        40.005    40937764.094 6 173221095.58306      -458.405 6        36.129
I03        58.000    99137936.880 6 313253287.14906       840.193 6        40.923
R07        59.000    23917205.781 6 128030696.65406     -3863.657 6        41.728                                                                    23917206.729 6  99579473.04506     -3004.958 6        38.751
C35        60.000                                                                                                                                    26385089.372 6 137394076.60006     -2977.905 6        39.796                                                                    26385087.884 6 111643935.53706     -2419.751 6        40.157
> 2025 01 02 05 30  5.0000000  0 55
G09         1.000    21349591.568 7 112192894.35107     -2594.835 7        46.953                                    21349588.938 8  87423040.12208     -2021.949 8        48.684    21349589.300 7  87423040.12107     -2021.906 7        44.415
G06         2.000    23575285.547 7 123888976.46807     -3766.501 7        42.042                                    23575283.831 6  96536868.26106     -2934.933 6        39.246    23575285.275 6  96536876.26906     -2934.935 6        40.479
E11         3.000    25185760.216 7 132352081.66907     -1997.874 7        42.559                                                                    25185755.681 7  98834337.74607     -1492.040 7        44.032    25185755.385 7 101412620.93307     -1530.812 7        44.653
G16         4.000    24151256.183 6 126915718.48706     -2348.266 6        39.027                                    24151250.739 3  98895348.00203     -1829.820 3        19.522
S21         5.000    38592035.609 7 202802221.83707      -485.786 7        42.703
E10         6.000    26060285.000 7 136947729.15107     -3192.431 7        44.760                                                                    26060283.865 7 102266157.30107     -2383.991 7        46.127    26060283.773 7 104933969.66107     -2446.110 7        47.211
G20         7.000    21421414.733 7 112570305.81807      1430.607 7        46.671                                    21421409.486 6  87717103.06506      1114.761 6        36.911
R02         8.000    23968906.356 7 127902674.99907      2958.251 7        43.623                                                                    23968904.543 6  99479858.32006      2300.927 6        36.401
R10         9.000    20400666.884 7 108747037.65507     -1419.291 7        45.201
R17        10.000    22436635.981 7 120062982.63307      -128.244 7        46.395                                                                    22436635.282 7  93382314.19507       -99.714 7        43.289
G30        11.000    21663837.547 8 113844245.52808      1831.035 8        48.525                                    21663834.955 8  88709794.32408      1426.782 8        48.750    21663835.195 7  88709802.32907      1426.738 7        43.934
S27        12.000    39233564.922 6 206173741.92606      -503.046 6        36.994
G13        13.000    25073194.312 6 131760527.57906      2874.109 6        36.030                                    25073189.993 2 102670519.13402      2239.559 2        12.788
S36        14.000    38360018.448 7 201583805.96907      -486.107 7        45.082
I09        15.000    38486820.632 7 151030540.71507      -844.658 7        42.527
E09        16.000    27012830.391 6 141953404.90506      1792.566 6        41.697                                                                    27012829.425 7 106004165.58407      1338.629 7        43.067    27012829.237 7 108769487.82607      1373.455 7        44.360
S45        17.000    63544435.894 6 333928814.46006      -527.471 6        37.285
E36        18.000    26469436.724 6 139097826.19006       677.757 6        41.824                                                                    26469436.290 7 103871774.23207       506.158 7        44.629    26469435.990 7 106581470.85907       519.444 7        45.937
E12        19.000    27539961.944 6 144723477.27406     -3700.046 6        37.403                                                                    27539958.754 6 108072712.51506     -2763.008 6        39.048    27539959.379 6 110892000.43406     -2834.971 6        41.058
E21        20.000    26103435.966 7 137174478.81107       451.913 7        43.316                                                                    26103435.186 7 102435503.10007       337.518 7        45.840    26103434.796 7 105107729.87607       346.371 7        46.921
G11        21.000    22596509.772 7 118745476.20807     -1984.710 7        46.057                                    22596505.362 5  92528924.80305     -1546.525 5        34.600    22596505.767 7  92528937.79907     -1546.489 7        45.061
I06        22.000    38111472.340 7 149557839.92807      -360.673 7        43.611
S28        23.000    41021237.115 5 215568006.84505      -487.086 5        35.162
R08        24.000    20298963.475 8 108700068.26708     -2130.479 8        49.372                                                                    20298960.866 7  84544501.84007     -1657.026 7        46.877
S23        25.000    38297438.541 7 201254383.20107      -482.589 7        44.998
R01        26.000    20187103.287 8 107911645.65408      1502.502 8        48.662                                                                    20187102.415 6  83931273.44806      1168.590 6        41.659
C44        27.000                                                                                                                                    25985787.797 6 135314821.71406     -1392.943 6        39.498                                                                    25985786.268 6 109954372.03406     -1131.842 6        39.865
R24        29.000    22638882.291 7 121060285.15407     -3539.863 7        47.221                                                                    22638880.476 6  94157987.50006     -2753.157 6        40.536
E19        30.000    24605671.096 6 129303705.26306     -2255.870 6        41.897                                                                    24605668.674 7  96557963.67907     -1684.684 7        43.486    24605668.442 7  99076863.88307     -1728.560 7        44.191
C23        31.000                                                                                                                                    27339335.869 6 142363092.54006     -3604.703 6        37.138                                                                    27339327.490 6 115681638.88906     -2929.325 6        37.153
E29        33.000    28919950.114 5 151975372.11705     -2964.599 5        32.982                                                                    28919953.849 6 113488095.18306     -2213.740 6        37.399    28919953.043 6 116448651.27306     -2271.599 6        37.682
E04        34.000    23671135.416 8 124392693.70108       216.177 8        49.089                                                                    23671132.980 8  92890659.70808       161.419 8        51.018    23671132.727 8  95313889.73908       165.617 8        51.683
C16        35.000                                                                                                                                    40773939.159 6 212320618.78606     -1508.505 6        38.550    40773939.371 6 164179779.90406     -1166.313 6        39.868    40773936.922 5 172527892.55305     -1225.725 5        35.467
I01        37.000   385894547.095 6 211192268.28006     -2973.705 6        41.571
E27        38.000    27980538.862 6 147038723.87406     -2061.932 6        39.168                                                                    27980537.985 6 109801655.48706     -1539.669 6        41.614    27980537.754 6 112666042.84006     -1579.889 6        41.571
C19        39.000                                                                                                                                    22205556.806 8 115630165.56908       467.115 8        51.138                                                                    22205551.223 8  93958959.48708       379.556 8        49.962
G05        41.000    23922876.404 6 125715571.65206      2989.489 6        41.294                                    23922870.915 6  97960167.89706      2329.472 6        36.359    23922871.282 6  97960176.90106      2329.503 6        39.471
S44        42.000    40972108.905 6 215310045.16206      -544.298 6        37.531
C36        43.000                                                                                                                                    25925120.826 6 134998904.18906      3016.854 6        40.503                                                                    25925125.081 7 109697688.11707      2451.562 7        42.815
C05        44.000                                                                                                                                    39375881.910 6 205040581.83906      -539.680 6        38.973    39375876.407 7 158550407.91907      -417.186 7        43.575    39375878.871 6 166612371.23306      -438.374 6        40.410
R18        45.000    24469260.142 6 130618586.89806      2578.275 6        40.081                                                                    24469260.772 6 101592216.75206      2005.237 6        38.985
G04        46.000    23589487.973 6 123963615.85006     -3448.619 6        41.480                                    23589484.692 4  96595008.15704     -2687.234 4        26.168    23589485.237 6  96595010.13506     -2687.122 6        40.391
R11        47.000    20821223.923 8 111262289.30608      2767.382 8        50.008                                                                    20821222.102 7  86537339.96307      2152.437 7        46.586
C20        49.000                                                                                                                                    22916332.955 8 119331384.04608     -2189.040 8        50.633                                                                    22916327.225 8  96966508.12408     -1778.808 8        49.663
C06        50.000                                                                                                                                    40207803.768 6 209372609.05206     -1539.549 6        36.696    40207798.418 6 161900163.59606     -1190.536 6        40.279    40207798.011 6 170132374.30306     -1250.868 6        37.267
S48        51.000    77323437.579 6 406336763.77706      -469.972 6        38.216
E06        52.000    24906061.179 7 130882261.46707      1243.795 7        45.758                                                                    24906060.145 8  97736766.09608       928.789 8        48.353    24906060.072 8 100286418.63008       953.020 8        49.469
C09        53.000                                                                                                                                    39527588.645 6 205830547.12606     -1267.119 6        39.171    39527585.352 7 159161225.81907      -979.731 7        44.471    39527583.438 6 167254159.19306     -1029.597 6        40.200
C60        54.000                                                                                                                                    40972108.930 6 213352700.32406      -539.138 6        39.898                                                                    40972094.918 6 173366509.43706      -438.120 6        39.544
R09        55.000    23022649.950 7 122939681.68807     -4137.729 7        43.591                                                                    23022646.766 7  95619746.54907     -3218.279 7        42.150
G07        56.000    20916353.794 8 109916200.46508      -465.282 8        49.591                                    20916348.384 8  85648971.28008      -362.555 8        50.681    20916348.390 7  85648980.28907      -362.605 7        46.741
C02        57.000                                                                                                                                    40938307.708 5 213176526.74805      -563.869 5        34.914    40938303.055 6 164841598.65206      -436.028 6        40.014    40938305.791 6 173223386.73306      -458.095 6        36.011
I03        58.000    99136866.369 6 313249085.41906       840.411 6        40.889
R07        59.000    23920814.168 6 128050015.20706     -3863.925 6        41.671                                                                    23920815.279 6  99594498.53706     -3005.215 6        38.520
C35        60.000                                                                                                                                    26387948.773 6 137408966.93906     -2978.326 6        39.745                                                                    26387947.123 6 111656035.17906     -2420.350 6        39.892
> 2025 01 02 05 30 10.0000000  0 55
G09         1.000    21352061.457 7 112205872.87607     -2596.315 7        47.155                                    21352058.620 8  87433153.25408     -2023.104 8        48.577    21352059.171 7  87433153.25607     -2023.160 7        44.537
G06         2.000    23578870.470 7 123907812.58507     -3767.713 7        42.131                                    23578868.338 6  96551545.75206     -2935.882 6        39.210    23578869.491 6  96551553.75006     -2935.949 6        41.223
E11         3.000    25187662.582 7 132362077.75307     -2000.273 7        42.785                                                                    25187657.904 7  98841802.35207     -1493.783 7        44.096    25187657.550 7 101420280.28107     -1532.740 7        44.513
G16         4.000    24153491.831 6 126927468.70106     -2351.437 6        38.643                                    24153486.443 3  98904503.99003     -1832.271 3        18.806
S21         5.000    38592497.537 7 202804651.25607      -485.841 7        42.470
E10         6.000    26063323.131 7 136963695.52007     -3193.977 7        44.692                                                                    26063322.105 7 102278080.24207     -2385.080 7        46.293    26063322.033 7 104946203.63407     -2447.267 7        47.133
G20         7.000    21420055.205 7 112563159.89107      1427.981 7        46.966                                    21420049.674 6  87711534.80706      1112.714 6        36.851
R02         8.000    23966134.377 7 127887883.52907      2958.417 7        43.928                                                                    23966133.594 6  99468353.81806      2300.819 6        36.631
R10         9.000    20402000.635 7 108754146.31907     -1423.978 7        44.780
R17        10.000    22436759.074 7 120063636.12407      -132.917 7        46.445                                                                    22436756.933 7  93382822.45907      -103.447 7        42.789
G30        11.000    21662096.120 8 113835096.25008      1828.891 8        49.154                                    21662093.888 8  88702665.01608      1425.111 8        48.654    21662094.384 7  88702673.02907      1425.016 7        43.697
S27        12.000    39234041.677 6 206176257.38906      -503.170 6        37.127
G13        13.000    25070459.687 6 131746158.11306      2873.900 6        36.302                                    25070455.605 2 102659322.14602      2239.385 2        12.606
S36        14.000    38360483.188 7 201586237.37207      -486.382 7        45.121
I09        15.000    38487897.230 7 151034764.94907      -844.834 7        42.457
E09        16.000    27011125.499 7 141944443.77207      1791.962 7        42.233                                                                    27011124.206 7 105997473.82707      1338.209 7        43.204    27011123.864 7 108762621.49807      1373.092 7        44.391
S45        17.000    63544894.803 6 333931452.36206      -527.605 6        37.282
E36        18.000    26468792.728 7 139094443.47807       675.429 7        42.102                                                                    26468792.511 7 103869248.18207       504.349 7        44.777    26468792.297 7 106578878.91507       517.531 7        45.947
E12        19.000    27543483.041 6 144741978.21106     -3700.317 6        38.258                                                                    27543479.358 6 108086528.15306     -2763.321 6        39.297    27543479.872 6 110906176.49406     -2835.303 6        40.999
E21        20.000    26103007.039 7 137172225.63807       449.435 7        43.790                                                                    26103006.352 7 102433820.53307       335.663 7        46.024    26103005.971 7 105106003.42107       344.463 7        46.918
G11        21.000    22598399.620 7 118755407.67207     -1987.717 7        45.958                                    22598395.267 5  92536663.60505     -1548.873 5        34.538    22598395.470 7  92536676.60607     -1548.941 7        44.966
I06        22.000    38111932.119 7 149559644.01607      -360.828 7        43.570
S28        23.000    41021694.947 5 215570442.59205      -487.053 5        35.057
R08        24.000    20300953.265 8 108710726.55008     -2132.712 8        49.236                                                                    20300951.381 7  84552791.61407     -1658.708 7        47.038
S23        25.000    38297897.987 7 201256797.06407      -482.770 7        45.053
R01        26.000    20185699.185 8 107904138.24508      1500.677 8        48.853                                                                    20185698.026 6  83925434.35706      1167.187 6        41.077
C44        27.000                                                                                                                                    25987126.776 6 135321793.27906     -1395.576 6        39.535                                                                    25987125.111 6 109960037.00206     -1133.759 6        39.850
R24        29.000    22642193.746 7 121077992.19007     -3542.697 7        47.307                                                                    22642192.892 6  94171759.64306     -2755.420 6        41.859
E19        30.000    24607817.944 7 129314987.33707     -2256.715 7        42.155                                                                    24607815.547 7  96566388.59407     -1685.157 7        43.517    24607815.415 7  99085508.58007     -1729.130 7        44.173
C23        31.000                                                                                                                                    27342797.629 6 142381119.53906     -3605.551 6        37.735                                                                    27342789.398 6 115696287.27306     -2929.994 6        36.994
E29        33.000    28922771.264 5 151990196.08705     -2964.451 5        32.820                                                                    28922774.879 6 113499164.96506     -2213.896 6        37.361    28922773.998 6 116460009.85506     -2271.813 6        37.422
E04        34.000    23670930.448 8 124391616.14608       215.003 8        49.097                                                                    23670927.959 8  92889855.04308       160.549 8        51.128    23670927.673 8  95313064.08308       164.766 8        51.644
C16        35.000                                                                                                                                    40775387.596 6 212328161.17106     -1508.368 6        38.748    40775387.490 6 164185612.16006     -1166.316 6        39.913    40775385.175 5 172534021.36505     -1225.786 5        35.276
I01        37.000   385898336.026 6 211207138.01406     -2973.976 6        41.561
E27        38.000    27982501.547 6 147049039.49406     -2064.151 6        39.586                                                                    27982500.949 6 109809358.70706     -1541.474 6        41.528    27982500.836 6 112673947.01206     -1581.553 6        41.278
C19        39.000                                                                                                                                    22205109.083 8 115627834.66008       465.400 8        51.174                                                                    22205103.625 8  93957065.43808       378.256 8        49.990
G05        41.000    23920032.311 6 125700627.17406      2988.438 6        41.569                                    23920027.048 6  97948522.85106      2328.652 6        36.272    23920027.158 6  97948531.85006      2328.625 6        38.889
S44        42.000    40972624.908 6 215312766.11906      -544.029 6        37.183
C36        43.000                                                                                                                                    25922223.941 6 134983820.83506      3016.610 6        40.760                                                                    25922228.361 7 109685431.68007      2451.204 7        42.447
C05        44.000                                                                                                                                    39376399.773 6 205043280.80006      -539.676 6        38.862    39376394.892 7 158552494.94107      -417.443 7        43.520    39376397.221 6 166614564.37806      -438.584 6        40.353
R18        45.000    24466846.392 6 130605703.59806      2575.436 6        40.162                                                                    24466846.675 6 101582196.40206      2003.007 6        38.730
G04        46.000    23592769.437 6 123980861.18406     -3449.227 6        41.554                                    23592766.430 4  96608446.07204     -2687.711 4        26.311    23592766.894 6  96608448.08506     -2687.905 6        40.453
R11        47.000    20818635.872 8 111248461.02008      2764.153 8        49.722                                                                    20818634.474 7  86526584.65207      2149.891 7        47.399
C20        49.000                                                                                                                                    22918435.873 8 119342333.76708     -2190.672 8        51.129                                                                    22918430.058 8  96975405.67808     -1780.103 8        49.634
C06        50.000                                                                                                                                    40209282.793 6 209380307.45806     -1539.521 6        36.779    40209276.942 6 161906116.50606     -1190.613 6        40.393    40209276.236 6 170138629.91406     -1251.005 6        37.127
S48        51.000    77323890.260 6 406339115.68406      -470.590 6        37.996
E06        52.000    24904878.301 7 130876045.32007      1242.789 7        46.010                                                                    24904877.279 8  97732124.16308       928.117 8        48.510    24904877.188 8 100281655.60808       952.313 8        49.420
C09        53.000                                                                                                                                    39528805.003 6 205836883.04206     -1267.271 6        39.180    39528802.245 7 159166125.16007      -979.863 7        44.507    39528800.033 6 167259307.65406     -1029.636 6        40.172
C60        54.000                                                                                                                                    40972626.954 6 213355396.54906      -539.253 6        40.126                                                                    40972612.584 6 173368700.35506      -438.183 6        39.574
R09        55.000    23026524.616 7 122960376.33207     -4139.941 7        42.910                                                                    23026521.634 6  95635842.39106     -3219.935 6        40.682
G07        56.000    20916797.727 8 109918533.84508      -467.841 8        49.733                                    20916792.421 8  85650789.49708      -364.551 8        50.594    20916792.440 7  85650798.50307      -364.639 7        46.350
C02        57.000                                                                                                                                    40938849.351 5 213179346.35705      -563.878 5        35.019    40938844.470 6 164843778.92906      -435.995 6        40.169    40938847.443 6 173225677.87506      -458.196 6        36.113
I03        58.000    99135795.734 6 313244883.70306       840.214 6        41.061
R07        59.000    23924424.255 7 128069337.08007     -3864.719 7        42.019                                                                    23924424.677 6  99609526.62606     -3005.905 6        38.366
C35        60.000                                                                                                                                    26390809.689 6 137423861.94206     -2979.517 6        39.655                                                                    26390807.581 6 111668138.58006     -2420.938 6        40.052
> 2025 01 02 05 30 15.0000000  0 55
G09         1.000    21354532.328 7 112218858.41507     -2597.928 7        46.831                                    21354529.670 8  87443271.85108     -2024.358 8        48.587    21354529.773 7  87443271.85307     -2024.353 7        44.411
G06         2.000    23582455.416 6 123926654.38306     -3769.045 6        41.988                                    23582454.002 6  96566227.66306     -2936.917 6        39.126    23582455.133 6  96566235.64906     -2936.938 6        41.371
E11         3.000    25189566.581 7 132372084.86707     -2002.833 7        42.747                                                                    25189562.175 7  98849275.18707     -1495.589 7        44.193    25189561.843 7 101427948.04807     -1534.575 7        44.597
G16         4.000    24155730.681 6 126939234.27906     -2354.633 6        38.102                                    24155725.147 3  98913671.97003     -1834.792 3        19.015
S21         5.000    38592961.365 7 202807080.47807      -486.021 7        42.521
E10         6.000    26066362.776 7 136979668.28607     -3195.217 7        44.780                                                                    26066361.627 7 102290007.96007     -2386.129 7        46.430    26066361.563 7 104958442.50407     -2448.337 7        47.193
G20         7.000    21418697.745 7 112556026.35407      1425.414 7        46.871                                    21418692.251 6  87705976.20906      1110.713 6        36.828
R02         8.000    23963362.482 7 127873091.51307      2958.458 7        44.462                                                                    23963362.707 6  99456848.96506      2300.937 6        37.701
R10         9.000    20403338.096 7 108761277.43907     -1428.566 7        44.582
R17        10.000    22436884.533 7 120064311.83507      -137.475 7        46.793                                                                    22436883.180 7  93383348.01107      -106.872 7        42.347
G30        11.000    21660357.464 8 113825957.16708      1826.673 8        48.762                                    21660354.776 8  88695543.65308      1423.382 8        48.623    21660355.315 7  88695551.65307      1423.448 7        43.035
S27        12.000    39234521.321 6 206178772.57906      -503.056 6        37.198
G13        13.000    25067726.503 5 131731789.77305      2873.259 5        35.695                                    25067721.436 2 102648126.07402      2238.888 2        12.485
S36        14.000    38360948.567 7 201588668.70007      -486.573 7        45.130
I09        15.000    38488973.737 7 151038989.63207      -845.073 7        42.609
E09        16.000    27009420.566 7 141935484.36907      1791.564 7        42.603                                                                    27009419.337 7 105990783.36907      1337.979 7        43.346    27009418.984 7 108755756.50807      1372.770 7        44.524
S45        17.000    63545357.965 6 333934090.10706      -527.672 6        37.301
E36        18.000    26468151.320 7 139091072.38207       672.872 7        42.472                                                                    26468151.009 7 103866730.79707       502.512 7        45.005    26468150.899 7 106576295.86207       515.607 7        45.979
E12        19.000    27547003.904 6 144760480.76706     -3700.886 6        38.435                                                                    27547000.182 6 108100344.97706     -2763.523 6        39.249    27547000.561 6 110920353.75506     -2835.632 6        41.180
E21        20.000    26102580.486 7 137169983.87707       447.125 7        44.245                                                                    26102579.672 7 102432146.49307       333.884 7        46.098    26102579.383 7 105104285.70907       342.577 7        47.118
G11        21.000    22600292.026 7 118765353.76707     -1990.737 7        45.830                                    22600287.988 5  92544413.80305     -1551.226 5        34.419    22600287.695 7  92544426.80207     -1551.277 7        44.790
I06        22.000    38112391.828 7 149561448.16207      -360.889 7        43.562
S28        23.000    41022160.899 5 215572877.79405      -487.124 5        35.019
R08        24.000    20302945.909 8 108721395.04808     -2134.870 8        49.691                                                                    20302943.623 7  84561089.33107     -1660.415 7        46.986
S23        25.000    38298356.785 7 201259210.74607      -482.891 7        45.133
R01        26.000    20184296.618 8 107896639.24708      1498.859 8        49.272                                                                    20184295.926 6  83919601.79806      1165.721 6        41.318
C44        27.000                                                                                                                                    25988467.744 6 135328776.74106     -1397.927 6        40.207                                                                    25988466.114 6 109965711.64606     -1135.941 6        39.901
R24        29.000    22645507.874 7 121095712.32007     -3545.407 7        47.645                                                                    22645506.282 6  94185541.96606     -2757.527 6        41.738
E19        30.000    24609965.603 7 129326272.54307     -2257.500 7        42.392                                                                    24609963.068 7  96574815.85807     -1685.800 7        43.780    24609962.887 7  99094155.68607     -1729.764 7        44.348
C23        31.000                                                                                                                                    27346260.041 6 142399150.18906     -3606.620 6        37.660                                                                    27346252.020 6 115710938.63606     -2930.639 6        36.696
E29        33.000    28925592.499 5 152005019.64305     -2964.881 5        32.515                                                                    28925595.747 6 113510234.46306     -2214.024 6        37.716    28925595.314 6 116471368.12906     -2271.701 6        38.129
E04        34.000    23670726.553 8 124390543.62708       213.909 8        49.282                                                                    23670723.883 8  92889054.13608       159.719 8        51.326    23670723.588 8  95312242.28508       163.869 8        51.776
C16        35.000                                                                                                                                    40776835.919 6 212335702.96706     -1508.311 6        38.859    40776835.868 6 164191443.94306     -1166.396 6        39.973    40776833.271 5 172540149.67105     -1225.720 5        35.262
I01        37.000   385902125.657 6 211222008.25406     -2974.321 6        41.468
E27        38.000    27984466.308 6 147059365.12906     -2066.271 6        39.477                                                                    27984465.960 6 109817069.40906     -1543.044 6        41.776    27984465.629 6 112681858.86106     -1583.231 6        41.378
C19        39.000                                                                                                                                    22204662.864 8 115625511.61108       463.719 8        51.239                                                                    22204657.555 8  93955177.75708       376.893 8        49.955
G05        41.000    23917188.731 7 125685687.33207      2987.346 7        42.504                                    23917184.036 6  97936881.41506      2327.807 6        36.318    23917184.266 6  97936890.42006      2327.804 6        39.270
S44        42.000    40973144.578 6 215315486.81806      -544.296 6        37.002
C36        43.000                                                                                                                                    25919327.422 6 134968738.43806      3016.207 6        41.111                                                                    25919331.828 7 109673175.98307      2451.119 7        42.271
C05        44.000                                                                                                                                    39376918.177 6 205045979.64706      -539.844 6        39.129    39376913.032 7 158554581.83907      -417.479 7        43.632    39376915.487 6 166616757.39106      -438.701 6        40.527
R18        45.000    24464435.425 6 130592833.81606      2572.456 6        40.234                                                                    24464435.669 6 101572186.57806      2000.947 6        38.249
G04        46.000    23596051.468 6 123998109.24606     -3449.938 6        41.278                                    23596048.784 4  96621886.09904     -2688.257 4        26.072    23596049.243 6  96621888.08906     -2688.328 6        40.493
R11        47.000    20816050.961 8 111234648.19108      2760.902 8        50.349                                                                    20816049.581 7  86515841.33307      2147.356 7        47.106
C20        49.000                                                                                                                                    22920540.304 8 119353290.99908     -2192.338 8        51.138                                                                    22920534.289 8  96984309.31008     -1781.413 8        49.643
C06        50.000                                                                                                                                    40210760.669 6 209388005.55406     -1539.668 6        37.009    40210755.331 6 161912069.13806     -1190.636 6        40.553    40210754.813 6 170144885.22706     -1251.158 6        37.009
S48        51.000    77324345.493 6 406341467.29706      -470.336 6        38.111
E06        52.000    24903696.228 7 130869832.76607      1242.049 7        46.057                                                                    24903695.045 8  97727484.92408       927.467 8        48.692    24903694.949 8 100276895.33608       951.701 8        49.493
C09        53.000                                                                                                                                    39530021.746 6 205843219.23206     -1267.359 6        39.471    39530018.942 7 159171024.69007      -980.025 7        44.513    39530016.832 6 167264456.30806     -1029.741 6        40.272
C60        54.000                                                                                                                                    40973144.670 6 213358092.51606      -539.457 6        40.226                                                                    40973130.380 6 173370891.00606      -438.140 6        39.447
R09        55.000    23030401.067 7 122981081.66607     -4142.234 7        43.016                                                                    23030399.623 6  95651946.53806     -3221.794 6        40.992
G07        56.000    20917244.002 8 109920879.26408      -470.410 8        49.725                                    20917238.738 8  85652617.09508      -366.552 8        50.552    20917238.806 7  85652626.09907      -366.623 7        46.105
C02        57.000                                                                                                                                    40939390.055 5 213182165.73805      -563.879 5        35.190    40939385.594 6 164845959.05406      -436.193 6        39.943    40939388.889 6 173227968.85006      -458.246 6        36.064
I03        58.000    99134725.005 6 313240681.84806       840.297 6        40.903
R07        59.000    23928035.248 6 128088662.20306     -3865.509 6        41.938                                                                    23928035.301 6  99624557.21906     -3006.468 6        39.147
C35        60.000                                                                                                                                    26393670.519 6 137438761.42006     -2980.559 6        39.793                                                                    26393669.292 6 111680245.62406     -2421.925 6        40.076
> 2025 01 02 05 30 20.0000000  0 55
G09         1.000    21357004.803 7 112231851.10707     -2599.172 7        47.089                                    21357002.119 8  87453396.02608     -2025.329 8        48.570    21357002.528 7  87453396.02807     -2025.315 7        44.181
G06         2.000    23586042.375 7 123945502.02507     -3770.013 7        42.988                                    23586040.686 6  96580914.13106     -2937.674 6        39.114    23586041.512 6  96580922.14806     -2937.770 6        40.806
E11         3.000    25191472.933 7 132382103.17707     -2004.874 7        42.736                                                                    25191468.549 7  98856756.40307     -1497.106 7        44.179    25191468.323 7 101435624.43007     -1536.109 7        44.584
G16         4.000    24157972.893 6 126951015.43906     -2357.787 6        38.360                                    24157966.865 3  98922852.08903     -1837.244 3        19.045
S21         5.000    38593423.189 7 202809509.84707      -485.872 7        42.428
E10         6.000    26069403.892 7 136995647.67707     -3196.388 7        44.474                                                                    26069402.373 7 102301940.61407     -2386.932 7        46.210    26069402.375 7 104970686.45207     -2449.220 7        47.305
G20         7.000    21417342.560 7 112548905.43707      1423.035 7        47.320                                    21417337.161 6  87700427.44206      1108.857 6        36.858
R02         8.000    23960591.280 7 127858298.94907      2958.651 7        44.138                                                                    23960588.652 6  99445343.61106      2301.084 6        37.754
R10         9.000    20404679.926 7 108768431.34807     -1432.911 7        45.290
R17        10.000    22437015.747 7 120065009.94407      -141.792 7        46.979                                                                    22437013.947 7  93383890.98707      -110.293 7        43.096
G30        11.000    21658620.045 8 113816828.49908      1824.730 8        48.849                                    21658617.635 8  88688430.40508      1421.865 8        48.659    21658618.036 7  88688438.40107      1421.892 7        43.029
S27        12.000    39235003.908 6 206181287.74606      -502.984 6        36.949
G13        13.000    25064992.502 5 131717422.70805      2873.416 5        35.495                                    25064987.365 2 102636930.96502      2239.024 2        12.424
S36        14.000    38361410.106 7 201591100.09007      -486.226 7        45.050
I09        15.000    38490050.512 7 151043214.90807      -845.009 7        42.482
E09        16.000    27007715.912 7 141926526.91607      1791.325 7        42.229                                                                    27007714.829 7 105984094.37207      1337.729 7        43.407    27007714.477 7 108748893.01407      1372.635 7        44.506
S45        17.000    63545815.882 6 333936728.10706      -527.633 6        36.991
E36        18.000    26467512.016 7 139087713.09707       670.724 7        42.299                                                                    26467511.743 7 103864222.24607       500.898 7        44.906    26467511.623 7 106573721.86307       513.970 7        45.964
E12        19.000    27550525.381 6 144778985.15106     -3701.046 6        37.788                                                                    27550521.494 6 108114163.19306     -2763.721 6        39.261    27550521.710 6 110934532.42906     -2835.763 6        41.058
E21        20.000    26102156.134 7 137167753.74307       445.011 7        44.087                                                                    26102155.301 7 102430481.13807       332.254 7        46.129    26102154.977 7 105102576.90407       341.008 7        47.014
G11        21.000    22602187.793 7 118775314.68607     -1993.555 7        46.310                                    22602183.487 5  92552175.55405     -1553.418 5        34.514    22602183.258 7  92552188.56207     -1553.442 7        44.585
I06        22.000    38112851.539 7 149563252.52307      -360.943 7        43.575
S28        23.000    41022620.505 5 215575313.26405      -487.005 5        35.048
R08        24.000    20304940.588 8 108732073.79608     -2136.715 8        49.695                                                                    20304937.687 7  84569395.02407     -1661.936 7        46.690
S23        25.000    38298817.076 7 201261624.57407      -482.748 7        44.850
R01        26.000    20182894.990 8 107889148.75708      1497.374 8        48.629                                                                    20182894.184 6  83913775.85106      1164.660 6        41.402
C44        27.000                                                                                                                                    25989811.301 6 135335772.34306     -1400.298 6        40.265                                                                    25989809.444 6 109971396.13806     -1137.991 6        39.721
R24        29.000    22648823.834 7 121113445.70507     -3547.885 7        47.605                                                                    22648821.817 6  94199334.59206     -2759.577 6        41.392
E19        30.000    24612113.749 7 129337561.02807     -2257.969 7        42.406                                                                    24612111.300 7  96583245.56907     -1686.112 7        43.761    24612110.997 7  99102805.29507     -1730.002 7        44.221
