     3.04           OBSERVATION DATA    M                   RINEX VERSION / TYPE
ssrcrin-15.6.1x                         20250102 200000 UTC PGM / RUN BY / DATE 
(00000000023479385599111004) Septentrio proprietary         COMMENT             
rref                                                        MARKER NAME         
01                                                          MARKER NUMBER       
geodetic                                                    MARKER TYPE         
NFB                 CLIMERS@TUW                             OBSERVER / AGENCY   
3297213             SEPT ASTERX SB3 PROB4.14.4              REC # / TYPE / VERS 
Unknown             Unknown                                 ANT # / TYPE        
  4127832.0463  1207193.4214  4695247.5523                  APPROX POSITION XYZ 
        0.0000        0.0000        0.0000                  ANTENNA: DELTA H/E/N
G   23 X1  C1C L1C D1C S1C C1W S1W C2W L2W D2W S2W C2L L2L  SYS / # / OBS TYPES 
       D2L S2L C5Q L5Q D5Q S5Q C1L L1L D1L S1L              SYS / # / OBS TYPES 
E   21 X1  C1C L1C D1C S1C C6C L6C D6C S6C C5Q L5Q D5Q S5Q  SYS / # / OBS TYPES 
       C7Q L7Q D7Q S7Q C8Q L8Q D8Q S8Q                      SYS / # / OBS TYPES 
S    9 X1  C1C L1C D1C S1C C5I L5I D5I S5I                  SYS / # / OBS TYPES 
R   17 X1  C1C L1C D1C S1C C2P L2P D2P S2P C2C L2C D2C S2C  SYS / # / OBS TYPES 
       C3Q L3Q D3Q S3Q                                      SYS / # / OBS TYPES 
C   25 X1  C1P L1P D1P S1P C5P L5P D5P S5P C2I L2I D2I S2I  SYS / # / OBS TYPES 
       C7I L7I D7I S7I C6I L6I D6I S6I C7D L7D D7D S7D      SYS / # / OBS TYPES 
J   17 X1  C1C L1C D1C S1C C2L L2L D2L S2L C5Q L5Q D5Q S5Q  SYS / # / OBS TYPES 
       C1L L1L D1L S1L                                      SYS / # / OBS TYPES 
I    5 X1  C5A L5A D5A S5A                                  SYS / # / OBS TYPES 
SEPTENTRIO RECEIVERS OUTPUT ALIGNED CARRIER PHASES.         COMMENT             
NO FURTHER PHASE SHIFT APPLIED IN THE RINEX ENCODER.        COMMENT             
G L1C                                                       SYS / PHASE SHIFT   
G L2W                                                       SYS / PHASE SHIFT   
G L2L  0.00000                                              SYS / PHASE SHIFT   
G L5Q  0.00000                                              SYS / PHASE SHIFT   
G L1L  0.00000                                              SYS / PHASE SHIFT   
E L1C  0.00000                                              SYS / PHASE SHIFT   
E L6C  0.00000                                              SYS / PHASE SHIFT   
E L5Q  0.00000                                              SYS / PHASE SHIFT   
E L7Q  0.00000                                              SYS / PHASE SHIFT   
E L8Q  0.00000                                              SYS / PHASE SHIFT   
S L1C                                                       SYS / PHASE SHIFT   
S L5I                                                       SYS / PHASE SHIFT   
R L1C                                                       SYS / PHASE SHIFT   
R L2P  0.00000                                              SYS / PHASE SHIFT   
R L2C                                                       SYS / PHASE SHIFT   
R L3Q  0.00000                                              SYS / PHASE SHIFT   
C L1P  0.00000                                              SYS / PHASE SHIFT   
C L5P  0.00000                                              SYS / PHASE SHIFT   
C L2I                                                       SYS / PHASE SHIFT   
C L7I                                                       SYS / PHASE SHIFT   
C L6I                                                       SYS / PHASE SHIFT   
C L7D                                                       SYS / PHASE SHIFT   
J L1C                                                       SYS / PHASE SHIFT   
J L2L  0.00000                                              SYS / PHASE SHIFT   
J L5Q  0.00000                                              SYS / PHASE SHIFT   
J L1L  0.00000                                              SYS / PHASE SHIFT   
I L5A                                                       SYS / PHASE SHIFT   
  2025     1     2    20     0    0.0000000     GPS         TIME OF FIRST OBS   
 C1C    0.000 C2C    0.000 C2P    0.000                     GLONASS COD/PHS/BIS 
DBHZ                                                        SIGNAL STRENGTH UNIT
    18                                                      LEAP SECONDS        
 24 R01  1 R02 -4 R03  5 R04  6 R05  1 R06 -4 R07  5 R08  6 GLONASS SLOT / FRQ #
    R09 -2 R10 -7 R11  0 R12 -1 R13 -2 R14 -7 R15  0 R16 -1 GLONASS SLOT / FRQ #
    R17  4 R18 -3 R19  3 R20  2 R21  4 R22 -3 R23  3 R24  2 GLONASS SLOT / FRQ #
                                                            END OF HEADER       
> 2025 01 02 20 00  0.0000000  0 60
G23         1.000    20905393.861 7 109858668.62307     -1399.994 7        46.537                                    20905390.038 6  85604180.57406     -1090.901 6        38.252    20905390.040 7  85604178.57407     -1090.904 7        47.041
C37         2.000                                                                                                                                    25171335.555 7 131073743.71807       -77.723 7        42.973                                                                    25171339.615 7 106508173.69607       -63.153 7        44.160
G16         3.000    21515342.621 7 113064093.99907     -3034.728 7        47.993                                    21515337.666 6  88101976.14306     -2364.722 6        36.529
G21         4.000    23763123.225 6 124876087.00106      2549.828 6        36.635                                    23763119.125 2  97306040.26602      1986.861 2        17.208
S21         5.000    38358393.589 7 201574405.37007      -449.153 7        42.243
G26         6.000    23648537.976 6 124274132.87906     -4012.222 6        40.863                                    23648537.958 6  96837115.80706     -3126.408 6        36.382    23648538.272 6  96837102.80906     -3126.436 6        39.039
G10         7.000    21183515.135 8 111320188.17908      1391.754 8        50.277                                    21183513.308 8  86743019.73208      1084.484 8        51.114    21183513.120 7  86743013.73507      1084.455 7        44.427
E15         8.000    25608945.257 7 134576015.73007      1674.228 7        42.891                                                                    25608946.424 7 100495142.06807      1250.235 7        45.813    25608945.975 7 103116742.63807      1282.875 7        46.986
E36         9.000    25345207.169 7 133190151.73607     -2577.467 7        44.120                                                                    25345207.925 7  99460320.82107     -1924.750 7        46.583    25345207.534 7 102054925.27307     -1975.011 7        47.696
G27        10.000    20094938.173 8 105599763.92208       364.965 8        50.235                                    20094936.205 8  82285600.65408       284.389 8        53.240    20094936.712 7  82285602.65907       284.446 7        46.634
G15        11.000    23662280.108 6 124346140.93806     -1261.068 6        40.443                                    23662276.061 5  96893089.10905      -982.648 5        32.192    23662276.357 6  96893092.10406      -982.850 6        36.102
G13        12.000    25002521.917 5 131389126.35805     -1774.837 5        33.317                                    25002519.783 1 102381122.76801     -1382.966 1         8.952
C23        13.000                                                                                                                                    24668178.492 7 128453727.87707     -2581.594 7        45.165                                                                    24668170.711 7 104379167.39007     -2097.680 7        45.366
S36        14.000    38127810.294 7 200363528.50707      -448.489 7        44.116
C13        15.000                                                                                                                                    38281721.479 7 199343028.54707     -1357.074 7        42.982    38281723.314 7 154144708.45307     -1049.300 7        44.095    38281721.623 7 161982562.04107     -1102.704 7        42.118
G18        16.000    23061459.808 7 121189013.13407     -3336.658 7        43.346                                    23061456.120 5  94433093.11105     -2599.997 5        30.491    23061456.855 7  94433101.11507     -2600.026 7        42.053
R10        17.000    21452555.912 7 114354226.49807     -3729.417 7        43.712
E27        18.000    25656726.678 7 134827022.42307      1182.231 7        43.236                                                                    25656726.761 7 100682519.63307       882.844 7        46.294    25656726.401 7 103309017.51807       905.905 7        46.958
E02        19.000    26366286.846 6 138555949.35106     -3567.566 6        41.495                                                                    26366286.458 7 103467211.71507     -2664.100 7        44.504    26366285.924 7 106166341.80107     -2733.568 7        45.485
E05        20.000    26510920.175 6 139315831.81706      2334.697 6        36.174                                                                    26510921.379 6 104034549.06806      1743.343 6        41.004    26510920.811 6 106748496.55406      1788.848 6        41.702
R11        21.000    21055167.652 8 112512453.84008        86.331 8        49.160                                                                    21055166.954 7  87509689.58207        67.180 7        46.166
I06        22.000    38557761.361 6 151309160.34406      -265.735 6        41.397
S28        23.000    40824435.027 5 214533860.46405      -441.133 5        33.569
E04        24.000    28134615.821 5 147848385.56905     -1224.727 5        35.552                                                                    28134615.728 6 110406260.13406      -914.670 6        40.527    28134615.238 6 113286419.54706      -938.566 6        41.163
S23        25.000    38084996.529 7 200137962.03607      -449.094 7        44.659
S45        26.000    63340023.753 6 332855557.87106      -498.393 6        37.750
R09        27.000    23880599.597 7 127521236.97907     -4912.100 7        42.008                                                                    23880601.774 6  99183284.90506     -3820.595 6        39.832
S27        28.000    39093894.224 6 205439803.56806      -417.459 6        36.060
C38        29.000                                                                                                                                    40203993.866 6 209352865.61406     -1705.746 6        40.026                                                                    40203991.768 6 170116396.82006     -1385.970 6        39.384
C44        30.000                                                                                                                                    26790037.352 5 139502954.50505     -3286.670 5        30.830                                                                    26790037.073 5 113357658.22005     -2670.386 5        33.617
C43        31.000                                                                                                                                    21581777.183 8 112382082.57308       273.260 8        51.323                                                                    21581775.854 8  91319689.82708       222.123 8        49.448
C42        32.000                                                                                                                                    24003510.918 7 124992593.38907      2352.302 7        45.425                                                                    24003518.445 7 101566760.87907      1911.469 7        46.563
I02        33.000    39941703.433 6 156739873.86006      -998.686 6        39.538
R03        34.000    23147532.038 7 123910587.05007     -3428.211 7        43.096                                                                    23147529.715 6  96374902.80206     -2666.466 6        39.399
E34        35.000    23219286.495 8 122018379.99808      -417.178 8        48.638                                                                    23219286.251 8  91117732.15808      -311.554 8        50.613    23219286.160 8  93494705.27408      -319.671 8        51.653
G30        36.000    25683591.638 5 134968191.57405        82.437 5        35.790                                    25683590.687 4 105170026.46004        64.241 4        27.102    25683591.875 5 105170019.46005        64.057 5        33.323
R21        37.000    22046737.714 7 117976583.37107      2440.064 7        47.745                                                                    22046737.405 6  91759581.87906      1897.741 6        41.709
C22        38.000                                                                                                                                    25789821.925 6 134294394.74106     -2860.210 6        40.548                                                                    25789815.579 6 109125179.90406     -2324.081 6        40.555
R05        39.000    21765391.889 7 116348510.63007      3212.300 7        45.994                                                                    21765392.382 7  90493292.81207      2498.452 7        43.316
C12        40.000                                                                                                                                    24812851.858 7 129207217.92207     -2989.306 7        42.063    24812847.836 7  99911311.32507     -2311.449 7        46.782    24812846.669 7 104991519.70207     -2428.925 7        44.024
R04        41.000    20932788.512 8 112094162.83308      -125.447 8        49.472                                                                    20932787.138 7  87184355.97607       -97.631 7        45.434
S44        42.000    40389629.461 6 212249126.54306      -437.940 6        38.156
G08        43.000    21854724.965 7 114847439.53107      2239.880 7        45.223                                    21854724.102 7  89491549.67807      1745.361 7        43.261    21854724.713 7  89491547.68707      1745.440 7        42.531
C05        44.000                                                                                                                                    39158192.591 6 203907021.81306      -381.865 6        37.459    39158188.993 7 157673866.69107      -295.136 7        42.830    39158191.099 6 165691260.37506      -310.163 6        40.052
C11        45.000                                                                                                                                    21576268.874 8 112353442.06108      -963.829 8        49.282    21576265.710 8  86878869.11508      -745.251 8        52.370    21576264.665 8  91296414.82708      -783.059 8        49.259
E09        46.000    27306149.140 6 143494798.29606       960.199 6        38.838                                                                    27306149.534 7 107155216.61207       717.214 7        42.195    27306149.271 7 109950567.26207       735.865 7        43.534
G07        47.000    25140893.654 6 132116284.82806     -1202.642 6        39.324                                    25140891.725 4 102947736.24004      -937.120 4        29.393    25140891.772 5 102947744.22405      -936.964 5        34.938
C21        48.000                                                                                                                                    23575755.153 7 122765170.20007      -245.419 7        47.660                                                                    23575749.422 8  99756744.47608      -199.364 8        48.042
E06        49.000    27438439.997 6 144189997.12406       -85.513 6        36.960                                                                    27438440.447 6 107674353.08706       -63.810 6        40.112    27438440.683 6 110483246.48706       -65.415 6        41.335
R19        50.000    22265745.814 6 119106982.28306     -3449.505 6        38.114                                                                    22265745.067 6  92638875.63106     -2682.830 6        40.276
S48        51.000    77100997.216 6 405169986.25106      -485.658 6        37.652
C08        52.000                                                                                                                                    38731446.694 6 201684908.30106     -1603.058 6        39.099    38731440.260 7 155955594.16507     -1239.507 7        43.536    38731439.646 6 163885526.74006     -1302.528 6        40.389
C34        53.000                                                                                                                                    22361642.054 8 116443219.87508     -2173.092 8        48.979                                                                    22361641.982 8  94619770.86808     -1765.768 8        48.642
C60        54.000                                                                                                                                    40389631.758 6 210319608.41806      -433.930 6        40.012                                                                    40389615.907 6 170901878.21806      -352.615 6        39.697
C25        55.000                                                                                                                                    26258867.427 6 136737021.28806     -3623.751 6        39.330                                                                    26258867.881 6 111110115.34906     -2944.502 6        39.856
I09        56.000    38502929.918 7 151093786.92307       382.951 7        42.516
C02        57.000                                                                                                                                    40495586.751 5 210871186.92205      -387.605 5        34.919    40495579.786 6 163058970.06206      -299.690 6        38.652    40495583.341 5 171350114.38005      -314.791 5        34.857
I03        58.000    81068199.319 6 242343775.01406      1092.531 6        40.162
E30        59.000    24314960.772 8 127776201.24808     -1627.934 8        48.171                                                                    24314960.326 8  95417413.23308     -1215.620 8        49.787    24314959.891 8  97906546.39008     -1247.425 8        50.610
R20        60.000    19505200.945 6 104303278.80606      -283.313 6        40.143                                                                    19505201.980 7  81124841.58507      -220.348 7        47.541
> 2025 01 02 20 00  5.0000000  0 60
G23         1.000    20906727.327 7 109865676.28207     -1403.250 7        46.735                                    20906723.539 6  85609641.08606     -1093.441 6        38.381    20906723.496 7  85609639.08107     -1093.379 7        46.999
C37         2.000                                                                                                                                    25171411.436 7 131074139.32507       -80.643 7        42.703                                                                    25171415.585 7 106508495.15407       -65.499 7        44.364
G16         3.000    21518231.094 7 113079273.58407     -3037.290 7        47.821                                    21518226.258 6  88113804.39206     -2366.720 6        36.692
G21         4.000    23760697.439 6 124863340.21106      2548.731 6        36.639                                    23760693.538 2  97296107.71902      1986.041 2        17.472
S21         5.000    38358822.029 7 201576650.96407      -449.192 7        42.193
G26         6.000    23652355.791 6 124294195.39206     -4012.935 6        41.066                                    23652355.722 6  96852748.92306     -3126.962 6        36.620    23652355.880 6  96852735.91206     -3126.796 6        39.228
G10         7.000    21182192.422 8 111313236.22608      1388.944 8        50.555                                    21182190.387 8  86737602.62708      1082.293 8        51.260    21182190.428 7  86737596.63707      1082.240 7        44.349
E15         8.000    25607352.758 7 134567646.48207      1673.290 7        42.948                                                                    25607353.820 7 100488892.31807      1249.504 7        45.892    25607353.498 7 103110329.85107      1282.170 7        47.001
E36         9.000    25347659.961 7 133203040.55207     -2578.013 7        44.080                                                                    25347660.527 7  99469945.59007     -1925.243 7        46.491    25347660.246 7 102064801.11707     -1975.471 7        47.767
G27        10.000    20094591.870 8 105597945.27208       362.320 8        50.101                                    20094590.128 8  82284183.52608       282.330 8        53.384    20094590.458 7  82284185.52907       282.253 7        46.310
G15        11.000    23663481.891 6 124352455.02606     -1264.761 6        40.505                                    23663477.693 5  96898009.17305      -985.528 5        32.383    23663478.703 5  96898012.17705      -985.320 5        35.900
G13        12.000    25004212.373 5 131398008.57005     -1778.173 5        32.982                                    25004209.998 1 102388043.96601     -1385.580 1        10.889
C23        13.000                                                                                                                                    24670658.614 7 128466640.33907     -2583.505 7        45.014                                                                    24670650.411 7 104389659.81607     -2099.364 7        45.478
S36        14.000    38128236.386 7 200365769.80107      -448.604 7        44.045
C13        15.000                                                                                                                                    38283024.870 7 199349814.58507     -1357.603 7        42.836    38283026.437 7 154149955.84507     -1049.704 7        43.991    38283024.759 7 161988076.23507     -1102.979 7        42.193
G18        16.000    23064635.029 7 121205698.33807     -3337.589 7        42.815                                    23064631.182 5  94446094.56605     -2600.719 5        30.423    23064631.652 7  94446102.56207     -2600.719 7        42.184
R10        17.000    21456056.139 7 114372880.30807     -3732.290 7        44.161
E27        18.000    25655602.316 7 134821116.32807      1180.086 7        43.297                                                                    25655602.941 7 100678109.22707       881.215 7        46.208    25655602.488 7 103304492.06307       904.233 7        47.074
E02        19.000    26369681.522 6 138573788.42306     -3568.157 6        41.113                                                                    26369681.118 7 103480533.09807     -2664.671 7        44.454    26369680.422 7 106180010.69507     -2734.084 7        45.485
E05        20.000    26508698.862 6 139304159.54006      2334.160 6        36.098                                                                    26508700.257 6 104025832.75406      1743.141 6        40.896    26508699.547 6 106739552.84806      1788.556 6        41.616
R11        21.000    21055089.968 8 112512033.34908        81.676 8        49.097                                                                    21055087.988 7  87509362.53907        63.491 7        46.611
I06        22.000    38558099.979 6 151310488.73906      -265.735 6        41.497
S28        23.000    40824851.170 5 214536067.44305      -441.259 5        33.653
E04        24.000    28135782.497 6 147854515.15706     -1227.324 6        36.280                                                                    28135782.186 6 110410837.40706      -916.419 6        40.348    28135781.621 6 113291116.22606      -940.224 6        41.049
S23        25.000    38085423.569 7 200140207.96007      -449.274 7        44.664
S45        26.000    63340447.051 6 332856349.84216      -498.553 6        37.592
R09        27.000    23885199.644 7 127545796.43507     -4911.862 7        42.351                                                                    23885201.081 6  99202386.66206     -3820.275 6        39.934
S27        28.000    39094290.347 5 205441890.91705      -417.421 5        35.795
C38        29.000                                                                                                                                    40205631.711 6 209361394.10706     -1705.806 6        39.997                                                                    40205629.697 6 170123326.92506     -1386.079 6        39.652
C44        30.000                                                                                                                                    26793192.295 5 139519387.17905     -3286.482 5        31.057                                                                    26793192.721 5 113371011.14205     -2670.799 5        33.234
C43        31.000                                                                                                                                    21581515.587 8 112380719.98508       271.659 8        51.281                                                                    21581514.194 8  91318582.61908       220.825 8        49.658
C42        32.000                                                                                                                                    24001252.914 7 124980835.87307      2350.563 7        45.455                                                                    24001260.609 7 101557206.94307      1910.060 7        46.580
I02        33.000    39942976.293 6 156744867.37306      -998.651 6        39.456
R03        34.000    23150734.710 7 123927735.96907     -3431.438 7        42.929                                                                    23150733.290 6  96388240.85606     -2668.780 6        39.192
E34        35.000    23219683.905 8 122020469.24808      -418.650 8        48.786                                                                    23219683.811 8  91119292.30908      -312.648 8        50.506    23219683.723 8  93496306.12108      -320.762 8        51.661
G30        36.000    25683513.963 5 134967786.40205        79.561 5        35.462                                    25683513.614 4 105169710.74804        61.997 4        27.269    25683515.231 5 105169703.72805        61.918 5        32.820
R21        37.000    22044458.115 7 117964385.15807      2439.110 7        47.884                                                                    22044457.703 6  91750094.37906      1897.093 6        41.847
C22        38.000                                                                                                                                    25792569.219 6 134308700.69406     -2862.294 6        40.849                                                                    25792562.792 6 109136804.66806     -2325.658 6        40.493
R05        39.000    21762388.645 7 116332454.87807      3209.887 7        46.655                                                                    21762388.676 7  90480805.01707      2496.607 7        44.038
C12        40.000                                                                                                                                    24815722.032 6 129222165.72106     -2989.927 6        41.876    24815718.147 7  99922869.89907     -2311.989 7        46.736    24815717.318 7 105003666.00907     -2429.560 7        44.218
R04        41.000    20932907.870 8 112094801.45308      -130.143 8        49.123                                                                    20932906.307 7  87184852.66507      -101.109 7        45.160
S44        42.000    40390049.530 6 212251316.44706      -438.176 6        38.027
G08        43.000    21852594.157 7 114836243.08107      2238.516 7        45.263                                    21852593.481 7  89482825.17307      1744.295 7        43.228    21852594.013 7  89482823.17507      1744.372 7        42.271
C05        44.000                                                                                                                                    39158559.617 6 203908930.71206      -381.915 6        37.316    39158555.613 7 157675342.78207      -295.348 7        42.739    39158557.745 6 165692811.51706      -310.243 6        40.396
C11        45.000                                                                                                                                    21577195.531 8 112358264.51508      -965.326 8        49.295    21577191.775 8  86882598.14208      -746.439 8        52.264    21577190.816 8  91300333.47208      -784.345 8        49.473
E09        46.000    27305236.629 6 143490001.10106       958.251 6        39.099                                                                    27305236.746 7 107151634.30107       715.659 7        42.021    27305236.429 7 109946891.49707       734.372 7        43.644
G07        47.000    25142039.478 6 132122303.74306     -1205.249 6        39.994                                    25142037.127 4 102952426.29704      -939.157 4        29.194    25142037.315 5 102952434.28005      -938.975 5        35.043
C21        48.000                                                                                                                                    23575992.358 7 122766404.72307      -248.525 7        47.904                                                                    23575986.447 8  99757747.62908      -201.852 8        48.209
E06        49.000    27438522.981 6 144190430.41606       -88.015 6        37.214                                                                    27438522.820 6 107674676.65606       -65.716 6        40.026    27438523.205 6 110483578.50506       -67.305 6        41.456
R19        50.000    22268968.794 6 119124231.24906     -3450.068 6        37.474                                                                    22268969.094 6  92652291.50306     -2683.517 6        39.940
S48        51.000    77101437.492 6 405172414.72006      -485.746 6        37.645
C08        52.000                                                                                                                                    38732986.121 6 201692923.85006     -1603.506 6        38.958    38732979.735 7 155961792.29507     -1239.852 7        43.211    38732979.001 6 163892040.02406     -1302.857 6        40.617
C34        53.000                                                                                                                                    22363729.513 8 116454088.22808     -2174.420 8        49.137                                                                    22363729.134 8  94628602.29608     -1766.873 8        48.858
C60        54.000                                                                                                                                    40390048.674 6 210321778.41706      -434.140 6        40.050                                                                    40390032.707 6 170903641.51106      -352.766 6        39.946
C25        55.000                                                                                                                                    26262346.952 6 136755139.03706     -3623.454 6        39.363                                                                    26262347.155 6 111124837.46406     -2944.276 6        39.649
I09        56.000    38502441.633 7 151091871.99707       382.915 7        42.508
C02        57.000                                                                                                                                    40495959.210 5 210873125.33005      -387.777 5        34.395    40495951.995 6 163060468.95406      -299.763 6        38.622    40495955.563 5 171351689.50505      -315.100 5        35.043
I03        58.000    81066807.142 6 242338312.64006      1092.318 6        40.150
E30        59.000    24316510.697 8 127784346.71008     -1630.311 8        48.141                                                                    24316510.345 8  95423495.88508     -1217.437 8        49.658    24316509.950 8  97912787.72108     -1249.249 8        50.717
R20        60.000    19505465.760 6 104304700.01406      -285.326 6        40.052                                                                    19505467.827 7  81125946.98207      -221.933 7        47.805
> 2025 01 02 20 00 10.0000000  0 60
G23         1.000    20908063.834 7 109872699.38607     -1406.266 7        46.672                                    20908059.968 6  85615113.63406     -1095.792 6        38.255    20908059.959 7  85615111.63607     -1095.797 7        47.089
C37         2.000                                                                                                                                    25171490.131 7 131074548.53707       -83.208 7        43.022                                                                    25171494.149 7 106508827.68307       -67.618 7        44.096
G16         3.000    21521121.959 7 113094465.29707     -3039.676 7        47.372                                    21521117.180 6  88125642.08606     -2368.575 6        36.609
G21         4.000    23758272.465 6 124850598.36306      2547.509 6        36.594                                    23758268.703 2  97286179.01002      1985.056 2        17.811
S21         5.000    38359248.886 7 201578896.28807      -449.180 7        42.191
G26         6.000    23656174.266 6 124314260.82406     -4013.509 6        41.328                                    23656174.005 6  96868384.32506     -3127.413 6        36.662    23656174.090 6  96868371.31806     -3127.397 6        39.222
G10         7.000    21180872.080 8 111306297.65608      1386.242 8        50.499                                    21180870.020 8  86732195.95308      1080.189 8        51.111    21180870.177 7  86732189.95307      1080.183 7        44.370
E15         8.000    25605760.777 7 134559281.45107      1672.559 7        42.950                                                                    25605762.018 7 100482645.70007      1248.961 7        45.728    25605761.675 7 103103920.28407      1281.540 7        47.115
E36         9.000    25350113.150 7 133215931.76607     -2578.582 7        43.884                                                                    25350113.593 7  99479572.13407     -1925.561 7        46.447    25350113.387 7 102074678.78907     -1975.770 7        47.791
G27        10.000    20094248.430 8 105596139.14108       359.897 8        50.257                                    20094246.444 8  82282776.15208       280.439 8        53.212    20094246.590 7  82282778.15207       280.423 7        46.123
G15        11.000    23664686.338 6 124358786.10506     -1267.989 6        40.207                                    23664682.558 5  96902942.48405      -988.049 5        32.198    23664683.346 6  96902945.47606      -988.028 6        36.064
G13        12.000    25005904.310 5 131406905.69405     -1781.262 5        30.951                                    25005903.026 1 102394976.76301     -1387.854 1         9.810
C23        13.000                                                                                                                                    24673139.767 7 128479561.77907     -2585.275 7        44.820                                                                    24673131.880 7 104400159.54007     -2100.616 7        45.208
S36        14.000    38128661.673 7 200368011.87507      -448.421 7        44.068
C13        15.000                                                                                                                                    38284328.496 7 199356602.18607     -1357.756 7        42.682    38284330.031 7 154155204.44307     -1049.841 7        44.047    38284328.171 6 161993591.72706     -1103.182 6        41.974
G18        16.000    23067810.619 7 121222386.98207     -3338.178 7        42.817                                    23067807.040 5  94459098.70105     -2601.176 5        30.309    23067807.414 7  94459106.69507     -2601.171 7        42.372
R10        17.000    21459557.683 7 114391547.78707     -3734.920 7        43.649
E27        18.000    25654480.330 7 134815219.84507      1178.246 7        43.153                                                                    25654480.865 7 100673706.00007       879.947 7        46.164    25654480.349 7 103299973.97107       902.869 7        47.126
E02        19.000    26373076.729 6 138591630.54806     -3568.769 6        40.877                                                                    26373076.414 7 103493856.75007     -2665.008 7        44.566    26373075.633 7 106193681.92407     -2734.503 7        45.375
E05        20.000    26506477.906 5 139292488.14505      2333.958 5        35.962                                                                    26506479.201 6 104017117.08606      1743.108 6        41.068    26506478.600 6 106730609.82406      1788.563 6        41.750
R11        21.000    21055015.081 8 112511635.72408        77.151 8        48.987                                                                    21055013.669 7  87509053.25607        60.046 7        46.436
I06        22.000    38558438.240 6 151311816.92006      -265.813 6        41.411
S28        23.000    40825276.167 5 214538274.55905      -441.882 5        33.665
E04        24.000    28136950.895 6 147860656.11606     -1229.519 6        36.359                                                                    28136950.953 6 110415423.19706      -918.188 6        40.501    28136950.339 6 113295821.65606      -941.930 6        41.039
S23        25.000    38085850.824 7 200142453.95307      -449.365 7        44.621
S45        26.000    63340874.422 6 332858841.62606      -498.407 6        37.735
R09        27.000    23889798.949 7 127570354.66407     -4911.643 7        42.663                                                                    23889800.495 6  99221487.42906     -3820.179 6        39.919
S27        28.000    39094686.748 5 205443977.77805      -417.497 5        35.529
C38        29.000                                                                                                                                    40207269.553 6 209369922.89406     -1705.604 6        39.850                                                                    40207267.597 6 170130257.27106     -1386.086 6        39.562
C44        30.000                                                                                                                                    26796348.728 5 139535820.29205     -3286.579 5        31.268                                                                    26796348.489 5 113384364.42205     -2671.195 5        33.006
C43        31.000                                                                                                                                    21581255.285 8 112379364.57908       270.248 8        51.262                                                                    21581253.952 8  91317481.24308       219.779 8        49.431
C42        32.000                                                                                                                                    23998996.180 7 124969086.07107      2349.105 7        44.769                                                                    23999004.417 7 101547659.27207      1908.925 7        46.562
I02        33.000    39944248.737 6 156749860.88006      -998.698 6        39.604
R03        34.000    23153941.239 7 123944900.15107     -3434.447 7        43.390                                                                    23153940.803 6  96401590.76406     -2671.247 6        40.391
E34        35.000    23220082.636 8 122022564.94908      -419.850 8        48.701                                                                    23220082.563 8  91120857.28108      -313.528 8        50.518    23220082.538 8  93497911.92708      -321.737 8        51.699
G30        36.000    25683439.739 5 134967394.89905        76.777 5        35.581                                    25683439.046 4 105169405.67604        59.823 4        26.371    25683439.163 5 105169398.70005        59.974 5        32.491
R21        37.000    22042179.478 7 117952191.14707      2438.321 7        47.999                                                                    22042179.054 6  91740610.15906      1896.464 6        41.533
C22        38.000                                                                                                                                    25795317.935 6 134323016.15606     -2864.097 6        41.023                                                                    25795311.843 6 109148437.17906     -2327.160 6        40.045
R05        39.000    21759387.481 7 116316410.40407      3207.615 7        47.622                                                                    21759387.490 7  90468325.97607      2494.778 7        43.865
C12        40.000                                                                                                                                    24818592.810 6 129237116.12906     -2990.356 6        41.518    24818589.029 7  99934430.49007     -2312.292 7        46.802    24818588.361 7 105015814.43107     -2429.841 7        44.108
R04        41.000    20933031.392 8 112095463.11008      -134.738 8        49.353                                                                    20933030.042 7  87185367.30407      -104.779 7        44.813
S44        42.000    40390464.121 6 212253506.38206      -438.009 6        37.902
G08        43.000    21850465.174 7 114825053.39507      2237.154 7        45.630                                    21850464.152 7  89474105.94707      1743.238 7        43.200    21850465.207 7  89474103.95407      1743.207 7        42.203
C05        44.000                                                                                                                                    39158926.281 6 203910839.53206      -381.883 6        37.414    39158922.089 7 157676818.79307      -295.250 7        42.883    39158924.137 6 165694362.59406      -310.166 6        40.145
C11        45.000                                                                                                                                    21578122.937 8 112363093.82308      -966.605 8        49.150    21578119.210 8  86886332.46608      -747.459 8        52.355    21578118.217 8  91304257.69008      -785.388 8        49.294
E09        46.000    27304325.700 6 143485213.80206       956.446 6        39.240                                                                    27304325.574 6 107148059.37606       714.144 6        41.959    27304325.493 7 109943223.31407       732.851 7        43.831
G07        47.000    25143187.073 6 132128334.78806     -1207.620 6        38.456                                    25143184.854 4 102957125.79604      -940.998 4        28.739    25143184.318 5 102957133.78105      -940.680 5        32.868
C21        48.000                                                                                                                                    23576232.084 7 122767653.97207      -251.442 7        47.907                                                                    23576226.275 8  99758762.75408      -204.149 8        48.042
E06        49.000    27438607.638 6 144190875.30906       -90.344 6        37.342                                                                    27438607.807 6 107675008.87606       -67.367 6        40.026    27438607.848 6 110483919.39706       -69.211 6        41.528
R19        50.000    22272193.876 6 119141483.23206     -3450.934 6        37.164                                                                    22272194.752 6  92665709.69706     -2684.033 6        39.913
S48        51.000    77101872.581 6 405173243.48816      -486.130 6        37.467
C08        52.000                                                                                                                                    38734525.162 6 201700940.71606     -1603.500 6        38.928    38734519.172 7 155967991.44307     -1239.936 7        43.367    38734518.454 6 163898554.38906     -1302.866 6        40.353
C34        53.000                                                                                                                                    22365817.772 8 116464962.45108     -2175.536 8        48.964                                                                    22365817.485 8  94637438.49808     -1767.671 8        48.649
C60        54.000                                                                                                                                    40390465.255 6 210323948.44206      -433.949 6        39.988                                                                    40390449.552 6 170905404.84806      -352.639 6        39.586
C25        55.000                                                                                                                                    26265825.665 6 136773254.72406     -3623.129 6        39.399                                                                    26265825.990 6 111139557.91806     -2943.909 6        39.303
I09        56.000    38501954.257 7 151089957.80707       382.581 7        42.567
C02        57.000                                                                                                                                    40496331.665 5 210875063.75405      -387.917 5        34.310    40496324.276 6 163061967.84806      -299.718 6        38.790    40496327.835 5 171353264.64105      -315.184 5        34.986
I03        58.000    81065415.497 6 242332850.32906      1092.393 6        40.410
E30        59.000    24318062.971 8 127792503.29808     -1632.463 8        48.066                                                                    24318062.525 8  95429586.84608     -1219.059 8        49.651    24318062.123 8  97919037.57408     -1250.825 8        50.694
R20        60.000    19505733.186 6 104306131.11606      -287.204 6        40.079                                                                    19505735.131 7  81127060.06507      -223.421 7        47.814
> 2025 01 02 20 00 15.0000000  0 60
G23         1.000    20909403.281 7 109879737.95707     -1409.210 7        46.787                                    20909399.403 6  85620598.23606     -1098.086 6        38.300    20909399.649 7  85620596.23807     -1098.107 7        47.082
C37         2.000                                                                                                                                    25171571.567 7 131074971.39307       -85.834 7        43.300                                                                    25171575.359 7 106509171.28007       -69.935 7        44.239
G16         3.000    21524014.947 7 113109669.13307     -3041.940 7        47.466                                    21524010.365 6  88137489.22806     -2370.343 6        36.654
G21         4.000    23755849.381 6 124837861.40106      2546.939 6        36.026                                    23755845.003 2  97276254.12102      1984.625 2        17.660
S21         5.000    38359677.974 7 201581141.69107      -449.181 7        42.209
G26         6.000    23659993.051 6 124334329.19706     -4013.878 6        41.235                                    23659992.837 6  96884022.00906     -3127.698 6        36.681    23659992.927 6  96884009.01406     -3127.733 6        39.174
G10         7.000    21179554.072 8 111299372.49408      1383.730 8        50.440                                    21179552.197 8  86726799.72408      1078.231 8        51.159    21179552.435 7  86726793.72607      1078.276 7        44.572
E15         8.000    25604170.330 7 134550920.65807      1671.751 7        43.302                                                                    25604171.063 7 100476402.25407      1248.362 7        45.779    25604170.633 7 103097513.96007      1280.983 7        47.097
E36         9.000    25352566.587 7 133228825.38707     -2578.965 7        44.193                                                                    25352567.147 7  99489200.48107     -1925.843 7        46.398    25352566.952 7 102084558.31107     -1976.123 7        47.671
G27        10.000    20093907.165 8 105594345.55208       357.436 8        50.545                                    20093905.134 8  82281378.55308       278.521 8        53.313    20093905.782 7  82281380.55107       278.592 7        46.402
G15        11.000    23665894.092 6 124365134.26806     -1271.227 6        39.865                                    23665890.634 5  96907889.10705      -990.566 5        32.174    23665891.325 5  96907892.12905      -990.769 5        35.519
G13        12.000    25007600.542 5 131415817.76105     -1783.920 5        31.487                                    25007598.795 1 102401921.22501     -1390.033 1         9.619
C23        13.000                                                                                                                                    24675623.156 7 128492492.20507     -2586.914 7        45.005                                                                    24675614.967 7 104410666.56407     -2102.243 7        45.368
S36        14.000    38129087.702 7 200370253.69107      -448.274 7        44.004
C13        15.000                                                                                                                                    38285632.585 7 199363391.35407     -1357.930 7        42.919    38285633.827 7 154160454.26007     -1049.940 7        44.184    38285631.921 7 161999108.47807     -1103.583 7        42.142
G18        16.000    23070987.194 7 121239079.09507     -3338.775 7        43.663                                    23070983.515 5  94472105.53705     -2601.640 5        30.438    23070983.651 7  94472113.53107     -2601.536 7        42.705
R10        17.000    21463061.805 7 114410229.06207     -3737.594 7        42.692
E27        18.000    25653360.518 7 134809333.00307      1176.447 7        43.433                                                                    25653360.665 7 100669309.99407       878.550 7        46.225    25653360.182 7 103295463.28307       901.482 7        47.075
E02        19.000    26376472.638 6 138609475.73006     -3569.357 6        41.218                                                                    26376472.306 7 103507182.68607     -2665.364 7        44.582    26376471.559 7 106207355.50707     -2734.963 7        45.272
E05        20.000    26504257.016 6 139280817.69206      2333.999 6        36.057                                                                    26504258.522 6 104008402.13806      1742.955 6        40.992    26504257.775 6 106721667.53806      1788.397 6        41.778
R11        21.000    21054944.672 8 112511260.94408        72.677 8        48.925                                                                    21054943.886 7  87508761.77307        56.589 7        46.616
I06        22.000    38558776.655 6 151313144.84806      -265.472 6        41.452
S28        23.000    40825695.135 5 214540481.44005      -441.462 5        33.449
E04        24.000    28138121.989 6 147866808.40206     -1231.457 6        36.087                                                                    28138121.814 6 110420017.44906      -919.620 6        40.558    28138121.187 6 113300535.76606      -943.529 6        40.987
S23        25.000    38086279.384 7 200144699.92507      -449.153 7        44.688
S45        26.000    63341298.260 6 332861333.36606      -498.341 6        37.856
R09        27.000    23894397.637 7 127594911.72407     -4911.255 7        43.029                                                                    23894399.418 6  99240587.32406     -3819.759 6        40.257
S27        28.000    39095082.334 5 205446065.16005      -417.544 5        35.695
C38        29.000                                                                                                                                    40208907.336 6 209378452.01206     -1705.797 6        39.949                                                                    40208905.375 6 170137187.85506     -1386.142 6        39.577
C44        30.000                                                                                                                                    26799504.717 5 139552253.86205     -3286.636 5        30.619                                                                    26799504.331 5 113397718.01805     -2670.866 5        31.789
C43        31.000                                                                                                                                    21580996.273 8 112378016.36508       268.973 8        51.329                                                                    21580995.009 8  91316385.70208       218.423 8        49.549
C42        32.000                                                                                                                                    23996741.533 7 124957344.02407      2347.696 7        44.599                                                                    23996749.515 7 101538117.88707      1907.573 7        46.746
I02        33.000    39945520.728 6 156754854.21506      -998.536 6        39.562
R03        34.000    23157151.518 7 123962079.48307     -3437.434 7        43.727                                                                    23157150.283 6  96414952.49306     -2673.536 6        40.667
E34        35.000    23220482.722 8 122024667.15008      -421.079 8        48.761                                                                    23220482.673 8  91122427.10708      -314.402 8        50.471    23220482.583 8  93499522.70108      -322.631 8        51.691
G30        36.000    25683368.135 6 134967017.07106        74.203 6        36.053                                    25683366.963 4 105169111.25904        57.824 4        26.671    25683367.221 5 105169104.25905        57.891 5        32.617
R21        37.000    22039901.425 7 117940001.24607      2437.604 7        47.451                                                                    22039900.535 6  91731129.14606      1895.796 6        41.032
C22        38.000                                                                                                                                    25798069.142 6 134337341.15706     -2865.947 6        41.092                                                                    25798062.814 6 109160077.40006     -2329.045 6        40.138
R05        39.000    21756389.099 7 116300377.48607      3205.514 7        47.855                                                                    21756388.580 7  90455855.92907      2493.045 7        43.837
C12        40.000                                                                                                                                    24821464.434 6 129252069.20206     -2990.771 6        41.354    24821460.644 7  99945993.15207     -2312.748 7        46.643    24821459.765 7 105027965.01007     -2430.417 7        44.143
R04        41.000    20933159.955 8 112096147.83408      -139.258 8        49.681                                                                    20933157.782 7  87185899.85707      -108.292 7        44.030
S44        42.000    40390882.495 6 212255696.38806      -438.148 6        38.204
G08        43.000    21848337.277 7 114813870.49507      2235.987 7        45.302                                    21848336.116 7  89465392.00007      1742.326 7        43.270    21848336.788 7  89465390.01107      1742.268 7        42.184
C05        44.000                                                                                                                                    39159292.789 6 203912748.31006      -381.847 6        37.577    39159288.476 7 157678294.77807      -295.098 7        42.974    39159290.957 6 165695913.60806      -310.149 6        40.243
C11        45.000                                                                                                                                    21579051.532 8 112367930.01308      -967.850 8        49.241    21579047.823 8  86890072.11808      -748.465 8        52.408    21579046.928 8  91308187.47708      -786.620 8        49.360
E09        46.000    27303416.637 6 143480436.43706       954.618 6        39.697                                                                    27303416.523 6 107144491.86206       712.723 6        41.986    27303416.377 7 109939562.73907       731.397 7        43.812
G07        47.000    25144336.682 6 132134377.90206     -1209.859 6        38.643                                    25144334.794 4 102961834.70204      -942.746 4        28.701    25144334.875 5 102961842.70505      -942.785 5        33.575
C21        48.000                                                                                                                                    23576474.432 7 122768917.96607      -254.267 7        47.961                                                                    23576469.084 8  99759789.84208      -206.685 8        48.119
E06        49.000    27438694.525 6 144191331.79406       -92.236 6        37.652                                                                    27438694.748 6 107675349.77106       -68.959 6        40.052    27438694.733 6 110484269.19706       -70.941 6        41.673
R19        50.000    22275420.344 6 119158738.45206     -3451.490 6        37.161                                                                    22275420.794 6  92679130.44806     -2684.457 6        40.567
S48        51.000    77102310.022 6 405175672.67006      -485.804 6        37.554
C08        52.000                                                                                                                                    38736064.863 6 201708958.82806     -1603.787 6        38.772    38736058.995 7 155974191.56107     -1240.114 7        43.372    38736058.313 6 163905069.76006     -1303.349 6        40.355
C34        53.000                                                                                                                                    22367907.035 8 116475842.59008     -2176.574 8        48.883                                                                    22367906.887 8  94646279.48308     -1768.699 8        48.723
C60        54.000                                                                                                                                    40390882.131 6 210326118.53106      -433.998 6        40.021                                                                    40390866.155 6 170907168.20406      -352.673 6        39.625
C25        55.000                                                                                                                                    26269304.871 6 136791368.36406     -3622.443 6        39.607                                                                    26269304.672 6 111154276.71206     -2943.550 6        39.273
I09        56.000    38501466.230 7 151088044.35207       382.634 7        42.478
