     3.04           OBSERVATION DATA    M                   RINEX VERSION / TYPE
ssrcrin-15.6.1x                         20250102 013000 UTC PGM / RUN BY / DATE 
(00000000023479385599111004) Septentrio proprietary         COMMENT             
rref                                                        MARKER NAME         
01                                                          MARKER NUMBER       
geodetic                                                    MARKER TYPE         
NFB                 CLIMERS@TUW                             OBSERVER / AGENCY   
3297213             SEPT ASTERX SB3 PROB4.14.4              REC # / TYPE / VERS 
Unknown             Unknown                                 ANT # / TYPE        
  4127831.8145  1207192.9310  4695247.6398                  APPROX POSITION XYZ 
        0.0000        0.0000        0.0000                  ANTENNA: DELTA H/E/N
G   23 X1  C1C L1C D1C S1C C1W S1W C2W L2W D2W S2W C2L L2L  SYS / # / OBS TYPES 
       D2L S2L C5Q L5Q D5Q S5Q C1L L1L D1L S1L              SYS / # / OBS TYPES 
E   21 X1  C1C L1C D1C S1C C6C L6C D6C S6C C5Q L5Q D5Q S5Q  SYS / # / OBS TYPES 
       C7Q L7Q D7Q S7Q C8Q L8Q D8Q S8Q                      SYS / # / OBS TYPES 
S    9 X1  C1C L1C D1C S1C C5I L5I D5I S5I                  SYS / # / OBS TYPES 
R   17 X1  C1C L1C D1C S1C C2P L2P D2P S2P C2C L2C D2C S2C  SYS / # / OBS TYPES 
       C3Q L3Q D3Q S3Q                                      SYS / # / OBS TYPES 
C   25 X1  C1P L1P D1P S1P C5P L5P D5P S5P C2I L2I D2I S2I  SYS / # / OBS TYPES 
       C7I L7I D7I S7I C6I L6I D6I S6I C7D L7D D7D S7D      SYS / # / OBS TYPES 
J   17 X1  C1C L1C D1C S1C C2L L2L D2L S2L C5Q L5Q D5Q S5Q  SYS / # / OBS TYPES 
       C1L L1L D1L S1L                                      SYS / # / OBS TYPES 
I    5 X1  C5A L5A D5A S5A                                  SYS / # / OBS TYPES 
SEPTENTRIO RECEIVERS OUTPUT ALIGNED CARRIER PHASES.         COMMENT             
NO FURTHER PHASE SHIFT APPLIED IN THE RINEX ENCODER.        COMMENT             
G L1C                                                       SYS / PHASE SHIFT   
G L2W                                                       SYS / PHASE SHIFT   
G L2L  0.00000                                              SYS / PHASE SHIFT   
G L5Q  0.00000                                              SYS / PHASE SHIFT   
G L1L  0.00000                                              SYS / PHASE SHIFT   
E L1C  0.00000                                              SYS / PHASE SHIFT   
E L6C  0.00000                                              SYS / PHASE SHIFT   
E L5Q  0.00000                                              SYS / PHASE SHIFT   
E L7Q  0.00000                                              SYS / PHASE SHIFT   
E L8Q  0.00000                                              SYS / PHASE SHIFT   
S L1C                                                       SYS / PHASE SHIFT   
S L5I                                                       SYS / PHASE SHIFT   
R L1C                                                       SYS / PHASE SHIFT   
R L2P  0.00000                                              SYS / PHASE SHIFT   
R L2C                                                       SYS / PHASE SHIFT   
R L3Q  0.00000                                              SYS / PHASE SHIFT   
C L1P  0.00000                                              SYS / PHASE SHIFT   
C L5P  0.00000                                              SYS / PHASE SHIFT   
C L2I                                                       SYS / PHASE SHIFT   
C L7I                                                       SYS / PHASE SHIFT   
C L6I                                                       SYS / PHASE SHIFT   
C L7D                                                       SYS / PHASE SHIFT   
J L1C                                                       SYS / PHASE SHIFT   
J L2L  0.00000                                              SYS / PHASE SHIFT   
J L5Q  0.00000                                              SYS / PHASE SHIFT   
J L1L  0.00000                                              SYS / PHASE SHIFT   
I L5A                                                       SYS / PHASE SHIFT   
  2025     1     2     1    30    0.0000000     GPS         TIME OF FIRST OBS   
 C1C    0.000 C2C    0.000 C2P    0.000                     GLONASS COD/PHS/BIS 
DBHZ                                                        SIGNAL STRENGTH UNIT
    18                                                      LEAP SECONDS        
 24 R01  1 R02 -4 R03  5 R04  6 R05  1 R06 -4 R07  5 R08  6 GLONASS SLOT / FRQ #
    R09 -2 R10 -7 R11  0 R12 -1 R13 -2 R14 -7 R15  0 R16 -1 GLONASS SLOT / FRQ #
    R17  4 R18 -3 R19  3 R20  2 R21  4 R22 -3 R23  3 R24  2 GLONASS SLOT / FRQ #
                                                            END OF HEADER       
> 2025 01 02 01 30  0.0000000  0 54
G09         1.000    23139035.977 6 121596479.00206      3005.971 6        41.578                                    23139033.637 6  94750506.49406      2342.311 6        39.634    23139033.478 6  94750506.49906      2342.300 6        40.307
G06         2.000    24606036.975 6 129305609.65206      3021.948 6        38.432                                    24606035.836 5 100757620.61805      2354.771 5        32.275    24606036.108 6 100757628.61706      2354.783 6        37.463
R15         4.000    23315864.507 7 124592919.36607       363.019 7        44.414                                                                    23315864.195 6  96905590.76906       282.244 6        38.441
S21         5.000    38478486.593 6 202205534.80506      -470.368 6        41.924
E10         6.000    26584374.007 6 139701835.54106      2150.204 6        41.526                                                                    26584372.820 7 104322795.23407      1605.749 7        44.856    26584372.717 7 107044259.02207      1647.525 7        45.901
G28         7.000    23268302.499 7 122275770.37307     -1300.497 7        42.584                                    23268298.336 4  95279804.20904     -1013.373 4        29.754    23268297.774 7  95279812.21407     -1013.350 7        42.169
G03         8.000    19963928.940 8 104911253.51608      -545.917 8        50.271                                    19963926.862 8  81749070.36908      -425.387 8        52.447    19963927.309 7  81749068.36507      -425.386 7        45.992
G02         9.000    21813792.071 8 114632302.58008     -2729.570 8        48.087                                    21813785.291 6  89323866.73906     -2126.933 6        38.273
G31        10.000    22390297.535 7 117661817.57807       554.908 7        45.339                                    22390292.531 6  91684517.29006       432.394 6        41.893    22390292.983 6  91684522.29906       432.446 6        41.132
C30        11.000                                                                                                                                    22640554.280 8 117895323.71508     -2371.759 8        49.788                                                                    22640554.665 8  95799610.81708     -1927.053 8        48.252
S27        12.000    39114829.954 5 205549838.84205      -456.907 5        35.933
S36        14.000    38245904.768 7 200984079.65407      -470.578 7        44.295
I09        15.000    37221042.142 7 146063365.18807      -482.462 7        43.194
G19        16.000    22518397.613 7 118335000.70707       727.883 7        42.851                                    22518391.249 5  92209075.49505       567.177 5        31.826
S45        17.000    63442610.820 6 333393845.42506      -510.909 6        37.478
E12        19.000    24936444.450 7 131041907.08207      1374.905 7        42.618                                                                    24936440.569 7  97855958.05807      1026.697 7        46.190    24936440.413 7 100408721.66007      1053.404 7        46.856
G17        20.000    22371438.314 7 117562729.04607     -1286.661 7        45.214                                    22371433.352 7  91607312.37307     -1002.589 7        43.300    22371433.715 6  91607311.37606     -1002.602 6        41.826
E26        21.000    26752719.606 6 140586831.41306     -3248.544 6        40.830                                                                    26752717.947 7 104983867.41907     -2425.785 7        44.173    26752717.416 7 107722552.84907     -2489.091 7        45.374
I06        22.000    38186121.576 7 149850781.35307      -259.697 7        43.266
S28        23.000    40916373.157 5 215017000.28105      -464.248 5        34.348
R08        24.000    23353168.711 6 125055184.42206      3149.980 6        41.936                                                                    23353166.410 6  97265144.27106      2450.190 6        39.150
S23        25.000    38194394.896 7 200712867.81507      -466.644 7        45.219
C25        26.000                                                                                                                                    25606362.998 7 133339048.52607       502.085 7        42.042                                                                    25606360.608 6 108348894.93206       408.050 6        41.006
R16        27.000    24075860.305 7 128608927.02007      2899.068 7        42.218                                                                    24075860.897 6 100029164.83806      2254.791 6        40.176
R21        29.000    20783870.328 8 111218691.39908     -3945.316 8        50.465                                                                    20783869.358 7  86503429.12407     -3068.608 7        45.386
E19        30.000    24092218.007 7 126605489.12207      1622.329 7        42.857                                                                    24092215.623 7  94543061.41807      1211.524 7        43.985    24092215.525 7  97009399.02807      1243.054 7        45.264
R05        31.000    24640619.600 5 131718258.67205     -4377.309 5        31.434                                                                    24640615.329 4 102447541.52804     -3405.175 4        24.917
R23        32.000    22319170.872 7 119392527.27207      3404.800 7        44.149
E29        33.000    23505870.313 8 123524268.12208      -779.414 8        48.395                                                                    23505868.301 8  92242163.70408      -582.037 8        50.949    23505868.376 8  94648475.46008      -597.258 8        51.875
C16        35.000                                                                                                                                    38785392.717 7 201965749.91807      -279.815 7        43.340    38785392.258 7 156172741.42207      -216.327 7        44.301    38785390.033 6 164113715.77106      -227.001 6        39.778
C32        36.000                                                                                                                                    21849510.724 8 113776194.07208      -822.304 8        51.237                                                                    21849510.374 8  92452498.93608      -667.937 8        49.803
G32        37.000    26000070.467 4 136631323.92604     -3928.929 4        26.671                                    26000070.791 1 106465965.45001     -3061.430 1         6.500    26000070.680 4                     -3061.207 4        24.632
E07        38.000    26676197.142 6 140184378.75706     -3086.802 6        40.589                                                                    26676197.287 7 104683177.44907     -2305.161 7        43.228    26676197.201 7 107414035.39407     -2365.313 7        45.175
C41        39.000                                                                                                                                    24731059.791 7 128781145.92807     -3137.171 7        44.912                                                                    24731064.901 7 104645258.76007     -2548.997 7        46.017
C39        40.000                                                                                                                                    38962789.785 7 202889503.86507      -729.470 7        43.691                                                                    38962786.512 7 164864336.87007      -592.577 7        43.134
E33        41.000    23500180.403 8 123494371.23608     -1477.985 8        48.781                                                                    23500178.012 8  92219856.32108     -1103.670 8        50.560    23500177.772 8  94625587.55108     -1132.467 8        51.333
S44        42.000    40657971.352 6 213659285.75106      -545.636 6        38.048
R06        43.000    19810736.755 6 105713953.37606     -2364.079 6        40.942
C05        44.000                                                                                                                                    39160896.036 6 203921107.63806      -475.167 6        38.324    39160891.490 7 157684761.48807      -367.308 7        43.810    39160893.301 6 165702708.36206      -385.797 6        40.167
C29        45.000                                                                                                                                    23311913.131 7 121391270.27407       952.337 7        47.417                                                                    23311910.575 7  98640348.71507       773.991 7        46.855
G04        46.000    21161259.849 7 111203203.32607      1913.748 7        46.883                                    21161256.434 6  86651832.43306      1491.233 6        36.764    21161256.301 7  86651834.42907      1491.185 7        46.078
E25        47.000    28848420.785 5 151599496.33505     -1707.940 5        34.595                                                                    28848420.975 6 113207420.97906     -1275.248 6        37.202    28848420.496 6 116160655.22706     -1308.583 6        38.550
R22        48.000    19510108.578 8 104146314.35508       392.587 8        52.325                                                                    19510106.168 8  81002686.95908       305.353 8        48.055
C20        49.000                                                                                                                                    23976535.040 7 124852132.19207      1915.625 7        47.726                                                                    23976529.029 7 101452568.13007      1556.778 7        46.904
C06        50.000                                                                                                                                    38348723.313 6 199691898.77806      -163.677 6        40.803    38348717.825 7 154414426.51307      -126.653 7        44.926    38348717.611 6 162266005.96106      -132.848 6        41.881
S48        51.000    77231181.687 6 405854009.34006      -468.646 6        37.701
G21        52.000    23370928.280 6 122815121.73006     -3424.337 6        40.114                                    23370922.826 4  95700115.18804     -2668.317 4        26.216
C09        53.000                                                                                                                                    38865061.273 7 202380589.03507       328.604 7        42.519    38865057.509 7 156493499.06807       253.964 7        46.241    38865055.522 6 164450785.37406       267.080 6        41.981
C60        54.000                                                                                                                                    40657972.549 6 211716948.16606      -540.877 6        39.859                                                                    40657956.457 6 172037334.82906      -439.139 6        39.643
C27        55.000                                                                                                                                    25334774.585 6 131924830.78106     -3955.541 6        41.945                                                                    25334773.701 7 107199733.66507     -3214.145 7        43.151
R14        56.000    24382813.398 7 129974132.99307     -2603.832 7        42.711                                                                    24382814.305 6 101091011.05606     -2025.097 6        38.898
C02        57.000                                                                                                                                    40617432.658 5 211505694.63805      -521.179 5        34.681    40617425.657 6 163549616.65206      -403.008 6        39.820    40617429.400 5 171865707.89505      -423.261 5        35.562
I03        58.000   103516558.277 6 330435984.00706       910.583 6        40.429
R07        59.000    19779243.591 8 105879903.82308      1067.149 8        52.370                                                                    19779241.902 7  82351089.95207       829.998 7        47.582
> 2025 01 02 01 30  5.0000000  0 54
G09         1.000    23136176.021 6 121581452.14806      3004.697 6        41.704                                    23136174.186 6  94738797.26706      2341.321 6        39.808    23136174.486 6  94738797.27106      2341.333 6        40.236
G06         2.000    24603161.653 6 129290500.20906      3021.388 6        37.754                                    24603160.574 5 100745847.02405      2354.327 5        32.000    24603161.105 6 100745855.03506      2354.306 6        37.527
R15         4.000    23315526.784 7 124591114.31507       358.762 7        44.155                                                                    23315526.207 6  96904186.83706       279.083 6        38.937
S21         5.000    38478933.594 6 202207886.63206      -470.666 6        41.704
E10         6.000    26582328.329 6 139691085.60706      2149.572 6        41.580                                                                    26582327.237 7 104314767.68607      1605.240 7        44.972    26582327.026 7 107036022.05707      1647.024 7        45.995
G28         7.000    23269541.518 7 122282280.71207     -1303.850 7        42.701                                    23269537.149 4  95284877.20504     -1015.986 4        29.867    23269537.199 7  95284885.20107     -1015.948 7        42.620
G03         8.000    19964449.287 8 104913987.87108      -548.163 8        50.303                                    19964447.202 8  81751201.03508      -427.140 8        52.465    19964447.404 7  81751199.03707      -427.158 7        45.971
G02         9.000    21816390.364 8 114645955.24408     -2731.744 8        48.183                                    21816383.295 6  89334505.17906     -2128.632 6        38.255
G31        10.000    22389771.117 7 117659051.33107       551.353 7        45.436                                    22389766.069 6  91682361.77706       429.626 6        41.983    22389766.642 6  91682366.76606       429.645 6        41.430
C30        11.000                                                                                                                                    22642832.708 8 117907188.15908     -2374.228 8        49.829                                                                    22642833.120 8  95809251.65508     -1929.153 8        48.170
S27        12.000    39115269.309 6 205552123.83006      -457.197 6        36.049
S36        14.000    38246351.993 7 200986432.26807      -470.727 7        44.132
I09        15.000    37221656.579 7 146065777.77807      -482.793 7        43.261
G19        16.000    22517707.026 7 118331370.13207       724.161 7        43.096                                    22517700.330 5  92206246.46305       564.282 5        31.811
S45        17.000    63443053.966 6 333396399.83106      -511.099 6        37.274
E12        19.000    24935136.854 7 131035035.93607      1373.427 7        42.681                                                                    24935132.876 7  97850827.00607      1025.625 7        46.365    24935132.866 7 100403456.75607      1052.311 7        46.993
G17        20.000    22372663.827 7 117569169.60707     -1289.714 7        45.242                                    22372658.938 7  91612330.99507     -1004.971 7        43.359    22372659.441 7  91612330.01007     -1005.038 7        42.218
E26        21.000    26755810.910 6 140603075.77206     -3249.534 6        40.791                                                                    26755809.284 7 104995997.94207     -2426.530 7        44.342    26755808.797 7 107734999.81407     -2489.933 7        45.407
I06        22.000    38186452.600 7 149852079.25807      -259.696 7        43.365
S28        23.000    40916812.565 5 215019319.98305      -463.902 5        34.519
R08        24.000    23350229.098 6 125039436.79306      3148.850 6        41.731                                                                    23350225.229 6  97252896.10606      2449.107 6        38.468
S23        25.000    38194838.660 7 200715200.97707      -466.907 7        44.849
C25        26.000                                                                                                                                    25605882.277 6 133336544.42106       499.361 6        41.785                                                                    25605879.656 6 108346860.13806       405.972 6        40.880
R16        27.000    24073147.964 6 128594435.98106      2897.282 6        41.707                                                                    24073147.158 6 100017894.04206      2253.382 6        40.040
R21        29.000    20787558.144 8 111238424.79408     -3948.347 8        50.332                                                                    20787557.059 7  86518777.31307     -3070.917 7        45.892
E19        30.000    24090674.824 7 126597381.31607      1620.495 7        42.622                                                                    24090672.747 7  94537006.88407      1210.103 7        44.062    24090672.639 7  97003186.54207      1241.699 7        45.317
R05        31.000    24644711.215 5 131740145.20805     -4377.148 5        31.525                                                                    24644712.497 4 102464564.41804     -3404.490 4        26.240
R23        32.000    22315989.953 7 119375507.26407      3402.922 7        44.196
E29        33.000    23506613.061 8 123528170.40208      -781.634 8        48.315                                                                    23506610.915 8  92245077.74008      -583.708 8        51.035    23506610.950 8  94651465.51708      -598.968 8        51.971
C16        35.000                                                                                                                                    38785661.851 7 201967150.69207      -280.735 7        43.147    38785661.141 7 156173824.58507      -217.082 7        44.430    38785658.929 6 164114854.01606      -227.954 6        39.850
C32        36.000                                                                                                                                    21850300.981 8 113780309.75708      -824.222 8        51.273                                                                    21850300.702 8  92455843.27008      -669.609 8        49.706
G32        37.000    26003809.050 4 136650968.17304     -3928.865 4        25.323                                    26003809.041 1 106481272.61701     -3061.476 1         6.375    26003807.937 4                     -3061.568 4        24.105
E07        38.000    26679134.636 6 140199814.71506     -3087.791 6        40.729                                                                    26679134.715 7 104694704.29107     -2305.742 7        43.517    26679134.422 7 107425862.93407     -2365.945 7        45.130
C41        39.000                                                                                                                                    24734072.245 7 128796832.71507     -3137.747 7        45.037                                                                    24734077.306 7 104658005.56907     -2549.585 7        46.002
C39        40.000                                                                                                                                    38963490.829 7 202893153.35107      -730.488 7        43.765                                                                    38963487.346 7 164867302.37907      -593.451 7        43.069
E33        41.000    23501587.699 8 123501765.59308     -1480.019 8        48.753                                                                    23501585.109 8  92225378.07208     -1105.207 8        50.655    23501584.858 8  94631253.34608     -1134.023 8        51.413
S44        42.000    40658492.999 6 213662014.14206      -545.911 6        37.955
R06        43.000    19812953.072 6 105725779.54006     -2366.575 6        41.054
C05        44.000                                                                                                                                    39161352.548 6 203923483.31206      -475.318 6        38.351    39161347.605 7 157686598.51307      -367.552 7        43.873    39161349.532 6 165704638.80406      -386.243 6        40.019
C29        45.000                                                                                                                                    23311000.032 7 121386514.86207       949.643 7        47.501                                                                    23310997.269 7  98636484.56407       771.810 7        46.814
G04        46.000    21159440.042 7 111193640.32507      1911.274 7        47.023                                    21159436.618 6  86644380.74206      1489.306 6        36.813    21159436.327 7  86644382.73907      1489.271 7        45.649
E25        47.000    28850046.373 5 151608040.33805     -1710.181 5        35.286                                                                    28850046.958 6 113213801.24006     -1276.850 6        37.592    28850046.854 6 116167201.93606     -1310.352 6        38.988
R22        48.000    19509742.736 8 104144361.78308       388.156 8        52.449                                                                    19509740.411 8  81001168.29108       301.895 8        48.357
C20        49.000                                                                                                                                    23974695.828 7 124842556.65707      1914.287 7        47.653                                                                    23974690.129 7 101444787.22507      1555.664 7        46.837
C06        50.000                                                                                                                                    38348880.637 6 199692719.67006      -164.865 6        40.725    38348875.327 7 154415061.27307      -127.421 7        44.928    38348875.350 6 162266672.99906      -133.833 6        41.857
S48        51.000    77231624.825 6 405856352.58706      -468.680 6        37.739
G21        52.000    23374186.725 6 122832245.75106     -3425.503 6        40.746                                    23374181.173 4  95713458.58204     -2669.227 4        26.299
C09        53.000                                                                                                                                    38864745.986 7 202378948.70107       327.555 7        42.423    38864742.389 7 156492230.64407       253.227 7        46.406    38864740.530 6 164449452.46606       266.333 6        41.959
C60        54.000                                                                                                                                    40658491.593 6 211719651.73706      -540.875 6        39.811                                                                    40658475.787 6 172039531.71706      -439.445 6        39.685
C27        55.000                                                                                                                                    25338572.959 7 131944609.71207     -3956.053 7        42.381                                                                    25338572.108 7 107215805.65807     -3214.597 7        42.990
R14        56.000    24385258.069 7 129987159.71307     -2607.201 7        43.211                                                                    24385258.233 6 101101142.95506     -2027.782 6        39.330
C02        57.000                                                                                                                                    40617933.614 5 211508300.65805      -521.680 5        34.510    40617926.211 6 163551631.77406      -403.177 6        39.760    40617929.797 5 171867825.49405      -423.566 5        35.624
I03        58.000   103515398.018 6 330431430.49306       910.577 6        40.553
R07        59.000    19778248.379 8 105874575.05308      1064.137 8        52.133                                                                    19778246.237 7  82346945.35007       827.670 7        47.554
> 2025 01 02 01 30 10.0000000  0 54
G09         1.000    23133318.326 7 121566431.15507      3003.803 7        42.245                                    23133315.822 6  94727092.60506      2340.625 6        39.781    23133315.555 6  94727092.61706      2340.685 6        40.153
G06         2.000    24600287.006 6 129275393.22406      3021.402 6        38.084                                    24600285.772 5 100734075.34905      2354.339 5        31.879    24600286.245 6 100734083.36206      2354.378 6        37.928
R15         4.000    23315192.510 7 124589329.56907       355.139 7        44.039                                                                    23315192.942 6  96902798.71406       276.150 6        39.216
S21         5.000    38479382.022 6 202210238.94506      -470.269 6        41.805
E10         6.000    26580283.451 6 139680338.63006      2149.277 6        41.232                                                                    26580282.144 7 104306742.34607      1605.005 7        44.965    26580281.986 7 107027787.36207      1646.870 7        45.868
G28         7.000    23270783.075 7 122288807.46807     -1306.782 7        42.882                                    23270779.125 4  95289962.98904     -1018.270 4        29.772    23270779.232 7  95289970.98507     -1018.223 7        42.557
G03         8.000    19964971.930 8 104916732.54308      -549.759 8        50.261                                    19964969.501 8  81753339.74308      -428.382 8        52.423    19964970.110 7  81753337.74507      -428.416 7        46.087
G02         9.000    21818990.158 7 114659618.12207     -2733.420 7        47.926                                    21818983.293 6  89345151.57406     -2129.938 6        38.210
G31        10.000    22389247.860 7 117656302.07907       548.328 7        45.549                                    22389242.898 7  91680219.49907       427.265 7        42.011    22389243.669 7  91680224.50707       427.277 7        42.214
C30        11.000                                                                                                                                    22645113.709 8 117919064.46408     -2376.205 8        50.052                                                                    22645113.791 8  95818902.11808     -1930.914 8        48.081
S27        12.000    39115701.447 6 205554409.14106      -456.821 6        36.200
S36        14.000    38246797.881 7 200988784.72007      -470.264 7        44.211
I09        15.000    37222271.971 7 146068191.22907      -482.631 7        43.153
G19        16.000    22517019.563 7 118327756.75107       721.132 7        43.570                                    22517012.715 5  92203430.84905       561.920 5        31.819
S45        17.000    63443498.875 6 333398954.32106      -510.484 6        37.497
E12        19.000    24933830.367 7 131028171.21207      1372.585 7        42.552                                                                    24933826.574 7  97845700.75607      1024.905 7        46.551    24933826.545 7 100398196.77407      1051.695 7        47.052
G17        20.000    22373891.970 7 117575624.89507     -1292.269 7        45.779                                    22373887.315 7  91617361.08407     -1006.962 7        43.234    22373887.656 7  91617360.09307     -1007.022 7        42.080
E26        21.000    26758902.909 6 140619324.34506     -3249.886 6        40.417                                                                    26758901.316 7 105008131.61507     -2426.891 7        44.504    26758900.904 7 107747450.01907     -2490.207 7        45.464
I06        22.000    38186782.949 7 149853377.39007      -259.598 7        43.310
S28        23.000    40917254.357 5 215021639.81205      -463.767 5        34.524
R08        24.000    23347288.563 6 125023694.90806      3147.900 6        41.392                                                                    23347286.541 6  97240652.43206      2448.421 6        39.610
S23        25.000    38195284.038 7 200717534.35107      -466.524 7        45.138
C25        26.000                                                                                                                                    25605404.289 7 133334052.51907       497.366 7        42.154                                                                    25605401.249 6 108344835.25906       404.084 6        40.810
R16        27.000    24070435.945 6 128579952.92106      2895.981 6        41.094                                                                    24070435.693 6 100006629.44006      2252.459 6        39.159
R21        29.000    20791247.882 8 111258172.53008     -3950.787 8        49.565                                                                    20791247.217 7  86534136.66207     -3072.754 7        45.809
E19        30.000    24089133.317 7 126589281.62307      1619.245 7        42.394                                                                    24089131.476 7  94530958.40907      1209.302 7        44.230    24089131.351 7  96996980.28807      1240.831 7        45.481
R05        31.000    24648806.415 5 131762029.64505     -4376.694 5        30.762                                                                    24648806.978 4 102481585.57204     -3403.698 4        28.171
R23        32.000    22312810.415 7 119358496.11607      3401.506 7        44.540
E29        33.000    23507357.587 8 123532082.98308      -783.320 8        48.315                                                                    23507355.431 8  92247999.47208      -584.983 8        51.150    23507355.478 8  94654463.46608      -600.197 8        52.062
C16        35.000                                                                                                                                    38785931.814 7 201968556.12107      -281.288 7        43.117    38785931.011 7 156174911.35407      -217.525 7        44.489    38785928.816 6 164115996.05506      -228.608 6        39.634
C32        36.000                                                                                                                                    21851093.125 8 113784434.34708      -825.562 8        51.252                                                                    21851092.805 8  92459194.83408      -670.867 8        49.588
G32        37.000    26007547.226 4 136670612.78204     -3928.463 4        25.308                                    26007547.255 1 106496580.06101     -3061.183 1         4.714    26007547.219 3                     -3062.506 3        23.752
E07        38.000    26682072.667 6 140215254.50806     -3088.147 6        40.775                                                                    26682072.828 7 104706234.00807     -2305.967 7        43.970    26682072.420 7 107437693.43107     -2366.193 7        45.133
C41        39.000                                                                                                                                    24737085.101 7 128812521.99407     -3137.883 7        45.117                                                                    24737090.124 7 104670754.38407     -2549.877 7        45.780
C39        40.000                                                                                                                                    38964192.603 7 202896807.30307      -731.035 7        43.572                                                                    38964189.017 7 164870271.50307      -594.049 7        42.955
E33        41.000    23502996.484 8 123509169.39208     -1481.507 8        48.616                                                                    23502993.974 8  92230906.87908     -1106.265 8        50.754    23502993.770 8  94636926.38608     -1135.187 8        51.494
S44        42.000    40659011.680 6 213664742.72306      -545.498 6        38.249
R06        43.000    19815171.939 6 105737617.57406     -2368.599 6        41.180
C05        44.000                                                                                                                                    39161808.426 6 203925859.24906      -475.036 6        38.243    39161804.010 7 157688435.73907      -367.291 7        43.651    39161805.771 6 165706569.45106      -386.095 6        39.919
C29        45.000                                                                                                                                    23310089.161 7 121381772.18607       947.433 7        47.566                                                                    23310086.485 7  98632630.73707       769.888 7        46.699
G04        46.000    21157622.497 7 111184088.86807      1909.301 7        46.610                                    21157619.029 6  86636938.05106      1487.763 6        36.741    21157619.045 7  86636940.05707      1487.750 7        45.738
E25        47.000    28851674.310 5 151616594.42005     -1711.845 5        35.609                                                                    28851674.806 6 113220189.01206     -1278.117 6        37.289    28851674.346 6 116173756.35806     -1311.471 6        38.402
R22        48.000    19509380.860 8 104142430.25108       384.359 8        52.064                                                                    19509379.027 8  80999665.99408       298.924 8        48.399
C20        49.000                                                                                                                                    23972857.937 7 124832987.12607      1913.500 7        47.408                                                                    23972852.359 7 101437011.20007      1554.786 7        46.830
C06        50.000                                                                                                                                    38349039.360 6 199693545.30506      -165.418 6        40.799    38349033.643 7 154415699.70907      -127.901 7        44.754    38349033.850 6 162267343.90006      -134.553 6        41.709
S48        51.000    77232066.800 6 405858695.85706      -468.418 6        37.437
G21        52.000    23377446.200 6 122849375.03606     -3426.147 6        40.405                                    23377440.681 4  95726806.08804     -2669.723 4        26.240
C09        53.000                                                                                                                                    38864431.721 7 202377312.75907       326.927 7        42.256    38864428.253 7 156490965.62307       252.840 7        46.269    38864426.277 6 164448123.11706       265.628 6        41.752
C60        54.000                                                                                                                                    40659010.712 6 211722355.51606      -540.559 6        39.910                                                                    40658995.023 6 172041728.75606      -439.465 6        39.474
C27        55.000                                                                                                                                    25342372.090 7 131964390.92607     -3956.258 7        42.720                                                                    25342370.808 7 107231879.50507     -3214.834 7        42.686
R14        56.000    24387705.470 7 130000203.06907     -2610.051 7        43.259                                                                    24387704.995 6 101111287.78506     -2030.154 6        39.273
C02        57.000                                                                                                                                    40618434.149 5 211510906.93405      -521.338 5        34.667    40618426.724 6 163553647.11506      -402.954 6        39.634    40618430.435 5 171869943.30105      -423.536 5        35.771
I03        58.000   103514237.678 6 330426877.29406       910.802 6        40.489
R07        59.000    19777255.515 8 105869260.67008      1061.624 8        52.295                                                                    19777253.407 7  82342811.94107       825.720 7        47.741
> 2025 01 02 01 30 15.0000000  0 54
G09         1.000    23130461.013 7 121551416.08107      3002.449 7        42.133                                    23130458.581 6  94715392.55106      2339.571 6        39.946    23130458.450 6  94715392.55306      2339.557 6        40.567
G06         2.000    24597412.976 6 129260288.74606      3020.670 6        38.465                                    24597411.565 5 100722305.62605      2353.772 5        32.353    24597412.301 6 100722313.62706      2353.920 6        38.351
R15         4.000    23314862.612 7 124587565.27907       350.889 7        44.778                                                                    23314862.408 6  96901426.50806       272.759 6        39.342
S21         5.000    38479826.801 6 202212591.87306      -470.534 6        41.712
E10         6.000    26578238.842 6 139669594.70106      2148.465 6        41.776                                                                    26578237.720 7 104298719.29107      1604.405 7        45.157    26578237.497 7 107019555.00407      1646.202 7        46.100
G28         7.000    23272027.943 7 122295350.71907     -1310.301 7        42.883                                    23272024.266 4  95295061.63004     -1021.013 4        29.848    23272024.393 7  95295069.63007     -1020.924 7        43.134
G03         8.000    19965495.963 8 104919487.61708      -552.002 8        50.083                                    19965493.768 8  81755486.55308      -430.131 8        52.530    19965494.340 7  81755484.55007      -430.141 7        46.273
G02         9.000    21821591.957 7 114673291.27007     -2735.629 7        47.848                                    21821585.201 6  89355805.97406     -2131.658 6        38.363
G31        10.000    22388727.815 7 117653569.89707       544.784 7        45.248                                    22388722.987 7  91678090.52607       424.508 7        42.220    22388723.243 7  91678095.53507       424.421 7        42.432
C30        11.000                                                                                                                                    22647396.596 8 117930952.70208     -2378.784 8        49.910                                                                    22647396.833 8  95828562.30208     -1933.104 8        48.134
S27        12.000    39116136.102 6 205556694.81906      -457.239 6        36.166
S36        14.000    38247247.489 7 200991137.08607      -470.535 7        44.099
I09        15.000    37222887.106 7 146070605.64307      -483.001 7        43.308
G19        16.000    22516335.077 7 118324160.67607       717.462 7        43.352                                    22516328.365 5  92200628.71305       559.064 5        31.857
S45        17.000    63443937.791 6 333401509.03706      -511.080 6        37.418
E12        19.000    24932525.257 7 131021313.01907      1370.930 7        42.832                                                                    24932521.487 7  97840579.37107      1023.788 7        46.465    24932521.467 7 100392941.78707      1050.529 7        47.109
G17        20.000    22375123.654 7 117582094.89207     -1295.474 7        45.523                                    22375118.519 7  91622402.64607     -1009.460 7        43.416    22375118.593 7  91622401.65107     -1009.409 7        42.343
E26        21.000    26761995.505 6 140635577.21306     -3251.038 6        40.284                                                                    26761994.105 7 105020268.49107     -2427.690 7        44.474    26761993.636 7 107759903.51207     -2491.063 7        45.321
I06        22.000    38187114.052 7 149854675.78207      -259.614 7        43.318
S28        23.000    40917697.598 5 215023959.85505      -463.877 5        34.400
R08        24.000    23344349.997 6 125007958.75106      3146.565 6        41.461                                                                    23344347.497 6  97228413.22906      2447.268 6        39.048
S23        25.000    38195727.216 7 200719868.04507      -466.728 7        45.026
C25        26.000                                                                                                                                    25604928.048 7 133331572.94107       494.845 7        42.294                                                                    25604925.264 6 108342820.40306       402.024 6        41.068
R16        27.000    24067726.000 7 128565477.90707      2894.189 7        42.317                                                                    24067726.404 6  99995371.09606      2251.031 6        38.520
R21        29.000    20794941.457 8 111277934.69208     -3953.885 8        50.071                                                                    20794939.768 7  86549507.22807     -3075.191 7        45.302
E19        30.000    24087594.058 7 126581190.18807      1617.420 7        42.658                                                                    24087591.679 7  94524916.11007      1207.836 7        44.208    24087591.635 7  96990780.35907      1239.358 7        45.409
R05        31.000    24652900.583 5 131783911.95805     -4376.687 5        30.174                                                                    24652896.871 4 102498605.14504     -3404.533 4        26.407
R23        32.000    22309631.225 7 119341493.90007      3399.565 7        43.793
E29        33.000    23508104.155 8 123536005.94808      -785.626 8        48.451                                                                    23508101.962 8  92250928.95608      -586.661 8        51.120    23508101.992 8  94657469.37208      -601.977 8        52.032
C16        35.000                                                                                                                                    38786202.365 7 201969966.33107      -282.498 7        43.048    38786201.741 7 156176001.80207      -218.483 7        44.414    38786199.668 6 164117141.95806      -229.684 6        39.787
C32        36.000                                                                                                                                    21851886.977 8 113788567.92108      -827.582 8        51.283                                                                    21851886.623 8  92462553.71708      -672.637 8        49.660
G32        37.000    26011284.398 4 136690257.77604     -3928.695 4        24.451                                    26011285.634 1 106511887.88401     -3061.343 1         5.571    26011287.436 4                     -3061.256 4        24.511
E07        38.000    26685011.407 6 140230698.22506     -3089.109 6        40.708                                                                    26685011.971 7 104717766.65207     -2306.875 7        43.907    26685011.402 7 107449526.92507     -2367.026 7        45.014
C41        39.000                                                                                                                                    24740098.706 7 128828213.82807     -3138.604 7        44.966                                                                    24740103.534 7 104683505.29407     -2550.491 7        45.812
C39        40.000                                                                                                                                    38964895.522 7 202900465.84007      -732.259 7        43.500                                                                    38964891.629 7 164873244.37307      -595.090 7        42.986
E33        41.000    23504407.209 8 123516582.73008     -1483.503 8        48.783                                                                    23504404.713 8  92236442.81708     -1107.890 8        50.742    23504404.456 8  94642606.73908     -1136.772 8        51.473
S44        42.000    40659530.200 6 213667471.58606      -545.907 6        37.981
R06        43.000    19817392.625 6 105749467.40506     -2371.076 6        41.218
C05        44.000                                                                                                                                    39162264.598 6 203928235.54106      -475.206 6        38.366    39162260.142 7 157690273.24307      -367.535 7        43.604    39162262.024 6 165708500.38506      -386.187 6        39.826
C29        45.000                                                                                                                                    23309180.462 7 121377042.33407       944.740 7        47.396                                                                    23309178.226 7  98628787.36707       767.467 7        46.779
G04        46.000    21155807.241 7 111174549.06507      1906.777 7        46.603                                    21155803.644 6  86629504.43706      1485.802 6        36.934    21155803.842 7  86629506.43207      1485.818 7        45.657
E25        47.000    28853304.079 6 151625158.66106     -1714.036 6        36.204                                                                    28853304.537 6 113226584.40206     -1279.778 6        38.237    28853304.488 6 116180318.56506     -1313.254 6        39.595
R22        48.000    19509022.680 8 104140519.82608       379.984 8        51.937                                                                    19509020.894 8  80998180.10908       295.533 8        48.129
C20        49.000                                                                                                                                    23971021.401 7 124823423.69807      1912.075 7        47.653                                                                    23971015.812 7 101429240.15307      1553.542 7        46.879
C06        50.000                                                                                                                                    38349198.922 6 199694375.84906      -166.592 6        40.779    38349193.495 7 154416341.93407      -128.873 7        44.727    38349193.346 6 162268018.78006      -135.391 6        41.845
S48        51.000    77232511.307 6 405861039.42106      -468.531 6        37.437
G21        52.000    23380706.603 6 122866509.69806     -3427.286 6        39.643                                    23380701.321 4  95740157.76804     -2670.607 4        26.419
C09        53.000                                                                                                                                    38864118.618 7 202375681.27407       325.829 7        42.118    38864114.819 7 156489704.04807       251.955 7        46.043    38864112.967 6 164446797.42706       264.610 6        41.709
C60        54.000                                                                                                                                    40659530.136 6 211725059.56406      -540.816 6        39.961                                                                    40659514.348 6 172043926.01906      -439.542 6        39.441
C27        55.000                                                                                                                                    25346171.279 7 131984174.49207     -3956.864 7        42.650                                                                    25346169.912 7 107247955.29307     -3215.511 7        42.533
R14        56.000    24390153.551 6 130013263.19406     -2613.686 6        41.831                                                                    24390155.512 6 101121445.66906     -2032.953 6        40.212
C02        57.000                                                                                                                                    40618935.347 5 211513513.56105      -521.365 5        34.581    40618926.888 6 163555662.73406      -403.073 6        39.492    40618930.962 5 171872061.41805      -423.959 5        35.552
I03        58.000   103513077.517 6 330422324.47406       910.528 6        40.479
R07        59.000    19776265.237 8 105863960.60908      1058.556 8        52.521                                                                    19776263.184 7  82338689.67707       823.335 7        47.537
> 2025 01 02 01 30 20.0000000  0 54
G09         1.000    23127604.595 7 121536406.77807      3001.265 7        42.104                                    23127602.457 6  94703696.99206      2338.648 6        40.062    23127602.514 6  94703696.99706      2338.702 6        40.124
G06         2.000    24594539.602 6 129245186.59206      3020.337 6        38.796                                    24594537.904 5 100710537.72705      2353.513 5        32.455    24594538.212 6 100710545.73506      2353.455 6        38.195
R15         4.000    23314536.404 7 124585821.20807       346.917 7        44.507                                                                    23314535.936 6  96900069.98406       269.688 6        39.435
S21         5.000    38480276.293 6 202214945.16506      -470.781 6        41.845
E10         6.000    26576195.138 6 139658853.62406      2147.986 6        41.721                                                                    26576193.791 7 104290698.36907      1604.015 7        45.005    26576193.558 7 107011324.83207      1645.902 7        46.065
G28         7.000    23273276.701 7 122301910.27207     -1313.466 7        42.900                                    23273272.555 4  95300172.96704     -1023.488 4        29.839    23273272.752 7  95300180.97507     -1023.415 7        43.793
G03         8.000    19966022.248 8 104922252.89608      -553.985 8        50.232                                    19966019.993 8  81757641.31608      -431.675 8        52.597    19966020.734 7  81757639.31007      -431.656 7        46.489
G02         9.000    21824196.123 7 114686974.51607     -2737.583 7        47.994                                    21824189.053 6  89366468.24506     -2133.181 6        38.435
G31        10.000    22388211.365 7 117650854.61307       541.458 7        45.308                                    22388206.331 7  91675974.72607       421.917 7        42.353    22388206.789 7  91675979.72907       421.967 7        42.635
C30        11.000                                                                                                                                    22649681.829 8 117942852.67608     -2381.063 8        49.837                                                                    22649682.042 8  95838231.99508     -1934.809 8        48.082
S27        12.000    39116566.996 6 205558980.06506      -456.892 6        36.140
S36        14.000    38247692.679 7 200993489.20807      -470.431 7        44.268
I09        15.000    37223502.519 7 146073020.84807      -483.000 7        43.433
G19        16.000    22515653.854 7 118320581.69507       714.109 7        44.146                                    22515647.345 5  92197839.89605       556.450 5        31.955
S45        17.000    63444381.801 6 333404063.87006      -510.928 6        37.595
E12        19.000    24931221.250 7 131014461.19307      1369.741 7        42.461                                                                    24931217.691 7  97835462.74307      1022.924 7        46.521    24931217.634 7 100387691.67707      1049.661 7        47.115
G17        20.000    22376357.385 7 117588579.47107     -1298.254 7        46.008                                    22376352.472 7  91627455.56407     -1011.627 7        43.452    22376352.550 7  91627454.57407     -1011.682 7        42.523
E26        21.000    26765089.901 6 140651834.17606     -3251.603 6        40.532                                                                    26765087.771 7 105032408.43907     -2428.288 7        44.382    26765087.228 7 107772360.14707     -2491.521 7        45.216
I06        22.000    38187445.170 7 149855974.32807      -259.654 7        43.532
S28        23.000    40918142.860 5 215026279.87805      -463.769 5        34.724
R08        24.000    23341411.957 6 124992228.20706      3145.654 6        41.943                                                                    23341409.731 6  97216178.35106      2446.547 6        39.862
S23        25.000    38196172.044 7 200722201.78807      -466.656 7        45.124
C25        26.000                                                                                                                                    25604453.867 7 133329105.48307       492.436 7        42.717                                                                    25604451.413 6 108340815.39906       400.000 6        41.116
R16        27.000    24065018.092 7 128551010.85707      2892.707 7        42.349                                                                    24065018.482 6  99984118.94406      2249.773 6        38.607
R21        29.000    20798637.566 8 111297711.04008     -3956.600 8        50.185                                                                    20798635.635 7  86564888.83707     -3077.463 7        44.879
E19        30.000    24086055.854 7 126573106.72607      1615.883 7        42.591                                                                    24086053.420 7  94518879.75607      1206.682 7        44.298    24086053.384 7  96984586.54207      1238.231 7        45.400
R05        31.000    24656994.682 5 131805791.84805     -4375.566 5        30.672                                                                    24656992.082 3                     -3403.135 3        23.943
R23        32.000    22306454.890 7 119324500.42707      3397.913 7        44.513
E29        33.000    23508852.470 8 123539939.10108      -787.609 8        48.380                                                                    23508850.403 8  92253866.04708      -588.092 8        51.174    23508850.421 8  94660483.08308      -603.434 8        52.089
C16        35.000                                                                                                                                    38786473.559 7 201971381.05507      -283.294 7        42.811    38786473.692 7 156177095.76307      -219.067 7        44.515    38786471.526 6 164118291.54906      -230.385 6        39.649
C32        36.000                                                                                                                                    21852682.399 8 113792710.27608      -829.274 8        51.246                                                                    21852682.176 8  92465919.71808      -673.861 8        49.641
