     3.04           OBSERVATION DATA    M                   RINEX VERSION / TYPE
ssrcrin-15.6.1x                         20250102 023000 UTC PGM / RUN BY / DATE 
(00000000023479385599111004) Septentrio proprietary         COMMENT             
rref                                                        MARKER NAME         
01                                                          MARKER NUMBER       
geodetic                                                    MARKER TYPE         
NFB                 CLIMERS@TUW                             OBSERVER / AGENCY   
3297213             SEPT ASTERX SB3 PROB4.14.4              REC # / TYPE / VERS 
Unknown             Unknown                                 ANT # / TYPE        
  4127832.0524  1207193.0588  4695247.8005                  APPROX POSITION XYZ 
        0.0000        0.0000        0.0000                  ANTENNA: DELTA H/E/N
G   23 X1  C1C L1C D1C S1C C1W S1W C2W L2W D2W S2W C2L L2L  SYS / # / OBS TYPES 
       D2L S2L C5Q L5Q D5Q S5Q C1L L1L D1L S1L              SYS / # / OBS TYPES 
E   21 X1  C1C L1C D1C S1C C6C L6C D6C S6C C5Q L5Q D5Q S5Q  SYS / # / OBS TYPES 
       C7Q L7Q D7Q S7Q C8Q L8Q D8Q S8Q                      SYS / # / OBS TYPES 
S    9 X1  C1C L1C D1C S1C C5I L5I D5I S5I                  SYS / # / OBS TYPES 
R   17 X1  C1C L1C D1C S1C C2P L2P D2P S2P C2C L2C D2C S2C  SYS / # / OBS TYPES 
       C3Q L3Q D3Q S3Q                                      SYS / # / OBS TYPES 
C   25 X1  C1P L1P D1P S1P C5P L5P D5P S5P C2I L2I D2I S2I  SYS / # / OBS TYPES 
       C7I L7I D7I S7I C6I L6I D6I S6I C7D L7D D7D S7D      SYS / # / OBS TYPES 
J   17 X1  C1C L1C D1C S1C C2L L2L D2L S2L C5Q L5Q D5Q S5Q  SYS / # / OBS TYPES 
       C1L L1L D1L S1L                                      SYS / # / OBS TYPES 
I    5 X1  C5A L5A D5A S5A                                  SYS / # / OBS TYPES 
SEPTENTRIO RECEIVERS OUTPUT ALIGNED CARRIER PHASES.         COMMENT             
NO FURTHER PHASE SHIFT APPLIED IN THE RINEX ENCODER.        COMMENT             
G L1C                                                       SYS / PHASE SHIFT   
G L2W                                                       SYS / PHASE SHIFT   
G L2L  0.00000                                              SYS / PHASE SHIFT   
G L5Q  0.00000                                              SYS / PHASE SHIFT   
G L1L  0.00000                                              SYS / PHASE SHIFT   
E L1C  0.00000                                              SYS / PHASE SHIFT   
E L6C  0.00000                                              SYS / PHASE SHIFT   
E L5Q  0.00000                                              SYS / PHASE SHIFT   
E L7Q  0.00000                                              SYS / PHASE SHIFT   
E L8Q  0.00000                                              SYS / PHASE SHIFT   
S L1C                                                       SYS / PHASE SHIFT   
S L5I                                                       SYS / PHASE SHIFT   
R L1C                                                       SYS / PHASE SHIFT   
R L2P  0.00000                                              SYS / PHASE SHIFT   
R L2C                                                       SYS / PHASE SHIFT   
R L3Q  0.00000                                              SYS / PHASE SHIFT   
C L1P  0.00000                                              SYS / PHASE SHIFT   
C L5P  0.00000                                              SYS / PHASE SHIFT   
C L2I                                                       SYS / PHASE SHIFT   
C L7I                                                       SYS / PHASE SHIFT   
C L6I                                                       SYS / PHASE SHIFT   
C L7D                                                       SYS / PHASE SHIFT   
J L1C                                                       SYS / PHASE SHIFT   
J L2L  0.00000                                              SYS / PHASE SHIFT   
J L5Q  0.00000                                              SYS / PHASE SHIFT   
J L1L  0.00000                                              SYS / PHASE SHIFT   
I L5A                                                       SYS / PHASE SHIFT   
  2025     1     2     2    30    0.0000000     GPS         TIME OF FIRST OBS   
 C1C    0.000 C2C    0.000 C2P    0.000                     GLONASS COD/PHS/BIS 
DBHZ                                                        SIGNAL STRENGTH UNIT
    18                                                      LEAP SECONDS        
 24 R01  1 R02 -4 R03  5 R04  6 R05  1 R06 -4 R07  5 R08  6 GLONASS SLOT / FRQ #
    R09 -2 R10 -7 R11  0 R12 -1 R13 -2 R14 -7 R15  0 R16 -1 GLONASS SLOT / FRQ #
    R17  4 R18 -3 R19  3 R20  2 R21  4 R22 -3 R23  3 R24  2 GLONASS SLOT / FRQ #
                                                            END OF HEADER       
> 2025 01 02 02 30  0.0000000  0 54
G09         1.000    21151057.039 8 111149587.93708      1816.995 8        48.186                                    21151054.151 8  86610074.17708      1415.841 8        49.441    21151054.328 7  86610074.18007      1415.801 7        44.120
G06         2.000    22472306.110 7 118092784.10807      2148.151 7        44.378                                    22472304.540 7  92020355.70507      1673.884 7        43.596    22472305.523 7  92020363.70807      1673.879 7        42.373
E11         3.000    27059890.571 6 142200696.85306      2285.398 6        36.499                                                                    27059886.526 6 106188821.26406      1706.617 6        39.673    27059886.278 6 108958960.78706      1751.124 6        40.274
R15         4.000    23777618.480 7 127060393.93207     -2563.260 7        42.476                                                                    23777618.927 6  98824737.12106     -1993.725 6        39.426
S21         5.000    38504694.272 7 202343253.25607      -474.852 7        42.438
E10         6.000    25031959.680 7 131543844.56307      1391.702 7        45.189                                                                    25031958.310 8  98230789.58508      1039.230 8        48.501    25031958.131 8 100793331.41608      1066.311 8        49.286
G28         7.000    24591193.010 6 129227602.30906     -3280.126 6        39.078                                    24591189.429 3 100696815.10703     -2555.954 3        22.343    24591188.318 6 100696823.10406     -2555.940 6        38.682
G03         8.000    20533291.787 8 107903275.50808     -1965.213 8        49.555                                    20533289.345 8  84080516.29708     -1531.336 8        51.027    20533289.964 7  84080514.30307     -1531.361 7        45.028
G02         9.000    23807767.958 7 125110710.18907     -3829.119 7        42.281                                    23807760.828 4  97488858.62504     -2983.729 4        27.784
G31        10.000    22586658.330 7 118693701.11407     -1991.734 7        44.704                                    22586653.555 6  92488582.69206     -1552.001 6        41.280    22586652.815 6  92488587.69306     -1551.956 6        40.644
C30        11.000                                                                                                                                    24467478.526 7 127408592.61607     -3610.676 7        44.728                                                                    24467479.096 7 103529920.11707     -2933.988 7        45.026
S27        12.000    39134340.198 6 205652356.90706      -468.837 6        36.427
G26        13.000    25249861.582 6 132688917.41606      1769.105 6        36.253                                    25249861.745 4 103393966.09904      1378.519 4        28.076    25249861.907 5 103393966.12005      1378.450 5        35.305
S36        14.000    38272086.472 7 201121673.11907      -475.008 7        44.837
I09        15.000    37414934.121 7 146824240.65807      -585.724 7        43.134
G19        16.000    22589471.204 7 118708493.86907     -1773.008 7        43.649                                    22589464.613 5  92500109.34705     -1381.565 5        31.540
S45        17.000    63465417.324 6 333513181.30806      -514.832 6        37.705
E12        19.000    24082699.200 7 126555448.58707       146.099 7        44.939                                                                    24082695.129 7  94505681.35307       109.068 7        47.916    24082695.176 8  96971046.34808       111.961 8        48.584
G17        20.000    23583601.164 7 123932681.20907     -2952.155 7        42.629                                    23583595.889 6  96570910.07206     -2300.378 6        36.987    23583596.973 6  96570909.07906     -2300.462 6        38.384
I06        22.000    38135511.826 7 149652181.77807      -279.678 7        42.789
S28        23.000    40938551.609 5 215133547.28905      -469.680 5        35.014
R08        24.000    21268883.520 8 113893946.42908      2089.483 8        48.603                                                                    21268881.287 7  88584184.66407      1625.139 7        45.157
S23        25.000    38217897.543 7 200836404.57307      -470.861 7        45.041
C25        26.000                                                                                                                                    25609976.558 6 133357863.85006     -1399.062 6        40.644                                                                    25609974.125 6 108364183.81406     -1136.741 6        40.737
R16        27.000    22434224.319 7 119839609.72907       783.453 7        47.364                                                                    22434223.584 7  93208587.28507       609.474 7        43.611
R21        29.000    23644253.872 7 126525172.49507     -5152.899 7        43.187                                                                    23644253.602 6  98408467.59406     -4007.944 6        39.075
E19        30.000    23104291.282 7 121413903.65207       371.097 7        43.376                                                                    23104288.658 7  90666229.34407       277.102 7        45.676    23104288.620 7  93031432.05807       284.382 7        46.812
C23        31.000                                                                                                                                    25087048.888 7 130634853.32407      1167.002 7        44.569                                                                    25087040.151 7 106151485.98207       948.188 7        44.614
R23        32.000    20366485.636 8 108946981.64708      1207.456 8        48.704
E29        33.000    24194004.689 7 127140437.15507     -2013.274 7        46.434                                                                    24194002.544 8  94942549.50508     -1503.401 8        49.659    24194002.533 8  97419306.12308     -1542.626 8        50.847
E04        34.000    27293844.597 6 143430142.59606      2310.980 6        39.198                                                                    27293842.859 6 107106931.98806      1725.777 6        41.979    27293842.585 7 109901021.81907      1770.792 7        42.419
C16        35.000                                                                                                                                    38894311.959 7 202532919.79707      -873.314 7        42.717    38894311.281 7 156611313.35707      -675.340 7        44.004    38894308.657 6 164574587.95306      -709.629 6        39.613
C32        36.000                                                                                                                                    22512663.433 8 117229404.12408     -1892.057 8        50.789                                                                    22512663.166 8  95258514.97108     -1537.375 8        50.595
I01        37.000   379007367.907 7 184165512.73307     -2698.141 7        43.422
E07        38.000    28603226.834 5 150310981.50605     -3311.048 5        35.205                                                                    28603227.299 6 112245249.20706     -2472.555 6        39.441    28603227.037 6 115173378.78406     -2537.083 6        40.079
C41        39.000                                                                                                                                    26672141.923 6 138888862.57006     -3282.553 6        40.496                                                                    26672147.325 6 112858605.07506     -2667.366 6        41.785
C39        40.000                                                                                                                                    39365736.460 7 204987747.29207     -1264.236 7        42.193                                                                    39365731.912 7 166569331.43507     -1027.185 7        42.157
E33        41.000    24666332.941 7 129622541.71407     -2761.893 7        46.024                                                                    24666330.723 8  96796086.82308     -2062.500 8        48.772    24666330.348 8  99321198.05608     -2116.268 8        49.499
S44        42.000    40737059.376 6 214074890.66906      -553.267 6        38.231
R06        43.000    21547719.262 6 114982820.97606     -3493.248 6        38.670
C05        44.000                                                                                                                                    39198679.981 6 204117857.83206      -494.934 6        38.616    39198674.671 7 157836901.89607      -382.717 7        43.486    39198676.379 6 165862584.54506      -402.136 6        40.257
C29        45.000                                                                                                                                    23037886.941 8 119964346.86508     -1059.929 8        48.245                                                                    23037884.253 7  97480857.07807      -861.213 7        47.438
G04        46.000    20169167.389 8 105989725.56108        69.580 8        48.859                                    20169163.509 7  82589383.18907        54.218 7        42.417    20169163.876 8  82589385.18208        54.240 8        48.818
E30        47.000    29025060.338 5 152527735.66405       711.929 5        30.302                                                                    29025060.853 5 113900572.42505       531.551 5        35.810    29025059.897 6 116871890.40406       545.514 6        36.284
R22        48.000    20006529.708 8 106796244.11708     -2720.205 8        51.808                                                                    20006527.223 7  83063743.51907     -2115.750 7        47.959
C20        49.000                                                                                                                                    22666313.023 8 118029466.55208       993.176 8        50.783                                                                    22666307.130 8  95908593.90608       807.054 8        49.513
C06        50.000                                                                                                                                    38385879.508 6 199885376.86006      -784.716 6        41.683    38385873.258 7 154564036.29207      -606.698 7        45.153    38385872.812 6 162423222.95706      -637.504 6        41.919
S48        51.000    77253227.377 6 405968366.68806      -467.358 6        38.195
C09        53.000                                                                                                                                    38550857.959 7 200744456.00507      -273.973 7        42.275    38550854.497 7 155228337.77107      -211.934 7        46.695    38550852.758 7 163121293.71007      -222.589 7        42.573
C60        54.000                                                                                                                                    40737059.191 6 212128774.84806      -548.298 6        39.126                                                                    40737042.898 6 172371977.67706      -445.581 6        39.450
R09        55.000    23469027.026 6 125323311.22706      3239.354 6        41.423                                                                    23469026.729 6  97473678.33106      2519.336 6        41.886
C02        57.000                                                                                                                                    40686645.241 5 211866099.34705      -539.473 5        34.605    40686637.660 6 163828304.27906      -416.963 6        39.736    40686641.380 5 172158566.13005      -437.952 5        35.886
I03        58.000   102396478.550 6 326040549.65306       883.294 6        40.474
R07        59.000    19435205.327 8 104038241.27908      -873.406 8        51.343                                                                    19435203.639 7  80918685.70707      -679.301 7        47.402
> 2025 01 02 02 30  5.0000000  0 54
G09         1.000    21149329.311 8 111140507.65708      1814.874 8        48.168                                    21149326.231 8  86602998.63408      1414.186 8        49.342    21149326.493 7  86602998.63707      1414.233 7        44.044
G06         2.000    22470263.351 7 118082048.71207      2145.931 7        44.635                                    22470261.657 7  92011990.46507      1672.154 7        43.556    22470262.435 7  92011998.47107      1672.099 7        42.701
E11         3.000    27057717.071 6 142189272.27006      2284.521 6        36.669                                                                    27057712.540 6 106180289.90406      1706.041 6        39.498    27057712.322 6 108950206.88506      1750.408 6        40.150
R15         4.000    23780018.440 7 127073218.69407     -2566.803 7        43.124                                                                    23780019.565 6  98834711.95806     -1996.519 6        39.426
S21         5.000    38505143.943 7 202345627.64707      -474.936 7        42.159
E10         6.000    25030636.148 7 131536889.83407      1389.988 7        45.309                                                                    25030634.879 8  98225596.12308      1037.994 8        48.259    25030634.676 8 100788002.46808      1065.083 8        49.181
G28         7.000    24594314.929 6 129244007.67806     -3282.233 6        39.342                                    24594311.274 3 100709598.51203     -2557.575 3        22.210    24594310.669 6 100709606.51006     -2557.709 6        38.829
G03         8.000    20535162.609 8 107913106.01608     -1967.198 8        49.193                                    20535160.030 8  84088176.43308     -1532.884 8        51.003    20535160.730 7  84088174.43907     -1532.904 7        45.631
G02         9.000    23811411.556 7 125129857.61007     -3830.045 7        43.336                                    23811404.239 4  97503778.69204     -2984.451 4        28.142
G31        10.000    22588554.687 7 118703667.60607     -1995.031 7        44.909                                    22588550.019 6  92496348.79306     -1554.566 6        41.159    22588549.766 6  92496353.80206     -1554.641 6        40.577
C30        11.000                                                                                                                                    24470945.814 7 127426647.93307     -3611.623 7        44.974                                                                    24470946.415 7 103544591.54007     -2934.682 7        45.053
S27        12.000    39134789.726 6 205654700.95206      -468.976 6        36.469
G26        13.000    25248180.030 6 132680076.01106      1767.355 6        36.790                                    25248179.288 4 103387076.70704      1377.153 4        28.171    25248179.454 5 103387076.70905      1377.350 5        35.514
S36        14.000    38272539.581 7 201124048.26307      -475.031 7        44.822
I09        15.000    37415680.671 7 146827169.35107      -585.870 7        43.117
G19        16.000    22591159.280 7 118717366.09207     -1776.121 7        44.008                                    22591152.936 5  92507022.77805     -1383.994 5        31.525
S45        17.000    63465865.041 6 333515755.41606      -515.047 6        37.626
E12        19.000    24082561.159 7 126554722.93407       144.021 7        44.951                                                                    24082557.031 7  94505139.47207       107.550 7        47.725    24082557.022 8  96970490.33808       110.354 8        48.594
G17        20.000    23586410.349 7 123947445.75707     -2953.586 7        42.409                                    23586405.468 6  96582414.91306     -2301.492 6        36.934    23586405.425 6  96582413.92406     -2301.688 6        38.327
I06        22.000    38135868.096 7 149653580.29107      -279.839 7        42.804
S28        23.000    40938998.042 5 215135895.04905      -469.927 5        34.605
R08        24.000    21266933.496 8 113883502.84808      2087.685 8        48.459                                                                    21266930.859 7  88576061.88707      1623.745 7        44.924
S23        25.000    38218344.338 7 200838758.55107      -470.889 7        44.928
C25        26.000                                                                                                                                    25611321.164 6 133364864.99706     -1401.602 6        41.669                                                                    25611318.775 6 108369872.82506     -1138.875 6        41.044
R16        27.000    22433491.956 7 119835701.83107       779.463 7        47.096                                                                    22433492.106 7  93205547.82507       606.201 7        43.589
R21        29.000    23649068.917 7 126550938.17107     -5153.438 7        43.027                                                                    23649068.519 6  98428507.57006     -4008.315 6        39.255
E19        30.000    23103939.045 7 121412052.52807       369.106 7        43.454                                                                    23103936.420 7  90664847.01207       275.728 7        45.400    23103936.480 7  93030013.66807       282.901 7        46.709
C23        31.000                                                                                                                                    25085929.152 7 130629023.92407      1164.700 7        44.432                                                                    25085920.616 7 106146749.11407       946.536 7        44.677
R23        32.000    20365359.319 8 108940954.60708      1203.149 8        48.523
E29        33.000    24195920.795 7 127150506.39807     -2014.583 7        46.528                                                                    24195918.683 8  94950068.74908     -1504.410 8        49.546    24195918.609 8  97427021.52608     -1543.732 8        50.796
E04        34.000    27291645.836 6 143418588.44306      2310.361 6        39.508                                                                    27291644.478 6 107098303.89906      1725.350 6        41.998    27291643.943 7 109892168.65307      1770.179 7        42.544
C16        35.000                                                                                                                                    38895150.906 7 202537288.08007      -874.198 7        42.825    38895150.081 7 156614691.17907      -675.862 7        44.153    38895147.612 6 164578137.53106      -710.260 6        39.796
C32        36.000                                                                                                                                    22514480.845 8 117238866.97308     -1893.279 8        50.927                                                                    22514480.399 8  95266204.31208     -1538.364 8        50.686
I01        37.000   379010805.861 7 184179003.36007     -2698.296 7        43.547
E07        38.000    28606377.070 5 150327536.46105     -3311.031 5        35.290                                                                    28606377.680 6 112257611.65806     -2472.535 6        39.553    28606377.421 6 115186063.73306     -2537.014 6        40.131
C41        39.000                                                                                                                                    26675293.901 6 138905275.40506     -3282.563 6        40.579                                                                    26675299.192 6 112871941.84606     -2667.392 6        41.816
C39        40.000                                                                                                                                    39366950.458 7 204994069.14107     -1264.796 7        42.281                                                                    39366946.044 7 166574468.44707     -1027.598 7        42.379
E33        41.000    24668961.320 7 129636354.98307     -2763.604 7        46.110                                                                    24668959.275 8  96806401.92108     -2063.670 8        48.584    24668959.019 8  99331782.24708     -2117.549 8        49.458
S44        42.000    40737582.989 6 214077656.37406      -553.072 6        37.773
R06        43.000    21550992.926 6 115000288.48906     -3494.017 6        38.868
C05        44.000                                                                                                                                    39199154.970 6 204120332.12606      -495.022 6        38.754    39199149.539 7 157838815.17907      -382.789 7        43.570    39199151.560 6 165864595.11306      -402.210 6        40.377
C29        45.000                                                                                                                                    23038905.858 8 119969652.89108     -1062.791 8        48.487                                                                    23038903.271 7  97485168.65907      -863.502 7        47.561
G04        46.000    20169102.368 8 105989383.97508        66.880 8        49.049                                    20169098.482 7  82589117.01707        52.114 7        42.345    20169098.675 8  82589119.00908        52.157 8        48.977
E30        47.000    29024384.132 5 152524181.64205       709.807 5        30.453                                                                    29024384.213 5 113897918.42005       530.014 5        35.552    29024383.896 6 116869167.17606       543.788 6        36.484
R22        48.000    20009079.951 8 106809854.42108     -2724.134 8        52.308                                                                    20009077.276 7  83074329.31807     -2118.819 7        47.962
C20        49.000                                                                                                                                    22665359.867 8 118024503.64908       991.781 8        51.029                                                                    22665354.041 8  95904561.13408       805.967 8        49.579
C06        50.000                                                                                                                                    38386633.236 6 199889301.67806      -785.400 6        41.745    38386626.839 7 154567071.22807      -607.384 7        45.272    38386626.661 7 162426412.20807      -638.292 7        42.068
S48        51.000    77253675.362 6 405970703.16406      -467.375 6        37.989
C09        53.000                                                                                                                                    38551121.498 7 200745827.93007      -274.902 7        42.476    38551118.171 7 155229398.63907      -212.574 7        46.721    38551116.184 7 163122408.51607      -223.289 7        42.673
C60        54.000                                                                                                                                    40737585.188 6 212131515.42406      -548.322 6        39.240                                                                    40737569.217 6 172374204.61606      -445.542 6        39.658
R09        55.000    23465994.406 7 125307117.13307      3238.214 7        42.423                                                                    23465994.485 7  97461082.92607      2518.583 7        42.004
C02        57.000                                                                                                                                    40687162.791 5 211868795.42505      -539.423 5        34.633    40687155.737 6 163830389.07006      -417.219 6        39.964    40687159.117 6 172160756.92206      -438.390 6        36.068
I03        58.000   102395352.730 6 326036132.93206       883.211 6        40.737
R07        59.000    19436022.431 8 104042614.12908      -875.890 8        51.848                                                                    19436020.406 7  80922086.81807      -681.202 7        47.577
> 2025 01 02 02 30 10.0000000  0 54
G09         1.000    21147603.153 8 111131438.02708      1813.117 8        48.225                                    21147600.341 8  86595931.39208      1412.818 8        49.403    21147600.454 7  86595931.38907      1412.819 7        43.989
G06         2.000    22468222.378 7 118071323.73707      2144.069 7        44.495                                    22468220.750 7  92003633.34507      1670.701 7        43.587    22468221.513 7  92003641.35007      1670.811 7        42.609
E11         3.000    27055543.333 6 142177851.39306      2283.840 6        36.503                                                                    27055539.179 6 106171761.35306      1705.486 6        39.574    27055538.845 6 108941455.82806      1750.074 6        40.260
R15         4.000    23782422.696 7 127086061.79007     -2570.339 7        42.978                                                                    23782422.736 6  98844700.99906     -1999.225 6        40.100
S21         5.000    38505597.723 7 202348002.34607      -474.811 7        42.235
E10         6.000    25029314.233 7 131529943.23507      1388.686 7        45.207                                                                    25029312.944 8  98220408.72408      1037.000 8        48.354    25029312.797 8 100782679.74908      1064.025 8        49.246
G28         7.000    24597438.204 6 129260423.47106     -3284.063 6        39.619                                    24597435.123 3 100722390.03503     -2559.000 3        22.629    24597434.890 6 100722398.03206     -2558.967 6        38.871
G03         8.000    20537034.795 8 107922946.14908     -1968.839 8        48.912                                    20537032.567 8  84095844.07208     -1534.161 8        50.963    20537033.359 7  84095842.07207     -1534.144 7        45.694
G02         9.000    23815055.812 7 125149009.99107     -3830.809 7        43.467                                    23815048.696 4  97518702.62404     -2985.050 4        28.673
G31        10.000    22590454.700 7 118713651.03907     -1998.159 7        45.496                                    22590449.694 6  92504128.09406     -1557.006 6        41.199    22590450.260 6  92504133.09606     -1557.028 6        41.006
C30        11.000                                                                                                                                    24474414.484 7 127444708.53207     -3612.498 7        44.692                                                                    24474414.630 7 103559267.23707     -2935.447 7        44.898
S27        12.000    39135232.877 6 205657045.74406      -468.975 6        36.488
G26        13.000    25246499.230 6 132671242.74306      1765.990 6        36.442                                    25246498.382 4 103380193.65104      1376.094 4        27.952    25246498.018 5 103380193.65705      1376.153 5        35.090
S36        14.000    38272988.317 7 201126423.39307      -474.730 7        44.631
I09        15.000    37416427.217 7 146830098.91007      -585.909 7        43.132
G19        16.000    22592850.785 7 118726254.43507     -1779.098 7        44.451                                    22592844.314 5  92513948.75505     -1386.310 5        31.525
S45        17.000    63466313.813 6 333518329.88706      -514.819 6        37.546
E12        19.000    24082425.214 7 126554008.08107       142.063 7        44.978                                                                    24082420.972 7  94504605.65207       106.077 7        47.792    24082420.985 8  96969942.58908       108.844 8        48.500
G17        20.000    23589221.492 7 123962218.20607     -2955.141 7        43.016                                    23589216.643 6  96593925.90606     -2302.708 6        36.975    23589217.098 6  96593924.91006     -2302.673 6        38.508
I06        22.000    38136224.925 7 149654979.18607      -279.720 7        42.796
S28        23.000    40939445.486 5 215138243.44105      -469.627 5        34.633
R08        24.000    21264985.049 8 113873068.27008      2086.177 8        49.493                                                                    21264982.664 7  88567946.08907      1622.547 7        45.330
S23        25.000    38218792.520 7 200841112.82007      -470.781 7        44.962
C25        26.000                                                                                                                                    25612668.664 6 133371879.57006     -1404.059 6        41.928                                                                    25612665.794 6 108375572.73706     -1141.033 6        41.130
R16        27.000    22432764.873 7 119831814.62407       775.568 7        47.090                                                                    22432764.061 7  93202524.44007       603.286 7        43.619
R21        29.000    23653884.252 7 126576706.40207     -5153.799 7        42.999                                                                    23653883.907 6  98448549.52306     -4008.510 6        39.267
E19        30.000    23103588.594 7 121410210.59507       367.670 7        43.566                                                                    23103585.870 7  90663471.55207       274.543 7        45.422    23103585.868 7  93028602.32407       281.675 7        46.765
C23        31.000                                                                                                                                    25084811.856 7 130623205.59607      1162.721 7        44.203                                                                    25084803.238 7 106142021.24107       944.728 7        44.703
R23        32.000    20364236.594 8 108934948.98308      1199.143 8        48.972
E29        33.000    24197838.157 7 127160582.60407     -2015.726 7        46.601                                                                    24197836.163 8  94957593.19308     -1505.299 8        49.502    24197836.077 8  97434742.25508     -1544.547 8        50.830
E04        34.000    27289448.189 6 143407037.77406      2309.939 6        40.193                                                                    27289446.611 7 107089678.41207      1724.937 7        42.049    27289445.932 7 109883318.14307      1770.005 7        42.720
C16        35.000                                                                                                                                    38895990.446 7 202541660.20607      -874.490 7        42.406    38895989.638 7 156618071.99807      -676.349 7        44.164    38895987.182 6 164581690.24106      -710.774 6        39.796
C32        36.000                                                                                                                                    22516299.334 8 117248336.20908     -1894.341 8        50.593                                                                    22516298.866 8  95273898.83508     -1539.346 8        50.630
I01        37.000   379014243.999 7 184192494.71107     -2698.220 7        43.687
E07        38.000    28609527.627 5 150344091.40105     -3310.854 5        35.200                                                                    28609528.180 6 112269974.10806     -2472.236 6        39.444    28609527.717 6 115198748.68406     -2536.816 6        40.141
C41        39.000                                                                                                                                    26678445.493 6 138921688.52506     -3282.385 6        40.360                                                                    26678451.074 6 112885278.83106     -2667.378 6        41.697
C39        40.000                                                                                                                                    39368165.547 7 205000394.24707     -1265.183 7        42.205                                                                    39368160.646 7 166579608.11707     -1028.029 7        42.453
E33        41.000    24671591.737 7 129650176.47307     -2764.938 7        46.441                                                                    24671589.411 8  96816723.16708     -2064.750 8        48.583    24671589.171 8  99342372.73608     -2118.577 8        49.500
S44        42.000    40738111.544 6 214080422.43106      -553.143 6        37.788
R06        43.000    21554267.304 6 115017760.83506     -3494.745 6        37.958
C05        44.000                                                                                                                                    39199630.536 6 204122806.81806      -494.702 6        38.598    39199624.868 7 157840728.77207      -382.586 7        43.558    39199626.728 6 165866605.99406      -402.099 6        40.334
C29        45.000                                                                                                                                    23039927.906 8 119974973.39708     -1065.391 8        48.240                                                                    23039924.973 7  97489492.00607      -865.784 7        47.623
G04        46.000    20169039.909 8 105989055.92108        64.416 8        49.161                                    20169036.054 7  82588861.39107        50.195 7        42.411    20169036.281 8  82588863.38508        50.241 8        49.119
E30        47.000    29023710.126 4 152520637.98304       707.951 4        29.848                                                                    29023709.905 5 113895272.17405       528.601 5        35.490    29023709.530 6 116866451.90506       542.356 6        36.960
R22        48.000    20011633.041 8 106823484.74008     -2727.885 8        51.989                                                                    20011630.467 7  83084930.67207     -2121.635 7        47.521
C20        49.000                                                                                                                                    22664408.022 8 118019547.76908       990.638 8        50.770                                                                    22664402.304 8  95900534.07508       804.925 8        49.556
C06        50.000                                                                                                                                    38387387.709 6 199893230.62906      -786.118 6        41.540    38387381.420 7 154570109.33507      -607.874 7        45.279    38387381.086 7 162429604.78707      -638.749 7        42.148
S48        51.000    77254120.351 6 405973039.92106      -467.289 6        37.766
C09        53.000                                                                                                                                    38551386.318 7 200747204.10007      -275.583 7        42.296    38551382.379 7 155230462.77807      -213.070 7        46.818    38551380.433 7 163123526.75707      -223.922 7        42.618
C60        54.000                                                                                                                                    40738111.936 6 212134256.30906      -547.919 6        39.117                                                                    40738095.683 6 172376431.79506      -445.365 6        39.441
R09        55.000    23462963.350 7 125290928.89707      3237.267 7        42.720                                                                    23462962.412 6  97448492.06106      2517.937 6        41.666
C02        57.000                                                                                                                                    40687681.039 5 211871491.92705      -539.554 5        34.729    40687673.265 6 163832474.15206      -416.879 6        40.060    40687676.989 6 172162948.04106      -438.154 6        36.068
I03        58.000   102394227.156 6 326031716.61406       883.314 6        40.620
R07        59.000    19436841.619 8 104046999.22408      -878.057 8        51.643                                                                    19436839.768 8  80925497.44608      -682.941 8        48.137
> 2025 01 02 02 30 15.0000000  0 54
G09         1.000    21145879.417 8 111122378.62308      1810.750 8        48.047                                    21145876.401 8  86588872.11708      1410.973 8        49.222    21145876.721 7  86588872.11607      1411.079 7        43.900
G06         2.000    22466183.424 7 118060608.82907      2141.867 7        44.683                                    22466181.793 7  91995284.06607      1668.986 7        43.361    22466182.414 7  91995292.05507      1669.010 7        42.417
E11         3.000    27053370.441 6 142166433.87706      2283.090 6        36.431                                                                    27053366.381 6 106163235.28806      1704.823 6        39.246    27053366.390 6 108932707.35006      1749.395 6        40.293
R15         4.000    23784829.652 7 127098922.68407     -2574.081 7        42.529                                                                    23784829.752 6  98854703.91006     -2001.963 6        40.241
S21         5.000    38506055.112 7 202350377.12207      -475.104 7        42.061
E10         6.000    25027993.839 7 131523004.38107      1386.877 7        45.172                                                                    25027992.539 8  98215227.11308      1035.670 8        48.247    25027992.367 8 100777362.95808      1062.696 8        49.368
G28         7.000    24600564.020 6 129276849.28806     -3286.193 6        39.465                                    24600561.033 3 100735189.36803     -2560.663 3        22.781    24600560.417 6 100735197.38506     -2560.804 6        38.913
G03         8.000    20538909.076 8 107932795.54408     -1970.969 8        49.087                                    20538906.861 8  84103518.92308     -1535.819 8        50.804    20538907.631 7  84103516.92607     -1535.812 7        45.856
G02         9.000    23818700.909 7 125168166.89607     -3831.876 7        43.149                                    23818694.146 4  97533630.08904     -2985.880 4        28.919
G31        10.000    22592357.520 7 118723651.01007     -2001.714 7        45.142                                    22592352.575 6  92511920.27506     -1559.778 6        40.992    22592352.620 6  92511925.26506     -1559.800 6        41.220
C30        11.000                                                                                                                                    24477883.412 7 127462773.98407     -3613.686 7        44.530                                                                    24477883.914 7 103573946.90007     -2936.525 7        44.808
S27        12.000    39135680.965 6 205659390.36806      -469.049 6        36.389
G26        13.000    25244820.309 6 132662417.23506      1764.146 6        36.355                                    25244818.895 4 103373316.63404      1374.652 4        27.820    25244819.029 5 103373316.65205      1374.612 5        34.800
S36        14.000    38273439.710 7 201128798.16507      -475.022 7        44.504
I09        15.000    37417173.715 7 146833029.01507      -586.119 7        42.925
G19        16.000    22594545.447 7 118735158.44407     -1782.422 7        44.044                                    22594538.679 5  92520886.95405     -1388.909 5        31.313
S45        17.000    63466759.079 6 333520904.30306      -514.822 6        37.754
E12        19.000    24082290.935 7 126553303.64607       139.812 7        45.100                                                                    24082286.934 7  94504079.62007       104.319 7        47.711    24082286.904 8  96969402.83608       107.033 8        48.708
G17        20.000    23592034.462 7 123976998.16307     -2956.842 7        43.045                                    23592029.280 6  96605442.75106     -2304.034 6        36.866    23592029.457 6  96605441.74806     -2304.041 6        38.775
I06        22.000    38136581.246 7 149656378.13807      -279.828 7        42.690
S28        23.000    40939891.173 5 215140592.18005      -469.846 5        34.971
R08        24.000    21263038.401 8 113862642.23108      2084.261 8        49.431                                                                    21263035.867 7  88559836.95307      1621.109 7        44.783
S23        25.000    38219241.699 7 200843467.12607      -471.001 7        44.778
C25        26.000                                                                                                                                    25614018.091 7 133378907.16507     -1406.890 7        42.023                                                                    25614015.594 6 108381283.23506     -1143.169 6        41.247
R16        27.000    22432040.239 7 119827947.60007       771.303 7        46.086                                                                    22432039.781 7  93199516.75607       599.828 7        43.566
R21        29.000    23658700.354 7 126602476.77707     -5154.351 7        42.965                                                                    23658699.670 6  98468593.12106     -4008.873 6        39.390
E19        30.000    23103239.715 7 121408377.41707       365.627 7        43.645                                                                    23103237.004 7  90662102.62407       273.065 7        45.476    23103237.007 7  93027197.68507       280.161 7        46.845
C23        31.000                                                                                                                                    25083696.624 7 130617397.95207      1160.425 7        43.958                                                                    25083687.945 7 106137302.05507       942.838 7        44.670
R23        32.000    20363117.860 8 108928964.51508      1194.656 8        49.056
E29        33.000    24199756.947 7 127170665.37807     -2017.273 7        46.581                                                                    24199754.788 8  94965122.53108     -1506.445 8        49.538    24199754.770 8  97442468.01708     -1545.706 8        50.947
E04        34.000    27287250.945 6 143395490.16506      2309.115 6        40.517                                                                    27287249.196 7 107081055.20507      1724.268 7        42.008    27287248.492 7 109874469.98107      1769.390 7        42.933
C16        35.000                                                                                                                                    38896830.596 7 202546035.83307      -875.641 7        42.451    38896829.883 7 156621455.50207      -676.997 7        44.027    38896827.377 6 164585245.79406      -711.698 6        39.811
C32        36.000                                                                                                                                    22518118.668 8 117257811.42808     -1895.722 8        50.440                                                                    22518118.519 8  95281598.22608     -1540.507 8        50.635
I01        37.000   379017682.021 7 184205986.57007     -2698.512 7        43.359
E07        38.000    28612677.686 5 150360645.90505     -3310.795 5        34.752                                                                    28612678.407 6 112282336.27006     -2472.639 6        39.529    28612677.841 6 115211433.31006     -2536.872 6        40.184
C41        39.000                                                                                                                                    26681597.639 6 138938101.50306     -3282.697 6        40.255                                                                    26681603.066 6 112898615.72306     -2667.507 6        41.688
C39        40.000                                                                                                                                    39369380.776 7 205006722.23207     -1265.972 7        42.165                                                                    39369375.939 7 166584750.12407     -1028.693 7        42.463
E33        41.000    24674223.352 7 129664005.78707     -2766.705 7        46.507                                                                    24674221.045 8  96827050.25608     -2066.090 8        48.613    24674220.909 8  99352969.23108     -2119.978 8        49.691
S44        42.000    40738639.978 6 214083188.38106      -553.263 6        37.758
R06        43.000    21557542.328 6 115035237.56606     -3495.743 6        38.474
C05        44.000                                                                                                                                    39200105.530 6 204125281.53306      -495.030 6        38.529    39200100.045 7 157842642.37707      -382.756 7        43.479    39200101.990 6 165868616.90406      -402.267 6        40.439
C29        45.000                                                                                                                                    23040952.384 8 119980307.98208     -1068.364 8        48.122                                                                    23040949.435 7  97493826.79307      -868.211 7        47.617
G04        46.000    20168980.102 8 105988741.00808        61.608 8        49.154                                    20168976.121 7  82588616.00507        48.007 7        42.256    20168976.350 8  82588618.00208        47.985 8        49.064
E30        47.000    29023037.122 4 152517104.26404       706.131 4        29.488                                                                    29023037.521 5 113892633.40305       527.094 5        35.405    29023037.396 6 116863744.26906       540.905 6        37.146
R22        48.000    20014189.580 8 106837134.68408     -2732.032 8        51.923                                                                    20014187.638 7  83095547.29907     -2124.908 7        47.523
C20        49.000                                                                                                                                    22663457.599 8 118014598.55308       989.090 8        50.574                                                                    22663451.853 8  95896512.43208       803.658 8        49.579
C06        50.000                                                                                                                                    38388142.491 6 199897163.27606      -786.936 6        41.435    38388136.633 7 154573150.30707      -608.547 7        45.105    38388136.427 7 162432800.38007      -639.546 7        42.161
S48        51.000    77254567.115 6 405975376.52806      -467.250 6        37.943
C09        53.000                                                                                                                                    38551651.456 7 200748584.13307      -276.483 7        42.290    38551647.412 7 155231529.91307      -213.872 7        46.764    38551645.409 7 163124648.15307      -224.776 7        42.751
C60        54.000                                                                                                                                    40738638.273 6 212136997.11106      -548.190 6        39.006                                                                    40738621.743 6 172378658.94406      -445.660 6        39.384
R09        55.000    23459932.486 7 125274746.04307      3235.896 7        42.099                                                                    23459932.112 7  97435905.40507      2516.736 7        42.080
C02        57.000                                                                                                                                    40688198.799 5 211874188.38005      -539.433 5        34.757    40688191.115 6 163834559.24206      -417.063 6        39.901    40688194.669 5 172165139.14105      -438.519 5        35.948
I03        58.000   102393102.171 6 326027300.37806       883.211 6        40.577
R07        59.000    19437662.650 8 104051396.04608      -880.641 8        51.507                                                                    19437661.242 7  80928917.20707      -684.962 7        47.778
> 2025 01 02 02 30 20.0000000  0 54
G09         1.000    21144157.301 8 111113330.45708      1808.502 8        48.297                                    21144154.589 8  86581821.59208      1409.222 8        49.297    21144154.718 7  86581821.58807      1409.262 7        43.761
G06         2.000    22464146.642 7 118049904.96007      2139.647 7        44.445                                    22464144.920 7  91986943.38907      1667.258 7        43.350    22464146.074 7  91986951.39007      1667.195 7        43.230
E11         3.000    27051198.490 6 142155020.70506      2281.856 6        36.306                                                                    27051194.695 6 106154712.44106      1704.195 6        39.544    27051194.399 6 108923962.18206      1748.638 6        40.400
R15         4.000    23787239.099 7 127111802.39907     -2577.938 7        42.813                                                                    23787239.838 6  98864721.47906     -2004.901 6        40.210
S21         5.000    38506500.754 7 202352753.03007      -475.260 7        42.114
E10         6.000    25026675.188 7 131516074.25007      1385.142 7        45.159                                                                    25026673.748 8  98210052.01408      1034.331 8        48.389    25026673.599 8 100772052.85908      1061.366 8        49.277
G28         7.000    24603691.745 6 129293286.12206     -3288.468 6        39.526                                    24603688.910 3 100747997.28403     -2562.422 3        22.324    24603688.353 6 100748005.30006     -2562.576 6        38.796
G03         8.000    20540785.556 8 107942655.15408     -1973.013 8        49.416                                    20540783.091 8  84111201.73408     -1537.415 8        50.769    20540783.700 7  84111199.73707     -1537.386 7        45.980
G02         9.000    23822347.529 7 125187329.30307     -3833.083 7        43.517                                    23822340.772 4  97548561.83004     -2986.824 4        29.156
G31        10.000    22594263.259 7 118733668.45407     -2005.306 7        44.989                                    22594258.788 6  92519726.07606     -1562.576 6        41.046    22594258.978 6  92519731.08206     -1562.681 6        41.216
C30        11.000                                                                                                                                    24481353.743 7 127480845.25807     -3614.896 7        45.043                                                                    24481354.224 7 103588631.27907     -2937.443 7        44.969
S27        12.000    39136129.411 6 205661735.96406      -469.114 6        36.318
G26        13.000    25243141.362 6 132653600.45206      1762.696 6        36.631                                    25243141.102 4 103366446.42004      1373.532 4        27.725    25243140.562 5 103366446.42605      1373.655 5        35.109
S36        14.000    38273894.000 7 201131173.65407      -475.180 7        44.689
I09        15.000    37417920.831 7 146835960.43907      -586.463 7        42.963
G19        16.000    22596242.604 7 118744079.08907     -1785.855 7        44.364                                    22596236.205 5  92527838.09705     -1391.577 5        31.358
S45        17.000    63467208.473 6 333523479.54806      -515.206 6        37.815
E12        19.000    24082158.981 7 126552610.63007       137.430 7        45.034                                                                    24082155.038 7  94503562.10807       102.638 7        47.761    24082155.027 8  96968871.82008       105.313 8        48.570
G17        20.000    23594848.341 7 123991786.58907     -2958.520 7        42.398                                    23594843.491 6  96616966.20306     -2305.336 6        36.907    23594843.970 6  96616965.19106     -2305.460 6        38.667
I06        22.000    38136938.041 7 149657777.90007      -280.056 7        42.679
S28        23.000    40940337.638 5 215142941.58305      -470.027 5        34.695
R08        24.000    21261092.821 8 113852225.83508      2082.269 8        49.926                                                                    21261090.412 7  88551735.29707      1619.599 7        45.446
S23        25.000    38219687.730 7 200845822.21907      -471.101 7        44.919
C25        26.000                                                                                                                                    25615370.232 7 133385948.77107     -1409.787 7        42.237                                                                    25615367.851 6 108387005.09106     -1145.580 6        41.459
R16        27.000    22431319.939 7 119824101.94307       767.007 7        46.583                                                                    22431320.176 7  93196525.69107       596.569 7        43.276
R21        29.000    23663516.744 7 126628250.27607     -5155.078 7        42.914                                                                    23663515.961 6  98488639.18306     -4009.528 6        39.171
E19        30.000    23102892.842 7 121406554.02707       363.739 7        43.439                                                                    23102890.040 7  90660741.00207       271.579 7        45.434    23102890.066 7  93025800.54307       278.624 7        46.796
C23        31.000                                                                                                                                    25082583.842 7 130611601.96507      1157.958 7        44.176                                                                    25082575.043 7 106132592.32407       940.976 7        44.837
R23        32.000    20362003.430 8 108923002.10808      1190.176 8        48.771
E29        33.000    24201677.140 7 127180755.69507     -2018.904 7        46.514                                                                    24201674.890 8  94972657.50108     -1507.580 8        49.515    24201674.874 8  97450199.54808     -1546.902 8        50.833
E04        34.000    27285053.546 6 143383946.63206      2308.226 6        39.937                                                                    27285052.288 7 107072435.03307      1723.747 7        42.030    27285051.781 7 109865624.94407      1768.684 7        42.817
