     3.04           OBSERVATION DATA    M                   RINEX VERSION / TYPE
ssrcrin-15.6.1x                         20250102 164500 UTC PGM / RUN BY / DATE 
(00000000023479385599111004) Septentrio proprietary         COMMENT             
rref                                                        MARKER NAME         
01                                                          MARKER NUMBER       
geodetic                                                    MARKER TYPE         
NFB                 CLIMERS@TUW                             OBSERVER / AGENCY   
3297213             SEPT ASTERX SB3 PROB4.14.4              REC # / TYPE / VERS 
Unknown             Unknown                                 ANT # / TYPE        
  4127832.1160  1207193.2411  4695247.7434                  APPROX POSITION XYZ 
        0.0000        0.0000        0.0000                  ANTENNA: DELTA H/E/N
G   23 X1  C1C L1C D1C S1C C1W S1W C2W L2W D2W S2W C2L L2L  SYS / # / OBS TYPES 
       D2L S2L C5Q L5Q D5Q S5Q C1L L1L D1L S1L              SYS / # / OBS TYPES 
E   21 X1  C1C L1C D1C S1C C6C L6C D6C S6C C5Q L5Q D5Q S5Q  SYS / # / OBS TYPES 
       C7Q L7Q D7Q S7Q C8Q L8Q D8Q S8Q                      SYS / # / OBS TYPES 
S    9 X1  C1C L1C D1C S1C C5I L5I D5I S5I                  SYS / # / OBS TYPES 
R   17 X1  C1C L1C D1C S1C C2P L2P D2P S2P C2C L2C D2C S2C  SYS / # / OBS TYPES 
       C3Q L3Q D3Q S3Q                                      SYS / # / OBS TYPES 
C   25 X1  C1P L1P D1P S1P C5P L5P D5P S5P C2I L2I D2I S2I  SYS / # / OBS TYPES 
       C7I L7I D7I S7I C6I L6I D6I S6I C7D L7D D7D S7D      SYS / # / OBS TYPES 
J   17 X1  C1C L1C D1C S1C C2L L2L D2L S2L C5Q L5Q D5Q S5Q  SYS / # / OBS TYPES 
       C1L L1L D1L S1L                                      SYS / # / OBS TYPES 
I    5 X1  C5A L5A D5A S5A                                  SYS / # / OBS TYPES 
SEPTENTRIO RECEIVERS OUTPUT ALIGNED CARRIER PHASES.         COMMENT             
NO FURTHER PHASE SHIFT APPLIED IN THE RINEX ENCODER.        COMMENT             
G L1C                                                       SYS / PHASE SHIFT   
G L2W                                                       SYS / PHASE SHIFT   
G L2L  0.00000                                              SYS / PHASE SHIFT   
G L5Q  0.00000                                              SYS / PHASE SHIFT   
G L1L  0.00000                                              SYS / PHASE SHIFT   
E L1C  0.00000                                              SYS / PHASE SHIFT   
E L6C  0.00000                                              SYS / PHASE SHIFT   
E L5Q  0.00000                                              SYS / PHASE SHIFT   
E L7Q  0.00000                                              SYS / PHASE SHIFT   
E L8Q  0.00000                                              SYS / PHASE SHIFT   
S L1C                                                       SYS / PHASE SHIFT   
S L5I                                                       SYS / PHASE SHIFT   
R L1C                                                       SYS / PHASE SHIFT   
R L2P  0.00000                                              SYS / PHASE SHIFT   
R L2C                                                       SYS / PHASE SHIFT   
R L3Q  0.00000                                              SYS / PHASE SHIFT   
C L1P  0.00000                                              SYS / PHASE SHIFT   
C L5P  0.00000                                              SYS / PHASE SHIFT   
C L2I                                                       SYS / PHASE SHIFT   
C L7I                                                       SYS / PHASE SHIFT   
C L6I                                                       SYS / PHASE SHIFT   
C L7D                                                       SYS / PHASE SHIFT   
J L1C                                                       SYS / PHASE SHIFT   
J L2L  0.00000                                              SYS / PHASE SHIFT   
J L5Q  0.00000                                              SYS / PHASE SHIFT   
J L1L  0.00000                                              SYS / PHASE SHIFT   
I L5A                                                       SYS / PHASE SHIFT   
  2025     1     2    16    45    0.0000000     GPS         TIME OF FIRST OBS   
 C1C    0.000 C2C    0.000 C2P    0.000                     GLONASS COD/PHS/BIS 
DBHZ                                                        SIGNAL STRENGTH UNIT
    18                                                      LEAP SECONDS        
 24 R01  1 R02 -4 R03  5 R04  6 R05  1 R06 -4 R07  5 R08  6 GLONASS SLOT / FRQ #
    R09 -2 R10 -7 R11  0 R12 -1 R13 -2 R14 -7 R15  0 R16 -1 GLONASS SLOT / FRQ #
    R17  4 R18 -3 R19  3 R20  2 R21  4 R22 -3 R23  3 R24  2 GLONASS SLOT / FRQ #
                                                            END OF HEADER       
> 2025 01 02 16 45  0.0000000  0 57
E11         2.000    24487119.694 7 128680870.85907     -1853.134 7        42.707                                                                    24487116.416 7  96092980.60107     -1383.841 7        44.984    24487116.165 7  98599740.53207     -1419.954 7        45.464
G16         3.000    23556078.138 6 123788169.07706      2941.929 6        40.729                                    23556077.423 3  96458382.28203      2292.399 3        23.143
G05         4.000    23040679.816 7 121079672.89307       245.327 7        44.393                                    23040676.870 6  94347817.87806       191.164 6        39.369    23040677.570 6  94347816.88706       191.128 6        39.823
S21         5.000    38532188.955 7 202487665.40407      -474.247 7        42.785
G26         6.000    21366551.123 7 112282199.16107      1578.970 7        47.317                                    21366551.490 7  87492749.13507      1230.364 7        47.266    21366551.919 7  87492736.14107      1230.411 7        44.299
G25         7.000    22511191.748 7 118297285.00007     -3740.576 7        43.793                                    22511192.004 6  92179787.82106     -2914.735 6        41.385    22511192.768 6  92179788.80806     -2914.621 6        40.875
G04         8.000    25403329.550 5 133495356.98505     -1517.407 5        33.976                                    25403329.211 2 104022334.64202     -1182.334 2        16.189    25403329.611 5 104022343.59105     -1182.592 5        35.714
E36         9.000    23949585.122 8 125856094.54208       985.994 8        48.088                                                                    23949587.180 8  93983585.55708       736.284 8        50.569    23949586.519 8  96435319.14508       755.528 8        50.746
G20        11.000    24122787.540 6 126766224.72306     -2121.449 6        39.018                                    24122784.330 3  98778937.62203     -1653.070 3        20.810
S27        12.000    39322634.500 6 206641901.26906      -460.380 6        36.488
C23        13.000                                                                                                                                    26451413.480 6 137739446.93406      2603.963 6        40.899                                                                    26451407.896 7 111924563.89007      2115.913 7        42.169
S36        14.000    38303245.873 7 201285390.12307      -474.155 7        44.349
C13        15.000                                                                                                                                    38171441.952 7 198768755.04507       477.742 7        44.170    38171444.174 7 153700639.58607       369.398 7        44.585    38171442.151 7 161515914.43007       388.183 7        42.754
G18        16.000    21364988.680 8 112273984.91908      1646.742 8        48.382                                    21364986.328 6  87486314.41606      1283.173 6        39.165    21364986.401 7  87486322.42107      1283.209 7        46.635
R10        17.000    24158250.976 6 128777062.09406      3776.881 6        36.423
R01        18.000    23723453.890 6 126815455.11006      -396.569 6        39.429                                                                    23723455.103 5  98634118.42705      -308.475 5        34.200
E02        19.000    23387483.906 8 122902232.08808       180.860 8        48.456                                                                    23387483.863 8  91777746.71808       135.040 8        51.356    23387483.230 8  94171934.33008       138.530 8        51.507
E10        21.000    26604667.455 6 139808687.31206     -2994.049 6        40.751                                                                    26604668.273 7 104402724.04907     -2235.859 7        44.680    26604667.975 7 107126258.46407     -2294.191 7        45.025
I06        22.000    38811060.088 6 152303112.91406      -374.947 6        41.128
S28        23.000    41010336.243 5 215510746.52305      -472.388 5        34.314
E29        24.000    28880748.272 5 151769373.18505        22.627 5        34.752                                                                    28880748.775 6 113334272.69506        17.093 6        38.943    28880748.749 6 116290819.39506        17.554 6        39.474
S23        25.000    38254950.253 7 201031046.59307      -477.761 7        45.141
S45        26.000    63512535.692 6 333761381.92106      -535.100 6        37.085
R09        27.000    20399196.819 8 108930761.42808      2181.066 8        50.383                                                                    20399197.301 8  84724032.42408      1696.321 8        48.255
R18        28.000    19399498.229 8 103556127.77408     -1834.317 8        50.651                                                                    19399499.066 7  80543804.99407     -1426.709 7        47.853
C38        29.000                                                                                                                                    38696183.002 7 201501286.66907      -307.975 7        44.001                                                                    38696181.327 7 163736343.17607      -250.261 7        43.843
C44        30.000                                                                                                                                    21746815.661 8 113241590.47908     -1645.652 8        50.668                                                                    21746814.452 8  92018151.86008     -1337.260 8        50.011
E12        31.000    28970899.436 5 152243287.22005     -3467.406 5        31.200                                                                    28970897.256 6 113688280.97906     -2589.119 6        36.733    28970897.273 6 116654045.23206     -2656.495 6        37.482
R02        32.000    24411932.833 6 130266756.79806      2361.292 6        41.573                                                                    24411932.936 6 101318592.70506      1836.427 6        37.021
I02        33.000    38311904.758 6 150344178.63506      -851.873 6        41.893
R15        34.000    23159585.310 7 123757912.97507     -4760.010 7        45.108                                                                    23159588.481 6  96256216.77206     -3702.187 6        41.614
E34        35.000    27249730.579 6 143198415.23106      2679.608 6        39.988                                                                    27249736.863 7 106933965.46607      2001.197 7        42.220    27249736.226 7 109723539.09607      2053.212 7        44.003
G29        36.000    20925554.624 8 109964822.57708     -1902.248 8        48.863                                    20925551.018 8  85686983.61208     -1482.275 8        49.132    20925551.200 7  85686993.61907     -1482.295 7        44.679
G31        37.000    21924330.996 7 115213351.56907     -1621.771 7        47.363                                    21924328.008 7  89776732.88907     -1263.717 7        45.434    21924328.174 7  89776738.89807     -1263.753 7        43.422
C10        38.000                                                                                                                                    41272110.738 5 214914726.95205     -1160.825 5        32.497    41272108.619 6 166185706.65706      -897.922 6        36.926    41272106.992 5 174635813.84805      -943.096 5        34.624
E25        39.000    24636438.415 7 129465566.00007     -2370.920 7        45.971                                                                    24636440.084 8  96678959.88308     -1770.492 8        49.183    24636439.507 8  99201004.18008     -1816.685 8        49.589
C12        40.000                                                                                                                                    21719769.144 7 113100736.30307      -202.537 7        47.668    21719766.343 8  87456757.89708      -156.690 8        51.888    21719765.604 8  91903683.91908      -164.620 8        49.762
E07        41.000    28503580.814 6 149787300.47306     -2076.813 6        36.567                                                                    28503591.282 6 111854162.01906     -1550.932 6        38.862    28503589.937 6 114772093.70206     -1591.385 6        39.390
S44        42.000    40658734.814 6 213663254.39806      -405.151 6        38.607
G28        43.000    22538707.190 7 118441884.74007     -3080.461 7        45.374                                    22538705.993 5  92292465.12605     -2400.355 5        33.814    22538705.879 7  92292465.12707     -2400.455 7        43.991
C05        44.000                                                                                                                                    39476953.752 6 205566853.60806      -412.897 6        38.802    39476949.779 7 158957345.83207      -319.198 7        42.201    39476951.952 6 167040003.14106      -335.356 6        40.610
C11        45.000                                                                                                                                    24289386.888 7 126481295.60107      2246.143 7        44.495    24289387.373 7  97803406.18407      1736.744 7        46.880    24289385.313 7 102776440.65107      1825.106 7        45.317
R16        46.000    19532807.008 8 104340944.46808     -2196.831 8        52.193                                                                    19532807.644 7  81154180.78507     -1708.623 7        47.824
R17        47.000    22383620.123 7 119779512.80507     -4280.764 7        45.688                                                                    22383620.389 7  93161975.63707     -3329.417 7        42.468
C35        48.000                                                                                                                                    25105073.882 6 130728874.62006     -3383.281 6        41.824                                                                    25105073.975 7 106227983.85107     -2749.102 7        43.350
C24        49.000                                                                                                                                    22568996.648 8 117522752.97508     -2744.687 8        50.186                                                                    22568994.461 8  95496884.32208     -2230.248 8        49.343
R19        50.000    19991134.663 6 106939337.12306      1520.625 6        41.302                                                                    19991135.045 7  83175148.69507      1182.729 7        45.016
S48        51.000    77254082.973 6 405973645.15206      -509.623 6        37.701
C08        52.000                                                                                                                                    38053140.055 7 198152773.30207       292.318 7        42.626    38053134.415 7 153224319.78907       226.024 7        45.840    38053133.478 7 161015374.86607       237.574 7        42.772
C34        53.000                                                                                                                                    22417058.471 8 116731764.00608      1379.724 8        49.990                                                                    22417059.401 8  94854231.82508      1121.169 8        48.843
C60        54.000                                                                                                                                    40658736.091 6 211720880.31306      -401.405 6        40.212                                                                    40658721.726 6 172040521.16706      -326.213 6        40.205
C25        55.000                                                                                                                                    22413901.751 8 116715298.86008       454.927 8        49.557                                                                    22413900.874 8  94840830.82808       369.710 8        49.182
C26        56.000                                                                                                                                                                                                                                                                    26617078.604 4 112625621.50304     -3218.943 4        28.616
C02        57.000                                                                                                                                    40847112.341 5 212701648.93605      -379.596 5        34.257    40847106.905 6 164474393.31906      -293.696 6        37.584    40847110.647 5 172837509.81105      -308.681 5        35.167
I03        58.000    85559166.120 6 259967260.49106      1096.470 6        40.703
E30        59.000    27024956.344 6 142017266.60306      2111.846 6        40.887                                                                    27024960.398 7 106051957.94107      1577.149 7        44.194    27024959.410 7 108818516.00307      1618.176 7        44.486
G09        60.000    25612948.192 5 134596950.64405      -588.073 5        34.581                                    25612948.744 4 104880745.76104      -458.256 4        26.240    25612948.817 5 104880735.76305      -458.327 5        34.057
> 2025 01 02 16 45  5.0000000  0 57
E11         2.000    24488883.657 7 128690142.56007     -1855.470 7        42.770                                                                    24488880.808 7  96099904.28407     -1385.481 7        44.758    24488880.449 7  98606844.82507     -1421.703 7        45.500
G16         3.000    23553280.207 6 123773462.28806      2940.809 6        39.964                                    23553278.804 3  96446922.48903      2291.538 3        23.733
G05         4.000    23040448.084 7 121078455.37107       241.720 7        44.012                                    23040445.146 6  94346869.16806       188.349 6        39.486    23040446.342 6  94346868.18606       188.233 6        39.102
S21         5.000    38532641.533 7 202490037.43107      -474.433 7        42.645
G26         6.000    21365049.876 7 112274310.62607      1576.596 7        47.210                                    21365050.335 7  87486602.23607      1228.513 7        47.374    21365050.691 7  87486589.24207      1228.482 7        44.444
G25         7.000    22514751.566 7 118315991.96107     -3742.084 7        44.274                                    22514751.783 6  92194364.66906     -2915.912 6        41.545    22514752.720 6  92194365.68606     -2915.931 6        40.942
G04         8.000    25404773.290 6 133502952.49706     -1520.483 6        36.314                                    25404774.529 2 104028253.21902     -1184.800 2        16.528    25404774.781 5 104028262.27805     -1184.995 5        35.862
E36         9.000    23948648.253 8 125851170.54908       983.725 8        48.471                                                                    23948650.135 8  93979908.56408       734.539 8        50.481    23948649.613 8  96431546.22808       753.758 8        50.791
G20        11.000    24124807.989 6 126776839.87206     -2124.437 6        38.949                                    24124804.243 3  98787209.17903     -1655.395 3        21.167
S27        12.000    39323070.273 6 206644203.48806      -460.314 6        36.359
C23        13.000                                                                                                                                    26448913.634 6 137726429.94606      2602.803 6        40.710                                                                    26448908.150 6 111913986.53606      2114.981 6        41.983
S36        14.000    38303696.930 7 201287761.20207      -474.498 7        44.298
C13        15.000                                                                                                                                    38170983.565 7 198766369.77407       476.537 7        44.126    38170986.112 7 153698795.14807       368.415 7        44.581    38170983.975 7 161513976.21107       387.184 7        42.739
G18        16.000    21363423.241 8 112265758.42508      1643.978 8        48.347                                    21363420.880 6  87479904.17606      1281.022 6        39.312    21363421.018 7  87479912.18307      1280.965 7        46.527
R10        17.000    24154708.990 6 128758178.12506      3776.537 6        37.535
R01        18.000    23723827.054 6 126817449.54806      -400.958 6        38.853                                                                    23723827.592 5  98635669.67905      -312.216 5        33.898
E02        19.000    23387312.658 8 122901332.65008       179.032 8        48.722                                                                    23387312.729 8  91777075.06408       133.684 8        51.208    23387312.088 8  94171245.15108       137.207 8        51.574
E10        21.000    26607517.015 6 139823661.20506     -2995.367 6        40.679                                                                    26607517.627 7 104413905.85207     -2236.792 7        44.570    26607517.552 7 107137731.96807     -2295.095 7        45.205
I06        22.000    38811537.596 6 152304988.10206      -375.100 6        41.163
S28        23.000    41010785.932 5 215513109.01305      -472.381 5        34.457
E29        24.000    28880727.889 5 151769266.10405        20.211 5        35.390                                                                    28880728.500 6 113334192.74306        14.991 6        38.832    28880728.028 6 116290737.34806        15.469 6        39.510
S23        25.000    38255405.687 7 201033436.46507      -478.089 7        45.058
S45        26.000    63512988.596 6 333764057.45606      -535.149 6        36.994
R09        27.000    20397156.293 8 108919864.66608      2177.826 8        50.832                                                                    20397156.522 8  84715557.17108      1693.842 8        48.291
R18        28.000    19401217.941 8 103565308.09908     -1837.706 8        50.480                                                                    19401219.078 7  80550945.24607     -1429.337 7        47.964
C38        29.000                                                                                                                                    38696479.289 7 201502829.86107      -309.158 7        43.939                                                                    38696477.598 7 163737597.14707      -251.199 7        43.681
C44        30.000                                                                                                                                    21748396.814 8 113249824.06308     -1647.644 8        50.625                                                                    21748395.614 8  92024842.32008     -1338.830 8        49.947
E12        31.000    28974197.903 5 152260624.23105     -3467.732 5        32.072                                                                    28974196.469 6 113701227.49306     -2589.595 6        36.760    28974196.583 6 116667329.46806     -2656.941 6        37.924
R02        32.000    24409720.615 7 130254957.61607      2358.546 7        42.030                                                                    24409722.785 6 101309415.58306      1834.467 6        37.437
I02        33.000    38312991.290 7 150348439.32907      -852.224 7        42.066
R15        34.000    23164039.605 7 123781716.84807     -4761.307 7        45.511                                                                    23164042.990 6  96274730.88706     -3703.303 6        41.509
E34        35.000    27247181.725 6 143185019.37506      2678.831 6        40.648                                                                    27247187.738 7 106923962.12407      2000.371 7        42.294    27247187.071 7 109713274.77807      2052.639 7        43.869
G29        36.000    20927365.366 8 109974338.86208     -1904.144 8        48.784                                    20927361.913 8  85694398.90308     -1483.749 8        49.236    20927362.231 7  85694408.90807     -1483.758 7        44.859
G31        37.000    21925875.559 7 115221469.37807     -1625.172 7        46.948                                    21925872.765 7  89783058.46207     -1266.367 7        45.500    21925873.198 7  89783064.47207     -1266.435 7        43.194
C10        38.000                                                                                                                                    41273225.710 5 214920532.15805     -1160.766 5        32.419    41273223.692 6 166190195.60906      -897.944 6        36.987    41273221.631 5 174640531.05305      -943.466 5        34.652
E25        39.000    24638695.105 7 129477424.70107     -2372.462 7        46.403                                                                    24638696.729 8  96687815.41108     -1771.650 8        49.021    24638696.190 8  99210090.71808     -1817.867 8        49.595
C12        40.000                                                                                                                                    21719964.500 7 113101755.37307      -204.907 7        47.525    21719962.222 8  87457545.90208      -158.417 8        51.963    21719961.248 8  91904511.99708      -166.459 8        49.775
E07        41.000    28505558.676 6 149797689.75706     -2078.712 6        36.129                                                                    28505568.221 6 111861920.24806     -1552.243 6        38.991    28505566.938 6 114780054.31706     -1592.815 6        39.462
S44        42.000    40659121.525 6 213665280.93006      -405.294 6        38.661
G28        43.000    22541639.486 7 118457293.59107     -3082.927 7        45.547                                    22541638.175 5  92304472.01705     -2402.279 5        33.946    22541638.425 7  92304472.02007     -2402.261 7        43.625
C05        44.000                                                                                                                                    39477350.278 6 205568918.82806      -413.229 6        38.688    39477346.036 7 158958942.80407      -319.561 7        42.201    39477348.665 6 167041681.32006      -335.611 6        40.684
C11        45.000                                                                                                                                    24287231.260 7 126470068.90307      2244.794 7        44.659    24287231.491 7  97794725.00707      1735.744 7        47.016    24287229.211 7 102767318.05007      1824.175 7        45.351
R16        46.000    19534865.080 8 104351939.24508     -2200.983 8        52.276                                                                    19534865.800 8  81162732.29208     -1711.967 8        48.085
R17        47.000    22387620.467 7 119800918.78007     -4281.607 7        45.583                                                                    22387620.570 6  93178624.73906     -3330.179 6        41.976
C35        48.000                                                                                                                                    25108322.838 6 130745792.30406     -3383.802 6        41.938                                                                    25108322.907 7 106241730.86007     -2749.594 7        43.465
C24        49.000                                                                                                                                    22571633.225 8 117536482.46108     -2746.942 8        50.112                                                                    22571631.118 8  95508040.65308     -2232.107 8        49.338
R19        50.000    19989714.979 6 106931743.18306      1517.120 6        41.316                                                                    19989715.377 7  83169242.30907      1179.962 7        45.109
S48        51.000    77254538.828 6 405976193.82406      -509.875 6        38.201
C08        52.000                                                                                                                                    38052860.148 7 198151315.45107       290.981 7        42.550    38052854.487 7 153223192.50407       224.925 7        45.875    38052853.435 7 161014190.25007       236.437 7        42.531
C34        53.000                                                                                                                                    22415734.464 8 116724870.29008      1377.804 8        49.845                                                                    22415735.509 8  94848630.11908      1119.639 8        48.791
C60        54.000                                                                                                                                    40659121.863 6 211722888.44506      -401.668 6        40.296                                                                    40659107.206 6 172042152.92706      -326.263 6        40.007
C25        55.000                                                                                                                                    22413466.254 8 116713031.30008       452.168 8        49.470                                                                    22413465.417 8  94838988.25408       367.491 8        49.149
C26        56.000                                                                                                                                    26620876.711 3                     -3961.686 3        23.200                                                                    26620882.093 4 112641716.03904     -3218.957 4        29.014
C02        57.000                                                                                                                                    40847476.586 5 212703548.36005      -379.888 5        34.148    40847471.691 6 164475862.08306      -293.810 6        37.773    40847475.532 5 172839053.27805      -308.729 5        35.290
I03        58.000    85557769.514 6 259961779.27906      1096.171 6        40.758
E30        59.000    27022947.101 6 142006708.43806      2111.367 6        40.927                                                                    27022951.164 7 106044073.64307      1576.695 7        44.075    27022950.303 7 108810426.01207      1617.836 7        44.399
G09        60.000    25613510.350 5 134599899.97805      -591.534 5        34.952                                    25613510.094 4 104883043.92504      -460.939 4        26.754    25613509.693 5 104883033.92105      -460.613 5        34.248
> 2025 01 02 16 45 10.0000000  0 57
E11         2.000    24490649.890 7 128699423.70007     -1857.300 7        43.065                                                                    24490646.864 7  96106835.00707     -1386.915 7        44.739    24490646.673 7  98613956.35807     -1423.177 7        45.559
G16         3.000    23550481.164 6 123758759.23406      2940.245 6        40.179                                    23550480.910 3  96435465.60703      2291.104 3        23.448
G05         4.000    23040219.331 7 121077254.29307       238.528 7        43.628                                    23040216.552 6  94345933.27406       185.863 6        39.366    23040217.449 6  94345932.28706       185.812 6        39.790
S21         5.000    38533092.357 7 202492409.08307      -474.479 7        42.711
G26         6.000    21363550.705 7 112266432.72707      1574.432 7        47.259                                    21363551.205 7  87480463.62907      1226.831 7        47.247    21363551.413 7  87480450.62907      1226.805 7        44.597
G25         7.000    22518312.592 7 118334705.44007     -3743.362 7        44.185                                    22518312.858 6  92208946.60606     -2916.905 6        41.459    22518313.998 6  92208947.61406     -2917.005 6        41.139
G04         8.000    25406221.101 6 133510561.15006     -1523.074 6        38.595                                    25406222.360 2 104034182.02602     -1186.812 2        16.604    25406223.846 6 104034191.04006     -1186.841 6        36.136
E36         9.000    23947713.199 8 125846256.77708       981.672 8        48.403                                                                    23947715.091 8  93976239.20408       733.063 8        50.496    23947714.520 8  96427781.14808       752.173 8        50.855
G20        11.000    24126830.534 6 126787468.55706     -2127.177 6        39.315                                    24126826.986 3  98795491.28003     -1657.543 3        20.738
S27        12.000    39323509.047 6 206646505.67506      -460.600 6        36.208
C23        13.000                                                                                                                                    26446414.414 6 137713416.91206      2602.144 6        40.482                                                                    26446409.118 6 111903412.40206      2114.428 6        41.933
S36        14.000    38304146.959 7 201290132.41807      -474.377 7        44.375
C13        15.000                                                                                                                                    38170526.570 7 198763989.27807       475.501 7        44.318    38170529.060 7 153696954.41307       367.724 7        44.658    38170526.911 7 161512041.88307       386.281 7        42.620
G18        16.000    21361860.191 8 112257544.50508      1641.416 8        48.145                                    21361857.815 6  87473503.73406      1279.021 6        39.234    21361858.025 7  87473511.73607      1279.022 7        46.795
R10        17.000    24151166.092 6 128739295.68606      3776.359 6        36.941
R01        18.000    23724203.396 6 126819464.58406      -405.190 6        38.267                                                                    23724203.947 5  98637236.92205      -315.208 5        34.310
E02        19.000    23387143.011 8 122900440.66108       177.611 8        48.678                                                                    23387142.979 8  91776408.98208       132.590 8        51.255    23387142.296 8  94170561.69208       136.044 8        51.621
E10        21.000    26610367.374 6 139838640.33506     -2996.304 6        40.975                                                                    26610368.010 7 104425091.57307     -2237.652 7        44.609    26610367.817 7 107149209.48707     -2295.977 7        45.270
I06        22.000    38812015.750 6 152306862.84706      -374.999 6        41.304
S28        23.000    41011231.712 5 215515471.19905      -472.554 5        34.305
E29        24.000    28880709.500 5 151769170.07005        17.937 5        35.029                                                                    28880710.448 6 113334120.98706        13.518 6        39.279    28880709.614 6 116290663.73006        13.785 6        39.240
S23        25.000    38255860.196 7 201035825.94707      -477.996 7        45.044
S45        26.000    63513445.211 6 333766732.60806      -535.008 6        36.824
R09        27.000    20395118.892 8 108908982.41208      2174.870 8        50.705                                                                    20395118.867 8  84707093.20708      1691.591 8        48.503
R18        28.000    19402940.576 8 103574503.94508     -1840.814 8        50.423                                                                    19402941.507 7  80558097.57607     -1431.735 7        47.704
C38        29.000                                                                                                                                    38696776.561 7 201504377.96607      -310.139 7        44.012                                                                    38696774.976 7 163738855.12907      -252.084 7        43.545
C44        30.000                                                                                                                                    21749979.450 8 113258066.00108     -1649.315 8        50.776                                                                    21749978.395 8  92031539.58508     -1340.230 8        49.757
E12        31.000    28977497.999 5 152277962.62405     -3467.944 5        31.781                                                                    28977495.871 6 113714174.98206     -2589.726 6        36.473    28977495.871 6 116680614.73106     -2657.321 6        37.913
R02        32.000    24407512.809 7 130243169.81207      2356.129 7        42.506                                                                    24407512.948 6 101300247.29406      1832.574 6        37.599
I02        33.000    38314076.838 7 150352700.46307      -852.322 7        42.222
R15        34.000    23168495.248 7 123805525.76307     -4762.463 7        44.936                                                                    23168498.493 6  96293248.92106     -3704.108 6        41.771
E34        35.000    27244633.097 6 143171626.11106      2678.259 6        40.908                                                                    27244639.112 7 106913960.71007      1999.992 7        42.468    27244638.439 7 109703012.44807      2052.183 7        44.086
G29        36.000    20929177.539 8 109983863.53908     -1905.913 8        48.460                                    20929174.391 8  85701820.73408     -1485.126 8        49.088    20929174.904 7  85701830.73107     -1485.056 7        45.065
G31        37.000    21927423.243 7 115229602.93807     -1628.383 7        46.892                                    21927420.519 7  89789396.30407     -1268.872 7        45.398    21927420.701 7  89789402.30707     -1268.862 7        42.785
C10        38.000                                                                                                                                    41274339.836 5 214926337.41605     -1161.122 5        32.102    41274337.771 6 166194684.57206      -897.928 6        36.900    41274336.345 5 174645248.30405      -943.702 5        34.157
E25        39.000    24640953.020 7 129489289.69607     -2373.750 7        46.411                                                                    24640954.555 8  96696675.63708     -1772.583 8        49.069    24640954.189 8  99219182.08108     -1818.860 8        49.746
C12        40.000                                                                                                                                    21720162.089 7 113102784.44007      -206.912 7        47.610    21720159.803 8  87458341.65308      -160.011 8        52.035    21720158.924 8  91905348.21308      -168.102 8        49.577
E07        41.000    28507537.216 5 149808087.48105     -2080.432 5        35.762                                                                    28507546.768 6 111869684.76006     -1553.608 6        38.850    28507545.538 6 114788021.39106     -1594.149 6        39.718
S44        42.000    40659504.117 6 213667307.28106      -405.165 6        38.510
G28        43.000    22544573.904 7 118472713.19307     -3085.125 7        45.336                                    22544572.426 5  92316487.28905     -2403.990 5        33.760    22544572.860 7  92316487.28007     -2403.880 7        43.909
C05        44.000                                                                                                                                    39477746.571 6 205570983.69906      -412.921 6        38.814    39477742.866 7 158960539.50707      -319.424 7        42.288    39477745.030 6 167043359.21906      -335.594 6        40.548
C11        45.000                                                                                                                                    24285077.044 7 126458847.50207      2243.575 7        44.877    24285076.687 7  97786047.92407      1734.863 7        46.793    24285074.227 7 102758199.77107      1823.232 7        45.195
R16        46.000    19536926.923 8 104362953.13108     -2204.793 8        52.347                                                                    19536927.611 7  81171298.64907     -1714.868 7        47.980
R17        47.000    22391621.819 7 119822328.31207     -4282.257 7        46.170                                                                    22391622.054 6  93195276.59706     -3330.674 6        41.440
C35        48.000                                                                                                                                    25111571.904 7 130762711.55107     -3384.044 7        42.616                                                                    25111572.170 7 106255479.15607     -2749.766 7        43.556
C24        49.000                                                                                                                                    22574271.583 8 117550221.79608     -2748.899 8        50.060                                                                    22574269.616 8  95519205.00208     -2233.725 8        49.210
R19        50.000    19988298.165 6 106924165.23306      1513.878 6        41.168                                                                    19988298.891 7  83163348.36307      1177.448 7        44.936
S48        51.000    77254998.296 6 405978741.74106      -509.601 6        38.123
C08        52.000                                                                                                                                    38052581.262 7 198149863.03107       289.856 7        42.434    38052575.486 7 153222069.40407       224.137 7        45.970    38052574.542 7 161013010.06407       235.531 7        42.468
C34        53.000                                                                                                                                    22414412.103 8 116717984.59208      1376.312 8        49.815                                                                    22414413.182 8  94843034.95208      1118.287 8        48.677
C60        54.000                                                                                                                                    40659507.469 6 211724896.37306      -401.604 6        40.303                                                                    40659492.915 6 172043784.57106      -326.524 6        39.901
C25        55.000                                                                                                                                    22413033.192 8 116710776.41408       449.585 8        49.615                                                                    22413032.412 8  94837155.99208       365.325 8        49.018
C26        56.000                                                                                                                                                                                                                                                                    26624685.892 4 112657810.75404     -3218.906 4        29.308
C02        57.000                                                                                                                                    40847841.372 5 212705447.50505      -379.713 5        34.133    40847836.535 6 164477330.62906      -293.785 6        37.958    40847840.237 5 172840596.47205      -308.320 5        34.695
I03        58.000    85556372.483 6 259956297.75606      1096.234 6        40.970
E30        59.000    27020938.047 6 141996151.75106      2111.160 6        40.920                                                                    27020942.342 7 106036190.44007      1576.532 7        43.973    27020941.456 7 108802337.16507      1617.538 7        44.543
G09        60.000    25614074.576 5 134602864.11905      -594.446 5        35.029                                    25614074.028 4 104885353.70604      -463.223 4        27.162    25614073.780 5 104885343.72705      -463.131 5        34.152
> 2025 01 02 16 45 15.0000000  0 57
E11         2.000    24492417.805 7 128708714.63907     -1859.246 7        42.899                                                                    24492414.840 7  96113773.04507     -1388.407 7        44.737    24492414.658 7  98621075.38507     -1424.581 7        45.720
G16         3.000    23547684.746 6 123744060.24906      2939.330 6        39.760                                    23547683.668 3  96424011.89103      2290.385 3        23.524
G05         4.000    23039993.985 7 121076070.06207       235.111 7        43.920                                    23039991.200 6  94345010.50806       183.204 6        39.565    23039992.222 6  94345009.51606       183.092 6        40.250
S21         5.000    38533541.129 7 202494780.75007      -474.190 7        42.527
G26         6.000    21362053.865 7 112258565.82907      1572.265 7        47.316                                    21362054.155 7  87474333.59007      1225.140 7        47.356    21362054.443 7  87474320.59907      1225.124 7        44.513
G25         7.000    22521874.974 7 118353425.77607     -3744.816 7        44.507                                    22521875.314 6  92223533.88106     -2918.038 6        41.719    22521875.857 6  92223534.88206     -2918.038 6        41.392
G04         8.000    25407673.345 5 133518183.22805     -1525.860 5        35.119                                    25407672.959 2 104040121.34902     -1188.976 2        17.509    25407673.163 6 104040130.35206     -1188.836 6        37.085
E36         9.000    23946780.026 8 125841353.62208       979.510 8        48.173                                                                    23946781.998 8  93972577.76308       731.439 8        50.527    23946781.449 8  96424024.19108       750.522 8        51.092
G20        11.000    24128855.774 6 126798111.13906     -2129.802 6        39.252                                    24128852.259 3  98803784.20503     -1659.596 3        20.762
S27        12.000    39323945.231 6 206648806.87206      -460.388 6        36.405
C23        13.000                                                                                                                                    26443916.635 6 137700408.19006      2601.309 6        40.763                                                                    26443910.777 6 111892841.74506      2113.577 6        41.714
S36        14.000    38304597.931 7 201292503.46807      -474.517 7        44.361
C13        15.000                                                                                                                                    38170070.322 7 198761613.95207       474.450 7        44.476    38170072.750 7 153695117.66407       366.952 7        44.682    38170070.701 7 161510111.72907       385.605 7        42.584
G18        16.000    21360299.697 8 112249343.51908      1638.827 8        48.122                                    21360297.241 6  87467113.36706      1277.005 6        39.279    21360297.353 7  87467121.37407      1277.062 7        47.050
R10        17.000    24147624.413 6 128720415.10106      3775.713 6        36.650
R01        18.000    23724583.647 6 126821500.59206      -409.397 6        38.162                                                                    23724585.571 5  98638820.48705      -318.480 5        34.438
E02        19.000    23386974.916 8 122899556.49808       176.005 8        48.527                                                                    23386974.680 8  91775748.73408       131.394 8        51.261    23386974.037 8  94169884.22208       134.840 8        51.828
E10        21.000    26613218.790 6 139853625.05306     -2997.589 6        41.237                                                                    26613219.409 7 104436281.45807     -2238.399 7        44.688    26613219.153 7 107160691.28007     -2296.761 7        45.356
I06        22.000    38812493.393 6 152308737.45406      -374.999 6        41.330
S28        23.000    41011680.690 5 215517833.21805      -472.457 5        34.219
E29        24.000    28880693.179 5 151769085.52605        15.797 5        34.305                                                                    28880694.321 6 113334057.84006        11.650 6        39.796    28880693.565 6 116290598.94506        11.939 6        40.024
S23        25.000    38256314.156 7 201038215.43207      -478.056 7        45.059
S45        26.000    63513898.960 6 333767807.73516      -535.074 6        36.983
R09        27.000    20393083.567 8 108898115.03708      2171.936 8        50.573                                                                    20393083.389 8  84698640.81708      1689.290 8        48.224
R18        28.000    19404666.356 8 103583715.64908     -1844.001 8        50.699                                                                    19404667.290 7  80565262.24707     -1434.221 7        47.626
C38        29.000                                                                                                                                    38697075.003 7 201505931.35507      -311.332 7        43.879                                                                    38697073.257 7 163740117.38707      -252.968 7        43.454
C44        30.000                                                                                                                                    21751563.978 8 113266316.63808     -1651.080 8        50.884                                                                    21751562.844 8  92038243.90608     -1341.647 8        49.740
E12        31.000    28980797.387 5 152295302.71605     -3468.612 5        31.796                                                                    28980795.553 6 113727123.73006     -2589.625 6        36.745    28980795.451 6 116693901.28506     -2657.548 6        38.009
R02        32.000    24405304.966 7 130231393.83607      2353.945 7        42.061                                                                    24405306.916 6 101291088.21106      1830.911 6        36.628
I02        33.000    38315162.673 7 150356962.04907      -852.432 7        42.159
R15        34.000    23172950.843 7 123829340.07807     -4763.475 7        44.524                                                                    23172955.520 7  96311771.17807     -3705.030 7        42.220
E34        35.000    27242084.779 6 143158235.78906      2677.658 6        40.892                                                                    27242091.094 7 106903961.48807      1999.634 7        42.586    27242090.325 7 109692752.38507      2051.782 7        44.119
G29        36.000    20930991.675 8 109993396.94508     -1907.630 8        48.578                                    20930988.542 8  85709249.36408     -1486.466 8        49.182    20930989.206 7  85709259.37207     -1486.477 7        45.117
G31        37.000    21928974.749 7 115237752.57207     -1631.589 7        47.247                                    21928971.336 7  89795746.67907     -1271.367 7        45.463    21928971.629 7  89795752.67307     -1271.365 7        42.986
C10        38.000                                                                                                                                    41275454.523 5 214932143.06205     -1161.574 5        32.431    41275453.007 6 166199173.86406      -897.978 6        36.318    41275451.105 5 174649965.85405      -943.479 5        34.062
E25        39.000    24643212.160 7 129501161.33907     -2375.032 7        46.194                                                                    24643213.641 8  96705540.83008     -1773.575 8        49.157    24643213.348 8  99228278.54008     -1819.860 8        49.936
C12        40.000                                                                                                                                    21720361.803 7 113103823.86307      -208.928 7        47.496    21720359.380 8  87459145.41108      -161.618 8        52.128    21720358.494 8  91906192.83308      -169.779 8        49.515
E07        41.000    28509517.293 6 149818493.92806     -2082.268 6        36.087                                                                    28509527.059 6 111877455.82206     -1554.898 6        39.093    28509525.890 6 114795995.17706     -1595.471 6        39.988
S44        42.000    40659891.395 6 213669333.80306      -405.415 6        38.658
G28        43.000    22547509.998 7 118488143.89007     -3087.310 7        45.377                                    22547508.802 5  92328511.20305     -2405.694 5        33.820    22547509.312 7  92328511.20707     -2405.759 7        44.156
C05        44.000                                                                                                                                    39478143.468 6 205573048.56506      -413.005 6        38.703    39478139.427 7 158962136.20907      -319.359 7        42.373    39478141.582 6 167045037.11806      -335.690 6        40.520
C11        45.000                                                                                                                                    24282921.978 7 126447631.73607      2242.475 7        43.977    24282922.726 7  97777375.21107      1734.094 7        47.507    24282920.333 7 102749086.06607      1822.222 7        45.228
R16        46.000    19538992.547 8 104373986.51108     -2208.655 8        52.374                                                                    19538993.069 8  81179880.15908     -1717.854 8        48.009
R17        47.000    22395623.929 7 119843741.54107     -4283.018 7        46.735                                                                    22395623.685 6  93211931.34606     -3331.273 6        41.847
C35        48.000                                                                                                                                    25114821.640 7 130779632.71207     -3384.523 7        42.861                                                                    25114821.729 7 106269228.98707     -2750.106 7        43.437
C24        49.000                                                                                                                                    22576912.015 8 117563971.32508     -2750.935 8        50.163                                                                    22576910.046 8  95530377.62408     -2235.381 8        49.098
R19        50.000    19986885.458 6 106916603.61906      1510.723 6        41.244                                                                    19986885.586 7  83157467.11707      1174.932 7        45.266
S48        51.000    77255458.185 6 405981289.72906      -509.565 6        37.947
C08        52.000                                                                                                                                    38052302.754 7 198148416.45107       288.653 7        42.148    38052297.819 7 153220950.82007       223.279 7        46.006    38052296.786 7 161011834.59307       234.587 7        42.472
C34        53.000                                                                                                                                    22413091.440 8 116711107.29108      1374.559 8        49.701                                                                    22413092.428 8  94837446.58808      1116.924 8        48.572
C60        54.000                                                                                                                                    40659893.164 6 211726904.45606      -401.702 6        40.203                                                                    40659878.561 6 172045416.29506      -326.548 6        39.970
C25        55.000                                                                                                                                    22412602.780 8 116708534.55108       446.952 8        49.638                                                                    22412601.871 8  94835334.29308       363.229 8        49.009
C26        56.000                                                                                                                                    26628492.336 3                     -3961.008 3        23.124                                                                    26628489.455 4 112673905.89604     -3219.302 4        29.128
C02        57.000                                                                                                                                    40848207.034 5 212707346.73305      -380.054 5        33.940    40848201.223 6 164478799.22706      -293.750 6        37.660    40848204.907 5 172842139.77505      -308.778 5        34.805
I03        58.000    85554975.768 6 259950816.25206      1096.289 6        41.039
E30        59.000    27018929.775 6 141985596.93906      2110.675 6        40.758                                                                    27018933.789 7 106028308.62607      1576.120 7        44.048    27018932.854 7 108794249.73107      1617.215 7        44.709
G09        60.000    25614641.264 5 134605843.10805      -597.407 5        35.276                                    25614640.833 4 104887675.08504      -465.514 4        27.222    25614640.170 5 104887665.09005      -465.596 5        33.305
> 2025 01 02 16 45 20.0000000  0 57
E11         2.000    24494187.625 7 128718014.97407     -1861.085 7        43.077                                                                    24494184.666 7  96120718.10907     -1389.808 7        44.831    24494184.485 7  98628201.62007     -1426.046 7        45.813
G16         3.000    23544888.422 6 123729364.99806      2938.663 6        40.381                                    23544887.277 3  96412561.08703      2289.868 3        23.467
G05         4.000    23039771.961 7 121074902.26307       231.844 7        44.566                                    23039769.014 6  94344100.54406       180.656 6        39.610    23039769.703 6  94344099.53806       180.745 6        40.012
S21         5.000    38533993.559 7 202497152.15307      -474.087 7        42.500
G26         6.000    21360558.727 7 112250709.58107      1570.198 7        47.366                                    21360559.131 7  87468211.84807      1223.527 7        47.283    21360559.216 7  87468198.84607      1223.565 7        44.163
G25         7.000    22525438.472 7 118372152.56507     -3745.997 7        44.870                                    22525438.920 6  92238126.18706     -2918.960 6        41.735    22525439.345 6  92238127.19306     -2918.918 6        40.901
G04         8.000    25409125.161 6 133525818.16706     -1528.281 6        38.498                                    25409126.120 2 104046070.65102     -1190.879 2        17.623    25409127.666 6 104046079.66706     -1190.938 6        36.446
