     3.04           OBSERVATION DATA    M                   RINEX VERSION / TYPE
ssrcrin-15.6.1x                         20250102 201500 UTC PGM / RUN BY / DATE 
(00000000023479385599111004) Septentrio proprietary         COMMENT             
rref                                                        MARKER NAME         
01                                                          MARKER NUMBER       
geodetic                                                    MARKER TYPE         
NFB                 CLIMERS@TUW                             OBSERVER / AGENCY   
3297213             SEPT ASTERX SB3 PROB4.14.4              REC # / TYPE / VERS 
Unknown             Unknown                                 ANT # / TYPE        
  4127832.1177  1207193.5834  4695247.4202                  APPROX POSITION XYZ 
        0.0000        0.0000        0.0000                  ANTENNA: DELTA H/E/N
G   23 X1  C1C L1C D1C S1C C1W S1W C2W L2W D2W S2W C2L L2L  SYS / # / OBS TYPES 
       D2L S2L C5Q L5Q D5Q S5Q C1L L1L D1L S1L              SYS / # / OBS TYPES 
E   21 X1  C1C L1C D1C S1C C6C L6C D6C S6C C5Q L5Q D5Q S5Q  SYS / # / OBS TYPES 
       C7Q L7Q D7Q S7Q C8Q L8Q D8Q S8Q                      SYS / # / OBS TYPES 
S    9 X1  C1C L1C D1C S1C C5I L5I D5I S5I                  SYS / # / OBS TYPES 
R   17 X1  C1C L1C D1C S1C C2P L2P D2P S2P C2C L2C D2C S2C  SYS / # / OBS TYPES 
       C3Q L3Q D3Q S3Q                                      SYS / # / OBS TYPES 
C   25 X1  C1P L1P D1P S1P C5P L5P D5P S5P C2I L2I D2I S2I  SYS / # / OBS TYPES 
       C7I L7I D7I S7I C6I L6I D6I S6I C7D L7D D7D S7D      SYS / # / OBS TYPES 
J   17 X1  C1C L1C D1C S1C C2L L2L D2L S2L C5Q L5Q D5Q S5Q  SYS / # / OBS TYPES 
       C1L L1L D1L S1L                                      SYS / # / OBS TYPES 
I    5 X1  C5A L5A D5A S5A                                  SYS / # / OBS TYPES 
SEPTENTRIO RECEIVERS OUTPUT ALIGNED CARRIER PHASES.         COMMENT             
NO FURTHER PHASE SHIFT APPLIED IN THE RINEX ENCODER.        COMMENT             
G L1C                                                       SYS / PHASE SHIFT   
G L2W                                                       SYS / PHASE SHIFT   
G L2L  0.00000                                              SYS / PHASE SHIFT   
G L5Q  0.00000                                              SYS / PHASE SHIFT   
G L1L  0.00000                                              SYS / PHASE SHIFT   
E L1C  0.00000                                              SYS / PHASE SHIFT   
E L6C  0.00000                                              SYS / PHASE SHIFT   
E L5Q  0.00000                                              SYS / PHASE SHIFT   
E L7Q  0.00000                                              SYS / PHASE SHIFT   
E L8Q  0.00000                                              SYS / PHASE SHIFT   
S L1C                                                       SYS / PHASE SHIFT   
S L5I                                                       SYS / PHASE SHIFT   
R L1C                                                       SYS / PHASE SHIFT   
R L2P  0.00000                                              SYS / PHASE SHIFT   
R L2C                                                       SYS / PHASE SHIFT   
R L3Q  0.00000                                              SYS / PHASE SHIFT   
C L1P  0.00000                                              SYS / PHASE SHIFT   
C L5P  0.00000                                              SYS / PHASE SHIFT   
C L2I                                                       SYS / PHASE SHIFT   
C L7I                                                       SYS / PHASE SHIFT   
C L6I                                                       SYS / PHASE SHIFT   
C L7D                                                       SYS / PHASE SHIFT   
J L1C                                                       SYS / PHASE SHIFT   
J L2L  0.00000                                              SYS / PHASE SHIFT   
J L5Q  0.00000                                              SYS / PHASE SHIFT   
J L1L  0.00000                                              SYS / PHASE SHIFT   
I L5A                                                       SYS / PHASE SHIFT   
  2025     1     2    20    15    0.0000000     GPS         TIME OF FIRST OBS   
 C1C    0.000 C2C    0.000 C2P    0.000                     GLONASS COD/PHS/BIS 
DBHZ                                                        SIGNAL STRENGTH UNIT
    18                                                      LEAP SECONDS        
 24 R01  1 R02 -4 R03  5 R04  6 R05  1 R06 -4 R07  5 R08  6 GLONASS SLOT / FRQ #
    R09 -2 R10 -7 R11  0 R12 -1 R13 -2 R14 -7 R15  0 R16 -1 GLONASS SLOT / FRQ #
    R17  4 R18 -3 R19  3 R20  2 R21  4 R22 -3 R23  3 R24  2 GLONASS SLOT / FRQ #
                                                            END OF HEADER       
> 2025 01 02 20 15  0.0000000  0 58
G23         1.000    21191857.826 7 111364046.41707     -1936.353 7        46.403                                    21191853.974 6  86777202.10006     -1508.843 6        37.255    21191854.206 7  86777200.10107     -1508.859 7        46.238
C37         2.000                                                                                                                                    25227455.531 7 131365973.64007      -570.029 7        43.115                                                                    25227459.414 7 106745634.31907      -463.168 7        44.316
G16         3.000    22070530.523 7 115981625.56507     -3434.776 7        46.888                                    22070526.026 5  90375376.88405     -2676.448 5        34.624
G21         4.000    23342304.072 6 122664679.71806      2362.189 6        38.504                                    23342301.197 3  95582867.49903      1840.664 3        21.262
S21         5.000    38435294.184 6 201978501.36506      -447.667 6        41.931
G26         6.000    24342808.496 6 127922543.13406     -4081.579 6        39.102                                    24342808.525 5  99680031.70505     -3180.448 5        34.109    24342809.127 6  99680018.69706     -3180.232 6        38.889
G10         7.000    20987762.129 8 110291500.14508       889.609 8        51.050                                    20987760.194 8  85941444.93908       693.201 8        52.340    20987760.134 7  85941438.94007       693.283 7        45.269
E15         8.000    25335574.978 7 133139446.45607      1518.591 7        44.346                                                                    25335575.782 7  99422380.00907      1134.000 7        47.053    25335575.421 8 102015995.41208      1163.576 8        48.158
E36         9.000    25793699.212 7 135546991.54007     -2655.491 7        42.190                                                                    25793700.083 7 101220298.05007     -1982.916 7        45.574    25793699.870 7 103860815.01907     -2034.743 7        46.733
G27        10.000    20072202.253 8 105480286.52908      -103.363 8        50.555                                    20072200.086 8  82192501.56808       -80.541 8        53.570    20072200.693 7  82192503.57107       -80.563 7        46.508
G15        11.000    23930345.786 6 125754834.03606     -1863.221 6        38.288                                    23930341.210 5  97990772.08305     -1451.867 5        30.091    23930341.805 5  97990775.09305     -1452.012 5        34.624
G13        12.000    25351529.709 3                     -2292.049 3        22.819
C23        13.000                                                                                                                                    25140705.882 7 130914298.23907     -2873.753 7        44.263                                                                    25140697.992 7 106378581.74007     -2335.188 7        44.102
S36        14.000    38204559.547 7 200766841.33607      -446.808 7        43.892
C13        15.000                                                                                                                                    38520989.854 7 200588959.74107     -1408.209 7        42.136    38520991.521 7 155108141.30907     -1088.932 7        43.462    38520989.803 6 162994983.05106     -1144.248 6        41.793
G18        16.000    23642877.165 6 124244380.87906     -3446.464 6        41.814                                    23642874.028 4  96813898.35304     -2685.555 4        27.832    23642874.279 6  96813906.33906     -2685.558 6        41.645
R10        17.000    22120930.544 7 117917030.29607     -4165.095 7        43.065
E27        18.000    25485344.244 7 133926404.64307       813.857 7        43.943                                                                    25485344.487 7 100009980.89007       607.730 7        46.947    25485344.079 7 102618934.23007       623.590 7        47.637
E02        19.000    26985570.397 6 141810302.80906     -3655.202 6        39.396                                                                    26985570.498 7 105897409.59207     -2729.531 7        43.609    26985569.807 7 108659936.26607     -2800.626 7        44.575
E05        20.000    26115885.950 6 137239914.10306      2269.276 6        37.452                                                                    26115886.853 6 102484351.13006      1694.547 6        41.716    26115886.772 7 105157858.63407      1738.803 7        43.168
R11        21.000    21110477.138 8 112808011.58508      -742.194 8        48.614                                                                    21110476.489 7  87739567.93107      -577.316 7        45.636
I06        22.000    38618034.153 6 151545684.71406      -259.169 6        40.515
S28        23.000    40899975.650 5 214930843.76205      -439.509 5        33.593
E04        24.000    28379095.862 5 149133133.27805     -1625.280 5        35.219                                                                    28379096.040 6 111365648.53606     -1213.766 6        38.997    28379095.641 6 114270835.59906     -1245.384 6        40.138
S23        25.000    38161872.530 7 200541949.88007      -447.490 7        44.411
S45        26.000    63416480.240 6 333256256.16206      -495.615 6        37.456
S27        28.000    39165307.271 5 205815060.19005      -415.297 5        35.810
C38        29.000                                                                                                                                    40499617.927 6 210892257.60106     -1712.248 6        38.904                                                                    40499615.225 6 171367278.85306     -1391.302 6        37.724
C43        31.000                                                                                                                                    21557562.084 8 112255987.66508         5.668 8        51.507                                                                    21557560.529 8  91217227.51908         4.589 8        49.532
C42        32.000                                                                                                                                    23623268.095 7 123012572.09507      2037.323 7        47.325                                                                    23623276.050 7  99957831.90207      1655.441 7        47.860
I02        33.000    40170303.167 6 157636946.73406      -993.381 6        38.099
R03        34.000    23767209.981 6 127227770.52806     -3923.012 6        41.523                                                                    23767210.291 6  98954933.04706     -3051.240 6        40.005
E34        35.000    23310521.828 8 122497826.17508      -644.524 8        48.442                                                                    23310521.841 8  91475760.19108      -481.257 8        50.714    23310521.724 8  93862073.16408      -493.835 8        51.452
G30        36.000    25712037.759 6 135117683.44606      -413.778 6        36.170                                    25712036.863 4 105286514.87004      -322.427 4        26.240    25712036.960 5 105286507.86305      -322.471 5        33.377
R21        37.000    21649774.939 8 115852363.25108      2278.167 8        48.700                                                                    21649775.140 7  90107411.72507      1771.905 7        43.987
C22        38.000                                                                                                                                    26312251.153 6 137014816.23806     -3173.445 6        40.601                                                                    26312245.107 6 111335744.16206     -2578.590 6        39.357
R05        39.000    21263195.954 8 113663981.61408      2732.270 8        49.572                                                                    21263195.424 7  88405326.29907      2125.123 7        44.620
C12        40.000                                                                                                                                    25337699.534 6 131940238.80906     -3081.665 6        40.081    25337696.521 7 102024654.87707     -2382.785 7        44.947    25337696.183 7 107212321.79107     -2503.940 7        43.488
R04        41.000    21024114.935 8 112583209.82708      -960.458 8        49.529                                                                    21024112.950 7  87564725.96107      -746.992 7        44.256
S44        42.000    40465053.271 6 212645469.77106      -441.832 6        37.909
G08        43.000    21493787.438 7 112950702.25907      1966.709 7        45.859                                    21493786.142 7  88013573.38007      1532.499 7        45.327    21493786.900 7  88013571.38807      1532.524 7        44.062
C05        44.000                                                                                                                                    39224268.631 6 204251093.19506      -381.887 6        38.315    39224263.911 7 157939924.45907      -295.417 7        42.588    39224266.687 6 165970846.52706      -310.314 6        40.758
C11        45.000                                                                                                                                    21764520.919 8 113333718.05608     -1213.654 8        49.197    21764517.628 8  87636880.65608      -938.478 8        51.922    21764516.362 8  92092969.36508      -986.191 8        49.047
E09        46.000    27173596.803 6 142798232.33206       582.109 6        39.883                                                                    27173597.684 7 106635054.08007       434.704 7        43.204    27173596.728 7 109416835.23607       446.057 7        43.592
G07        47.000    25383188.311 6 133389543.13006     -1617.933 6        39.288                                    25383186.475 4 103939883.46404     -1260.730 4        27.353    25383188.118 5 103939891.46405     -1260.515 5        33.126
C21        48.000                                                                                                                                    23664356.628 7 123226543.70007      -778.581 7        47.504                                                                    23664351.372 8 100131648.31908      -632.714 8        48.032
E06        49.000    27489436.982 6 144457985.65606      -510.463 6        38.766                                                                    27489437.332 6 107874474.52606      -381.078 6        40.825    27489437.059 6 110688588.49006      -391.100 6        41.580
R19        50.000    22855263.933 6 122260503.17206     -3554.022 6        36.102                                                                    22855263.295 6  95091612.91006     -2764.316 6        39.120
S48        51.000    77179325.010 6 405581040.89406      -483.228 6        37.425
C08        52.000                                                                                                                                    39012289.327 6 203147325.64906     -1643.159 6        38.375    39012282.404 7 157086427.82807     -1270.614 7        42.353    39012281.767 6 165073860.47406     -1335.273 6        40.067
C34        53.000                                                                                                                                    22755568.571 8 118494496.38008     -2382.772 8        48.444                                                                    22755568.384 8  96286600.78908     -1936.234 8        48.078
C60        54.000                                                                                                                                    40465053.359 6 210712348.53006      -437.889 6        39.844                                                                    40465037.638 6 171221011.72106      -355.652 6        39.583
C25        55.000                                                                                                                                    26877345.373 3                     -3523.040 3        21.310                                                                    26877351.572 3                     -2863.983 3        20.238
I09        56.000    38418484.648 7 150762407.89807       353.564 7        42.102
C02        57.000                                                                                                                                    40562956.990 5 211222001.15505      -390.957 5        34.500    40562950.915 6 163330241.92806      -302.412 6        39.826    40562954.117 6 171635179.74106      -317.864 6        36.340
I03        58.000    80818253.692 6 241362934.21506      1087.994 6        40.682
E30        59.000    24627758.450 7 129419963.20107     -2019.592 7        47.253                                                                    24627758.020 8  96644897.62708     -1508.138 8        49.386    24627757.558 8  99166052.13508     -1547.511 8        50.107
R20        60.000    19583035.636 6 104719501.87906      -639.847 6        39.237                                                                    19583037.593 7  81448570.67707      -497.643 7        47.505
> 2025 01 02 20 15  5.0000000  0 58
G23         1.000    21193701.474 7 111373734.49507     -1939.093 7        46.387                                    21193697.561 6  86784751.24906     -1510.984 6        37.293    21193697.638 7  86784749.25307     -1510.988 7        45.998
C37         2.000                                                                                                                                    25228003.990 7 131368829.77907      -572.655 7        43.228                                                                    25228007.831 7 106747955.15007      -465.458 7        44.342
G16         3.000    22073799.604 7 115998803.24607     -3436.539 7        46.585                                    22073794.849 5  90388762.08705     -2677.824 5        34.657
G21         4.000    23340057.221 6 122652871.26706      2361.081 6        38.793                                    23340054.019 3  95573666.11903      1839.802 3        21.310
S21         5.000    38435719.096 6 201980739.03306      -447.561 6        41.585
G26         6.000    24346692.011 6 127942949.86706     -4081.317 6        39.132                                    24346691.932 5  99695933.03805     -3180.243 5        34.071    24346692.373 6  99695920.02406     -3180.374 6        39.156
G10         7.000    20986916.768 8 110287058.29108       886.997 8        51.015                                    20986914.964 8  85937983.75508       691.165 8        52.383    20986915.155 7  85937977.76307       691.103 7        45.535
E15         8.000    25334130.246 7 133131854.86907      1517.790 7        44.451                                                                    25334131.156 7  99416710.97407      1133.479 7        47.077    25334130.775 8 102010178.48808      1162.992 8        48.267
E36         9.000    25796225.993 7 135560268.79607     -2655.663 7        42.555                                                                    25796226.643 7 101230212.88507     -1983.105 7        45.610    25796226.517 7 103870988.50007     -2034.921 7        46.931
G27        10.000    20072301.829 8 105480809.31508      -106.036 8        50.456                                    20072299.561 8  82192908.93708       -82.626 8        53.611    20072300.021 7  82192910.93907       -82.575 7        46.579
G15        11.000    23932119.559 6 125764157.40106     -1866.164 6        38.087                                    23932115.353 5  97998037.06105     -1454.152 5        30.241    23932116.156 5  97998040.06105     -1454.273 5        35.219
G13        12.000    25353710.765 3                     -2293.689 3        23.657
C23        13.000                                                                                                                                    25143465.864 7 130928669.88907     -2875.051 7        44.667                                                                    25143457.954 7 106390259.86507     -2336.315 7        44.104
S36        14.000    38204983.331 7 200769074.59407      -446.723 7        43.738
C13        15.000                                                                                                                                    38522341.672 7 200596000.63907     -1408.265 7        42.263    38522343.664 7 155113585.78707     -1089.008 7        43.513    38522341.890 6 163000704.33606     -1144.326 6        41.988
G18        16.000    23646156.564 6 124261613.65406     -3446.963 6        41.085                                    23646153.391 4  96827326.48204     -2685.942 4        27.844    23646153.754 6  96827334.47106     -2685.849 6        41.583
R10        17.000    22124838.817 7 117937859.89707     -4167.049 7        43.054
E27        18.000    25484570.358 7 133922339.97507       811.818 7        44.068                                                                    25484570.992 7 100006945.59107       606.204 7        47.030    25484570.592 7 102615819.74707       622.018 7        47.631
E02        19.000    26989047.922 6 141828578.69506     -3655.477 6        38.868                                                                    26989048.296 7 105911057.15207     -2729.660 7        43.799    26989047.483 7 108673939.85807     -2800.955 7        44.594
E05        20.000    26113726.736 6 137228568.07006      2268.810 6        37.474                                                                    26113727.885 6 102475878.45106      1694.215 6        41.771    26113727.733 7 105149164.91807      1738.589 7        43.289
R11        21.000    21111174.204 8 112811733.31008      -746.731 8        49.086                                                                    21111173.062 7  87742462.58607      -580.765 7        46.057
I06        22.000    38618364.179 6 151546980.10906      -259.213 6        40.503
S28        23.000    40900389.391 5 214933041.60905      -439.671 5        32.964
E04        24.000    28380643.117 5 149141264.39205     -1627.401 5        35.219                                                                    28380643.402 6 111371720.43506     -1215.317 6        39.246    28380642.938 6 114277065.91106     -1247.150 6        40.133
S23        25.000    38162299.288 7 200544186.68807      -447.383 7        44.286
S45        26.000    63416899.455 6 333258733.80206      -495.419 6        37.580
S27        28.000    39165703.197 5 205817137.01005      -415.290 5        35.752
C38        29.000                                                                                                                                    40501261.982 6 210900817.26306     -1711.940 6        39.111                                                                    40501258.985 6 171374234.25706     -1391.227 6        37.618
C43        31.000                                                                                                                                    21557557.286 8 112255962.54108         4.242 8        51.470                                                                    21557555.772 8  91217207.08808         3.295 8        49.611
C42        32.000                                                                                                                                    23621312.070 7 123002389.53107      2035.497 7        47.213                                                                    23621320.472 7  99949557.70807      1653.925 7        47.998
I02        33.000    40171568.284 6 157641912.76806      -993.437 6        37.917
R03        34.000    23770875.025 6 127247390.69906     -3925.258 6        41.449                                                                    23770874.749 6  98970193.18006     -3053.036 6        39.562
E34        35.000    23311135.483 8 122501051.05308      -645.591 8        48.556                                                                    23311135.492 8  91478168.39008      -482.147 8        50.722    23311135.377 8  93864544.18208      -494.754 8        51.565
G30        36.000    25712431.527 5 135119758.18705      -416.418 5        35.448                                    25712431.613 4 105288131.55204      -324.479 4        26.754    25712432.151 5 105288124.56005      -324.292 5        33.557
R21        37.000    21647647.040 8 115840974.01108      2277.271 8        48.545                                                                    21647646.710 7  90098553.42907      1771.294 7        42.963
C22        38.000                                                                                                                                    26315298.899 6 137030686.20006     -3174.772 6        40.687                                                                    26315292.814 6 111348639.79406     -2579.975 6        39.432
R05        39.000    21260641.218 8 113650327.17408      2729.313 8        48.914                                                                    21260640.477 7  88394706.18807      2122.823 7        44.608
C12        40.000                                                                                                                                    25340658.377 6 131955646.51306     -3081.760 6        39.712    25340655.449 7 102036569.09707     -2383.077 7        44.763    25340655.052 7 107224841.79307     -2504.280 7        43.498
R04        41.000    21025013.451 8 112588022.74908      -965.023 8        49.703                                                                    21025012.218 7  87568469.33307      -750.466 7        44.653
S44        42.000    40465476.336 6 212647677.93106      -441.601 6        37.784
G08        43.000    21491916.841 7 112940871.95107      1965.264 7        46.148                                    21491915.474 7  88005913.40207      1531.372 7        45.333    21491916.020 7  88005911.41207      1531.333 7        43.572
C05        44.000                                                                                                                                    39224635.348 6 204253001.71406      -381.826 6        38.402    39224630.575 7 157941400.24607      -295.271 7        42.662    39224633.280 6 165972397.34106      -310.238 6        40.713
C11        45.000                                                                                                                                    21765686.968 8 113339789.02808     -1214.894 8        49.093    21765683.584 8  87641575.12308      -939.444 8        52.141    21765682.290 8  92097902.50708      -987.272 8        49.081
E09        46.000    27173044.169 6 142795326.17906       580.114 6        39.766                                                                    27173044.542 7 106632883.90507       433.168 7        43.300    27173043.655 7 109414608.45607       444.420 7        43.507
G07        47.000    25384728.896 6 133397637.39506     -1619.968 6        36.813                                    25384726.676 4 103946190.68204     -1262.315 4        27.317    25384726.964 5 103946198.68505     -1262.381 5        33.018
C21        48.000                                                                                                                                    23665105.273 7 123230443.17207      -781.456 7        47.305                                                                    23665100.171 8 100134816.93508      -635.065 8        48.130
E06        49.000    27489923.235 6 144460543.21406      -512.836 6        38.838                                                                    27489923.884 6 107876384.39506      -382.863 6        40.682    27489923.826 6 110690548.17206      -392.876 6        41.847
R19        50.000    22858586.016 6 122278273.87906     -3554.375 6        36.280                                                                    22858586.194 6  95105434.60106     -2764.707 6        39.165
S48        51.000    77179758.976 6 405583457.67806      -483.214 6        37.074
C08        52.000                                                                                                                                    39013867.179 6 203155541.09606     -1643.384 6        38.267    39013860.005 7 157092780.51507     -1270.704 7        42.250    39013859.444 6 165080536.16106     -1335.360 6        40.169
C34        53.000                                                                                                                                    22757856.798 8 118506412.24308     -2383.759 8        48.444                                                                    22757856.664 8  96296283.38508     -1937.156 8        48.127
C60        54.000                                                                                                                                    40465473.709 6 210714536.61606      -437.728 6        39.841                                                                    40465457.908 6 171222789.71506      -355.755 6        39.781
C25        55.000                                                                                                                                    26880726.331 3                     -3517.887 3        19.194                                                                    26880727.732 3                     -2862.625 3        20.595
I09        56.000    38418034.213 6 150760640.25406       353.415 6        41.874
C02        57.000                                                                                                                                    40563332.459 5 211223955.17205      -390.573 5        34.429    40563326.192 6 163331752.90406      -302.287 6        39.910    40563329.183 5 171636767.53405      -317.740 5        35.986
I03        58.000    80816867.091 6 241357494.51206      1087.895 6        40.715
E30        59.000    24629680.873 7 129430065.65207     -2021.583 7        47.151                                                                    24629680.453 8  96652441.67008     -1509.634 8        49.390    24629680.025 8  99173792.97608     -1549.009 8        50.241
R20        60.000    19583634.526 6 104722705.21206      -641.780 6        39.321                                                                    19583636.699 7  81451062.17507      -499.132 7        47.647
> 2025 01 02 20 15 10.0000000  0 58
G23         1.000    21195547.623 7 111383436.80507     -1941.836 7        46.324                                    21195543.800 6  86792311.49006     -1513.120 6        37.138    21195544.027 7  86792309.49207     -1513.082 7        46.292
C37         2.000                                                                                                                                    25228555.072 7 131371699.53707      -575.251 7        43.221                                                                    25228558.927 7 106750287.06307      -467.426 7        44.259
G16         3.000    22077069.996 7 116015990.97307     -3438.490 7        46.677                                    22077065.613 5  90402155.11705     -2679.338 5        34.490
G21         4.000    23337811.428 6 122641068.31206      2360.056 6        38.919                                    23337807.740 3  95564469.01703      1838.980 3        21.119
S21         5.000    38436142.630 6 201982976.68106      -447.357 6        41.793
G26         6.000    24350575.352 6 127963357.48006     -4081.553 6        39.832                                    24350575.563 5  99711835.06505     -3180.428 5        34.152    24350575.123 6  99711822.07606     -3180.416 6        39.408
G10         7.000    20986074.456 8 110282630.86408       884.038 8        51.264                                    20986072.470 8  85934533.81308       688.860 8        52.241    20986072.461 7  85934527.81107       688.944 7        45.570
E15         8.000    25332686.174 7 133124267.69107      1516.957 7        44.220                                                                    25332687.363 7  99411045.22707      1132.855 7        47.218    25332687.033 8 102004364.93608      1162.408 8        48.308
E36         9.000    25798753.027 7 135573547.99007     -2655.933 7        42.715                                                                    25798753.564 7 101240129.15407     -1983.329 7        45.696    25798753.552 7 103881163.45307     -2035.074 7        47.010
G27        10.000    20072404.034 8 105481345.51308      -108.492 8        50.800                                    20072401.599 8  82193326.75408       -84.540 8        53.434    20072401.495 7  82193328.75807       -84.575 7        46.274
G15        11.000    23933897.139 6 125773497.03406     -1869.450 6        38.291                                    23933892.734 4  98005314.69804     -1456.725 4        29.972    23933893.839 6  98005317.69706     -1456.818 6        36.057
G13        12.000    25355893.342 3                     -2297.416 3        22.952
C23        13.000                                                                                                                                    25146227.387 7 130943048.69707     -2876.484 7        44.761                                                                    25146219.286 7 106401943.81007     -2337.229 7        44.166
S36        14.000    38205410.295 7 200771307.92707      -446.506 7        43.879
C13        15.000                                                                                                                                    38523694.400 7 200603042.79007     -1408.514 7        42.345    38523695.974 7 155119031.22407     -1089.163 7        43.719    38523694.360 6 163006426.65506     -1144.440 6        41.824
G18        16.000    23649436.479 6 124278849.05606     -3447.241 6        41.769                                    23649433.165 4  96840756.66404     -2686.163 4        27.964    23649433.185 6  96840764.66606     -2686.269 6        41.466
R10        17.000    22128747.055 7 117958699.70207     -4168.899 7        42.809
E27        18.000    25483799.146 7 133918286.10407       809.792 7        43.886                                                                    25483799.589 7 100003918.35007       604.639 7        47.134    25483799.178 7 102612713.53707       620.452 7        47.704
E02        19.000    26992526.074 6 141846856.36406     -3655.639 6        39.069                                                                    26992526.522 7 105924706.05207     -2729.896 7        44.065    26992525.667 7 108687944.80607     -2800.991 7        44.373
E05        20.000    26111568.071 6 137217224.75206      2268.476 6        37.391                                                                    26111569.438 7 102467407.77307      1694.053 7        42.216    26111569.190 7 105140473.29207      1738.148 7        43.308
R11        21.000    21111875.059 8 112815478.02908      -751.122 8        48.825                                                                    21111873.602 7  87745375.15107      -584.229 7        45.749
I06        22.000    38618694.549 6 151548275.34006      -259.166 6        40.429
S28        23.000    40900813.914 5 214935239.68105      -439.390 5        33.461
E04        24.000    28382192.601 5 149149406.29005     -1629.373 5        35.329                                                                    28382192.919 6 111377800.40806     -1216.882 6        39.814    28382192.513 6 114283304.47906     -1248.598 6        40.250
S23        25.000    38162724.669 7 200546423.38007      -447.323 7        44.477
S45        26.000    63417323.740 6 333261211.35506      -495.283 6        37.739
S27        28.000    39166097.268 6 205819213.54306      -415.111 6        36.023
C38        29.000                                                                                                                                    40502905.569 6 210909376.96906     -1711.719 6        39.141                                                                    40502902.924 6 171381189.73606     -1390.983 6        37.671
C43        31.000                                                                                                                                    21557553.820 8 112255945.08708         2.819 8        51.470                                                                    21557552.387 8  91217192.90008         2.346 8        49.576
C42        32.000                                                                                                                                    23619358.528 7 122992216.69607      2033.651 7        46.746                                                                    23619366.910 7  99941291.44807      1652.532 7        47.912
I02        33.000    40172833.988 6 157646878.64906      -993.121 6        37.773
R03        34.000    23774543.481 7 127267023.03107     -3927.697 7        42.061                                                                    23774542.144 6  98985462.72006     -3054.667 6        39.393
E34        35.000    23311750.242 8 122504282.06808      -646.742 8        48.523                                                                    23311750.304 8  91480581.15608      -482.964 8        50.859    23311750.290 8  93867019.88708      -495.542 8        51.567
G30        36.000    25712830.160 6 135121846.74206      -419.087 6        36.692                                    25712828.993 4 105289759.01004      -326.567 4        26.575    25712829.673 5 105289752.02905      -326.668 5        33.323
R21        37.000    21645519.826 8 115829589.58708      2276.479 8        48.681                                                                    21645518.728 7  90089698.87607      1770.565 7        43.185
C22        38.000                                                                                                                                    26318347.867 6 137046563.99406     -3176.222 6        40.310                                                                    26318341.996 6 111361541.76906     -2580.828 6        38.808
R05        39.000    21258089.249 8 113636688.06508      2726.363 8        49.042                                                                    21258089.342 7  88384098.00607      2120.496 7        45.290
C12        40.000                                                                                                                                    25343617.982 6 131971056.71906     -3082.229 6        39.961    25343615.055 7 102048485.23807     -2383.358 7        44.858    25343614.491 7 107237363.83507     -2504.464 7        43.445
R04        41.000    21025916.588 8 112592858.81708      -969.464 8        49.183                                                                    21025915.323 7  87572230.73407      -754.007 7        45.138
S44        42.000    40465895.457 6 212649886.26206      -441.589 6        37.792
G08        43.000    21490047.887 7 112931050.06507      1963.557 7        46.454                                    21490046.421 7  87998259.98607      1530.044 7        45.201    21490046.981 7  87998257.99107      1530.092 7        43.458
C05        44.000                                                                                                                                    39225002.227 6 204254910.29206      -381.481 6        38.129    39224997.131 7 157942876.08107      -295.077 7        42.658    39224999.680 6 165973948.21406      -310.156 6        40.739
C11        45.000                                                                                                                                    21766854.098 8 113345867.02508     -1216.250 8        49.128    21766850.534 8  87646275.01608      -940.452 8        52.026    21766849.458 8  92102841.37108      -988.187 8        49.047
E09        46.000    27172492.959 6 142792431.07706       578.137 6        39.255                                                                    27172493.609 7 106630721.99607       431.624 7        43.363    27172492.634 7 109412390.14707       442.741 7        43.359
G07        47.000    25386270.736 6 133405742.49706     -1621.956 6        37.826                                    25386269.006 4 103952506.33004     -1263.865 4        27.186    25386268.300 5 103952514.34105     -1263.795 5        33.174
C21        48.000                                                                                                                                    23665857.107 7 123234357.42607      -784.262 7        47.297                                                                    23665851.815 8 100137997.58508      -637.208 8        48.086
E06        49.000    27490412.424 6 144463112.69206      -514.933 6        38.237                                                                    27490412.868 6 107878303.15806      -384.691 6        40.775    27490412.910 6 110692516.99206      -394.595 6        41.964
R19        50.000    22861907.434 5 122296047.22505     -3554.861 5        35.609                                                                    22861908.293 6  95119258.28906     -2764.878 6        38.291
S48        51.000    77180190.792 6 405585874.50306      -483.370 6        37.164
C08        52.000                                                                                                                                    39015444.237 6 203163757.50606     -1643.375 6        37.815    39015437.879 7 157099133.97207     -1270.649 7        42.292    39015437.233 6 165087212.65706     -1335.190 6        40.110
C34        53.000                                                                                                                                    22760146.332 8 118518333.84108     -2384.841 8        48.610                                                                    22760146.142 8  96305970.65208     -1937.827 8        48.080
C60        54.000                                                                                                                                    40465893.823 6 210716724.85806      -437.601 6        39.958                                                                    40465878.044 6 171224567.82806      -355.419 6        39.580
C25        55.000                                                                                                                                    26884108.094 3                     -3521.237 3        19.821                                                                    26884108.462 3                     -2860.401 3        22.343
I09        56.000    38417583.991 6 150758873.50206       353.379 6        41.642
C02        57.000                                                                                                                                    40563707.279 5 211225909.29005      -390.460 5        34.495    40563701.370 6 163333263.97106      -302.119 6        39.850    40563704.455 6 171638355.42706      -317.435 6        36.306
I03        58.000    80815480.838 6 241352054.96206      1087.986 6        40.698
E30        59.000    24631605.372 7 129440178.64707     -2023.585 7        47.328                                                                    24631604.851 8  96659993.57908     -1511.097 8        49.517    24631604.465 8  99181541.89408     -1550.518 8        50.249
R20        60.000    19584236.130 6 104725918.39306      -643.569 6        39.411                                                                    19584237.467 7  81453561.30907      -500.559 7        47.663
> 2025 01 02 20 15 15.0000000  0 58
G23         1.000    21197396.637 7 111393153.06607     -1944.669 7        46.417                                    21197392.758 6  86799882.60106     -1515.329 6        37.062    21197392.875 7  86799880.60007     -1515.366 7        46.023
C37         2.000                                                                                                                                    25229108.773 7 131374582.63307      -577.975 7        43.532                                                                    25229112.579 7 106752629.82407      -469.713 7        44.146
G16         3.000    22080342.750 7 116033188.41807     -3440.462 7        46.345                                    22080338.206 5  90415555.71805     -2680.881 5        34.448
G21         4.000    23335566.834 6 122629270.55906      2359.007 6        38.667                                    23335562.713 3  95555275.97103      1838.188 3        21.095
S21         5.000    38436569.133 6 201985214.08106      -447.523 6        41.707
G26         6.000    24354458.602 6 127983765.68106     -4081.702 6        39.934                                    24354459.244 5  99727737.55105     -3180.546 5        34.305    24354458.585 6  99727724.55406     -3180.569 6        39.201
G10         7.000    20985234.679 8 110278217.55808       881.194 8        51.473                                    20985232.659 8  85931094.87608       686.644 8        52.228    20985232.859 7  85931088.87007       686.749 7        45.822
E15         8.000    25331242.850 7 133116684.63907      1516.145 7        44.158                                                                    25331244.315 7  99405382.55807      1132.110 7        47.162    25331243.979 8 101998554.54208      1161.725 8        48.358
E36         9.000    25801280.109 7 135586828.81407     -2656.353 7        42.815                                                                    25801280.857 7 101250046.64207     -1983.631 7        45.688    25801280.804 7 103891339.66007     -2035.404 7        47.017
G27        10.000    20072508.571 8 105481894.89808      -111.343 8        50.868                                    20072506.146 8  82193754.84808       -86.762 8        53.384    20072506.634 7  82193756.85007       -86.803 7        46.506
G15        11.000    23935677.184 6 125782852.69906     -1872.700 6        38.483                                    23935673.173 5  98012604.82605     -1459.254 5        30.098    23935673.794 6  98012607.84006     -1459.221 6        36.045
G13        12.000    25358082.138 3                     -2298.868 3        23.943
C23        13.000                                                                                                                                    25148989.697 7 130957434.37807     -2877.884 7        44.181                                                                    25148981.930 7 106413633.35807     -2338.506 7        44.110
S36        14.000    38205834.433 7 200773540.49607      -446.598 7        43.900
C13        15.000                                                                                                                                    38525046.862 7 200610085.91507     -1408.884 7        42.237    38525048.459 7 155124477.40607     -1089.389 7        43.638    38525046.901 6 163012149.79006     -1144.884 6        41.800
G18        16.000    23652716.740 7 124296086.79107     -3447.734 7        42.463                                    23652713.404 4  96854188.65404     -2686.539 4        27.760    23652713.276 6  96854196.66806     -2686.619 6        41.340
R10        17.000    22132657.854 7 117979549.63007     -4170.954 7        42.519
E27        18.000    25483029.848 7 133914242.73207       807.548 7        44.072                                                                    25483030.120 7 100000898.95207       603.010 7        47.041    25483029.747 7 102609615.36907       618.806 7        47.865
E02        19.000    26996004.586 6 141865135.50606     -3655.933 6        39.378                                                                    26996004.965 7 105938356.04807     -2730.215 7        44.113    26996003.924 7 108701950.89607     -2801.368 7        44.399
E05        20.000    26109410.018 6 137205883.88706      2267.845 6        36.941                                                                    26109411.352 6 102458938.95406      1693.390 6        41.921    26109411.007 7 105131783.53607      1737.633 7        43.391
R11        21.000    21112579.635 8 112819245.37608      -755.817 8        49.105                                                                    21112578.772 7  87748305.31407      -587.839 7        46.091
I06        22.000    38619024.612 6 151549570.20606      -259.028 6        40.515
S28        23.000    40901235.999 5 214937437.10505      -439.426 5        33.359
E04        24.000    28383743.807 5 149157558.72305     -1631.576 5        34.910                                                                    28383744.321 6 111383888.21906     -1218.408 6        39.547    28383743.887 6 114289551.12106     -1250.309 6        40.069
S23        25.000    38163148.597 7 200548659.58207      -447.246 7        44.554
S45        26.000    63417747.623 6 333263688.64106      -495.537 6        37.531
S27        28.000    39166495.139 5 205821289.63605      -415.353 5        35.924
C38        29.000                                                                                                                                    40504549.634 6 210917936.45706     -1711.933 6        38.943                                                                    40504546.578 6 171388145.01906     -1391.087 6        37.641
C43        31.000                                                                                                                                    21557552.197 8 112255935.02908         1.238 8        51.324                                                                    21557550.473 8  91217184.73308         0.993 8        49.538
C42        32.000                                                                                                                                    23617407.259 7 122982053.33007      2031.632 7        46.971                                                                    23617415.157 7  99933032.89107      1650.868 7        47.851
I02        33.000    40174099.472 6 157651844.33906      -993.147 6        38.123
R03        34.000    23778213.818 6 127286667.11206     -3930.025 6        41.988                                                                    23778212.381 6  99000741.44906     -3056.661 6        39.784
E34        35.000    23312366.252 8 122507518.91508      -648.009 8        48.327                                                                    23312366.238 8  91482998.27908      -483.911 8        50.767    23312366.205 8  93869500.07108      -496.558 8        51.636
G30        36.000    25713230.201 6 135123948.84206      -421.684 6        36.866                                    25713228.931 4 105291397.02004      -328.595 4        26.814    25713229.432 5 105291390.02705      -328.751 5        33.425
R21        37.000    21643393.304 8 115818209.74408      2275.518 8        49.166                                                                    21643392.487 7  90080847.89407      1769.804 7        43.126
C22        38.000                                                                                                                                    26321398.586 6 137062449.33606     -3177.876 6        40.305                                                                    26321392.640 6 111374449.90606     -2582.190 6        38.883
R05        39.000    21255541.198 8 113623063.77608      2723.190 8        49.221                                                                    21255540.240 7  88373501.33707      2118.061 7        44.673
C12        40.000                                                                                                                                    25346578.317 6 131986469.08406     -3082.846 6        39.934    25346575.022 7 102060403.03807     -2383.808 7        45.034    25346574.125 7 107249887.64007     -2505.046 7        43.065
R04        41.000    21026824.010 8 112597717.72108      -974.117 8        49.720                                                                    21026822.749 7  87576009.87907      -757.684 7        45.184
S44        42.000    40466317.417 6 212652094.43306      -441.767 6        37.788
G08        43.000    21488180.204 7 112921236.31807      1961.922 7        46.239                                    21488178.897 7  87990612.91207      1528.770 7        45.111    21488179.908 7  87990610.91907      1528.756 7        43.448
C05        44.000                                                                                                                                    39225368.770 6 204256818.63806      -381.884 6        38.126    39225363.639 7 157944351.72407      -295.151 7        42.631    39225366.174 6 165975498.90506      -310.289 6        40.687
C11        45.000                                                                                                                                    21768022.607 8 113351951.68808     -1217.692 8        49.150    21768018.750 8  87650980.06008      -941.610 8        51.902    21768017.981 8  92107785.67408      -989.455 8        49.020
E09        46.000    27171944.385 6 142789546.77606       575.738 6        39.646                                                                    27171944.614 7 106628568.12507       430.024 7        43.350    27171943.687 7 109410180.07607       441.207 7        43.454
G07        47.000    25387815.997 6 133413858.19206     -1624.186 6        37.059                                    25387813.370 4 103958830.24804     -1265.599 4        26.862    25387813.791 5 103958838.27205     -1265.724 5        33.401
C21        48.000                                                                                                                                    23666611.956 7 123238286.18207      -787.292 7        47.290                                                                    23666606.298 8 100141190.03408      -639.738 8        48.032
E06        49.000    27490903.343 6 144465693.83806      -517.515 6        38.147                                                                    27490904.156 6 107880230.62706      -386.415 6        40.663    27490904.093 7 110694494.74907      -396.580 7        42.085
R19        50.000    22865230.180 6 122313823.08806     -3555.294 6        36.473                                                                    22865231.200 6  95133083.95706     -2765.313 6        39.474
S48        51.000    77180623.681 6 405588291.29006      -483.549 6        37.115
C08        52.000                                                                                                                                    39017021.862 6 203171974.55206     -1643.561 6        36.900    39017015.859 7 157105487.90307     -1270.872 7        42.260    39017015.196 6 165093889.69206     -1335.442 6        39.886
C34        53.000                                                                                                                                    22762436.785 8 118530260.88208     -2386.027 8        48.422                                                                    22762436.589 8  96315662.35608     -1938.792 8        48.024
C60        54.000                                                                                                                                    40466314.133 6 210718912.95506      -437.458 6        39.814                                                                    40466298.318 6 171226345.86306      -355.792 6        39.529
C25        55.000                                                                                                                                    26887482.550 3                     -3514.706 3        19.254                                                                    26887492.005 3                     -2863.457 3        21.810
I09        56.000    38417134.048 6 150757107.43606       353.180 6        41.404
C02        57.000                                                                                                                                    40564082.703 5 211227863.31305      -390.852 5        34.124    40564076.552 6 163334774.91306      -302.238 6        39.820    40564079.807 6 171639943.21406      -317.522 6        36.227
I03        58.000    80814094.965 6 241346615.36506      1087.871 6        40.706
E30        59.000    24633531.618 7 129450301.88107     -2025.744 7        47.383                                                                    24633531.218 8  96667553.13108     -1512.706 8        49.460    24633530.832 8  99189298.65408     -1552.161 8        50.341
R20        60.000    19584839.124 6 104729141.17606      -645.611 6        39.447                                                                    19584839.967 7  81456067.91407      -502.093 7        47.350
> 2025 01 02 20 15 20.0000000  0 58
G23         1.000    21199248.544 7 111402883.97707     -1947.703 7        46.469                                    21199244.466 6  86807465.12606     -1517.691 6        36.998    21199244.549 7  86807463.12807     -1517.646 7        46.059
C37         2.000                                                                                                                                    25229665.480 7 131377479.79407      -580.921 7        43.318                                                                    25229668.901 7 106754983.98907      -471.873 7        44.125
G16         3.000    22083617.339 7 116050396.23907     -3442.630 7        46.005                                    22083612.780 5  90428964.40705     -2682.568 5        34.333
G21         4.000    23333322.290 6 122617478.80106      2357.805 6        38.441                                    23333318.857 3  95546087.59203      1837.248 3        20.976
S21         5.000    38436995.883 6 201987451.95606      -447.812 6        41.769
G26         6.000    24358342.674 6 128004175.15106     -4081.941 6        39.300                                    24358343.147 5  99743641.02505     -3180.735 5        34.152    24358342.485 6  99743628.04106     -3180.702 6        38.754
G10         7.000    20984397.665 8 110273819.12708       878.231 8        51.198                                    20984395.669 8  85927667.52708       684.336 8        52.159    20984395.464 7  85927661.53407       684.323 7        45.539
