     3.04           OBSERVATION DATA    M                   RINEX VERSION / TYPE
ssrcrin-15.6.1x                         20250102 070000 UTC PGM / RUN BY / DATE 
(00000000023479385599111004) Septentrio proprietary         COMMENT             
rref                                                        MARKER NAME         
01                                                          MARKER NUMBER       
geodetic                                                    MARKER TYPE         
NFB                 CLIMERS@TUW                             OBSERVER / AGENCY   
3297213             SEPT ASTERX SB3 PROB4.14.4              REC # / TYPE / VERS 
Unknown             Unknown                                 ANT # / TYPE        
  4127831.6711  1207193.3762  4695248.1788                  APPROX POSITION XYZ 
        0.0000        0.0000        0.0000                  ANTENNA: DELTA H/E/N
G   23 X1  C1C L1C D1C S1C C1W S1W C2W L2W D2W S2W C2L L2L  SYS / # / OBS TYPES 
       D2L S2L C5Q L5Q D5Q S5Q C1L L1L D1L S1L              SYS / # / OBS TYPES 
E   21 X1  C1C L1C D1C S1C C6C L6C D6C S6C C5Q L5Q D5Q S5Q  SYS / # / OBS TYPES 
       C7Q L7Q D7Q S7Q C8Q L8Q D8Q S8Q                      SYS / # / OBS TYPES 
S    9 X1  C1C L1C D1C S1C C5I L5I D5I S5I                  SYS / # / OBS TYPES 
R   17 X1  C1C L1C D1C S1C C2P L2P D2P S2P C2C L2C D2C S2C  SYS / # / OBS TYPES 
       C3Q L3Q D3Q S3Q                                      SYS / # / OBS TYPES 
C   25 X1  C1P L1P D1P S1P C5P L5P D5P S5P C2I L2I D2I S2I  SYS / # / OBS TYPES 
       C7I L7I D7I S7I C6I L6I D6I S6I C7D L7D D7D S7D      SYS / # / OBS TYPES 
J   17 X1  C1C L1C D1C S1C C2L L2L D2L S2L C5Q L5Q D5Q S5Q  SYS / # / OBS TYPES 
       C1L L1L D1L S1L                                      SYS / # / OBS TYPES 
I    5 X1  C5A L5A D5A S5A                                  SYS / # / OBS TYPES 
SEPTENTRIO RECEIVERS OUTPUT ALIGNED CARRIER PHASES.         COMMENT             
NO FURTHER PHASE SHIFT APPLIED IN THE RINEX ENCODER.        COMMENT             
G L1C                                                       SYS / PHASE SHIFT   
G L2W                                                       SYS / PHASE SHIFT   
G L2L  0.00000                                              SYS / PHASE SHIFT   
G L5Q  0.00000                                              SYS / PHASE SHIFT   
G L1L  0.00000                                              SYS / PHASE SHIFT   
E L1C  0.00000                                              SYS / PHASE SHIFT   
E L6C  0.00000                                              SYS / PHASE SHIFT   
E L5Q  0.00000                                              SYS / PHASE SHIFT   
E L7Q  0.00000                                              SYS / PHASE SHIFT   
E L8Q  0.00000                                              SYS / PHASE SHIFT   
S L1C                                                       SYS / PHASE SHIFT   
S L5I                                                       SYS / PHASE SHIFT   
R L1C                                                       SYS / PHASE SHIFT   
R L2P  0.00000                                              SYS / PHASE SHIFT   
R L2C                                                       SYS / PHASE SHIFT   
R L3Q  0.00000                                              SYS / PHASE SHIFT   
C L1P  0.00000                                              SYS / PHASE SHIFT   
C L5P  0.00000                                              SYS / PHASE SHIFT   
C L2I                                                       SYS / PHASE SHIFT   
C L7I                                                       SYS / PHASE SHIFT   
C L6I                                                       SYS / PHASE SHIFT   
C L7D                                                       SYS / PHASE SHIFT   
J L1C                                                       SYS / PHASE SHIFT   
J L2L  0.00000                                              SYS / PHASE SHIFT   
J L5Q  0.00000                                              SYS / PHASE SHIFT   
J L1L  0.00000                                              SYS / PHASE SHIFT   
I L5A                                                       SYS / PHASE SHIFT   
  2025     1     2     7     0    0.0000000     GPS         TIME OF FIRST OBS   
 C1C    0.000 C2C    0.000 C2P    0.000                     GLONASS COD/PHS/BIS 
DBHZ                                                        SIGNAL STRENGTH UNIT
    18                                                      LEAP SECONDS        
 24 R01  1 R02 -4 R03  5 R04  6 R05  1 R06 -4 R07  5 R08  6 GLONASS SLOT / FRQ #
    R09 -2 R10 -7 R11  0 R12 -1 R13 -2 R14 -7 R15  0 R16 -1 GLONASS SLOT / FRQ #
    R17  4 R18 -3 R19  3 R20  2 R21  4 R22 -3 R23  3 R24  2 GLONASS SLOT / FRQ #
                                                            END OF HEADER       
> 2025 01 02 07 00  0.0000000  0 57
G09         1.000    24057399.738 6 126422438.00706     -3724.167 6        38.655                                    24057402.607 5  98510974.93805     -2901.940 5        33.671    24057402.422 6  98510974.92706     -2902.005 6        37.565
G15         2.000    24885968.833 6 130776647.00406      3231.399 6        38.315                                    24885964.921 4 101903868.31504      2517.961 4        27.317    24885964.769 5 101903863.31005      2517.707 5        33.880
E11         3.000    27561199.929 6 144835055.66206     -3461.875 6        36.495                                                                    27561198.978 6 108156025.27406     -2585.136 6        37.694    27561198.139 6 110977484.53206     -2652.544 6        38.207
G08         4.000    24526485.528 6 128887586.73506       905.792 6        38.033                                    24526489.214 4 100431912.77304       705.817 4        29.204    24526490.106 5 100431908.76805       705.791 5        35.629
S21         5.000    38479418.859 7 202210354.63207      -474.622 7        42.847
E10         6.000                                                                                                                                    29081278.161 3                     -2620.929 3        19.701    29081276.834 3                     -2690.178 3        19.761
G20         7.000    21011008.870 8 110413583.49008     -1926.641 8        48.437                                    21011005.455 6  86036533.66606     -1501.274 6        38.589
R02         8.000    20547013.390 8 109642789.28908      2282.540 8        50.966                                                                    20547013.254 7  85277722.61907      1775.351 7        46.137
R10         9.000    23180054.999 6 123562692.22206     -4619.507 6        38.994
R17        10.000    24111946.129 7 129027892.95307     -3858.757 7        42.745                                                                    24111944.614 6 100355020.14006     -3001.226 6        37.077
G30        11.000    20449124.723 8 107460872.28908      -676.401 8        50.601                                    20449123.041 8  83735733.59708      -527.065 8        52.455    20449123.497 7  83735741.59707      -527.048 7        45.684
S27        12.000    39143408.550 6 205699964.83806      -501.077 6        36.907
G13        13.000    21793703.871 7 114526676.40307      2174.731 7        44.825                                    21793700.151 5  89241541.31705      1694.591 5        31.298
S36        14.000    38247941.999 7 200994796.71507      -475.276 7        44.593
I09        15.000    39119694.440 6 153514005.55706      -953.153 6        41.244
E09        16.000    24813424.481 7 130395434.20107      1255.627 7        45.898                                                                    24813424.687 8  97373209.17208       937.708 8        49.150    24813424.240 8  99913376.53008       962.119 8        49.658
S45        17.000    63429806.753 6 333327097.96906      -519.140 6        36.862
E36        18.000    26545331.173 6 139496634.23606     -1965.400 6        41.859                                                                    26545333.077 7 104169578.59707     -1467.720 7        44.375    26545332.491 7 106887044.83807     -1505.954 7        44.495
R19        19.000    23941335.162 5 128069977.65105      1131.435 5        32.659                                                                    23941333.924 6  99609981.00006       879.877 6        38.078
E21        20.000    26365728.919 6 138552806.11606     -2086.365 6        41.516                                                                    26365731.141 7 103464763.49507     -1557.957 7        44.938    26365730.237 7 106163841.71307     -1598.598 7        45.151
G11        21.000    25186480.511 6 132355802.62106     -3710.315 6        39.652                                    25186480.400 3 103134357.94703     -2891.141 3        21.381    25186480.634 6 103134370.93706     -2891.137 6        37.686
I06        22.000    38023918.605 7 149214215.18507      -392.813 7        43.128
S28        23.000    40911840.416 5 214993088.44705      -480.054 5        34.314
R08        24.000    22893332.013 7 122592708.88407     -4090.837 7        43.272                                                                    22893333.649 6  95349868.86706     -3181.856 6        41.402
S23        25.000    38182203.326 7 200648790.21607      -472.937 7        44.486
R01        26.000    19309992.005 8 103222962.63908     -1250.990 8        48.404                                                                    19309992.327 6  80284514.98906      -972.885 6        41.464
C07        27.000                                                                                                                                    40000110.208 6 208291060.32606       867.924 6        37.856    40000107.457 7 161063852.15007       671.212 7        42.863    40000105.236 6 169253529.35606       705.344 6        38.438
C40        29.000                                                                                                                                    40167633.759 6 209163409.77706      1113.015 6        40.153                                                                    40167635.367 6 169962407.56706       904.322 6        40.961
E19        30.000    26631508.702 5 139949484.17005     -2840.398 5        35.410                                                                    26631511.772 6 104507713.07306     -2121.221 6        38.874    26631510.837 6 107234000.44606     -2176.392 6        39.760
G14        31.000    22333568.108 7 117363694.38107      2542.310 7        45.670                                    22333566.854 5  91452228.82405      1981.019 5        33.784    22333567.114 7  91452214.81507      1981.058 7        43.945
G27        32.000    24948759.701 6 131106609.80806      -541.431 6        36.299                                    24948762.011 4 102161013.66904      -421.902 4        29.081    24948762.321 5 102161003.68705      -422.168 5        35.586
C37        33.000                                                                                                                                    25898424.320 7 134859828.75607     -3546.833 7        42.021                                                                    25898430.697 7 109584656.07607     -2882.183 7        42.104
E04        34.000    23430804.084 8 123129724.40508      -955.803 8        48.089                                                                    23430802.903 8  91947527.69708      -713.763 8        51.215    23430802.472 8  94346154.94208      -732.386 8        51.340
C16        35.000                                                                                                                                    41647062.894 4 216867088.82604     -1327.134 4        27.665    41647068.569 4                     -1025.247 4        27.066    41647066.923 3                     -1078.111 3        22.076
R12        36.000    20685398.588 8 110497676.55708      2890.785 8        51.081                                                                    20685400.163 7  85942639.63307      2248.379 7        46.687
I01        37.000   389470512.499 6 225225034.91706     -3101.968 6        40.362
C10        38.000                                                                                                                                    40324822.115 6 209981930.95506      1070.050 6        37.248    40324823.117 6 162371350.07106       827.357 6        41.986    40324820.154 6 170627508.44006       869.410 6        37.985
C19        39.000                                                                                                                                    22169433.633 8 115442041.28908     -1679.026 8        51.872                                                                    22169429.587 8  93806088.23508     -1364.397 8        50.195
E34        40.000    27664290.734 6 145376830.73506       521.180 6        37.909                                                                    27664291.109 7 108560620.10007       389.272 7        42.195    27664291.025 7 111392635.98407       399.322 7        43.043
G05        41.000    21243307.489 7 111634331.74707       608.242 7        47.568                                    21243303.838 7  86987769.28207       473.952 7        47.297    21243304.340 7  86987778.27807       473.951 7        45.040
S44        42.000    40907588.838 6 214970925.73606      -508.878 6        36.809
C36        43.000                                                                                                                                    22657197.863 8 117981964.89408      1815.530 8        49.596                                                                    22657204.205 8  95870027.87808      1475.270 8        49.076
C05        44.000                                                                                                                                    39327469.047 6 204788434.93106      -534.533 6        38.658    39327466.720 7 158355419.20207      -413.338 7        42.654    39327468.065 6 166407470.99406      -434.461 6        39.787
R18        45.000    23251732.746 7 124119336.57507     -1613.659 7        43.191                                                                    23251732.295 6  96537243.74506     -1255.234 6        41.123
G18        46.000    25337368.928 6 133148774.66806       999.994 6        38.021                                    25337365.245 3 103752279.14403       779.226 3        22.076    25337365.093 6 103752269.11606       779.239 6        39.447
R11        47.000    19575563.282 8 104605844.20808     -1680.367 8        51.342                                                                    19575562.452 8  81360101.92308     -1306.931 8        49.637
C20        49.000                                                                                                                                    25352161.095 7 132015303.00007     -3564.714 7        43.005                                                                    25352157.748 7 107273215.96907     -2896.640 7        43.361
C06        50.000                                                                                                                                    41134125.049 5 214196097.89805     -1393.405 5        35.529    41134126.734 6 165629963.21506     -1077.691 6        38.526    41134124.685 5 174051831.64105     -1132.298 5        34.852
S48        51.000    77202112.264 6 405698295.08106      -459.989 6        38.168
E06        52.000    23482363.325 8 123400665.60408       289.665 8        48.427                                                                    23482363.782 8  92149855.57308       216.298 8        51.058    23482363.653 8  94553763.14308       221.958 8        51.471
C09        53.000                                                                                                                                    40227604.313 6 209475648.96606     -1217.714 6        37.036    40227604.865 7 161979833.12607      -941.601 7        42.038    40227602.579 6 170216089.61706      -989.568 6        38.727
C60        54.000                                                                                                                                    40907592.427 6 213016663.08606      -504.409 6        40.338                                                                    40907581.214 6 173093434.84606      -409.805 6        38.255
E31        55.000    26423690.938 6 138857416.26606      2607.559 6        41.616                                                                    26423695.924 7 103692252.65907      1947.135 7        45.428    26423694.676 7 106397264.75807      1997.866 7        45.312
G07        56.000    21952290.715 7 115360058.98007     -2508.320 7        46.463                                    21952286.783 7  89890932.47907     -1954.533 7        44.764    21952286.625 7  89890941.47207     -1954.577 7        42.451
C02        57.000                                                                                                                                    40906914.578 5 213012972.31705      -542.891 5        33.599    40906917.035 6 164715104.54906      -419.901 6        38.871    40906918.864 5 173090466.48105      -441.238 5        35.343
I03        58.000    97367928.952 6 306307276.43706       854.400 6        41.144
C22        60.000                                                                                                                                    22550845.233 8 117428155.07308      1438.190 8        49.786                                                                    22550839.681 8  95419967.66408      1168.651 8        49.422
> 2025 01 02 07 00  5.0000000  0 57
G09         1.000    24060943.805 6 126441061.21606     -3724.852 6        38.312                                    24060946.355 5  98525486.47105     -2902.471 5        33.647    24060945.812 6  98525486.46706     -2902.392 6        37.251
G15         2.000    24882894.243 6 130760491.69706      3231.165 6        38.222                                    24882890.658 4 101891279.75704      2517.789 4        27.820    24882890.529 5 101891274.76505      2517.679 5        33.707
E11         3.000    27564494.556 6 144852366.66506     -3462.604 6        36.405                                                                    27564493.193 6 108168952.28406     -2585.364 6        37.611    27564492.286 6 110990748.78506     -2653.081 6        37.905
G08         4.000    24525624.976 6 128883065.11106       903.165 6        37.558                                    24525628.673 4 100428389.41304       703.761 4        29.261    24525629.523 5 100428385.42805       703.678 5        35.876
S21         5.000    38479861.809 7 202212728.91807      -474.768 7        42.823
E10         6.000                                                                                                                                    29084617.470 3                     -2619.590 3        20.905
G20         7.000    21012843.757 8 110423225.52408     -1929.840 8        48.046                                    21012840.301 6  86044046.93006     -1503.768 6        38.676
R02         8.000    20544876.064 8 109631381.63808      2280.836 8        51.347                                                                    20544875.403 7  85268849.99507      1773.969 7        46.367
R10         9.000    23184388.681 6 123585792.50006     -4620.280 6        38.474
R17        10.000    24115553.915 7 129047192.10007     -3860.572 7        42.637                                                                    24115551.791 6 100370030.56906     -3002.759 6        37.520
G30        11.000    20449769.545 8 107464261.02408      -678.754 8        50.528                                    20449767.907 8  83738374.16508      -528.897 8        52.491    20449768.660 7  83738382.16707      -528.970 7        45.606
S27        12.000    39143884.832 6 205702469.84506      -500.856 6        36.696
G13        13.000    21791635.641 7 114515806.49407      2173.630 7        45.186                                    21791631.636 5  89233071.25805      1693.740 5        31.381
S36        14.000    38248394.062 7 200997173.74007      -475.265 7        44.569
I09        15.000    39120909.037 6 153518772.20006      -953.258 6        41.066
E09        16.000    24812230.323 7 130389158.55107      1254.924 7        45.983                                                                    24812230.476 8  97368522.80008       937.122 8        49.100    24812230.059 8  99908567.90908       961.546 8        49.656
S45        17.000    63430258.043 6 333329694.60906      -519.146 6        36.287
E36        18.000    26547202.842 6 139506467.61206     -1967.580 6        41.313                                                                    26547204.416 7 104176921.68107     -1469.293 7        44.346    26547203.829 7 106894579.48607     -1507.714 7        44.429
R19        19.000    23940279.579 5 128064331.59105      1127.725 5        32.778                                                                    23940279.135 6  99605589.62006       876.906 6        38.447
E21        20.000    26367715.407 6 138563243.55706     -2088.430 6        41.590                                                                    26367717.181 7 103472557.66907     -1559.508 7        44.873    26367716.400 7 106171839.21107     -1600.151 7        45.175
G11        21.000    25190011.318 6 132374355.67506     -3710.630 6        39.285                                    25190011.027 3 103148814.82203     -2891.372 3        21.024    25190010.963 6 103148827.79806     -2891.380 6        37.720
I06        22.000    38024419.371 7 149216179.86407      -392.868 7        43.327
S28        23.000    40912297.904 5 214995489.03405      -479.946 5        34.971
R08        24.000    22897152.609 7 122613167.44807     -4092.240 7        43.437                                                                    22897154.189 6  95365781.01106     -3182.814 6        41.857
S23        25.000    38182653.564 7 200651155.59907      -472.936 7        44.615
R01        26.000    19311163.505 8 103229226.45108     -1254.234 8        48.852                                                                    19311163.932 6  80289386.83206      -975.402 6        41.933
C07        27.000                                                                                                                                    39999276.939 6 208286722.47206       867.332 6        37.758    39999274.288 7 161060497.85307       670.649 7        43.050    39999272.157 6 169250004.49906       704.863 6        38.556
C40        29.000                                                                                                                                    40166565.942 6 209157847.46406      1112.215 6        40.045                                                                    40166567.256 6 169957887.71906       903.658 6        40.992
E19        30.000    26634211.641 5 139963688.51605     -2840.797 5        35.133                                                                    26634214.659 6 104518320.17906     -2121.484 6        39.453    26634213.569 6 107244884.27006     -2176.916 6        39.565
G14        31.000    22331150.193 7 117350987.75007      2540.634 7        45.380                                    22331148.869 5  91442327.55505      1979.709 5        33.862    22331149.177 7  91442313.56007      1979.711 7        44.050
G27        32.000    24949277.269 6 131109327.24306      -544.904 6        37.006                                    24949278.997 4 102163131.16004      -424.600 4        29.147    24949279.665 5 102163121.14905      -424.454 5        35.571
C37        33.000                                                                                                                                    25901830.772 7 134877565.16807     -3547.478 7        42.474                                                                    25901836.871 7 109599068.33307     -2882.786 7        42.161
E04        34.000    23431714.103 8 123134507.30808      -957.118 8        48.128                                                                    23431713.061 8  91951099.33908      -714.760 8        51.179    23431712.647 8  94349819.75608      -733.406 8        51.263
C16        35.000                                                                                                                                    41648335.254 4 216873722.38504     -1326.180 4        27.281    41648344.336 4                     -1025.902 4        27.485    41648339.694 4                     -1078.201 4        24.466
R12        36.000    20682694.701 8 110483230.83008      2887.819 8        51.206                                                                    20682695.636 7  85931404.06207      2246.088 7        47.216
I01        37.000   389474465.539 6 225240546.13406     -3102.199 6        40.777
C10        38.000                                                                                                                                    40323794.751 6 209976582.54806      1069.534 6        37.531    40323795.417 6 162367214.33506       827.121 6        41.809    40323792.989 6 170623162.41806       868.947 6        37.800
C19        39.000                                                                                                                                    22171047.093 8 115450442.71708     -1681.228 8        52.037                                                                    22171043.028 8  93812915.06808     -1366.229 8        50.103
E34        40.000    27663796.132 6 145374231.60706       518.630 6        37.592                                                                    27663796.280 7 108558679.17707       387.489 7        42.082    27663796.179 7 111390644.43707       397.484 7        42.874
G05        41.000    21242730.364 7 111631299.74107       604.822 7        47.374                                    21242726.878 7  86985406.66907       471.292 7        47.323    21242727.165 7  86985415.67707       471.249 7        44.664
S44        42.000    40908072.046 6 214973471.24706      -508.975 6        36.960
C36        43.000                                                                                                                                    22655456.360 8 117972892.93808      1813.607 8        49.956                                                                    22655462.023 8  95862656.16308      1473.677 8        48.981
C05        44.000                                                                                                                                    39327982.519 6 204791108.91006      -534.673 6        38.598    39327980.701 7 158357486.89007      -413.378 7        42.593    39327981.439 6 166409643.80006      -434.491 6        39.715
R18        45.000    23253245.673 7 124127416.24807     -1617.779 7        43.395                                                                    23253246.340 6  96543527.93206     -1258.285 6        41.971
G18        46.000    25336419.063 6 133143782.22606       997.168 6        38.646                                    25336415.311 3 103748388.91603       777.024 3        21.857    25336415.244 6 103748378.89106       776.990 6        38.769
R11        47.000    19577137.583 8 104614256.97708     -1684.469 8        51.320                                                                    19577136.349 8  81366645.18708     -1310.163 8        49.236
C20        49.000                                                                                                                                    25355584.381 7 132033129.71007     -3565.640 7        42.806                                                                    25355581.511 7 107287701.57507     -2897.383 7        43.386
C06        50.000                                                                                                                                    41135462.664 5 214203065.91205     -1393.316 5        35.624    41135464.682 6 165635351.30306     -1077.430 6        38.510    41135462.582 5 174057493.70405     -1132.380 5        34.800
S48        51.000    77202558.599 6 405702195.79216      -459.994 6        38.132
E06        52.000    23482088.333 8 123399220.87408       288.555 8        48.429                                                                    23482088.849 8  92148776.71208       215.461 8        51.018    23482088.732 8  94552656.14408       221.044 8        51.439
C09        53.000                                                                                                                                    40228773.761 6 209481738.13506     -1217.729 6        37.168    40228774.505 6 161984541.63506      -941.576 6        41.621    40228771.876 6 170221037.53706      -989.553 6        38.889
C60        54.000                                                                                                                                    40908076.954 6 213019185.43306      -504.312 6        40.439                                                                    40908065.584 6 173095484.44206      -409.705 6        38.057
E31        55.000    26421210.371 6 138844381.41506      2606.754 6        41.468                                                                    26421215.511 7 103682518.83507      1946.632 7        45.604    26421214.135 7 106387277.00507      1997.364 7        45.100
G07        56.000    21954677.793 7 115372604.59307     -2509.577 7        46.544                                    21954674.164 7  89900708.26707     -1955.509 7        44.778    21954674.462 7  89900717.26607     -1955.503 7        43.139
C02        57.000                                                                                                                                    40907436.493 5 213015687.91005      -542.969 5        33.443    40907438.525 6 164717204.40206      -419.780 6        38.811    40907440.103 5 173092673.14005      -441.326 5        35.057
I03        58.000    97366839.971 6 306303004.87206       854.474 6        41.080
C22        60.000                                                                                                                                    22549465.563 8 117420969.16708      1436.534 8        49.961                                                                    22549459.756 8  95414128.51508      1167.271 8        49.282
> 2025 01 02 07 00 10.0000000  0 57
G09         1.000    24064488.215 6 126459687.87506     -3725.533 6        38.204                                    24064490.751 5  98540000.69005     -2903.006 5        33.204    24064491.743 6  98540000.68106     -2902.944 6        36.907
G15         2.000    24879820.931 6 130744336.76506      3231.062 6        37.652                                    24879816.498 4 101878691.49804      2517.713 4        27.665    24879816.514 5 101878686.49605      2517.816 5        33.886
E11         3.000    27567789.012 6 144869679.49106     -3462.427 6        36.522                                                                    27567787.615 6 108181880.67706     -2585.619 6        37.569    27567787.041 6 111004014.42606     -2653.146 6        37.675
G08         4.000    24524767.563 6 128878556.65506       900.439 6        38.159                                    24524770.725 4 100424876.32604       701.645 4        29.422    24524772.157 5 100424872.32105       701.702 5        35.733
S21         5.000    38480320.535 7 202215103.22107      -474.880 7        42.614
E10         6.000                                                                                                                                    29087958.068 3                     -2619.585 3        19.851
G20         7.000    21014681.854 8 110432883.17208     -1932.961 8        48.510                                    21014678.111 6  86051572.35706     -1506.205 6        38.562
R02         8.000    20542739.651 8 109619982.70808      2279.039 8        50.896                                                                    20542739.182 7  85259984.15707      1772.630 7        46.421
R10         9.000    23188722.978 6 123608898.35406     -4621.557 6        38.679
R17        10.000    24119160.524 6 129066499.46306     -3862.115 6        41.855                                                                    24119159.329 6 100385047.45306     -3003.802 6        37.051
G30        11.000    20450416.518 8 107467661.15908      -681.071 8        50.638                                    20450414.937 8  83741023.61408      -530.705 8        52.396    20450415.454 7  83741031.61407      -530.691 7        45.702
S27        12.000    39144359.132 6 205704975.62306      -500.899 6        36.533
G13        13.000    21789568.437 7 114504942.38107      2172.287 7        45.333                                    21789564.204 5  89224605.71105      1692.695 5        31.253
S36        14.000    38248846.474 7 200999551.45107      -475.501 7        44.197
I09        15.000    39122123.667 6 153523539.38606      -953.327 6        41.173
E09        16.000    24811036.665 7 130382886.52007      1254.265 7        46.027                                                                    24811036.958 8  97363839.14508       936.584 8        49.110    24811036.518 8  99903762.06708       961.016 8        49.628
S45        17.000    63430712.525 6 333330691.30816      -519.139 6        36.401
E36        18.000    26549075.731 6 139516311.75706     -1969.815 6        41.387                                                                    26549077.699 7 104184272.81007     -1470.905 7        44.310    26549077.095 7 106902122.38207     -1509.288 7        44.519
R19        19.000    23939227.478 5 128058705.16005      1123.688 5        31.977                                                                    23939227.314 6  99601213.51706       873.858 6        38.853
E21        20.000    26369703.615 6 138573691.18306     -2090.293 6        41.771                                                                    26369705.300 7 103480359.45207     -1560.998 7        44.855    26369704.606 7 106179844.53307     -1601.743 7        45.229
G11        21.000    25193541.835 6 132392909.26906     -3710.679 6        40.033                                    25193541.816 3 103163272.11603     -2891.429 3        21.190    25193542.434 6 103163285.10206     -2891.480 6        37.671
I06        22.000    38024920.037 7 149218144.78907      -392.863 7        43.291
S28        23.000    40912754.130 5 214997889.17105      -480.125 5        34.529
R08        24.000    22900973.753 7 122633632.75907     -4093.640 7        43.194                                                                    22900975.457 7  95381698.42107     -3183.885 7        42.135
S23        25.000    38183105.833 7 200653521.22307      -473.039 7        44.557
R01        26.000    19312338.223 8 103235506.41608     -1257.490 8        48.461                                                                    19312339.226 6  80294271.25306      -978.102 6        41.509
C07        27.000                                                                                                                                    39998444.660 6 208282387.85306       866.574 6        37.437    39998442.026 7 161057146.05307       670.278 7        43.259    39998439.799 6 169246482.27206       704.299 6        38.862
C40        29.000                                                                                                                                    40165498.723 6 209152289.04206      1111.426 6        39.850                                                                    40165499.778 6 169953371.05606       903.195 6        41.068
E19        30.000    26636915.004 5 139977895.31705     -2841.594 5        35.619                                                                    26636918.312 6 104528929.10806     -2121.973 6        39.955    26636917.017 6 107255769.95806     -2177.214 6        39.378
G14        31.000    22328733.696 7 117338289.55007      2538.896 7        45.299                                    22328732.503 5  91432432.86705      1978.360 5        33.742    22328732.770 7  91432418.86707      1978.409 7        44.218
G27        32.000    24949797.756 6 131112061.04706      -548.537 6        36.302                                    24949799.244 4 102165261.39504      -427.430 4        29.232    24949800.702 6 102165251.38406      -427.197 6        36.185
C37        33.000                                                                                                                                    25905237.621 7 134895305.14507     -3548.306 7        42.324                                                                    25905243.545 7 109613483.47407     -2883.165 7        42.180
E04        34.000    23432625.367 8 123139296.24008      -958.267 8        48.085                                                                    23432624.426 8  91954675.48008      -715.600 8        51.144    23432623.977 8  94353489.19208      -734.284 8        51.316
C16        35.000                                                                                                                                    41649610.814 4 216880355.24504     -1326.486 4        27.569    41649618.212 4                     -1025.940 4        27.832    41649612.483 3                     -1076.464 3        23.048
R12        36.000    20679992.795 8 110468799.22008      2884.951 8        51.027                                                                    20679994.065 7  85920179.46807      2243.877 7        47.146
I01        37.000   389478418.040 6 225256057.93306     -3102.304 6        40.744
C10        38.000                                                                                                                                    40322768.235 6 209971236.52406      1069.050 6        37.433    40322769.178 6 162363080.46406       826.713 6        41.785    40322766.414 6 170618818.31906       868.831 6        37.652
C19        39.000                                                                                                                                    22172662.768 8 115458855.23408     -1683.511 8        51.905                                                                    22172658.540 8  93819750.92808     -1367.967 8        50.138
E34        40.000    27663303.768 6 145371644.53106       516.230 6        38.727                                                                    27663303.811 6 108556747.26006       385.579 6        41.964    27663303.801 7 111388662.12007       395.581 7        42.813
G05        41.000    21242156.766 7 111628284.46607       601.497 7        47.366                                    21242153.101 7  86983057.09907       468.703 7        47.238    21242153.264 7  86983066.09007       468.792 7        44.746
S44        42.000    40908554.735 6 214976016.73106      -509.138 6        36.677
C36        43.000                                                                                                                                    22653716.113 8 117963830.58908      1811.619 8        49.932                                                                    22653721.658 8  95855292.26208      1472.125 8        49.062
C05        44.000                                                                                                                                    39328495.768 6 204793783.02006      -534.811 6        38.604    39328493.802 7 158359554.67007      -413.500 7        42.461    39328495.058 6 166411816.73706      -434.466 6        39.961
R18        45.000    23254763.275 7 124135516.10707     -1621.925 7        44.910                                                                    23254763.077 6  96549827.80006     -1261.402 6        40.899
G18        46.000    25335471.873 6 133138804.11106       994.229 6        38.369                                    25335468.038 3 103744509.86303       774.728 3        21.738    25335467.553 6 103744499.85706       774.818 6        39.132
R11        47.000    19578715.487 8 104622690.18708     -1688.543 8        51.217                                                                    19578714.394 8  81373204.33808     -1313.243 8        48.913
C20        49.000                                                                                                                                    25359008.348 7 132050960.88707     -3566.610 7        42.684                                                                    25359006.092 7 107302190.84407     -2898.148 7        43.757
C06        50.000                                                                                                                                    41136801.759 5 214210033.19505     -1393.318 5        35.433    41136802.693 6 165640738.79806     -1077.234 6        38.408    41136800.848 5 174063155.16105     -1132.107 5        35.133
S48        51.000    77202997.413 6 405704496.29006      -460.145 6        37.618
E06        52.000    23481814.550 8 123397781.72408       287.425 8        48.528                                                                    23481815.017 8  92147702.01608       214.648 8        51.064    23481814.895 8  94551553.41008       220.204 8        51.465
C09        53.000                                                                                                                                    40229943.452 6 209487826.80806     -1217.470 6        37.040    40229943.800 6 161989249.76306      -941.460 6        41.440    40229941.276 6 170225985.06906      -989.277 6        38.739
C60        54.000                                                                                                                                    40908561.544 6 213021707.76606      -504.392 6        40.656                                                                    40908550.143 6 173097534.03806      -409.783 6        38.138
E31        55.000    26418730.716 6 138831350.00106      2605.868 6        41.673                                                                    26418735.510 7 103672787.58107      1946.073 7        45.574    26418734.232 7 106377291.88607      1996.888 7        45.017
G07        56.000    21957066.231 7 115385156.51807     -2510.838 7        46.831                                    21957062.731 7  89910488.97607     -1956.496 7        44.676    21957063.142 7  89910497.97807     -1956.547 7        43.359
C02        57.000                                                                                                                                    40907957.486 5 213018403.47905      -542.943 5        33.802    40907960.104 6 164719304.26906      -419.986 6        38.796    40907961.508 5 173094879.76305      -441.151 5        35.024
I03        58.000    97365751.716 6 306298733.34606       854.353 6        41.206
C22        60.000                                                                                                                                    22548087.220 8 117413791.67208      1434.787 8        49.805                                                                    22548081.351 8  95408296.21908      1165.873 8        49.238
> 2025 01 02 07 00 15.0000000  0 56
G09         1.000    24068033.505 6 126478317.68906     -3726.410 6        38.408                                    24068035.867 5  98554517.38005     -2903.683 5        32.928    24068036.124 6  98554517.34906     -2903.640 6        36.779
G15         2.000    24876746.545 6 130728182.00606      3230.684 6        38.255                                    24876742.289 4 101866103.35804      2517.421 4        27.413    24876742.544 5 101866098.35805      2517.449 5        34.310
E11         3.000    27571083.728 6 144886993.90706     -3463.070 6        36.389                                                                    27571082.324 6 108194810.22306     -2586.098 6        37.603    27571082.174 6 111017281.27006     -2653.469 6        37.905
G08         4.000    24523911.483 6 128874061.08906       897.698 6        38.120                                    24523915.348 4 100421373.28304       699.505 4        29.384    24523916.628 6 100421369.28506       699.611 6        36.008
S21         5.000    38480772.911 7 202217477.31807      -474.884 7        42.794
G20         7.000    21016522.693 8 110442556.21208     -1936.258 8        48.611                                    21016518.818 6  86059109.78306     -1508.772 6        38.492
R02         8.000    20540604.910 8 109608592.22708      2277.126 8        51.055                                                                    20540604.339 7  85251124.89007      1771.078 7        45.589
R10         9.000    23193058.020 6 123632009.58206     -4622.978 6        37.894
R17        10.000    24122769.825 7 129085814.80007     -3863.955 7        43.407                                                                    24122769.831 6 100400070.47206     -3005.441 6        38.309
G30        11.000    20451065.570 8 107471072.42508      -683.441 8        50.656                                    20451064.087 8  83743681.74008      -532.552 8        52.279    20451064.734 7  83743689.73207      -532.493 7        45.738
S27        12.000    39144837.216 6 205707481.27306      -501.298 6        36.609
G13        13.000    21787501.976 7 114494083.93107      2170.946 7        45.311                                    21787497.867 5  89216144.56805      1691.645 5        31.132
S36        14.000    38249300.035 7 201001929.33307      -475.926 7        44.656
I09        15.000    39123339.071 6 153528306.92206      -953.545 6        41.526
E09        16.000    24809843.832 7 130376617.88307      1253.289 7        45.887                                                                    24809844.060 8  97359158.01308       935.898 8        49.103    24809843.613 8  99898958.81708       960.355 8        49.633
S45        17.000    63431158.860 6 333333287.83206      -519.479 6        36.208
E36        18.000    26550951.583 6 139526166.39806     -1972.161 6        41.414                                                                    26550952.944 7 104191631.78307     -1472.727 7        44.262    26550952.410 7 106909673.32107     -1511.061 7        44.501
R19        19.000    23938179.034 5 128053098.12905      1119.232 5        32.629                                                                    23938178.320 6  99596852.42806       870.571 6        37.467
E21        20.000    26371693.473 6 138584148.75506     -2092.581 6        41.766                                                                    26371695.326 7 103488168.65607     -1562.733 7        44.855    26371694.591 7 106187857.45207     -1603.431 7        45.216
G11        21.000    25197072.875 6 132411463.16506     -3710.859 6        39.583                                    25197072.596 3 103177729.65703     -2891.579 3        21.738    25197072.532 6 103177742.64406     -2891.627 6        37.142
I06        22.000    38025420.705 7 149220109.78507      -393.069 7        43.162
S28        23.000    40913215.919 5 215000288.85905      -479.821 5        34.890
R08        24.000    22904796.598 7 122654104.62907     -4095.073 7        42.840                                                                    22904798.704 6  95397620.94606     -3185.075 6        41.492
S23        25.000    38183554.225 7 200655886.78007      -473.236 7        44.752
R01        26.000    19313515.787 8 103241802.40408     -1260.884 8        48.591                                                                    19313516.876 6  80299168.11706      -980.531 6        41.499
C07        27.000                                                                                                                                    39997613.027 6 208278056.22206       865.877 6        37.161    39997610.507 7 161053796.57407       669.616 7        43.276    39997607.864 6 169242962.47006       703.562 6        38.772
C40        29.000                                                                                                                                    40164432.203 6 209146734.25906      1110.450 6        40.203                                                                    40164433.106 6 169948857.33806       902.439 6        41.225
E19        30.000    26639618.827 5 139992104.36405     -2842.191 5        35.405                                                                    26639622.250 6 104539539.70306     -2122.306 6        39.577    26639620.833 6 107266657.36406     -2177.777 6        38.877
G14        31.000    22326318.871 7 117325599.50207      2537.042 7        45.389                                    22326317.625 5  91422544.53305      1976.908 5        33.407    22326317.814 7  91422530.53307      1977.026 7        44.324
G27        32.000    24950320.595 6 131114810.92406      -551.915 6        36.019                                    24950322.647 4 102167404.15104      -430.062 4        29.014    24950323.056 5 102167394.16005      -430.041 5        35.924
C37        33.000                                                                                                                                    25908644.615 7 134913048.39007     -3549.076 7        42.108                                                                    25908651.007 7 109627901.28707     -2883.934 7        42.157
E04        34.000    23433537.910 8 123144090.97608      -959.609 8        48.091                                                                    23433536.841 8  91958255.95908      -716.613 8        51.132    23433536.373 8  94357163.07608      -735.341 8        51.336
C16        35.000                                                                                                                                    41650885.233 4 216886986.86404     -1326.222 4        27.569    41650895.084 4                     -1025.530 4        28.313    41650889.436 3                     -1077.704 3        23.867
R12        36.000    20677293.685 8 110454381.54108      2881.944 8        50.938                                                                    20677294.761 7  85908965.71407      2241.552 7        46.716
I01        37.000   389482370.746 6 225271570.07806     -3102.521 6        40.615
C10        38.000                                                                                                                                    40321742.514 6 209965892.57906      1068.633 6        36.639    40321743.024 6 162358948.19606       826.205 6        41.821    40321740.341 6 170614475.94606       868.213 6        37.599
C19        39.000                                                                                                                                    22174280.384 8 115467278.58108     -1685.874 8        51.761                                                                    22174276.180 8  93826595.57208     -1369.928 8        50.097
E34        40.000    27662813.548 6 145369069.20806       513.785 6        38.739                                                                    27662813.733 6 108554824.12906       383.627 6        41.926    27662813.826 7 111386688.81607       393.608 7        42.662
G05        41.000    21241586.360 7 111625285.67007       597.971 7        47.626                                    21241582.451 7  86980720.37107       465.954 7        47.087    21241582.745 7  86980729.36907       465.961 7        44.865
S44        42.000    40909042.276 6 214978561.91506      -509.279 6        36.484
C36        43.000                                                                                                                                    22651977.651 8 117954777.58608      1809.492 8        50.003                                                                    22651983.125 8  95847935.95108      1470.422 8        49.005
C05        44.000                                                                                                                                    39329008.913 6 204796456.95306      -534.949 6        38.393    39329007.212 7 158361622.31707      -413.743 7        42.377    39329008.705 6 166413989.52306      -434.669 6        39.691
R18        45.000    23256285.307 7 124143635.91407     -1626.024 7        43.670                                                                    23256284.046 6  96556143.21006     -1264.713 6        41.523
G18        46.000    25334527.042 6 133133840.08206       991.175 6        37.970                                    25334522.965 3 103740641.78403       772.367 3        21.167    25334522.919 6 103740631.76406       772.453 6        38.562
R11        47.000    19580297.047 8 104631143.56008     -1692.854 8        51.255                                                                    19580296.677 8  81379779.16908     -1316.644 8        49.111
C20        49.000                                                                                                                                    25362433.382 7 132068796.31007     -3567.650 7        42.754                                                                    25362431.223 7 107316683.54007     -2898.902 7        43.884
C06        50.000                                                                                                                                    41138138.626 5 214216999.45405     -1393.339 5        35.062    41138140.370 6 165646125.52306     -1077.273 6        38.474    41138138.512 5 174068815.80505     -1132.358 5        35.395
S48        51.000    77203442.433 6 405706797.26006      -460.590 6        37.955
E06        52.000    23481541.930 8 123396347.87508       286.127 8        48.410                                                                    23481542.164 8  92146631.28208       213.577 8        50.963    23481542.085 8  94550454.74208       219.209 8        51.493
C09        53.000                                                                                                                                    40231112.381 6 209493914.75406     -1217.533 6        37.021    40231112.422 6 161993957.30906      -941.717 6        41.571    40231110.301 6 170230931.99006      -989.518 6        38.538
C60        54.000                                                                                                                                    40909045.521 6 213024229.80406      -504.439 6        40.474                                                                    40909034.487 6 173099583.39606      -409.952 6        38.009
E31        55.000    26416251.623 6 138818321.75506      2605.104 6        41.974                                                                    26416256.196 7 103663058.70307      1945.416 7        45.458    26416255.028 7 106367309.20807      1996.187 7        45.034
G07        56.000    21959455.856 7 115397714.52407     -2512.328 7        46.809                                    21959452.437 7  89920274.42207     -1957.658 7        44.554    21959452.228 7  89920283.42207     -1957.687 7        43.130
C02        57.000                                                                                                                                    40908479.964 5 213021118.86005      -543.339 5        33.677    40908481.491 6 164721403.95306      -420.125 6        38.880    40908483.172 5 173097086.19905      -441.235 5        34.881
I03        58.000    97364662.981 6 306294461.61306       854.233 6        41.170
C22        60.000                                                                                                                                    22546710.467 8 117406622.34908      1432.874 8        50.069                                                                    22546704.591 8  95402470.54508      1164.347 8        49.300
> 2025 01 02 07 00 20.0000000  0 56
G09         1.000    24071579.192 6 126496951.29706     -3727.166 6        38.159                                    24071581.756 5  98569037.00905     -2904.265 5        32.778    24071581.670 6  98569036.98906     -2904.365 6        37.233
G15         2.000    24873672.434 6 130712027.91506      3230.727 6        37.357                                    24873668.160 4 101853515.75304      2517.447 4        27.210    24873668.218 5 101853510.73605      2517.597 5        33.072
E11         3.000    27574379.086 6 144904310.46006     -3463.564 6        36.348                                                                    27574377.804 6 108207741.38106     -2586.510 6        37.323    27574377.564 6 111030549.78506     -2654.020 6        37.943
G08         4.000    24523059.057 6 128869579.05006       894.965 6        37.784                                    24523062.507 4 100417880.78204       697.378 4        29.270    24523063.902 6 100417876.78506       697.418 6        36.250
S21         5.000    38481221.826 7 202219851.99707      -475.211 7        42.574
G20         7.000    21018366.176 7 110452245.23907     -1939.469 7        47.916                                    21018362.589 6  86066659.66106     -1511.272 6        38.408
R02         8.000    20538472.053 8 109597210.72008      2275.290 8        50.985                                                                    20538471.739 7  85242272.60507      1769.699 7        45.729
R10         9.000    23197395.239 6 123655126.57106     -4624.076 6        38.042
R17        10.000    24126381.526 6 129105138.75806     -3865.632 6        41.971                                                                    24126381.072 6 100415100.20006     -3006.572 6        39.535
G30        11.000    20451717.010 8 107474495.41108      -685.841 8        50.712                                    20451715.460 8  83746348.99808      -534.422 8        52.244    20451715.901 7  83746356.99607      -534.421 7        45.598
S27        12.000    39145316.149 6 205709987.44506      -501.406 6        36.922
G13        13.000    21785436.585 7 114483231.70907      2169.727 7        45.685                                    21785432.774 5  89207688.29005      1690.697 5        31.117
S36        14.000    38249751.482 7 201004308.09407      -475.912 7        44.727
I09        15.000    39124554.118 6 153533075.25606      -953.810 6        41.328
E09        16.000    24808651.718 7 130370353.19307      1252.499 7        46.104                                                                    24808651.985 8  97354479.83708       935.230 8        48.978    24808651.471 8  99894158.60008       959.698 8        49.512
S45        17.000    63431615.131 6 333335884.84906      -519.586 6        36.934
E36        18.000    26552828.784 6 139536032.10706     -1974.375 6        41.549                                                                    26552830.325 7 104198999.02507     -1474.354 7        44.160    26552829.739 7 106917232.75907     -1512.748 7        44.336
R19        19.000    23937135.052 5 128047511.00005      1115.164 5        31.743                                                                    23937133.646 6  99592506.90006       867.493 6        38.180
