     3.04           OBSERVATION DATA    M                   RINEX VERSION / TYPE
ssrcrin-15.6.1x                         20250102 203000 UTC PGM / RUN BY / DATE 
(00000000023479385599111004) Septentrio proprietary         COMMENT             
rref                                                        MARKER NAME         
01                                                          MARKER NUMBER       
geodetic                                                    MARKER TYPE         
NFB                 CLIMERS@TUW                             OBSERVER / AGENCY   
3297213             SEPT ASTERX SB3 PROB4.14.4              REC # / TYPE / VERS 
Unknown             Unknown                                 ANT # / TYPE        
  4127832.2223  1207193.5030  4695247.4243                  APPROX POSITION XYZ 
        0.0000        0.0000        0.0000                  ANTENNA: DELTA H/E/N
G   23 X1  C1C L1C D1C S1C C1W S1W C2W L2W D2W S2W C2L L2L  SYS / # / OBS TYPES 
       D2L S2L C5Q L5Q D5Q S5Q C1L L1L D1L S1L              SYS / # / OBS TYPES 
E   21 X1  C1C L1C D1C S1C C6C L6C D6C S6C C5Q L5Q D5Q S5Q  SYS / # / OBS TYPES 
       C7Q L7Q D7Q S7Q C8Q L8Q D8Q S8Q                      SYS / # / OBS TYPES 
S    9 X1  C1C L1C D1C S1C C5I L5I D5I S5I                  SYS / # / OBS TYPES 
R   17 X1  C1C L1C D1C S1C C2P L2P D2P S2P C2C L2C D2C S2C  SYS / # / OBS TYPES 
       C3Q L3Q D3Q S3Q                                      SYS / # / OBS TYPES 
C   25 X1  C1P L1P D1P S1P C5P L5P D5P S5P C2I L2I D2I S2I  SYS / # / OBS TYPES 
       C7I L7I D7I S7I C6I L6I D6I S6I C7D L7D D7D S7D      SYS / # / OBS TYPES 
J   17 X1  C1C L1C D1C S1C C2L L2L D2L S2L C5Q L5Q D5Q S5Q  SYS / # / OBS TYPES 
       C1L L1L D1L S1L                                      SYS / # / OBS TYPES 
I    5 X1  C5A L5A D5A S5A                                  SYS / # / OBS TYPES 
SEPTENTRIO RECEIVERS OUTPUT ALIGNED CARRIER PHASES.         COMMENT             
NO FURTHER PHASE SHIFT APPLIED IN THE RINEX ENCODER.        COMMENT             
G L1C                                                       SYS / PHASE SHIFT   
G L2W                                                       SYS / PHASE SHIFT   
G L2L  0.00000                                              SYS / PHASE SHIFT   
G L5Q  0.00000                                              SYS / PHASE SHIFT   
G L1L  0.00000                                              SYS / PHASE SHIFT   
E L1C  0.00000                                              SYS / PHASE SHIFT   
E L6C  0.00000                                              SYS / PHASE SHIFT   
E L5Q  0.00000                                              SYS / PHASE SHIFT   
E L7Q  0.00000                                              SYS / PHASE SHIFT   
E L8Q  0.00000                                              SYS / PHASE SHIFT   
S L1C                                                       SYS / PHASE SHIFT   
S L5I                                                       SYS / PHASE SHIFT   
R L1C                                                       SYS / PHASE SHIFT   
R L2P  0.00000                                              SYS / PHASE SHIFT   
R L2C                                                       SYS / PHASE SHIFT   
R L3Q  0.00000                                              SYS / PHASE SHIFT   
C L1P  0.00000                                              SYS / PHASE SHIFT   
C L5P  0.00000                                              SYS / PHASE SHIFT   
C L2I                                                       SYS / PHASE SHIFT   
C L7I                                                       SYS / PHASE SHIFT   
C L6I                                                       SYS / PHASE SHIFT   
C L7D                                                       SYS / PHASE SHIFT   
J L1C                                                       SYS / PHASE SHIFT   
J L2L  0.00000                                              SYS / PHASE SHIFT   
J L5Q  0.00000                                              SYS / PHASE SHIFT   
J L1L  0.00000                                              SYS / PHASE SHIFT   
I L5A                                                       SYS / PHASE SHIFT   
  2025     1     2    20    30    0.0000000     GPS         TIME OF FIRST OBS   
 C1C    0.000 C2C    0.000 C2P    0.000                     GLONASS COD/PHS/BIS 
DBHZ                                                        SIGNAL STRENGTH UNIT
    18                                                      LEAP SECONDS        
 24 R01  1 R02 -4 R03  5 R04  6 R05  1 R06 -4 R07  5 R08  6 GLONASS SLOT / FRQ #
    R09 -2 R10 -7 R11  0 R12 -1 R13 -2 R14 -7 R15  0 R16 -1 GLONASS SLOT / FRQ #
    R17  4 R18 -3 R19  3 R20  2 R21  4 R22 -3 R23  3 R24  2 GLONASS SLOT / FRQ #
                                                            END OF HEADER       
> 2025 01 02 20 30  0.0000000  0 59
G23         1.000    21565646.783 7 113328319.86407     -2417.419 7        46.868                                    21565643.104 6  88307804.57506     -1883.700 6        36.121    21565643.025 7  88307802.57107     -1883.632 7        45.294
C37         2.000                                                                                                                                    25367792.338 7 132096744.98607     -1049.431 7        42.525                                                                    25367796.301 7 107339445.83107      -852.621 7        43.689
G16         3.000    22687271.763 7 119222619.22207     -3752.253 7        45.068                                    22687267.330 5  92900825.79805     -2923.834 5        31.592
G21         4.000    22955180.287 6 120630330.52706      2157.234 6        40.148                                    22955175.855 4  93997661.39204      1680.961 4        24.286
S21         5.000    38511860.937 6 202380859.44206      -445.205 6        41.962
G26         6.000    25042297.027 6 131598371.78506     -4073.405 6        38.291                                    25042296.916 5 102544311.70705     -3174.079 5        30.332    25042297.587 5 102544298.70305     -3174.212 5        35.986
G10         7.000    20880329.556 8 109726937.91908       363.385 8        52.023                                    20880327.247 8  85501526.52208       283.156 8        52.566    20880327.001 7  85501520.52607       283.105 7        45.180
E15         8.000    25089007.763 7 131843730.36407      1361.854 7        44.635                                                                    25089008.834 8  98454800.38508      1016.897 8        48.532    25089008.398 8 101023174.51508      1043.475 8        49.050
E36         9.000    26253790.408 7 137964783.25007     -2713.232 7        42.076                                                                    26253791.134 7 103025791.22407     -2026.229 7        45.159    26253790.964 7 105713408.08107     -2079.136 7        45.868
G27        10.000    20131847.970 8 105793725.78608      -595.034 8        50.831                                    20131845.711 8  82436740.05408      -463.661 8        53.509    20131846.082 7  82436742.04607      -463.622 7        46.530
G15        11.000    24298216.581 6 127688008.52506     -2422.871 6        38.009                                    24298212.864 4  99497141.62204     -1887.948 4        28.512    24298213.044 5  99497144.61105     -1887.765 5        34.419
C23        13.000                                                                                                                                    25657523.638 7 133605495.54507     -3093.107 7        42.715                                                                    25657515.235 7 108565399.01807     -2513.406 7        42.804
S36        14.000    38280976.111 7 201168414.51607      -444.116 7        43.841
C13        15.000                                                                                                                                    38767765.504 6 201873983.94106     -1443.893 6        41.855    38767766.867 7 156101803.33607     -1116.390 7        42.652    38767765.356 6 164039170.30906     -1173.110 6        41.318
G18        16.000    24240309.279 6 127383903.72306     -3524.256 6        41.366                                    24240306.587 4  99260278.74104     -2746.176 4        24.797    24240306.184 6  99260286.75506     -2746.249 6        39.471
R10        17.000    22851571.031 6 121811756.67306     -4466.254 6        40.915
E27        18.000    25380010.108 7 133372872.16607       412.526 7        44.184                                                                    25380010.349 7  99596629.10207       308.052 7        47.640    25380010.030 8 102194799.31108       316.047 8        48.236
E02        19.000    27615551.217 6 145120867.68606     -3692.127 6        37.977                                                                    27615551.296 7 108369583.02407     -2756.993 7        42.409    27615550.841 7 111196601.37607     -2828.943 7        42.743
E05        20.000    25737258.993 6 135250217.14506      2143.031 6        38.703                                                                    25737260.230 7 100998538.70007      1600.367 7        43.524    25737259.288 7 103633285.84307      1642.112 7        42.808
R11        21.000    21304179.882 8 113843093.89408     -1550.133 8        49.232                                                                    21304177.959 7  88544631.91807     -1205.724 7        46.007
I06        22.000    38676786.532 7 151776241.00407      -252.156 7        42.343
S28        23.000    40975155.537 5 215325916.55105      -437.027 5        33.731
E04        24.000    28689804.267 5 150765908.03505     -1996.361 5        32.820                                                                    28689804.987 6 112584926.06006     -1490.820 6        37.739    28689804.386 6 115521920.62806     -1529.637 6        38.213
S23        25.000    38238373.058 7 200943966.77007      -444.531 7        44.451
S45        26.000    63492520.226 6 333656691.58606      -491.955 6        37.285
G02        27.000    25161970.293 6 132227058.11806      2468.873 6        39.285                                    25161966.692 2 103034051.68202      1923.780 2        17.962
S27        28.000    39236314.830 6 206188270.77706      -412.705 6        36.155
C38        29.000                                                                                                                                    40795220.387 6 212431534.72906     -1705.400 6        37.198                                                                    40795217.944 6 172618067.42706     -1385.855 6        38.240
E21        30.000    29030897.125 5 152558401.03305      2314.184 5        34.971                                                                    29030898.643 6 113923485.63106      1728.162 6        38.471    29030897.981 6 116895399.22406      1773.333 6        38.904
C43        31.000                                                                                                                                    21580736.137 8 112376663.17808      -274.831 8        51.213                                                                    21580734.861 8  91315286.29608      -223.270 8        49.540
C42        32.000                                                                                                                                    23303112.160 8 121345436.98808      1658.510 8        48.094                                                                    23303119.762 8  98603148.45508      1347.719 8        48.762
I02        33.000    40397183.891 6 158527273.53306      -983.736 6        37.187
R03        34.000    24460096.970 6 130936825.39306     -4297.924 6        40.872                                                                    24460096.006 6 101839749.66606     -3343.084 6        36.794
E34        35.000    23439231.372 8 123174199.53008      -854.666 8        48.272                                                                    23439231.458 8  91980844.16008      -638.151 8        51.039    23439231.246 8  94380333.24708      -654.848 8        51.373
G30        36.000    25824923.048 5 135710903.36005      -900.508 5        34.390                                    25824921.497 4 105748765.68304      -701.697 4        25.218    25824922.734 5 105748758.66305      -701.586 5        34.290
R21        37.000    21281732.343 8 113882894.02908      2095.751 8        50.053                                                                    21281731.821 7  88575603.22007      1629.980 7        44.229
C22        38.000                                                                                                                                    26883061.787 5 139987166.08805     -3419.500 5        35.024                                                                    26883057.038 6 113751019.09506     -2778.372 6        36.968
R05        39.000    20852583.688 8 111469029.85508      2126.902 8        50.290                                                                    20852583.411 7  86698142.38507      1654.223 7        46.318
C12        40.000                                                                                                                                    25877563.006 6 134751443.89006     -3162.774 6        38.766    25877560.784 7 104198455.99607     -2445.607 7        45.285    25877558.785 6 109496655.39606     -2570.041 6        41.492
R04        41.000    21254646.483 8 113817695.51208     -1775.141 8        49.367                                                                    21254644.595 7  88524881.42207     -1380.719 7        44.447
S44        42.000    40541053.362 6 213044857.38806      -444.592 6        37.811
G08        43.000    21184374.614 7 111324731.32107      1638.311 7        47.345                                    21184373.450 7  86746583.62707      1276.605 7        47.500    21184374.464 7  86746581.63207      1276.612 7        44.197
C05        44.000                                                                                                                                    39290307.525 6 204594972.83906      -381.066 6        38.114    39290302.237 7 158205833.90107      -294.680 7        42.044    39290304.794 6 166250276.81106      -309.685 6        40.124
C11        45.000                                                                                                                                    21995920.128 8 114538675.63508     -1462.809 8        48.579    21995917.265 8  88568630.21808     -1131.156 8        52.188    21995915.884 8  93072096.01908     -1188.670 8        48.872
E09        46.000    27108707.871 6 142457238.67906       172.423 6        39.928                                                                    27108708.103 7 106380416.20907       128.596 7        42.980    27108707.667 7 109155554.59807       132.098 7        44.093
G07        47.000    25692070.698 5 135012726.85505     -1977.845 5        35.467                                    25692069.064 3 105204700.98003     -1541.183 3        23.390    25692069.592 5 105204708.98905     -1541.047 5        32.317
C21        48.000                                                                                                                                    23844384.490 7 124163996.46407     -1300.267 7        47.271                                                                    23844379.190 7 100893405.47407     -1056.501 7        47.562
E06        49.000    27613539.187 6 145110151.09506      -936.801 6        37.849                                                                    27613540.190 6 108361481.13906      -699.654 6        41.380    27613540.519 6 111188299.63506      -717.976 6        41.883
R19        50.000    23460759.758 5 125499491.09605     -3639.811 5        35.695                                                                    23460760.254 6  97610824.29006     -2830.841 6        38.622
S48        51.000    77257250.473 6 405989645.90806      -480.302 6        37.153
C08        52.000                                                                                                                                    39298642.893 6 204638448.61306     -1666.774 6        36.888    39298637.417 7 158239458.47807     -1288.769 7        42.152    39298636.458 6 166285519.83806     -1354.286 6        39.571
C34        53.000                                                                                                                                    23184838.430 7 120729814.68307     -2581.685 7        47.433                                                                    23184838.247 7  98102979.58907     -2097.851 7        46.913
C60        54.000                                                                                                                                    40541054.456 6 211108105.32706      -440.363 6        39.649                                                                    40541038.578 6 171542596.50806      -357.917 6        39.559
R12        55.000    23444499.673 7 125236307.79607      2387.754 7        43.884                                                                    23444500.221 7  97406019.62107      1857.144 7        42.245
I09        56.000    38341141.905 7 150458898.17407       321.389 7        42.845
C02        57.000                                                                                                                                    40630837.620 5 211575476.07305      -393.432 5        33.671    40630832.256 6 163603571.22306      -304.232 6        40.191    40630835.319 6 171922407.12006      -319.486 6        36.673
I03        58.000    80569351.857 6 240386190.95606      1083.645 6        40.188
E30        59.000    25005099.321 7 131402901.83707     -2379.748 7        46.652                                                                    25005098.958 8  98125663.13908     -1777.117 8        49.097    25005098.592 8 100685446.35608     -1823.484 8        49.629
R20        60.000    19720423.772 6 105454176.69406      -990.924 6        39.345                                                                    19720425.454 7  82019984.41607      -770.674 7        47.394
> 2025 01 02 20 30  5.0000000  0 59
G23         1.000    21567948.050 7 113340414.19707     -2420.037 7        46.319                                    21567944.532 6  88317228.73406     -1885.743 6        36.159    21567944.249 7  88317226.73407     -1885.751 7        45.153
C37         2.000                                                                                                                                    25368801.474 7 132101999.16207     -1051.996 7        43.014                                                                    25368805.328 7 107343715.28107      -854.733 7        43.765
G16         3.000    22690842.736 7 119241385.28507     -3753.905 7        44.358                                    22690838.256 5  92915448.69905     -2925.121 5        31.668
G21         4.000    22953128.101 6 120619548.76606      2155.880 6        40.107                                    22953124.060 4  93989260.02004      1679.900 4        24.165
S21         5.000    38512283.948 7 202383086.32207      -445.206 7        42.267
G26         6.000    25046173.493 6 131618739.37006     -4073.448 6        37.656                                    25046172.807 5 102560182.55405     -3174.114 5        30.596    25046173.606 5 102560169.51805     -3173.828 5        35.990
G10         7.000    20879985.107 8 109725129.36208       360.225 8        51.425                                    20879983.102 8  85500117.26008       280.695 8        52.656    20879982.876 7  85500111.26707       280.725 7        45.276
E15         8.000    25087712.725 7 131836924.57307      1360.741 7        44.745                                                                    25087713.705 8  98449718.13708      1016.158 8        48.330    25087713.295 8 101017959.68608      1042.693 8        49.034
E36         9.000    26256372.482 7 137978351.83207     -2713.734 7        42.159                                                                    26256373.268 7 103035923.59307     -2026.576 7        44.852    26256373.073 7 105723804.78107     -2079.345 7        45.892
G27        10.000    20132415.437 8 105796709.26708      -598.065 8        50.457                                    20132413.437 8  82439064.84408      -466.025 8        53.612    20132413.742 7  82439066.84207      -465.981 7        46.439
G15        11.000    24300523.862 6 127700131.18706     -2426.094 6        37.527                                    24300519.626 4  99506587.84404     -1890.460 4        28.701    24300520.313 5  99506590.82905     -1890.124 5        34.609
C23        13.000                                                                                                                                    25660494.038 7 133620964.88107     -3094.302 7        42.258                                                                    25660485.968 7 108577969.09607     -2514.113 7        42.673
S36        14.000    38281400.213 7 201170636.13207      -444.233 7        44.018
C13        15.000                                                                                                                                    38769152.286 7 201881204.31007     -1444.043 7        42.216    38769153.730 7 156107386.60107     -1116.661 7        42.675    38769151.905 6 164045037.45606     -1173.226 6        41.159
G18        16.000    24243662.852 6 127401526.99206     -3524.718 6        41.194                                    24243659.951 4  99274011.16604     -2746.536 4        24.872    24243660.176 6  99274019.16306     -2746.411 6        39.315
R10        17.000    22855760.976 6 121834091.89906     -4467.745 6        40.484
E27        18.000    25379619.120 7 133370816.44707       410.015 7        44.257                                                                    25379619.166 7  99595093.99107       306.265 7        47.408    25379618.877 8 102193224.15308       314.244 8        48.212
E02        19.000    27619064.163 6 145139329.38006     -3692.307 6        38.279                                                                    27619064.535 7 108383369.33807     -2757.221 7        42.148    27619063.999 7 111210747.33707     -2829.102 7        42.857
E05        20.000    25735220.289 6 135239504.67406      2142.185 6        38.477                                                                    25735221.750 7 100990539.12907      1599.726 7        43.511    25735220.719 7 103625077.57907      1641.410 7        42.900
R11        21.000    21305631.599 8 113850856.52808     -1554.619 8        48.629                                                                    21305630.948 7  88550669.51207     -1209.144 7        46.218
I06        22.000    38677107.997 7 151777502.95607      -252.337 7        42.091
S28        23.000    40975567.691 5 215328101.94405      -436.975 5        33.551
E04        24.000    28691704.658 5 150775895.39605     -1998.311 5        33.048                                                                    28691705.589 6 112592384.10606     -1492.318 6        37.618    28691704.920 6 115529573.25706     -1531.052 6        38.456
S23        25.000    38238795.935 7 200946190.81307      -444.738 7        44.530
S45        26.000    63492940.259 6 333659152.23406      -492.151 6        37.917
G02        27.000    25159621.987 6 132214716.11606      2468.246 6        38.547                                    25159617.932 3 103024434.55703      1923.311 3        18.657
S27        28.000    39236708.186 6 206190335.32306      -412.935 6        36.197
C38        29.000                                                                                                                                    40796858.040 6 212440062.43506     -1705.406 6        37.070                                                                    40796855.747 6 172624996.91406     -1385.946 6        38.330
E21        30.000    29028696.080 5 152546833.01005      2313.268 5        35.367                                                                    29028697.111 6 113914847.18006      1727.483 6        38.754    29028696.718 6 116886535.45606      1772.467 6        39.471
C43        31.000                                                                                                                                    21581001.043 8 112378042.41208      -276.585 8        51.428                                                                    21580999.744 8  91316407.03408      -224.634 8        49.471
C42        32.000                                                                                                                                    23301520.557 8 121337151.02008      1656.115 8        48.243                                                                    23301528.520 8  98596415.43208      1345.864 8        48.724
I02        33.000    40398437.243 6 158532191.83906      -983.508 6        37.138
R03        34.000    24464111.623 6 130958320.76506     -4299.858 6        40.205                                                                    24464111.489 6 101856468.25006     -3344.361 6        36.571
E34        35.000    23440045.352 8 123178476.40608      -855.901 8        48.479                                                                    23440045.361 8  91984037.93808      -639.107 8        50.802    23440045.102 8  94383610.33608      -655.802 8        51.357
G30        36.000    25825779.097 5 135715412.58205      -903.139 5        35.376                                    25825779.718 4 105752279.36104      -703.736 4        25.308    25825779.749 5 105752272.35305      -703.698 5        31.924
R21        37.000    21279775.303 8 113872419.06208      2094.533 8        49.788                                                                    21279774.011 7  88567456.02507      1629.079 7        43.697
C22        38.000                                                                                                                                    26886345.852 5 140004267.36205     -3420.800 5        35.010                                                                    26886341.388 6 113764915.26606     -2779.583 6        36.484
R05        39.000    20850596.801 8 111458405.53108      2123.090 8        50.851                                                                    20850595.826 7  86689879.00207      1651.296 7        45.549
C12        40.000                                                                                                                                    25880600.141 6 134767259.77206     -3163.417 6        38.700    25880597.995 7 104210685.84207     -2446.029 7        45.363    25880596.322 6 109509507.10406     -2570.308 6        41.473
R04        41.000    21256305.990 8 113826583.22108     -1779.722 8        49.459                                                                    21256304.736 7  88531794.08707     -1384.178 7        44.390
S44        42.000    40541473.895 6 213047080.86906      -444.533 6        37.962
G08        43.000    21182817.362 7 111316545.47507      1636.322 7        47.285                                    21182815.738 7  86740205.05107      1275.056 7        47.616    21182816.759 7  86740203.05407      1275.028 7        44.299
C05        44.000                                                                                                                                    39290673.205 6 204596879.37406      -381.219 6        38.258    39290668.382 6 158207308.15606      -294.792 6        41.988    39290670.895 6 166251826.02806      -309.691 6        40.045
C11        45.000                                                                                                                                    21997326.080 8 114545994.28508     -1464.304 8        48.707    21997322.466 8  88574289.46408     -1132.291 8        51.909    21997321.411 8  93078043.01408     -1189.770 8        48.834
E09        46.000    27108544.703 6 142456383.97706       169.897 6        40.045                                                                    27108545.594 7 106379777.95307       126.840 7        42.878    27108545.254 7 109154899.69907       130.164 7        44.086
G07        47.000    25693953.992 5 135022621.45205     -1979.753 5        34.533                                    25693951.939 3 105212411.05903     -1542.662 3        23.771    25693952.119 5 105212419.03805     -1542.473 5        32.377
C21        48.000                                                                                                                                    23845634.626 7 124170505.75607     -1303.166 7        47.151                                                                    23845629.178 7 100898694.80807     -1058.808 7        47.480
E06        49.000    27614432.689 6 145114842.63806      -939.483 6        38.060                                                                    27614432.956 6 108364984.55106      -701.509 6        41.070    27614433.197 6 111191894.43606      -719.890 6        41.678
R19        50.000    23464161.909 5 125517691.97805     -3640.455 5        35.405                                                                    23464162.660 6  97624980.55806     -2831.499 6        38.345
S48        51.000    77257681.609 6 405992047.37806      -480.296 6        37.493
C08        52.000                                                                                                                                    39300243.633 6 204646783.30706     -1666.959 6        37.474    39300237.800 7 158245903.39807     -1289.011 7        42.226    39300236.957 6 166292292.47606     -1354.461 6        39.535
C34        53.000                                                                                                                                    23187317.994 7 120742726.82907     -2582.931 7        47.708                                                                    23187317.907 7  98113471.75807     -2098.737 7        46.802
C60        54.000                                                                                                                                    40541477.355 6 211110308.60406      -440.511 6        39.865                                                                    40541461.777 6 171544386.85206      -357.946 6        39.652
R12        55.000    23442266.590 7 125224378.26007      2384.467 7        44.200                                                                    23442266.754 7  97396741.09407      1854.612 7        42.574
I09        56.000    38340732.994 7 150457292.50107       321.039 7        42.904
C02        57.000                                                                                                                                    40631214.972 5 211577443.83805      -393.554 5        33.742    40631210.220 6 163605092.79706      -304.182 6        40.150    40631212.934 6 171924006.04906      -319.520 6        36.461
I03        58.000    80567971.613 6 240380773.92006      1083.595 6        40.193
E30        59.000    25007364.875 7 131414806.74707     -2381.877 7        46.806                                                                    25007364.362 8  98134553.16608     -1778.626 8        48.877    25007364.086 8 100694568.29608     -1825.048 8        49.583
R20        60.000    19721351.268 6 105459136.67206      -992.961 6        39.240                                                                    19721353.141 7  82023842.18807      -772.278 7        46.832
> 2025 01 02 20 30 10.0000000  0 59
G23         1.000    21570251.956 7 113352521.40007     -2422.793 7        46.728                                    21570248.415 6  88326662.90706     -1887.892 6        36.306    21570248.446 7  88326660.91207     -1887.869 7        45.165
C37         2.000                                                                                                                                    25369813.235 7 132107266.70507     -1054.857 7        43.251                                                                    25369816.758 7 107347995.59007      -857.019 7        43.812
G16         3.000    22694415.571 7 119260159.34507     -3755.579 7        44.549                                    22694410.774 5  92930077.83105     -2926.426 5        31.698
G21         4.000    22951077.378 6 120608773.29106      2154.488 6        40.310                                    22951073.306 4  93980863.55004      1678.823 4        24.241
S21         5.000    38512706.950 7 202385313.55707      -445.569 7        42.023
G26         6.000    25050048.554 6 131639106.05906     -4073.160 6        37.815                                    25050048.604 5 102576052.68305     -3173.883 5        30.551    25050049.659 6 102576039.69606     -3174.213 6        36.166
G10         7.000    20879643.972 8 109723335.98408       357.166 8        51.455                                    20879641.828 8  85498719.82308       278.313 8        52.739    20879641.995 7  85498713.82407       278.343 7        45.311
E15         8.000    25086418.418 7 131830123.52007      1359.752 7        44.974                                                                    25086419.550 8  98444639.43008      1015.397 8        48.233    25086419.095 8 101012748.49708      1041.857 8        49.013
E36         9.000    26258954.853 7 137991922.16207     -2714.371 7        42.224                                                                    26258955.514 7 103046057.29107     -2026.963 7        44.828    26258955.191 7 105734202.82407     -2079.810 7        45.968
G27        10.000    20132985.822 8 105799707.01508      -600.930 8        50.496                                    20132983.896 8  82441400.75308      -468.258 8        53.696    20132984.154 7  82441402.75107      -468.234 7        46.351
G15        11.000    24302832.956 6 127712268.97106     -2428.937 6        37.739                                    24302829.362 4  99516045.86004     -1892.681 4        29.071    24302830.391 5  99516048.86805     -1892.934 5        35.281
C23        13.000                                                                                                                                    25663465.583 7 133636439.63807     -3095.449 7        42.136                                                                    25663457.750 7 108590543.59007     -2515.191 7        42.840
S36        14.000    38281823.166 7 201172858.11207      -444.392 7        44.004
C13        15.000                                                                                                                                    38770539.120 7 201888425.83107     -1444.507 7        42.214    38770540.584 7 156112970.73307     -1116.895 7        42.722    38770538.910 6 164050905.53506     -1173.670 6        41.390
G18        16.000    24247016.559 6 127419152.43006     -3525.319 6        41.011                                    24247013.851 4  99287745.27204     -2747.011 4        25.083    24247014.478 6  99287753.26206     -2746.995 6        39.198
R10        17.000    22859953.999 6 121856434.02506     -4469.122 6        41.600
E27        18.000    25379230.144 7 133368772.64307       407.502 7        44.299                                                                    25379230.274 7  99593567.78107       304.289 7        47.314    25379229.967 8 102191658.12608       312.268 8        48.255
E02        19.000    27622577.358 6 145157791.77006     -3692.582 6        38.354                                                                    27622577.832 7 108397156.16607     -2757.345 7        42.273    27622577.210 7 111224893.83407     -2829.462 7        42.709
E05        20.000    25733182.915 6 135228796.93906      2141.125 6        38.541                                                                    25733184.185 7 100982543.09707      1598.959 7        43.306    25733183.146 7 103616872.95907      1640.532 7        42.872
R11        21.000    21307088.328 8 113858641.33708     -1559.166 8        48.394                                                                    21307087.427 7  88556724.37907     -1212.770 7        46.082
I06        22.000    38677429.726 7 151778764.98407      -252.355 7        42.085
S28        23.000    40975983.798 5 215330287.87605      -437.211 5        33.635
E04        24.000    28693607.151 5 150785893.01905     -2000.560 5        32.916                                                                    28693608.068 6 112599849.87806     -1494.183 6        37.403    28693607.353 6 115537233.77106     -1532.764 6        38.255
S23        25.000    38239221.450 7 200948415.26407      -444.893 7        44.599
S45        26.000    63493361.392 6 333660013.14416      -492.331 6        37.452
G02        27.000    25157274.041 6 132202376.62606      2467.622 6        38.429                                    25157269.749 3 103014819.39103      1922.815 3        18.627
S27        28.000    39237100.942 5 206192400.32705      -412.928 5        35.757
C38        29.000                                                                                                                                    40798495.857 6 212448590.20506     -1705.628 6        37.372                                                                    40798493.282 6 172631926.39106     -1385.735 6        38.423
E21        30.000    29026495.394 5 152535269.66605      2312.195 5        35.019                                                                    29026496.641 6 113906212.25306      1726.546 6        38.075    29026496.254 6 116877675.26306      1771.648 6        39.261
C43        31.000                                                                                                                                    21581267.572 8 112379430.00008      -278.365 8        51.568                                                                    21581266.232 8  91317534.56608      -226.089 8        49.616
C42        32.000                                                                                                                                    23299931.466 8 121328876.77308      1653.658 8        48.047                                                                    23299939.524 8  98589691.92608      1343.825 8        48.827
I02        33.000    40399690.916 6 158537110.20306      -983.568 6        37.119
R03        34.000    24468128.738 6 130979825.30006     -4301.802 6        40.246                                                                    24468129.250 6 101873194.00106     -3345.632 6        37.425
E34        35.000    23440860.492 8 123182759.27508      -857.166 8        48.442                                                                    23440860.366 8  91987236.18408      -640.103 8        50.758    23440860.143 8  94386892.01808      -656.810 8        51.330
G30        36.000    25826641.971 6 135719935.35006      -905.854 6        38.375                                    25826639.848 4 105755803.58104      -705.863 4        26.371    25826639.480 5 105755796.57605      -705.767 5        31.691
R21        37.000    21277818.371 8 113861949.80608      2093.262 8        49.708                                                                    21277817.935 7  88559313.27407      1628.096 7        43.934
C22        38.000                                                                                                                                    26889631.708 5 140021374.86905     -3422.058 5        35.143                                                                    26889626.794 6 113778816.49106     -2780.564 6        36.480
R05        39.000    20848612.395 8 111447799.90608      2119.227 8        50.557                                                                    20848611.815 7  86681630.19907      1648.289 7        46.357
C12        40.000                                                                                                                                    25883638.316 6 134783078.18706     -3163.916 6        38.895    25883635.662 7 104222917.64507     -2446.602 7        45.071    25883634.084 6 109522360.86206     -2570.917 6        41.464
R04        41.000    21257970.234 8 113835493.40408     -1784.213 8        49.631                                                                    21257968.718 7  88538724.22107     -1387.719 7        44.668
S44        42.000    40541902.644 6 213049304.80006      -444.886 6        37.792
G08        43.000    21181261.758 7 111308369.91807      1634.113 7        47.608                                    21181259.984 7  86733834.49007      1273.334 7        47.745    21181261.045 7  86733832.49107      1273.295 7        44.296
C05        44.000                                                                                                                                    39291039.704 6 204598786.28106      -381.541 6        38.285    39291034.460 6 158208782.68906      -294.914 6        41.983    39291037.192 6 166253375.53906      -309.920 6        40.298
C11        45.000                                                                                                                                    21998732.863 8 114553320.23008     -1465.883 8        48.725    21998729.113 8  88579954.35008     -1133.583 8        51.746    21998728.242 8  93083995.95208     -1191.129 8        48.981
E09        46.000    27108384.521 6 142455541.39506       167.296 6        40.281                                                                    27108385.174 7 106379148.74907       124.944 7        42.756    27108384.846 7 109154254.08007       128.212 7        44.176
G07        47.000    25695838.374 6 135032525.55706     -1981.760 6        36.091                                    25695836.563 4 105220128.53304     -1544.229 4        24.000    25695835.490 5 105220136.55005     -1544.354 5        31.653
C21        48.000                                                                                                                                    23846887.409 7 124177029.60607     -1306.211 7        47.179                                                                    23846882.012 7 100903995.96607     -1061.377 7        47.665
E06        49.000    27615327.642 6 145119546.30306      -941.928 6        38.339                                                                    27615328.223 6 108368497.02606      -703.386 6        40.851    27615328.162 6 111195498.54506      -721.794 6        41.571
R19        50.000    23467564.179 5 125535895.32505     -3641.012 5        35.286                                                                    23467565.244 6  97639138.71606     -2831.928 6        38.039
S48        51.000    77258109.615 6 405994449.03306      -480.422 6        37.255
C08        52.000                                                                                                                                    39301844.945 6 204655118.83206     -1667.193 6        37.645    39301838.410 7 158252348.93607     -1289.221 7        42.078    39301837.870 6 166299065.74906     -1354.692 6        39.664
C34        53.000                                                                                                                                    23189798.783 7 120755644.73507     -2584.104 7        47.785                                                                    23189798.560 7  98123968.61507     -2099.720 7        46.931
C60        54.000                                                                                                                                    40541900.473 6 211112512.31006      -440.671 6        40.069                                                                    40541884.936 6 171546177.55206      -358.141 6        39.763
R12        55.000    23440036.481 7 125212464.91507      2381.072 7        44.679                                                                    23440036.805 7  97387475.15907      1851.925 7        42.313
I09        56.000    38340324.131 7 150455688.05207       320.691 7        42.682
C02        57.000                                                                                                                                    40631592.971 5 211579411.96705      -393.533 5        33.820    40631587.889 6 163606614.70306      -304.369 6        40.007    40631590.929 6 171925605.35506      -319.879 6        36.480
I03        58.000    80566590.920 6 240375357.30106      1083.238 6        40.176
E30        59.000    25009632.060 7 131426721.51807     -2383.970 7        46.869                                                                    25009631.686 8  98143450.56008     -1780.274 8        48.717    25009631.426 8 100703697.79008     -1826.664 8        49.593
R20        60.000    19722281.565 6 105464106.86006      -994.995 6        39.102                                                                    19722282.478 7  82027707.88507      -773.880 7        47.488
> 2025 01 02 20 30 15.0000000  0 59
G23         1.000    21572558.226 7 113364640.60607     -2424.906 7        46.650                                    21572554.605 6  88336106.44606     -1889.536 6        36.246    21572554.423 7  88336104.45807     -1889.616 7        44.963
C37         2.000                                                                                                                                    25370826.978 7 132112546.79107     -1057.120 7        42.959                                                                    25370830.813 7 107352286.10007      -858.968 7        43.884
G16         3.000    22697989.385 7 119278940.54907     -3756.846 7        45.062                                    22697984.709 5  92944712.53105     -2927.410 5        31.902
G21         4.000    22949028.159 6 120598003.26906      2153.533 6        39.655                                    22949023.980 4  93972471.31804      1678.080 4        24.571
S21         5.000    38513133.475 7 202387540.02007      -445.184 7        42.099
G26         6.000    25053924.126 6 131659471.04906     -4072.820 6        37.573                                    25053924.061 5 102591921.49505     -3173.620 5        30.649    25053924.344 6 102591908.48906     -3173.514 6        36.529
G10         7.000    20879305.345 8 109721556.95508       354.443 8        51.485                                    20879303.290 8  85497333.56408       276.190 8        52.710    20879303.281 7  85497327.57507       276.197 7        45.601
E15         8.000    25085125.081 7 131823326.37707      1359.109 7        45.044                                                                    25085125.999 8  98439563.64408      1014.979 8        48.278    25085125.645 8 101007540.29808      1041.426 8        48.922
E36         9.000    26261537.168 7 138005493.40407     -2714.249 7        42.434                                                                    26261537.993 7 103056191.65507     -2026.929 7        45.032    26261537.600 7 105744601.56307     -2079.681 7        45.862
G27        10.000    20133558.816 8 105802718.21408      -603.477 8        50.593                                    20133556.907 8  82443747.14008      -470.240 8        53.673    20133557.232 7  82443749.13807      -470.212 7        46.420
G15        11.000    24305145.508 6 127724421.03206     -2431.722 6        38.018                                    24305141.813 4  99525514.99704     -1894.846 4        29.431    24305142.870 5  99525518.00805     -1894.818 5        35.371
C23        13.000                                                                                                                                    25666438.151 7 133651918.94407     -3096.127 7        42.174                                                                    25666430.512 7 108603121.81407     -2515.950 7        42.938
S36        14.000    38282248.484 7 201175079.39907      -443.946 7        44.044
C13        15.000                                                                                                                                    38771925.946 7 201895647.67507     -1444.248 7        42.110    38771927.285 7 156118555.12407     -1116.826 7        42.809    38771925.729 6 164056773.89506     -1173.669 6        41.559
G18        16.000    24250370.842 6 127436779.14606     -3525.281 6        40.479                                    24250368.060 4  99301480.38204     -2746.975 4        24.992    24250368.991 6  99301488.36806     -2747.002 6        39.649
R10        17.000    22864146.638 6 121878782.16006     -4470.077 6        41.764
E27        18.000    25378843.314 7 133366739.92307       405.599 7        44.385                                                                    25378843.404 7  99592049.84807       302.789 7        47.277    25378843.170 8 102190100.59208       310.752 8        48.096
E02        19.000    27626090.714 6 145176254.00806     -3692.337 6        38.568                                                                    27626091.163 7 108410942.90907     -2757.386 7        42.125    27626090.407 7 111239040.21507     -2829.259 7        42.857
E05        20.000    25731146.016 6 135218093.12006      2140.533 6        38.748                                                                    25731147.278 7 100974549.99707      1598.416 7        43.355    25731146.349 7 103608671.34407      1639.976 7        43.143
R11        21.000    21308549.106 8 113866447.49308     -1563.240 8        48.041                                                                    21308547.891 7  88562795.82607     -1215.899 7        45.856
I06        22.000    38677751.256 7 151780026.50007      -252.160 7        42.104
S28        23.000    40976409.591 5 215332473.34405      -437.054 5        33.838
E04        24.000    28695511.377 5 150795899.89705     -2002.114 5        32.796                                                                    28695512.073 6 112607322.55806     -1495.213 6        37.384    28695511.519 6 115544901.40806     -1534.193 6        38.255
S23        25.000    38239644.125 7 200950639.22607      -444.596 7        44.621
S45        26.000    63493784.122 6 333662473.42606      -491.652 6        37.406
G02        27.000    25154925.334 6 132190038.76006      2467.528 6        38.051                                    25154922.053 3 103005205.49003      1922.748 3        18.627
S27        28.000    39237495.236 6 206194464.15806      -412.610 6        36.348
C38        29.000                                                                                                                                    40800132.982 6 212457117.12706     -1705.203 6        37.486                                                                    40800130.883 6 172638855.22506     -1385.603 6        38.384
E21        30.000    29024296.252 5 152523710.19205      2311.594 5        35.062                                                                    29024296.868 6 113897580.18106      1726.223 6        37.864    29024296.357 6 116868818.01006      1771.085 6        38.300
C43        31.000                                                                                                                                    21581535.487 8 112380825.10008      -279.657 8        51.487                                                                    21581534.124 8  91318668.21908      -227.280 8        49.655
C42        32.000                                                                                                                                    23298344.833 7 121320613.43007      1651.752 7        47.926                                                                    23298352.656 8  98582977.29608      1342.120 8        48.855
I02        33.000    40400943.614 6 158542027.82706      -983.473 6        37.093
R03        34.000    24472147.107 6 131001337.96106     -4303.359 6        39.988                                                                    24472147.104 6 101889926.07706     -3346.905 6        37.096
E34        35.000    23441676.374 8 123187047.28608      -858.025 8        48.424                                                                    23441676.334 8  91990438.27508      -640.745 8        50.776    23441676.118 8  94390177.63708      -657.432 8        51.260
G30        36.000    25827504.386 5 135724470.89005      -908.289 5        35.271                                    25827503.014 4 105759337.76104      -707.761 4        26.898    25827503.410 5 105759330.75105      -707.813 5        34.043
R21        37.000    21275862.579 8 113851485.44008      2092.520 8        49.323                                                                    21275862.490 7  88551174.33907      1627.421 7        44.229
C22        38.000                                                                                                                                    26892917.941 5 140038487.83805     -3422.989 5        35.333                                                                    26892913.081 6 113792722.17106     -2781.723 6        36.586
R05        39.000    20846631.561 8 111437212.45108      2115.806 8        50.739                                                                    20846631.457 7  86673395.51007      1645.667 7        46.085
C12        40.000                                                                                                                                    25886676.585 6 134798898.24506     -3164.215 6        38.336    25886673.607 7 104235150.71107     -2446.708 7        44.936    25886672.162 6 109535215.96806     -2571.149 6        41.502
R04        41.000    21259638.293 8 113844425.10108     -1788.372 8        49.500                                                                    21259636.248 7  88545671.09607     -1390.957 7        44.585
S44        42.000    40542322.641 6 213051528.34606      -444.474 6        37.599
G08        43.000    21179707.578 7 111300203.81207      1632.364 7        47.570                                    21179706.024 7  86727471.29307      1271.973 7        47.687    21179706.846 7  86727469.29307      1272.036 7        44.352
C05        44.000                                                                                                                                    39291406.117 6 204600692.68206      -381.015 6        38.018    39291400.333 6 158210256.86306      -294.715 6        41.971    39291403.168 6 166254924.67506      -309.765 6        40.410
C11        45.000                                                                                                                                    22000140.903 8 114560652.62608     -1466.960 8        48.618    22000137.289 8  88585624.22308     -1134.373 8        51.859    22000136.373 8  93089954.13508     -1192.005 8        49.076
E09        46.000    27108226.397 6 142454710.08506       165.331 6        40.579                                                                    27108226.998 7 106378527.97107       123.362 7        42.762    27108226.626 7 109153617.11407       126.592 7        44.042
G07        47.000    25697725.048 6 135042438.28206     -1983.324 6        36.310                                    25697722.711 3 105227852.75003     -1545.437 3        23.371    25697722.785 5 105227860.73105     -1545.058 5        31.374
C21        48.000                                                                                                                                    23848142.969 7 124183567.16107     -1308.754 7        47.240                                                                    23848137.437 7 100909308.28207     -1063.507 7        47.625
E06        49.000    27616224.838 6 145124261.23906      -943.906 6        38.366                                                                    27616225.621 6 108372017.94806      -705.066 6        41.125    27616225.347 6 111199111.30906      -723.370 6        41.223
R19        50.000    23470967.915 5 125554100.40805     -3641.136 5        34.848                                                                    23470967.764 6  97653298.17306     -2831.676 6        37.043
S48        51.000    77258540.496 6 405996850.09006      -480.408 6        37.251
C08        52.000                                                                                                                                    39303445.940 6 204663454.37906     -1667.044 6        37.444    39303439.151 7 158258794.50407     -1289.033 7        42.199    39303438.602 6 166305839.06006     -1354.488 6        39.655
C34        53.000                                                                                                                                    23192280.655 7 120768567.55407     -2584.910 7        47.527                                                                    23192280.184 7  98134469.47107     -2100.420 7        46.971
C60        54.000                                                                                                                                    40542323.851 6 211114715.65006      -440.385 6        39.697                                                                    40542307.933 6 171547967.94806      -357.981 6        39.736
R12        55.000    23437809.198 7 125200566.78407      2378.152 7        43.865                                                                    23437809.637 7  97378221.05807      1849.666 7        42.409
I09        56.000    38339915.002 7 150454084.15707       320.878 7        42.847
C02        57.000                                                                                                                                    40631971.078 5 211581379.70805      -393.309 5        33.778    40631965.898 6 163608136.28906      -304.083 6        40.074    40631968.817 6 171927204.32506      -319.732 6        36.639
I03        58.000    80565210.611 6 240369940.45406      1083.483 6        40.400
E30        59.000    25011900.947 7 131438645.29107     -2385.585 7        46.981                                                                    25011900.750 8  98152354.67108     -1781.369 8        48.798    25011900.405 8 100712834.19008     -1827.904 8        49.438
R20        60.000    19723211.855 6 105469086.15706      -996.690 6        38.967                                                                    19723213.864 7  82031580.67607      -775.143 7        47.389
> 2025 01 02 20 30 20.0000000  0 59
G23         1.000    21574866.676 7 113376772.07207     -2427.417 7        46.866                                    21574863.102 6  88345559.53506     -1891.495 6        36.189    21574863.525 7  88345557.54207     -1891.557 7        45.347
C37         2.000                                                                                                                                    25371843.280 7 132117839.62207     -1059.765 7        43.060                                                                    25371847.306 7 107356586.95007      -861.150 7        43.767
G16         3.000    22701565.075 7 119297729.14307     -3758.394 7        45.351                                    22701560.098 5  92959352.99005     -2928.617 5        31.857
