     3.04           OBSERVATION DATA    M                   RINEX VERSION / TYPE
ssrcrin-15.6.1x                         20250102 101500 UTC PGM / RUN BY / DATE 
(00000000023479385599111004) Septentrio proprietary         COMMENT             
rref                                                        MARKER NAME         
01                                                          MARKER NUMBER       
geodetic                                                    MARKER TYPE         
NFB                 CLIMERS@TUW                             OBSERVER / AGENCY   
3297213             SEPT ASTERX SB3 PROB4.14.4              REC # / TYPE / VERS 
Unknown             Unknown                                 ANT # / TYPE        
  4127832.5510  1207193.0625  4695248.5488                  APPROX POSITION XYZ 
        0.0000        0.0000        0.0000                  ANTENNA: DELTA H/E/N
G   23 X1  C1C L1C D1C S1C C1W S1W C2W L2W D2W S2W C2L L2L  SYS / # / OBS TYPES 
       D2L S2L C5Q L5Q D5Q S5Q C1L L1L D1L S1L              SYS / # / OBS TYPES 
E   21 X1  C1C L1C D1C S1C C6C L6C D6C S6C C5Q L5Q D5Q S5Q  SYS / # / OBS TYPES 
       C7Q L7Q D7Q S7Q C8Q L8Q D8Q S8Q                      SYS / # / OBS TYPES 
S    9 X1  C1C L1C D1C S1C C5I L5I D5I S5I                  SYS / # / OBS TYPES 
R   17 X1  C1C L1C D1C S1C C2P L2P D2P S2P C2C L2C D2C S2C  SYS / # / OBS TYPES 
       C3Q L3Q D3Q S3Q                                      SYS / # / OBS TYPES 
C   25 X1  C1P L1P D1P S1P C5P L5P D5P S5P C2I L2I D2I S2I  SYS / # / OBS TYPES 
       C7I L7I D7I S7I C6I L6I D6I S6I C7D L7D D7D S7D      SYS / # / OBS TYPES 
J   17 X1  C1C L1C D1C S1C C2L L2L D2L S2L C5Q L5Q D5Q S5Q  SYS / # / OBS TYPES 
       C1L L1L D1L S1L                                      SYS / # / OBS TYPES 
I    5 X1  C5A L5A D5A S5A                                  SYS / # / OBS TYPES 
SEPTENTRIO RECEIVERS OUTPUT ALIGNED CARRIER PHASES.         COMMENT             
NO FURTHER PHASE SHIFT APPLIED IN THE RINEX ENCODER.        COMMENT             
G L1C                                                       SYS / PHASE SHIFT   
G L2W                                                       SYS / PHASE SHIFT   
G L2L  0.00000                                              SYS / PHASE SHIFT   
G L5Q  0.00000                                              SYS / PHASE SHIFT   
G L1L  0.00000                                              SYS / PHASE SHIFT   
E L1C  0.00000                                              SYS / PHASE SHIFT   
E L6C  0.00000                                              SYS / PHASE SHIFT   
E L5Q  0.00000                                              SYS / PHASE SHIFT   
E L7Q  0.00000                                              SYS / PHASE SHIFT   
E L8Q  0.00000                                              SYS / PHASE SHIFT   
S L1C                                                       SYS / PHASE SHIFT   
S L5I                                                       SYS / PHASE SHIFT   
R L1C                                                       SYS / PHASE SHIFT   
R L2P  0.00000                                              SYS / PHASE SHIFT   
R L2C                                                       SYS / PHASE SHIFT   
R L3Q  0.00000                                              SYS / PHASE SHIFT   
C L1P  0.00000                                              SYS / PHASE SHIFT   
C L5P  0.00000                                              SYS / PHASE SHIFT   
C L2I                                                       SYS / PHASE SHIFT   
C L7I                                                       SYS / PHASE SHIFT   
C L6I                                                       SYS / PHASE SHIFT   
C L7D                                                       SYS / PHASE SHIFT   
J L1C                                                       SYS / PHASE SHIFT   
J L2L  0.00000                                              SYS / PHASE SHIFT   
J L5Q  0.00000                                              SYS / PHASE SHIFT   
J L1L  0.00000                                              SYS / PHASE SHIFT   
I L5A                                                       SYS / PHASE SHIFT   
  2025     1     2    10    15    0.0000000     GPS         TIME OF FIRST OBS   
 C1C    0.000 C2C    0.000 C2P    0.000                     GLONASS COD/PHS/BIS 
DBHZ                                                        SIGNAL STRENGTH UNIT
    18                                                      LEAP SECONDS        
 24 R01  1 R02 -4 R03  5 R04  6 R05  1 R06 -4 R07  5 R08  6 GLONASS SLOT / FRQ #
    R09 -2 R10 -7 R11  0 R12 -1 R13 -2 R14 -7 R15  0 R16 -1 GLONASS SLOT / FRQ #
    R17  4 R18 -3 R19  3 R20  2 R21  4 R22 -3 R23  3 R24  2 GLONASS SLOT / FRQ #
                                                            END OF HEADER       
> 2025 01 02 10 15  0.0000000  0 53
E24         1.000    24356765.543 7 127995786.97207      1220.683 7        47.958                                                                    24356767.841 8  95581338.59208       911.574 8        49.731    24356766.920 8  98074753.58808       935.373 8        50.413
G15         2.000    20351818.701 8 106949474.57208     -1766.040 8        48.919                                    20351817.369 8  83337227.49908     -1376.133 8        49.516    20351817.947 7  83337222.49207     -1376.106 7        45.530
E03         3.000    27922802.052 6 146735286.14506      2377.296 6        37.172                                                                    27922810.606 6 109575054.51006      1775.267 6        40.706    27922809.446 6 112433536.20106      1821.793 6        41.714
G19         4.000    22416563.720 7 117799982.72607      2170.998 7        45.040                                    22416563.949 5  91792222.38405      1691.683 5        34.514
S21         5.000    38396251.884 7 201773250.30007      -489.191 7        42.064
E05         6.000    22538314.370 7 118439604.65107       721.299 7        46.692                                                                    22538318.045 8  88445134.27308       538.684 8        50.250    22538317.383 8  90752398.08308       552.726 8        51.023
E13         7.000    28570815.224 5 150140622.67105      -716.455 5        34.786                                                                    28570829.193 6 112118043.14006      -535.366 6        39.375    28570826.995 6 115042853.97506      -549.027 6        40.083
R02         8.000    22396355.949 7 119511107.24107     -4922.919 7        46.689                                                                    22396363.938 7  92953048.28107     -3828.855 7        43.517
G24        10.000    21130457.093 7 111041307.17507      1776.195 7        46.117                                    21130458.770 7  86525709.37407      1384.049 7        47.094    21130459.115 7  86525714.38307      1384.029 7        44.325
G30        11.000    24908552.320 6 130895122.07506     -3618.290 6        38.006                                    24908562.390 5 101996137.97405     -2819.402 5        31.547    24908563.875 6 101996145.91506     -2819.431 6        36.533
S27        12.000    39129358.265 6 205626056.49906      -521.809 6        36.495
G13        13.000    21084477.466 8 110799615.03908     -3137.320 8        48.853                                    21084476.308 6  86337325.12706     -2444.662 6        37.248
S36        14.000    38166363.381 7 200566038.20907      -490.205 7        43.979
G02        15.000    25663790.685 6 134864135.52206      -127.302 6        36.053                                    25663797.471 2 105088964.42902       -99.174 2        17.623
E09        16.000    24100976.723 8 126651448.62808     -2178.352 8        48.582                                                                    24100980.209 8  94577362.08408     -1626.766 8        50.055    24100979.438 8  97044595.89308     -1669.137 8        50.922
G12        17.000    23907677.075 7 125635779.00507      3172.272 7        42.421                                    23907681.005 6  97898070.30406      2471.885 6        36.140    23907681.964 6  97898067.35606      2471.921 6        38.402
R21        18.000    23352340.923 7 124963134.84907     -1895.866 7        43.983                                                                    23352348.669 6  97193598.62606     -1474.579 6        39.441
R22        19.000    22821743.134 7 121824080.92607      1602.044 7        44.140                                                                    22821749.383 7  94752056.49807      1245.940 7        42.112
R03        21.000    19561598.214 8 104714717.21708     -1942.671 8        52.586                                                                    19561599.293 7  81444767.69407     -1511.006 7        47.766
I06        22.000    38163874.779 7 149763354.96807      -468.731 7        42.347
S28        23.000    40847463.406 5 214654679.52505      -500.112 5        34.638
S23        25.000    38099640.700 7 200214895.55807      -491.996 7        43.591
S45        26.000    63349546.087 5 332905021.35705      -542.714 5        35.519
C07        27.000                                                                                                                                    38874467.350 6 202429504.61506      -876.603 6        40.350    38874467.551 7 156531314.81007      -677.698 7        44.143    38874465.047 6 164490526.63206      -712.127 6        41.118
R04        28.000    20764318.404 8 111191969.15708      2109.746 8        50.048                                                                    20764320.753 7  86482619.58507      1640.930 7        46.142
C40        29.000                                                                                                                                    38964420.158 7 202897917.89807     -1061.282 7        42.633                                                                    38964423.502 7 164871173.30907      -862.418 7        42.902
G17        30.000    21969536.804 7 115450829.29407      -123.634 7        46.546                                    21969536.641 7  89961747.20507       -96.338 7        44.670    21969537.135 7  89961744.20307       -96.318 7        42.637
G14        31.000    22294971.264 7 117160816.83107     -3304.848 7        43.355                                    22294972.520 5  91294130.18905     -2575.197 5        32.323    22294973.067 7  91294116.18907     -2575.274 7        43.488
G23        32.000    23066696.085 7 121216226.54307     -1051.943 7        43.335                                    23066697.883 4  94454170.21104      -819.692 4        29.393    23066697.978 6  94454165.20406      -819.693 6        41.821
I02        33.000    36960142.630 7 145039538.28607      -167.856 7        42.772
E04        34.000    27577186.281 6 144918932.56106     -3537.041 6        38.210                                                                    27577198.840 7 108218636.86407     -2641.255 7        42.028    27577197.052 7 111041733.97407     -2710.147 7        42.900
R13        35.000    19316075.300 7 103146799.31207     -1240.885 7        46.680
R12        36.000    21636565.316 7 115578574.59607     -3706.541 7        47.706                                                                    21636571.518 7  89894432.69207     -2882.908 7        44.200
C42        37.000                                                                                                                                    24755521.657 7 128908487.36307      1528.320 7        44.054                                                                    24755533.167 7 104748748.53507      1241.974 7        44.740
C10        38.000                                                                                                                                    38446258.167 7 200199742.69107      -495.920 7        42.591    38446259.472 7 154807138.39007      -383.493 7        44.707    38446256.524 6 162678676.59006      -402.977 6        41.604
E25        39.000    28121190.102 6 147777868.47906      2427.276 6        36.643                                                                    28121206.560 6 110353674.33306      1812.667 6        39.835    28121204.110 6 113232456.93306      1860.005 6        39.910
C30        40.000                                                                                                                                    24759329.211 7 128928370.84407       764.303 7        44.891                                                                    24759335.199 7 104764904.69707       621.112 7        42.971
R23        41.000    24107746.890 6 128960175.18506      3454.400 6        37.599
S44        42.000    40828191.128 6 214553585.53206      -457.841 6        37.444
C36        43.000                                                                                                                                    22786629.690 7 118655909.08307     -2492.699 7        47.864                                                                    22786637.739 8  96417654.41908     -2025.435 8        49.026
C05        44.000                                                                                                                                    39375157.520 6 205036702.62606      -529.868 6        38.198    39375159.619 7 158547379.92907      -409.928 7        43.136    39375159.780 6 166609196.30606      -430.523 6        39.721
R14        45.000    21425495.114 8 114210031.33008      2344.686 8        49.549                                                                    21425500.427 7  88830100.21807      1823.628 7        45.217
G10        47.000    24844121.036 6 130556681.38906      1342.969 6        39.480                                    24844126.986 5 101732474.11005      1046.467 5        34.167    24844127.031 6 101732475.10406      1046.634 6        37.418
C45        50.000                                                                                                                                    21634681.617 8 112657493.60308        25.483 8        51.129                                                                    21634675.726 8  91543430.84208        20.800 8        49.867
S48        51.000    77105763.858 6 405192926.07106      -483.787 6        37.282
E06        52.000    25353250.854 7 133232166.61707     -3095.872 7        44.299                                                                    25353257.361 7  99491537.39207     -2311.835 7        47.352    25353256.122 7 102086969.83207     -2372.132 7        47.658
C60        54.000                                                                                                                                    40828190.071 6 212603116.13106      -453.803 6        39.784                                                                    40828183.879 6 172757377.18306      -368.563 6        39.556
E31        55.000    23610934.338 7 124076295.65607     -1521.221 7        47.645                                                                    23610937.753 8  92654407.36708     -1135.913 8        50.424    23610937.152 8  95071475.14208     -1165.515 8        51.334
C26        56.000                                                                                                                                    24996325.449 7 130162463.18407      2192.456 7        43.234                                                                    24996330.189 7 105767694.69907      1781.449 7        43.380
C02        57.000                                                                                                                                    40931881.981 5                      -502.004 5        30.211    40931888.328 6 164815569.35006      -388.321 6        36.166    40931888.449 5 173196043.82305      -408.052 5        30.898
I03        58.000    93602378.270 5 291530354.88305       906.283 5        34.671
C21        59.000                                                                                                                                    22935207.532 8 119429586.53708     -1335.432 8        49.803                                                                    22935205.039 8  97046285.93808     -1085.122 8        49.242
C22        60.000                                                                                                                                    24282064.822 7 126442966.32207     -3759.183 7        46.026                                                                    24282063.957 7 102745219.16607     -3054.547 7        45.910
> 2025 01 02 10 15  5.0000000  0 53
E24         1.000    24355605.021 8 127989688.58008      1218.732 8        48.061                                                                    24355607.311 8  95576784.60108       910.126 8        49.796    24355606.469 8  98070080.80108       933.808 8        50.523
G15         2.000    20353500.470 8 106958313.58808     -1769.454 8        48.967                                    20353499.383 8  83344115.03708     -1378.791 8        49.574    20353499.699 7  83344110.03207     -1378.787 7        45.153
E03         3.000    27920540.408 6 146723400.47106      2376.921 6        37.565                                                                    27920548.761 6 109566178.84806      1775.026 6        40.744    27920547.710 6 112424429.01306      1821.358 6        41.642
G19         4.000    22414499.355 7 117789133.72007      2168.818 7        44.600                                    22414499.441 5  91783768.65705      1689.979 5        34.543
S21         5.000    38396707.977 6 201775698.36706      -489.631 6        41.614
E05         6.000    22537629.116 7 118436003.31907       719.298 7        46.911                                                                    22537632.733 8  88442444.96408       537.145 8        50.299    22537632.045 8  90749638.61708       551.195 8        51.092
E13         7.000    28571498.427 5 150144212.82905      -719.070 5        35.233                                                                    28571512.387 6 112120724.04206      -536.918 6        39.799    28571510.104 6 115045604.83806      -551.118 6        40.191
R02         8.000    22400969.457 7 119535725.60007     -4924.364 7        46.806                                                                    22400977.885 7  92972195.81207     -3829.959 7        42.538
G24        10.000    21128768.075 7 111032431.40607      1774.251 7        46.112                                    21128769.762 7  86518793.19207      1382.534 7        47.193    21128769.987 7  86518798.20107      1382.423 7        44.211
G30        11.000    24911995.402 6 130913215.28206     -3618.852 6        38.198                                    24912005.678 5 102010236.44705     -2819.862 5        31.358    24912006.738 6 102010244.39106     -2819.849 6        36.423
S27        12.000    39129848.668 6 205628665.78406      -522.133 6        36.200
G13        13.000    21087463.747 8 110815307.74108     -3139.671 8        49.092                                    21087462.579 6  86349553.18606     -2446.495 6        37.263
S36        14.000    38166828.009 7 200568489.93607      -490.556 7        43.909
G02        15.000    25663912.876 6 134864779.18806      -130.149 6        36.987                                    25663919.846 3 105089465.96703      -101.410 3        18.000
E09        16.000    24103050.474 8 126662345.88408     -2180.382 8        48.797                                                                    24103053.837 8  94585499.62208     -1628.182 8        50.125    24103053.125 8  97052945.72108     -1670.754 8        51.025
G12        17.000    23904659.342 7 125619920.12007      3171.202 7        42.180                                    23904663.129 6  97885712.83406      2471.051 6        36.227    23904664.076 6  97885709.86406      2471.179 6        39.135
R21        18.000    23354114.915 7 124972625.23107     -1900.167 7        43.427                                                                    23354122.465 6  97200980.01106     -1477.991 6        39.261
R22        19.000    22820244.353 7 121816079.99307      1598.356 7        44.048                                                                    22820250.422 7  94745833.56907      1243.274 7        42.220
R03        21.000    19563414.672 8 104724442.05008     -1947.217 8        52.413                                                                    19563415.575 7  81452331.44607     -1514.422 7        47.315
I06        22.000    38164472.514 7 149765699.30107      -468.858 7        42.415
S28        23.000    40847936.396 5 214657180.74905      -500.403 5        34.186
S23        25.000    38100115.260 7 200217355.84707      -492.029 7        43.852
S45        26.000    63350012.867 5 332907735.42605      -542.550 5        35.086
C07        27.000                                                                                                                                    38875309.187 6 202433889.18506      -877.233 6        40.298    38875309.779 7 156534705.23407      -678.336 7        44.095    38875307.159 6 164494089.44906      -712.844 6        41.256
R04        28.000    20762350.247 8 111181430.05108      2106.014 8        50.111                                                                    20762352.236 7  86474422.49107      1638.006 7        46.163
C40        29.000                                                                                                                                    38965439.884 7 202903226.90807     -1062.219 7        42.756                                                                    38965443.059 7 164875487.30307      -863.037 7        42.933
G17        30.000    21969656.235 7 115451456.20807      -126.945 7        46.758                                    21969655.988 7  89962235.71207       -98.920 7        44.755    21969656.672 7  89962232.72007       -99.046 7        43.338
G14        31.000    22298116.822 7 117177344.97307     -3306.312 7        43.934                                    22298117.810 5  91307009.23405     -2576.334 5        32.401    22298118.407 7  91306995.21707     -2576.282 7        44.060
G23        32.000    23067698.557 7 121221495.09007     -1055.330 7        43.153                                    23067700.438 4  94458275.56504      -822.327 4        29.488    23067700.907 7  94458270.54807      -822.358 7        42.091
I02        33.000    36960356.796 7 145040378.28907      -168.096 7        42.874
E04        34.000    27580552.043 6 144936619.43006     -3537.721 6        38.216                                                                    27580564.626 7 108231844.51007     -2641.705 7        42.089    27580562.884 7 111055286.17607     -2710.634 7        42.906
R13        35.000    19317238.596 7 103153010.49207     -1243.490 7        46.715
R12        36.000    21640035.755 8 115597109.89108     -3707.520 8        48.490                                                                    21640041.029 7  89908848.98707     -2883.614 7        44.152
C42        37.000                                                                                                                                    24754054.985 7 128900851.76207      1526.081 7        44.059                                                                    24754066.851 7 104742543.98507      1239.931 7        44.864
C10        38.000                                                                                                                                    38446734.937 7 200202224.51007      -496.716 7        42.404    38446736.077 7 154809057.46707      -384.022 7        44.655    38446733.259 6 162680693.26406      -403.478 6        41.666
E25        39.000    28118880.997 6 147765733.19006      2426.910 6        37.009                                                                    28118897.207 6 110344612.32406      1812.215 6        39.988    28118894.774 6 113223158.53006      1859.477 6        40.036
C30        40.000                                                                                                                                    24758596.850 7 128924556.18807       761.748 7        44.665                                                                    24758602.591 7 104761804.96907       619.044 7        43.098
R23        41.000    24104518.078 6 128942905.54806      3453.526 6        37.384
S44        42.000    40828627.209 6 214555875.57606      -458.132 6        37.217
C36        43.000                                                                                                                                    22789024.078 8 118668375.83208     -2493.831 8        48.195                                                                    22789031.780 8  96427784.65708     -2026.443 8        49.129
C05        44.000                                                                                                                                    39375666.252 6 205039353.14906      -530.158 6        38.225    39375668.723 7 158549429.46107      -409.909 7        43.158    39375668.695 6 166611350.06506      -430.786 6        39.946
R14        45.000    21423296.852 8 114198312.68008      2342.821 8        49.705                                                                    21423301.827 7  88820985.73307      1822.164 7        45.640
G10        47.000    24842845.190 6 130549973.79306      1340.168 6        39.390                                    24842850.525 5 101727247.40205      1044.294 5        34.281    24842850.735 6 101727248.37906      1044.443 6        37.217
C45        50.000                                                                                                                                    21634658.027 8 112657370.84708        23.733 8        51.135                                                                    21634652.121 8  91543331.09908        19.271 8        50.023
S48        51.000    77106225.978 6 405195346.53806      -484.062 6        36.926
E06        52.000    25356197.325 7 133247649.41807     -3097.225 7        44.745                                                                    25356203.646 7  99503099.20707     -2312.843 7        47.433    25356202.563 7 102098833.25707     -2373.178 7        47.568
C60        54.000                                                                                                                                    40828625.348 6 212605385.34306      -453.889 6        39.682                                                                    40828619.787 6 172759221.09106      -368.713 6        39.712
E31        55.000    23612382.411 7 124083906.17307     -1522.994 7        47.741                                                                    23612385.987 8  92660090.53508     -1137.256 8        50.422    23612385.369 8  95077306.56708     -1166.949 8        51.385
C26        56.000                                                                                                                                    24994220.649 7 130151503.49307      2191.677 7        43.390                                                                    24994225.538 7 105758789.03907      1780.982 7        43.619
C02        57.000                                                                                                                                    40932364.362 5                      -502.149 5        31.034    40932370.848 6 164817511.40706      -388.327 6        36.412    40932370.982 5 173198084.63005      -408.204 5        31.472
I03        58.000    93601224.364 5 291525823.33505       906.337 5        34.976
C21        59.000                                                                                                                                    22936491.692 8 119436271.78208     -1338.524 8        49.949                                                                    22936488.944 8  97051718.24008     -1087.647 8        49.265
C22        60.000                                                                                                                                    24285675.045 7 126461765.46307     -3760.407 7        45.846                                                                    24285673.948 7 102760494.98007     -3055.561 7        46.029
> 2025 01 02 10 15 10.0000000  0 54
E24         1.000    24354445.807 7 127983597.97507      1217.122 7        47.914                                                                    24354448.300 8  95572236.43608       908.883 8        49.871    24354447.414 8  98065413.97908       932.605 8        50.456
G15         2.000    20355185.918 8 106967169.22808     -1772.941 8        48.993                                    20355184.564 8  83351015.52708     -1381.511 8        49.410    20355185.092 7  83351010.51107     -1381.494 7        45.397
E03         3.000    27918279.368 6 146711516.29606      2376.543 6        38.135                                                                    27918287.490 6 109557304.28906      1774.675 6        40.861    27918286.195 6 112415322.95306      1820.955 6        41.616
G19         4.000    22412437.023 7 117778294.56707      2166.709 7        45.025                                    22412436.722 5  91775322.60605      1688.332 5        34.386
S21         5.000    38397180.242 6 201778146.09706      -489.650 6        41.874
E05         6.000    22536945.478 7 118432410.74807       717.547 7        46.845                                                                    22536949.065 8  88439762.19908       535.787 8        50.405    22536948.404 8  90746885.86608       549.797 8        51.015
E13         7.000    28572183.799 5 150147814.90905      -721.601 5        35.614                                                                    28572197.896 6 112123413.85206      -538.923 6        40.186    28572195.607 6 115048364.82106      -552.872 6        40.386
R02         8.000    22405584.193 7 119560350.23707     -4925.711 7        46.912                                                                    22405591.919 7  92991348.23907     -3831.020 7        42.004
G24        10.000    21127080.537 7 111023564.04707      1772.392 7        46.104                                    21127082.346 7  86511883.56507      1381.086 7        47.046    21127082.713 7  86511888.56707      1381.107 7        44.242
G30        11.000    24915438.778 6 130931310.29006     -3619.409 6        38.417                                    24915449.417 5 102024336.31605     -2820.290 5        31.185    24915449.647 6 102024344.25706     -2820.190 6        36.250
S27        12.000    39130346.360 6 205631274.72606      -522.015 6        36.284
G13        13.000    21090451.848 8 110831011.32908     -3141.957 8        49.153                                    21090450.915 6  86361789.73306     -2448.277 6        37.123
S36        14.000    38167293.577 7 200570941.65507      -490.382 7        44.050
G02        15.000    25664038.707 6 134865435.76306      -132.773 6        37.153                                    25664044.636 2 105089977.59502      -103.463 2        17.962
E09        16.000    24105125.638 8 126673251.94508     -2182.185 8        48.540                                                                    24105129.234 8  94593643.75408     -1629.604 8        50.188    24105128.486 8  97061302.30508     -1672.131 8        50.946
G12        17.000    23901641.751 6 125604065.37406      3170.473 6        41.731                                    23901645.929 5  97873358.57905      2470.477 5        35.967    23901646.063 6  97873355.63706      2470.316 6        38.532
R21        18.000    23355891.787 7 124982135.82307     -1904.376 7        42.950                                                                    23355900.311 6  97208377.09506     -1481.108 6        39.799
R22        19.000    22818749.419 7 121808095.83107      1595.054 7        44.898                                                                    22818755.275 7  94739623.68107      1240.676 7        42.557
R03        21.000    19565235.655 8 104734188.55508     -1951.639 8        52.874                                                                    19565236.261 7  81459912.05407     -1517.949 7        47.298
I06        22.000    38165069.627 7 149768043.54307      -468.890 7        42.485
S28        23.000    40848413.460 5 214659681.82205      -500.232 5        34.448
S23        25.000    38100580.214 7 200219815.77807      -492.018 7        43.744
S45        26.000    63350481.072 5 332910449.22105      -542.748 5        35.114
C07        27.000                                                                                                                                    38876151.621 6 202438276.47206      -877.851 6        40.088    38876152.204 7 156538097.75507      -678.815 7        44.033    38876149.465 6 164497654.48506      -713.376 6        40.975
R04        28.000    20760385.456 8 111170908.25908      2102.537 8        50.408                                                                    20760387.231 7  86466238.86707      1635.322 7        46.057
C40        29.000                                                                                                                                    38966460.384 7 202908539.38007     -1062.973 7        42.773                                                                    38966463.286 7 164879804.12107      -863.791 7        42.772
G17        30.000    21969778.393 7 115452098.71907      -130.215 7        46.697                                    21969778.323 7  89962736.37007      -101.466 7        44.572    21969778.556 7  89962733.37907      -101.552 7        42.859
G14        31.000    22301263.322 7 117193879.27907     -3307.569 7        44.256                                    22301264.281 5  91319893.07805     -2577.321 5        32.257    22301264.308 7  91319879.06807     -2577.306 7        43.683
G23        32.000    23068703.760 7 121226779.64707     -1058.619 7        43.213                                    23068705.968 4  94462393.37104      -824.900 4        29.422    23068706.289 6  94462388.37006      -824.914 6        41.764
I02        33.000    36960571.240 7 145041219.25907      -168.359 7        42.950
E04        34.000    27583918.083 6 144954308.29206     -3538.177 6        38.081                                                                    27583930.695 7 108245053.66007     -2642.103 7        42.121    27583928.927 7 111068839.91407     -2710.999 7        42.914
R13        35.000    19318404.190 7 103159233.82207     -1246.029 7        46.704
R12        36.000    21643506.226 8 115615648.77108     -3708.267 8        48.054                                                                    21643511.575 7  89923268.09907     -2884.234 7        44.408
C42        37.000                                                                                                                                    24752590.241 7 128893227.11107      1523.700 7        43.253                                                                    24752602.579 7 104736348.33507      1238.127 7        44.710
C10        38.000                                                                                                                                    38447212.200 7 200204709.25107      -497.422 7        42.455    38447213.325 7 154810978.82807      -384.583 7        44.939    38447210.541 6 162682712.32106      -404.015 6        41.466
E25        39.000    28116572.300 6 147753599.53706      2426.624 6        36.756                                                                    28116588.360 6 110335551.56406      1811.908 6        40.098    28116586.050 6 113213861.38806      1859.138 6        40.300
C30        40.000                                                                                                                                    24757866.026 7 128920753.33907       759.257 7        44.414                                                                    24757872.160 7 104758714.85607       617.045 7        42.927
R23        41.000    24101290.567 6 128925638.55506      3452.997 6        38.030
S44        42.000    40829060.841 6 214558165.21006      -458.029 6        37.705
C36        43.000                                                                                                                                    22791419.200 8 118680847.21208     -2494.902 8        48.051                                                                    22791426.783 8  96437918.66108     -2027.250 8        48.971
C05        44.000                                                                                                                                    39376175.297 6 205042003.33006      -530.120 6        37.558    39376177.897 7 158551478.75207      -410.016 7        43.399    39376177.705 6 166613503.54906      -430.699 6        39.724
R14        45.000    21421100.205 8 114186602.02408      2341.196 8        49.516                                                                    21421104.671 7  88811877.46507      1820.930 7        44.834
E26        46.000    28795281.943 4 151320232.46214      1309.868 4        28.711                                                                    28795296.965 5 112998930.78515       977.774 5        34.548    28795294.748 5 115946719.58215      1003.340 5        34.476
G10        47.000    24841571.663 6 130543279.34206      1337.345 6        39.637                                    24841576.721 5 101722030.93405      1042.090 5        34.224    24841576.982 6 101722031.91906      1042.312 6        36.960
C45        50.000                                                                                                                                    21634636.061 8 112657255.97208        22.033 8        50.986                                                                    21634630.047 8  91543237.76308        17.947 8        49.844
S48        51.000    77106688.482 6 405197766.51006      -484.292 6        37.429
E06        52.000    25359144.736 7 133263137.85507     -3098.487 7        44.944                                                                    25359150.924 7  99514665.23307     -2313.825 7        47.441    25359150.013 7 102110701.00307     -2374.086 7        47.590
C60        54.000                                                                                                                                    40829061.532 6 212607654.16906      -453.810 6        39.967                                                                    40829055.475 6 172761064.70306      -368.896 6        39.601
E31        55.000    23613832.262 7 124091524.61207     -1524.557 7        47.788                                                                    23613835.718 8  92665779.61908     -1138.559 8        50.475    23613835.174 8  95083144.06808     -1168.219 8        51.335
C26        56.000                                                                                                                                    24992117.697 7 130140546.74607      2190.967 7        43.437                                                                    24992121.524 7 105749885.80207      1780.398 7        43.426
C02        57.000                                                                                                                                    40932847.919 5                      -502.251 5        30.732    40932852.835 6 164819453.14506      -388.450 6        36.646    40932853.036 5 173200125.09905      -407.888 5        31.155
I03        58.000    93600069.522 5 291521291.44505       906.447 5        34.786
C21        59.000                                                                                                                                    22937778.182 8 119442971.09608     -1341.452 8        49.888                                                                    22937775.383 8  97057161.97608     -1089.989 8        49.109
C22        60.000                                                                                                                                    24289286.031 7 126480569.40807     -3761.403 7        46.361                                                                    24289285.070 7 102775774.72007     -3056.438 7        45.956
> 2025 01 02 10 15 15.0000000  0 54
E24         1.000    24353288.339 7 127977515.35507      1215.935 7        47.772                                                                    24353290.801 8  95567694.22208       907.992 8        49.915    24353289.945 8  98060753.27908       931.653 8        50.482
G15         2.000    20356874.168 8 106976041.63008     -1775.960 8        48.911                                    20356872.941 8  83357929.08008     -1383.864 8        49.491    20356873.159 7  83357924.08507     -1383.814 7        44.928
E03         3.000    27916017.897 6 146699633.75906      2376.477 6        38.474                                                                    27916026.218 6 109548430.96406      1774.605 6        40.806    27916025.029 6 112406218.14106      1820.975 6        41.647
G19         4.000    22410376.398 7 117767465.44107      2165.009 7        45.356                                    22410375.885 5  91766884.37505      1687.013 5        34.476
S21         5.000    38397641.705 6 201780593.78006      -489.337 6        41.633
E05         6.000    22536263.597 7 118428827.14407       715.916 7        47.059                                                                    22536267.165 8  88437086.12108       534.622 8        50.380    22536266.480 8  90744139.97808       548.610 8        51.143
E13         7.000    28572871.675 5 150151429.13605      -723.721 5        35.743                                                                    28572885.685 6 112126112.76306      -540.438 6        39.592    28572883.642 6 115051134.14006      -554.637 6        40.303
R02         8.000    22410200.313 7 119584981.25507     -4926.655 7        47.381                                                                    22410208.263 7  93010505.64607     -3831.787 7        42.921
G24        10.000    21125395.057 7 111014705.31507      1771.133 7        46.171                                    21125396.580 7  86504980.66107      1380.104 7        47.117    21125396.868 7  86504985.66507      1380.083 7        44.051
G30        11.000    24918882.723 6 130949407.22506     -3619.290 6        37.932                                    24918893.318 5 102038437.69605     -2820.200 5        31.064    24918893.447 5 102038445.66605     -2820.331 5        35.862
S27        12.000    39130846.931 6 205633883.24106      -521.518 6        36.624
G13        13.000    21093442.304 8 110846725.97308     -3143.879 8        48.501                                    21093441.330 6  86374034.89206     -2449.769 6        37.236
S36        14.000    38167762.891 7 200573393.34307      -490.159 7        44.187
G02        15.000    25664166.184 6 134866105.47506      -135.160 6        36.911                                    25664171.871 3 105090499.44303      -105.359 3        18.716
E09        16.000    24107202.832 8 126684167.02608     -2183.721 8        48.743                                                                    24107206.347 8  94601794.60608     -1630.688 8        50.138    24107205.554 8  97069665.79308     -1673.259 8        51.037
G12        17.000    23898626.078 7 125588215.00507      3169.778 7        42.068                                    23898629.426 6  97861007.73906      2469.940 6        36.000    23898629.336 6  97861004.76506      2469.888 6        38.180
R21        18.000    23357672.045 7 124991666.83007     -1907.972 7        43.509                                                                    23357681.201 6  97215790.08606     -1484.040 6        39.712
R22        19.000    22817256.582 7 121800128.62307      1591.940 7        44.390                                                                    22817262.228 7  94733427.01807      1238.102 7        42.658
R03        21.000    19567060.234 8 104743957.22308     -1955.754 8        52.343                                                                    19567061.197 7  81467509.90007     -1521.176 7        46.954
I06        22.000    38165666.780 7 149770387.80907      -468.675 7        42.370
S28        23.000    40848893.936 5 214662182.75405      -500.160 5        34.414
S23        25.000    38101051.778 7 200222275.48907      -491.721 7        44.068
S45        26.000    63350953.960 5 332911562.98215      -542.500 5        35.548
C07        27.000                                                                                                                                    38876994.575 6 202442666.67906      -878.226 6        40.331    38876995.206 7 156541492.53107      -679.040 7        44.275    38876992.662 6 164501221.87106      -713.561 6        41.204
R04        28.000    20758424.096 8 111160403.92608      2099.255 8        50.339                                                                    20758425.620 7  86458068.84007      1632.749 7        46.405
C40        29.000                                                                                                                                    38967481.161 7 202913855.49207     -1063.382 7        42.910                                                                    38967484.154 7 164884123.89907      -864.216 7        42.899
G17        30.000    21969903.830 7 115452756.99407      -133.050 7        46.023                                    21969903.649 7  89963249.31007      -103.676 7        44.603    21969903.803 7  89963246.32107      -103.734 7        43.132
G14        31.000    22304410.784 7 117210419.95107     -3308.618 7        44.584                                    22304411.909 5  91332781.88905     -2578.148 5        32.335    22304411.878 7  91332767.89107     -2578.149 7        43.484
G23        32.000    23069712.585 7 121232080.40207     -1061.627 7        42.787                                    23069714.565 4  94466523.80604      -827.237 4        29.374    23069715.051 6  94466518.79906      -827.260 6        41.723
I02        33.000    36960785.839 7 145042061.58107      -168.423 7        43.031
E04        34.000    27587284.543 6 144971999.31906     -3538.112 6        38.264                                                                    27587297.253 7 108258264.43407     -2642.106 7        42.082    27587295.494 7 111082395.34107     -2711.110 7        42.961
R13        35.000    19319571.762 7 103165469.41607     -1248.233 7        46.815
R12        36.000    21646976.856 7 115634191.38407     -3708.678 7        47.996                                                                    21646983.166 7  89937690.10307     -2884.566 7        44.941
C42        37.000                                                                                                                                    24751128.895 7 128885613.58907      1521.807 7        43.953                                                                    24751140.443 7 104730161.73407      1236.596 7        44.877
C10        38.000                                                                                                                                    38447689.969 7 200207197.02107      -497.681 7        42.218    38447691.104 7 154812902.52407      -384.901 7        44.928    38447688.235 6 162684733.83106      -404.449 6        41.824
E25        39.000    28114264.082 6 147741467.75506      2426.447 6        37.482                                                                    28114279.481 6 110326492.16806      1811.979 6        39.739    28114277.346 6 113204565.64506      1859.161 6        40.524
C30        40.000                                                                                                                                    24757138.052 7 128916962.54307       757.151 7        44.173                                                                    24757144.272 7 104755634.52407       615.201 7        43.154
R23        41.000    24098064.451 6 128908374.48606      3452.728 6        38.288
S44        42.000    40829496.828 6 214560454.64506      -457.738 6        37.648
C36        43.000                                                                                                                                    22793815.012 8 118693323.40508     -2495.504 8        48.027                                                                    22793822.695 8  96448056.58408     -2027.886 8        49.096
C05        44.000                                                                                                                                    39376684.405 6 205044653.37906      -529.732 6        37.773    39376686.647 7 158553527.92207      -409.622 7        43.361    39376686.499 6 166615656.93906      -430.537 6        39.691
R14        45.000    21418904.829 8 114174899.76408      2339.817 8        49.566                                                                    21418909.402 7  88802775.71307      1819.806 7        44.658
E26        46.000    28794037.588 4 151313688.79504      1308.375 4        28.986                                                                    28794051.558 5 112994044.25905       976.737 5        33.748    28794049.254 5 115941705.58305      1002.301 5        34.314
G10        47.000    24840300.199 6 130536598.21706      1335.068 6        40.052                                    24840305.448 5 101716824.85005      1040.313 5        34.424    24840305.617 6 101716825.84806      1040.389 6        37.637
C45        50.000                                                                                                                                    21634615.493 8 112657149.16308        20.762 8        50.939                                                                    21634609.523 8  91543150.98508        16.900 8        50.006
S48        51.000    77107153.813 6 405200186.99706      -483.731 6        36.983
E06        52.000    25362093.200 7 133278632.13207     -3099.261 7        44.479                                                                    25362099.460 7  99526235.60807     -2314.381 7        47.454    25362098.688 7 102122573.22407     -2374.736 7        47.580
C60        54.000                                                                                                                                    40829497.225 6 212609922.79106      -453.574 6        39.823                                                                    40829491.337 6 172762908.12606      -368.433 6        39.823
E31        55.000    23615283.542 7 124099151.17107     -1525.911 7        47.815                                                                    23615287.043 8  92671474.76508     -1139.479 8        50.475    23615286.447 8  95088987.78008     -1169.209 8        51.439
C26        56.000                                                                                                                                    24990013.319 7 130129593.16207      2190.617 7        42.311                                                                    24990018.209 7 105740985.13807      1780.006 7        43.645
C02        57.000                                                                                                                                    40933330.259 5                      -501.877 5        30.762    40933335.413 6 164821394.72606      -388.211 6        36.340    40933335.104 5 173202165.38405      -408.065 5        31.517
I03        58.000    93598914.354 5 291516759.29605       906.245 5        34.700
C21        59.000                                                                                                                                    22939067.633 8 119449684.67308     -1343.963 8        49.884                                                                    22939064.686 8  97062617.30708     -1092.068 8        49.224
C22        60.000                                                                                                                                    24292898.778 7 126499378.38507     -3762.085 7        46.072                                                                    24292897.344 7 102791058.53707     -3056.926 7        46.053
> 2025 01 02 10 15 20.0000000  0 54
E24         1.000    24352132.601 7 127971441.07807      1213.855 7        47.843                                                                    24352134.934 8  95563158.24408       906.474 8        49.764    24352134.023 8  98056098.97008       930.133 8        50.531
G15         2.000    20358565.816 8 106984931.20008     -1779.785 8        48.780                                    20358564.569 8  83364856.01208     -1386.843 8        49.500    20358564.925 7  83364851.01007     -1386.880 7        45.214
E03         3.000    27913756.700 6 146687753.25706      2375.809 6        38.060                                                                    27913765.314 6 109539559.15306      1774.090 6        40.572    27913764.344 6 112397114.89306      1820.411 6        41.626
G19         4.000    22408316.851 7 117756646.73307      2162.591 7        44.855                                    22408316.940 5  91758454.25605      1685.125 5        34.457
S21         5.000    38398113.376 7 201783041.83207      -489.694 7        42.269
E05         6.000    22535583.278 7 118425252.86807       713.803 7        47.001                                                                    22535587.021 8  88434417.01608       533.068 8        50.297    22535586.291 8  90741401.25008       546.947 8        51.169
E13         7.000    28573561.618 5 150155055.87905      -726.876 5        35.267                                                                    28573575.695 6 112128821.01106      -542.856 6        39.456    28573573.929 6 115053913.03306      -556.757 6        40.110
R02         8.000    22414817.262 7 119609619.14807     -4928.385 7        47.138                                                                    22414825.731 7  93029668.37907     -3833.084 7        42.929
G24        10.000    21123710.969 7 111005855.58907      1768.966 7        46.145                                    21123712.522 7  86498084.77107      1378.415 7        47.188    21123713.136 7  86498089.78307      1378.376 7        44.292
G30        11.000    24922326.620 6 130967506.50106     -3620.188 6        37.928                                    24922337.661 5 102052540.89605     -2820.906 5        30.687    24922337.354 5 102052548.86805     -2820.957 5        35.152
S27        12.000    39131341.358 6 205636492.45106      -522.266 6        36.280
G13        13.000    21096434.899 8 110862452.02908     -3146.495 8        48.769                                    21096433.910 6  86386288.94606     -2451.810 6        37.225
S36        14.000    38168227.958 7 200575845.04007      -490.580 7        44.087
G02        15.000    25664295.581 6 134866788.70006      -138.098 6        36.930                                    25664301.861 3 105091031.82703      -107.638 3        19.015
E09        16.000    24109281.722 8 126695091.48708     -2186.006 8        48.578                                                                    24109285.184 8  94609952.47108     -1632.334 8        50.127    24109284.414 8  97078036.47608     -1675.008 8        51.111
G12        17.000    23895610.733 7 125572369.34207      3168.552 7        42.318                                    23895613.840 6  97848660.56406      2468.988 6        36.026    23895614.690 6  97848657.61006      2468.905 6        38.138
R21        18.000    23359459.124 7 125001218.63407     -1912.591 7        44.230                                                                    23359466.347 6  97223219.21106     -1487.495 6        39.508
R22        19.000    22815766.896 7 121792178.83207      1588.117 7        44.366                                                                    22815773.107 7  94727243.87907      1235.197 7        42.641
R03        21.000    19568889.412 8 104753748.07708     -1960.492 8        52.810                                                                    19568890.407 7  81475124.99607     -1524.805 7        46.837
I06        22.000    38166264.427 7 149772732.37607      -469.006 7        42.385
S28        23.000    40849365.576 5 214664683.84105      -500.338 5        34.381
S23        25.000    38101519.023 7 200224735.47907      -492.152 7        43.827
S45        26.000    63351421.414 5 332914277.21305      -543.098 5        35.371
C07        27.000                                                                                                                                    38877839.100 6 202447060.10206      -879.224 6        40.303    38877839.102 7 156544889.79907      -679.755 7        44.123    38877836.330 6 164504791.88506      -714.343 6        41.261
R04        28.000    20756465.825 8 111149917.47108      2095.325 8        50.378                                                                    20756467.460 7  86449912.69707      1629.708 7        46.053
C40        29.000                                                                                                                                    38968502.715 7 202919175.62307     -1064.628 7        43.120                                                                    38968505.868 7 164888446.92707      -865.033 7        42.836
G17        30.000    21970032.131 7 115453431.42407      -136.705 7        45.853                                    21970032.052 7  89963774.84207      -106.525 7        44.596    21970032.224 7  89963771.84007      -106.482 7        42.612
G14        31.000    22307559.382 7 117226967.34407     -3310.332 7        43.930                                    22307560.732 5  91345675.93805     -2579.476 5        32.311    22307560.851 7  91345661.92207     -2579.405 7        43.532
G23        32.000    23070724.635 7 121237397.72907     -1065.292 7        42.260                                    23070726.430 4  94470667.16204      -830.091 4        29.403    23070727.171 7  94470662.15207      -830.152 7        42.296
I02        33.000    36961000.673 7 145042905.40107      -168.953 7        43.168
E04        34.000    27590651.846 6 144989692.92806     -3539.098 6        37.970                                                                    27590664.304 6 108271477.12606     -2642.860 6        41.764    27590662.451 7 111095952.70407     -2711.712 7        42.834
R13        35.000    19320741.774 7 103171717.85507     -1251.052 7        46.874
R12        36.000    21650448.826 7 115652738.06507     -3709.943 7        47.953                                                                    21650454.601 7  89952115.25807     -2885.453 7        45.293
C42        37.000                                                                                                                                    24749668.756 7 128878011.60107      1519.069 7        43.460                                                                    24749680.695 7 104723984.48907      1234.429 7        44.795
