     3.04           OBSERVATION DATA    M                   RINEX VERSION / TYPE
ssrcrin-15.6.1x                         20250102 161500 UTC PGM / RUN BY / DATE 
(00000000023479385599111004) Septentrio proprietary         COMMENT             
rref                                                        MARKER NAME         
01                                                          MARKER NUMBER       
geodetic                                                    MARKER TYPE         
NFB                 CLIMERS@TUW                             OBSERVER / AGENCY   
3297213             SEPT ASTERX SB3 PROB4.14.4              REC # / TYPE / VERS 
Unknown             Unknown                                 ANT # / TYPE        
  4127832.0878  1207193.0688  4695247.3107                  APPROX POSITION XYZ 
        0.0000        0.0000        0.0000                  ANTENNA: DELTA H/E/N
G   23 X1  C1C L1C D1C S1C C1W S1W C2W L2W D2W S2W C2L L2L  SYS / # / OBS TYPES 
       D2L S2L C5Q L5Q D5Q S5Q C1L L1L D1L S1L              SYS / # / OBS TYPES 
E   21 X1  C1C L1C D1C S1C C6C L6C D6C S6C C5Q L5Q D5Q S5Q  SYS / # / OBS TYPES 
       C7Q L7Q D7Q S7Q C8Q L8Q D8Q S8Q                      SYS / # / OBS TYPES 
S    9 X1  C1C L1C D1C S1C C5I L5I D5I S5I                  SYS / # / OBS TYPES 
R   17 X1  C1C L1C D1C S1C C2P L2P D2P S2P C2C L2C D2C S2C  SYS / # / OBS TYPES 
       C3Q L3Q D3Q S3Q                                      SYS / # / OBS TYPES 
C   25 X1  C1P L1P D1P S1P C5P L5P D5P S5P C2I L2I D2I S2I  SYS / # / OBS TYPES 
       C7I L7I D7I S7I C6I L6I D6I S6I C7D L7D D7D S7D      SYS / # / OBS TYPES 
J   17 X1  C1C L1C D1C S1C C2L L2L D2L S2L C5Q L5Q D5Q S5Q  SYS / # / OBS TYPES 
       C1L L1L D1L S1L                                      SYS / # / OBS TYPES 
I    5 X1  C5A L5A D5A S5A                                  SYS / # / OBS TYPES 
SEPTENTRIO RECEIVERS OUTPUT ALIGNED CARRIER PHASES.         COMMENT             
NO FURTHER PHASE SHIFT APPLIED IN THE RINEX ENCODER.        COMMENT             
G L1C                                                       SYS / PHASE SHIFT   
G L2W                                                       SYS / PHASE SHIFT   
G L2L  0.00000                                              SYS / PHASE SHIFT   
G L5Q  0.00000                                              SYS / PHASE SHIFT   
G L1L  0.00000                                              SYS / PHASE SHIFT   
E L1C  0.00000                                              SYS / PHASE SHIFT   
E L6C  0.00000                                              SYS / PHASE SHIFT   
E L5Q  0.00000                                              SYS / PHASE SHIFT   
E L7Q  0.00000                                              SYS / PHASE SHIFT   
E L8Q  0.00000                                              SYS / PHASE SHIFT   
S L1C                                                       SYS / PHASE SHIFT   
S L5I                                                       SYS / PHASE SHIFT   
R L1C                                                       SYS / PHASE SHIFT   
R L2P  0.00000                                              SYS / PHASE SHIFT   
R L2C                                                       SYS / PHASE SHIFT   
R L3Q  0.00000                                              SYS / PHASE SHIFT   
C L1P  0.00000                                              SYS / PHASE SHIFT   
C L5P  0.00000                                              SYS / PHASE SHIFT   
C L2I                                                       SYS / PHASE SHIFT   
C L7I                                                       SYS / PHASE SHIFT   
C L6I                                                       SYS / PHASE SHIFT   
C L7D                                                       SYS / PHASE SHIFT   
J L1C                                                       SYS / PHASE SHIFT   
J L2L  0.00000                                              SYS / PHASE SHIFT   
J L5Q  0.00000                                              SYS / PHASE SHIFT   
J L1L  0.00000                                              SYS / PHASE SHIFT   
I L5A                                                       SYS / PHASE SHIFT   
  2025     1     2    16    15    0.0000000     GPS         TIME OF FIRST OBS   
 C1C    0.000 C2C    0.000 C2P    0.000                     GLONASS COD/PHS/BIS 
DBHZ                                                        SIGNAL STRENGTH UNIT
    18                                                      LEAP SECONDS        
 24 R01  1 R02 -4 R03  5 R04  6 R05  1 R06 -4 R07  5 R08  6 GLONASS SLOT / FRQ #
    R09 -2 R10 -7 R11  0 R12 -1 R13 -2 R14 -7 R15  0 R16 -1 GLONASS SLOT / FRQ #
    R17  4 R18 -3 R19  3 R20  2 R21  4 R22 -3 R23  3 R24  2 GLONASS SLOT / FRQ #
                                                            END OF HEADER       
> 2025 01 02 16 15  0.0000000  0 57
E24         1.000    28363280.338 6 149050162.13806     -3162.210 6        36.461                                                                    28363283.340 6 111303760.36806     -2361.362 6        41.223    28363282.568 6 114207325.64206     -2422.933 6        41.771
E11         2.000    23979558.926 7 126013614.90507     -1085.575 7        43.831                                                                    23979556.352 7  94101196.61307      -810.749 7        46.164    23979555.976 7  96555997.18007      -831.806 7        46.426
G16         3.000    24598779.494 6 129267509.05606      3113.387 6        37.009                                    24598783.486 2 100727975.56202      2426.000 2        15.571
G05         4.000    23317920.098 7 122536566.42107      1335.929 7        43.640                                    23317918.236 6  95483055.99706      1040.983 6        38.697    23317919.225 6  95483055.00706      1041.002 6        39.583
S21         5.000    38368242.794 7 201626106.24707      -481.039 7        42.963
G26         6.000    22026811.712 7 115751868.97907      2237.826 7        44.388                                    22026814.152 7  90196381.63907      1743.759 7        43.039    22026814.458 7  90196368.65007      1743.737 7        42.633
G25         7.000    21322355.603 7 112049909.68307     -3171.067 7        46.179                                    21322355.852 7  87311703.34607     -2470.958 7        45.819    21322356.474 7  87311704.34107     -2470.820 7        42.976
G04         8.000    25055395.282 6 131666961.72406      -491.837 6        37.784                                    25055395.895 3 102597612.92403      -383.217 3        19.851    25055396.041 6 102597621.92706      -383.303 6        38.033
E36         9.000    24410709.407 7 128279301.94807      1691.181 7        46.898                                                                    24410712.236 8  95793118.93808      1262.927 8        49.312    24410711.654 8  98292058.27908      1295.890 8        49.625
R08        10.000    23986967.401 6 128449123.12006     -2005.554 6        39.285                                                                    23986968.996 6  99904868.39306     -1559.834 6        39.979
G20        11.000    23574389.093 6 123884355.00006     -1058.648 6        40.894                                    23574385.410 4  96533322.21604      -824.925 4        24.226
S27        12.000    39162791.626 6 205801907.03806      -471.203 6        36.730
E08        13.000    28309516.452 6 148767588.73506     -2999.096 6        36.299                                                                    28309526.483 6 111092761.87706     -2239.549 6        38.712    28309524.260 6 113990822.97506     -2297.937 6        38.195
S36        14.000    38139426.250 7 200424496.83707      -480.750 7        44.460
C13        15.000                                                                                                                                    38397324.833 7 199944976.34107       826.817 7        43.416    38397328.193 7 154610165.59207       639.463 7        43.934    38397325.934 7 162471688.25107       671.750 7        42.262
G18        16.000    22074784.969 7 116003968.29207      2463.144 7        47.264                                    22074783.455 6  90392789.75506      1919.330 6        36.284    22074784.154 7  90392797.76907      1919.271 7        45.094
G12        17.000    24919951.620 6 130955403.14606     -4048.114 6        39.486                                    24919950.246 5 102043253.31705     -3154.382 5        30.166    24919951.020 5 102043250.31205     -3154.395 5        34.410
R01        18.000    23835542.946 6 127414629.03106      1035.327 6        38.598                                                                    23835542.792 5  99100141.26805       805.390 5        33.216
E02        19.000    23537075.852 8 123688331.62408       675.859 8        48.105                                                                    23537076.815 8  92364765.56208       504.750 8        51.132    23537076.169 8  94774267.12508       517.885 8        51.258
E10        21.000    25657479.089 7 134831172.37407     -2500.674 7        43.316                                                                    25657480.425 7 100685746.71607     -1867.377 7        46.825    25657479.871 7 103312316.73207     -1916.090 7        47.172
I06        22.000    38634226.155 6 151609164.64506      -394.579 6        41.128
S28        23.000    40846869.874 5 214651725.63705      -480.512 5        34.333
S23        25.000    38089736.145 7 200162843.35307      -484.949 7        44.793
S45        26.000    63347174.723 6 332893311.01906      -543.078 6        36.563
R09        27.000    21288531.242 8 113679730.04908      3024.784 8        48.869                                                                    21288532.373 7  88417668.77107      2352.630 7        45.217
R18        28.000    18986883.467 8 101353551.09808      -570.502 8        51.366                                                                    18986884.238 7  78830687.71607      -443.714 7        47.506
C38        29.000                                                                                                                                    38653792.170 7 201280538.88207        66.247 7        43.505                                                                    38653791.345 7 163556965.61207        53.715 7        43.691
C44        30.000                                                                                                                                    21292047.312 8 110873486.70308      -961.623 8        51.476                                                                    21292046.851 8  90093871.99708      -781.450 8        50.297
E12        31.000    27813020.386 5 146158581.73405     -3258.884 5        34.314                                                                    27813019.076 6 109144504.19506     -2433.531 6        38.474    27813019.143 6 111991735.51106     -2497.026 6        38.820
G11        32.000    24973963.799 6 131239267.77006     -3916.207 6        38.210                                    24973960.497 3 102264465.53203     -3051.599 3        20.524    24973960.264 6 102264456.54906     -3051.503 6        37.474
I02        33.000    37928989.073 6 148841526.20306      -816.264 6        41.554
R15        34.000    21638219.334 8 115628210.48108     -4217.833 8        48.849                                                                    21638220.648 7  89933119.55307     -3280.598 7        44.460
E34        35.000    28192039.373 6 148150212.72706      2796.065 6        36.711                                                                    28192051.836 6 110631715.20506      2088.035 6        39.907    28192050.438 6 113517754.33406      2142.377 6        40.381
G29        36.000    20386316.480 8 107131101.38308     -1225.370 8        49.617                                    20386313.444 8  83478887.48108      -954.835 8        51.374    20386313.833 7  83478897.48207      -954.796 7        45.959
G31        37.000    21572894.386 7 113366531.09407      -413.163 7        47.625                                    21572892.242 7  88337649.61907      -321.946 7        46.128    21572892.518 7  88337655.61607      -321.883 7        43.695
C10        38.000                                                                                                                                    40872493.807 5 212833819.35105     -1152.166 5        35.948    40872491.907 6 164576617.01506      -890.878 6        38.829    40872490.011 5 172944906.09005      -936.230 5        35.662
E25        39.000    23905412.027 7 125623991.68307     -1892.766 7        47.603                                                                    23905413.664 8  93810250.89308     -1413.390 8        50.165    23905413.051 8  96257459.41008     -1450.297 8        50.668
C12        40.000                                                                                                                                    21779249.408 7 113410454.83907       554.806 7        47.313    21779247.927 8  87696248.89008       429.017 8        52.441    21779246.783 8  92155353.17008       450.692 8        50.101
E07        41.000    27907939.490 6 146657187.04006     -1372.906 6        37.811                                                                    27907948.584 6 109516741.79406     -1025.128 6        40.815    27907947.085 6 112373697.05306     -1051.891 6        41.142
S44        42.000    40519435.794 6 212931241.29906      -406.348 6        36.442
G28        43.000    21636089.295 7 113698598.57007     -2140.280 7        47.206                                    21636087.806 6  88596398.76106     -1667.749 6        36.847    21636087.866 7  88596398.75307     -1667.746 7        45.403
C05        44.000                                                                                                                                    39331863.360 6 204811323.07206      -424.846 6        38.270    39331861.005 7 158373119.16507      -328.505 7        43.145    39331861.787 6 166426070.70806      -345.422 6        39.592
C11        45.000                                                                                                                                    25127894.819 6 130847569.69406      2589.545 6        41.819    25127897.632 7 101179673.15007      2002.310 7        44.534    25127894.432 7 106324385.46807      2104.024 7        42.787
R16        46.000    19031381.548 8 101662414.89308      -774.006 8        52.049                                                                    19031382.626 7  79070878.76707      -602.025 7        47.195
R17        47.000    21007066.812 8 112413290.99908     -3838.962 8        49.995                                                                    21007067.911 7  87432690.59107     -2985.933 7        45.995
C35        48.000                                                                                                                                    23966016.011 7 124797496.94707     -3177.943 7        45.242                                                                    23966016.567 7 101408252.56507     -2582.422 7        45.765
C24        49.000                                                                                                                                    21753752.614 8 113277563.74908     -1948.059 8        50.942                                                                    21753750.796 8  92047320.03708     -1583.029 8        50.200
R19        50.000    20689981.973 6 110677673.68006      2605.545 6        39.658                                                                    20689983.154 7  86082738.36207      2026.395 7        43.573
S48        51.000    77087271.030 6 405097091.62706      -513.993 6        38.315
C08        52.000                                                                                                                                    38222928.867 6 199036895.80706       688.958 6        41.738    38222923.745 7 153907976.64407       532.761 7        45.463    38222922.499 7 161733794.62207       559.685 7        42.531
C34        53.000                                                                                                                                    22992678.562 7 119729147.19507      1941.266 7        47.542                                                                    22992680.605 7  97289846.58107      1577.302 7        47.469
C60        54.000                                                                                                                                    40519439.231 6 210995521.87606      -402.792 6        39.111                                                                    40519425.474 6 171451107.08706      -327.280 6        40.081
C25        55.000                                                                                                                                    22721770.519 8 118318435.76908      1299.088 8        48.055                                                                    22721770.539 8  96143507.40808      1055.514 8        48.327
C26        56.000                                                                                                                                    25264274.282 7 131557770.99607     -3830.446 7        42.518                                                                    25264276.651 7 106901503.21807     -3112.649 7        43.037
C02        57.000                                                                                                                                    40714260.752 5 212009851.44905      -387.469 5        34.029    40714256.000 6 163939450.31506      -299.401 6        39.144    40714258.911 5 172275366.65205      -314.636 5        34.933
I03        58.000    86059316.372 6 261929947.04406      1085.431 6        40.572
E30        59.000    27762093.141 6 145890884.99106      2176.533 6        37.081                                                                    27762102.094 6 108944576.41006      1625.316 6        41.180    27762100.774 6 111786596.23906      1667.623 6        41.316
> 2025 01 02 16 15  5.0000000  0 57
E24         1.000    28366289.361 6 149065973.40206     -3162.380 6        36.355                                                                    28366292.041 6 111315567.48406     -2361.604 6        40.961    28366291.374 6 114219440.76306     -2423.098 6        41.783
E11         2.000    23980592.714 7 126019048.35507     -1087.800 7        43.672                                                                    23980590.212 7  94105254.05907      -812.289 7        46.027    23980589.905 7  96560160.47607      -833.516 7        46.403
G16         3.000    24595816.277 6 129251941.78206      3113.542 6        37.573                                    24595820.763 2 100715845.32102      2426.093 2        16.302
G05         4.000    23316649.732 7 122529892.74807      1333.492 7        43.172                                    23316648.354 6  95477855.73406      1039.082 6        38.586    23316649.142 6  95477854.73406      1039.093 6        40.222
S21         5.000    38368698.998 7 201628510.30907      -480.800 7        42.643
G26         6.000    22024683.340 7 115740682.56607      2236.609 7        44.777                                    22024685.436 7  90187664.98007      1742.810 7        43.005    22024685.649 7  90187651.98807      1742.802 7        42.785
G25         7.000    21325373.602 7 112065768.51407     -3172.509 7        46.637                                    21325373.701 7  87324060.87007     -2472.084 7        45.642    21325374.552 7  87324061.86207     -2472.060 7        43.268
G04         8.000    25055864.518 6 131669427.82206      -494.723 6        38.156                                    25055865.022 3 102599534.54403      -385.505 3        19.910    25055864.822 6 102599543.54106      -385.485 6        38.039
E36         9.000    24409100.938 7 128270849.43507      1689.608 7        46.672                                                                    24409103.792 8  95786807.01008      1261.807 8        49.254    24409103.191 8  98285581.69608      1294.662 8        49.677
R08        10.000    23988843.147 6 128459158.74606     -2009.043 6        39.625                                                                    23988842.933 6  99912673.92406     -1562.619 6        40.489
G20        11.000    23575397.693 6 123889655.78706     -1061.638 6        41.514                                    23575394.226 3  96537452.69803      -827.249 3        23.829
S27        12.000    39163240.138 6 205804262.13306      -470.819 6        36.658
E08        13.000    28312370.057 5 148782585.11005     -2999.381 5        35.314                                                                    28312380.261 6 111103960.43806     -2239.958 6        38.724    28312378.301 6 114002313.68506     -2298.405 6        38.378
S36        14.000    38139884.565 7 200426899.75007      -480.312 7        44.352
C13        15.000                                                                                                                                    38396531.092 7 199940843.24907       826.221 7        43.591    38396534.379 7 154606969.63207       638.888 7        43.852    38396532.262 7 162468329.78107       671.243 7        42.318
G18        16.000    22072441.957 7 115991656.63407      2461.382 7        47.644                                    22072440.655 6  90383196.26806      1917.954 6        36.170    22072441.230 7  90383204.27707      1917.996 7        45.285
G12        17.000    24923803.690 6 130975644.62806     -4048.417 6        39.336                                    24923801.955 5 102059025.89605     -3154.609 5        30.091    24923802.592 5 102059022.91005     -3154.705 5        34.695
R01        18.000    23834575.259 6 127409460.44806      1031.746 6        38.171                                                                    23834576.944 5  99096121.25705       802.411 5        33.647
E02        19.000    23536433.191 7 123684954.60907       674.840 7        47.824                                                                    23536434.211 8  92362243.77808       503.923 8        51.104    23536433.510 8  94771679.55308       517.099 8        51.227
E10        21.000    25659859.024 7 134843679.21107     -2502.202 7        42.789                                                                    25659860.382 7 100695086.24607     -1868.532 7        46.759    25659859.819 7 103321899.89007     -1917.208 7        47.212
I06        22.000    38634728.871 6 151611137.00606      -394.394 6        41.080
S28        23.000    40847323.211 5 214654126.34905      -480.237 5        34.214
S23        25.000    38090198.757 7 200165267.29607      -484.668 7        44.846
S45        26.000    63347639.964 6 332894325.17316      -542.898 6        36.548
R09        27.000    21285699.428 8 113664609.59808      3023.306 8        48.549                                                                    21285700.721 7  88405908.45007      2351.479 7        45.971
R18        28.000    18987419.092 8 101356412.22108      -574.073 8        51.146                                                                    18987420.248 7  78832913.05407      -446.543 7        47.498
C38        29.000                                                                                                                                    38653729.034 7 201280209.52307        65.460 7        43.456                                                                    38653728.109 7 163556697.99007        52.924 7        43.799
C44        30.000                                                                                                                                    21292971.603 8 110878299.13308      -963.480 8        51.595                                                                    21292971.026 8  90097782.49808      -783.066 8        50.269
E12        31.000    27816121.788 5 146174878.26205     -3259.731 5        34.300                                                                    27816120.060 6 109156673.71606     -2434.196 6        38.574    27816120.092 6 112004222.48306     -2497.778 6        38.727
G11        32.000    24977689.588 6 131258850.03406     -3916.814 6        38.414                                    24977686.794 3 102279724.45303     -3052.053 3        20.095    24977686.795 6 102279715.48006     -3052.147 6        37.440
I02        33.000    37930028.773 6 148845606.84906      -816.093 6        41.521
R15        34.000    21642165.241 7 115649303.77707     -4219.574 7        47.993                                                                    21642167.979 7  89949525.44507     -3281.885 7        43.911
E34        35.000    28189378.842 6 148136231.60806      2796.196 6        36.507                                                                    28189391.248 6 110621274.78106      2088.246 6        39.928    28189389.888 6 113507041.54306      2142.650 6        40.517
G29        36.000    20387483.019 8 107137232.54508     -1227.197 8        49.441                                    20387480.162 8  83483665.01608      -956.257 8        51.249    20387480.615 7  83483675.01507      -956.202 7        46.274
G31        37.000    21573289.113 7 113368604.65207      -416.331 7        47.945                                    21573286.809 7  88339265.38507      -324.417 7        45.916    21573287.193 7  88339271.39507      -324.428 7        43.740
C10        38.000                                                                                                                                    40873599.004 5 212839579.25505     -1152.049 5        35.767    40873598.207 6 164581070.91106      -890.734 6        39.114    40873596.464 5 172949586.47905      -936.290 5        35.638
E25        39.000    23907213.386 7 125633458.12907     -1893.907 7        47.525                                                                    23907215.085 8  93817319.99508     -1414.285 8        50.119    23907214.460 8  96264712.92208     -1451.147 8        50.686
C12        40.000                                                                                                                                    21778717.439 7 113407685.48007       552.867 7        47.543    21778715.887 8  87694107.45608       427.454 8        52.525    21778714.918 8  92153102.84408       449.093 8        50.123
E07        41.000    27909246.130 6 146664056.34506     -1374.926 6        37.580                                                                    27909255.813 6 109521871.47306     -1026.831 6        40.560    27909254.211 6 112378960.54406     -1053.583 6        41.092
S44        42.000    40519820.389 6 212933273.09006      -406.131 6        36.624
G28        43.000    21638127.324 7 113709306.72907     -2143.095 7        47.172                                    21638125.488 6  88604742.78006     -1669.944 6        36.635    21638125.532 7  88604742.77907     -1669.940 7        45.284
C05        44.000                                                                                                                                    39332270.827 6 204813446.58906      -424.529 6        38.336    39332269.027 7 158374761.21907      -328.336 7        43.069    39332269.590 6 166427796.23206      -345.158 6        39.817
C11        45.000                                                                                                                                    25125408.606 7 130834623.97307      2588.723 7        42.466    25125411.327 7 101169662.73307      2001.810 7        44.403    25125408.226 7 106313866.03807      2103.489 7        42.819
R16        46.000    19032107.328 8 101666293.75708      -777.669 8        51.795                                                                    19032108.887 7  79073895.67207      -604.868 7        47.304
R17        47.000    21010654.735 8 112432489.69508     -3840.529 8        49.651                                                                    21010655.663 7  87447622.91407     -2987.122 7        46.393
C35        48.000                                                                                                                                    23969068.074 7 124813387.91507     -3178.561 7        45.868                                                                    23969068.178 7 101421165.27307     -2582.931 7        45.849
C24        49.000                                                                                                                                    21755624.345 8 113287308.96808     -1950.181 8        51.259                                                                    21755622.291 8  92055238.83608     -1584.835 8        50.169
R19        50.000    20687547.245 6 110664652.56506      2603.023 6        39.075                                                                    20687548.873 7  86072610.87307      2024.564 7        43.812
S48        51.000    77087734.947 6 405099661.25806      -513.673 6        38.414
C08        52.000                                                                                                                                    38222267.433 6 199033452.84306       688.090 6        41.955    38222262.566 7 153905314.31407       532.070 7        45.431    38222261.176 7 161730996.92207       558.996 7        42.662
C34        53.000                                                                                                                                    22990815.379 7 119719443.80307      1940.006 7        47.802                                                                    22990817.209 7  97281961.79607      1576.216 7        47.405
C60        54.000                                                                                                                                    40519826.165 6 210997535.20906      -402.782 6        39.258                                                                    40519812.126 6 171452743.09406      -327.395 6        40.126
C25        55.000                                                                                                                                    22720524.079 8 118311944.51208      1297.192 8        48.171                                                                    22720523.930 8  96138232.73608      1053.954 8        48.302
C26        56.000                                                                                                                                    25267952.280 7 131576924.12407     -3830.842 7        43.046                                                                    25267954.877 7 106917066.69707     -3113.014 7        43.154
C02        57.000                                                                                                                                    40714633.211 5 212011787.31705      -387.109 5        34.376    40714627.941 6 163940947.26206      -299.439 6        39.183    40714630.512 5 172276939.72205      -314.814 5        34.786
I03        58.000    86057932.992 6 261924519.27906      1085.549 6        40.541
E30        59.000    27760022.403 6 145880002.14806      2176.736 6        37.342                                                                    27760031.021 6 108936449.66306      1625.399 6        41.015    27760029.719 6 111778257.48306      1667.915 6        41.371
> 2025 01 02 16 15 10.0000000  0 57
E24         1.000    28369298.633 6 149081787.18106     -3163.331 6        36.726                                                                    28369301.302 6 111327376.46406     -2362.322 6        41.139    28369300.439 6 114231557.80306     -2423.886 6        41.802
E11         2.000    23981629.065 7 126024493.93707     -1090.657 7        43.712                                                                    23981626.515 7  94109320.57607      -814.480 7        45.985    23981626.177 7  96564333.07507      -835.741 7        46.325
G16         3.000    24592853.891 6 129236376.08006      3112.795 6        37.361                                    24592858.590 2 100703716.27902      2425.556 2        16.226
G05         4.000    23315382.687 7 122523232.98107      1330.352 7        43.208                                    23315381.154 6  95472666.31106      1036.636 6        38.408    23315381.662 6  95472665.31106      1036.722 6        39.823
S21         5.000    38369155.873 7 201630915.08907      -481.379 7        42.715
G26         6.000    22022556.077 7 115729504.23907      2234.503 7        44.594                                    22022558.254 7  90178954.61107      1741.167 7        42.878    22022557.996 7  90178941.63107      1741.201 7        42.445
G25         7.000    21328393.522 7 112081636.95907     -3174.909 7        46.820                                    21328393.348 7  87336425.89407     -2473.954 7        45.544    21328393.866 7  87336426.90207     -2473.996 7        42.923
G04         8.000    25056336.464 6 131671909.42806      -498.172 6        37.539                                    25056337.046 3 102601468.25103      -388.181 3        20.143    25056337.068 6 102601477.25106      -388.176 6        37.388
E36         9.000    24407494.218 7 128262406.50607      1687.426 7        46.808                                                                    24407497.082 8  95780502.24208      1260.047 8        49.198    24407496.541 8  98279112.45308      1292.928 8        49.742
R08        10.000    23990721.092 6 128469213.27606     -2013.014 6        38.523                                                                    23990720.939 6  99920494.17106     -1565.685 6        40.563
G20        11.000    23576408.819 6 123894972.54806     -1065.149 6        41.406                                    23576405.985 3  96541595.62803      -829.981 3        23.962
S27        12.000    39163688.499 6 205806617.58006      -471.414 6        36.839
E08        13.000    28315224.260 5 148797585.35505     -3000.689 5        35.452                                                                    28315234.916 6 111115161.90906     -2240.878 6        38.661    28315233.076 6 114013807.38306     -2299.362 6        38.438
S36        14.000    38140341.279 7 200429302.54007      -480.898 7        44.319
C13        15.000                                                                                                                                    38395737.912 7 199936715.36107       824.784 7        43.245    38395741.652 7 154603777.69507       637.741 7        43.873    38395739.610 6 162464975.53606       670.355 6        41.952
G18        16.000    22070100.855 7 115979355.28407      2458.972 7        47.105                                    22070099.792 6  90373610.81506      1916.080 6        36.227    22070100.187 7  90373618.82907      1915.990 7        44.859
G12        17.000    24927656.019 6 130995888.97006     -4049.375 6        39.435                                    24927654.387 5 102074800.70705     -3155.349 5        30.038    24927656.118 5 102074797.72305     -3155.412 5        35.329
R01        18.000    23833611.413 6 127404310.89306      1027.974 6        37.826                                                                    23833614.224 5  99092116.06905       799.389 5        33.575
E02        19.000    23535791.817 7 123681584.27607       673.149 7        47.825                                                                    23535792.843 8  92359726.98208       502.674 8        51.019    23535792.113 8  94769097.09808       515.785 8        51.220
E10        21.000    25662240.940 7 134856194.87507     -2504.282 7        42.948                                                                    25662242.049 7 100704432.35507     -1870.098 7        46.718    25662241.464 7 103331489.81407     -1918.843 7        47.195
I06        22.000    38635231.902 6 151613109.51706      -394.656 6        41.168
S28        23.000    40847783.243 5 214656527.42005      -480.785 5        34.224
S23        25.000    38090660.778 7 200167691.71907      -485.022 7        44.870
S45        26.000    63348100.398 6 332897040.00606      -543.249 6        36.533
R09        27.000    21282869.380 8 113649498.55708      3020.978 8        48.783                                                                    21282871.040 7  88394155.41507      2349.677 7        46.018
R18        28.000    18987958.751 8 101359293.03508      -578.418 8        51.396                                                                    18987960.116 7  78835153.68307      -449.869 7        47.864
C38        29.000                                                                                                                                    38653667.137 7 201279885.98707        63.923 7        43.120                                                                    38653666.026 7 163556435.07607        52.082 7        43.397
C44        30.000                                                                                                                                    21293897.974 8 110883122.51608      -966.056 8        51.414                                                                    21293897.275 8  90101701.88208      -784.790 8        50.036
E12        31.000    27819223.461 5 146191179.58705     -3260.844 5        34.629                                                                    27819222.364 6 109168846.79706     -2434.972 6        38.498    27819222.083 6 112016713.12106     -2498.544 6        38.688
G11        32.000    24981416.651 6 131278437.61506     -3918.184 6        38.384                                    24981414.272 3 102294987.51603     -3053.135 3        19.910    24981414.708 6 102294978.51906     -3053.257 6        37.225
I02        33.000    37931069.430 6 148849688.31606      -816.491 6        41.681
R15        34.000    21646114.978 8 115670407.49108     -4222.037 8        48.362                                                                    21646117.215 7  89965939.43107     -3283.858 7        43.721
E34        35.000    28186718.399 6 148122251.48506      2795.633 6        36.854                                                                    28186730.847 6 110610835.12606      2087.636 6        39.898    28186729.404 6 113496329.54306      2142.076 6        40.477
G29        36.000    20388651.745 8 107143374.44708     -1229.700 8        49.459                                    20388648.914 8  83488450.92308      -958.207 8        51.101    20388649.384 7  83488460.92907      -958.277 7        46.039
G31        37.000    21573687.031 7 113370696.02207      -420.276 7        47.323                                    21573684.761 7  88340895.02907      -327.488 7        45.860    21573685.213 7  88340901.03307      -327.553 7        43.228
C10        38.000                                                                                                                                    40874705.671 5 212845339.75005     -1152.272 5        35.300    40874705.142 6 164585525.31506      -891.033 6        39.553    40874702.654 5 172954267.37205      -936.207 5        35.767
E25        39.000    23909016.099 7 125642931.87707     -1895.769 7        47.627                                                                    23909017.788 8  93824394.54508     -1415.689 8        50.125    23909017.283 8  96271972.02808     -1452.606 8        50.606
C12        40.000                                                                                                                                    21778187.758 7 113404927.39707       550.199 7        47.213    21778186.431 8  87691974.73608       425.451 8        52.575    21778185.261 8  92150861.67308       447.232 8        49.924
E07        41.000    27910555.552 6 146670936.99806     -1377.444 6        37.236                                                                    27910565.190 6 109527009.63206     -1028.743 6        40.584    27910563.402 6 112384232.73506     -1055.457 6        40.892
S44        42.000    40520211.285 6 212935305.47106      -406.840 6        36.333
G28        43.000    21640167.944 7 113720030.35907     -2146.513 7        47.229                                    21640166.118 6  88613098.85306     -1672.608 6        36.571    21640166.356 7  88613098.85907     -1672.677 7        45.053
C05        44.000                                                                                                                                    39332678.916 6 204815570.49706      -425.171 6        38.261    39332676.727 7 158376403.57707      -328.715 7        43.154    39332677.469 6 166429522.09106      -345.212 6        39.498
C11        45.000                                                                                                                                    25122923.343 7 130821682.79307      2587.468 7        42.066    25122925.663 7 101159655.83407      2000.804 7        44.336    25122923.013 7 106303350.27707      2102.765 7        42.461
R16        46.000    19032837.293 8 101670192.79108      -782.114 8        51.689                                                                    19032838.570 7  79076928.25807      -608.321 7        47.438
R17        47.000    21014244.068 8 112451697.87208     -3842.859 8        49.208                                                                    21014244.763 7  87462562.60707     -2988.879 7        45.875
C35        48.000                                                                                                                                    23972120.990 7 124829283.47707     -3179.814 7        45.702                                                                    23972120.627 7 101434081.72307     -2583.672 7        45.460
C24        49.000                                                                                                                                    21757498.116 8 113297066.66608     -1953.062 8        51.037                                                                    21757496.152 8  92063167.75908     -1586.883 8        50.004
R19        50.000    20685115.579 6 110651645.65706      2599.774 6        38.985                                                                    20685116.999 7  86062494.39807      2021.899 7        43.477
S48        51.000    77088201.118 6 405102230.82506      -514.071 6        38.186
C08        52.000                                                                                                                                    38221607.312 6 199030015.76006       686.667 6        41.757    38221602.492 7 153902656.57907       530.833 7        45.311    38221601.158 7 161728204.02307       558.105 7        42.233
C34        53.000                                                                                                                                    22988953.328 7 119709748.26607      1938.090 7        47.712                                                                    22988955.246 7  97274083.38407      1574.972 7        47.195
C60        54.000                                                                                                                                    40520212.661 6 210999549.06606      -403.063 6        39.135                                                                    40520198.823 6 171454379.52006      -327.418 6        39.946
C25        55.000                                                                                                                                    22719279.315 8 118305464.26708      1294.712 8        48.051                                                                    22719279.523 8  96132967.01308      1052.212 8        48.032
C26        56.000                                                                                                                                    25271631.200 7 131596081.04507     -3832.092 7        43.344                                                                    25271633.957 7 106932633.23807     -3113.608 7        43.010
C02        57.000                                                                                                                                    40715004.548 5 212013723.65905      -387.627 5        34.267    40714999.596 6 163942444.57506      -299.811 6        39.282    40715002.381 5 172278513.14105      -314.770 5        34.948
I03        58.000    86056549.805 6 261919091.74506      1085.114 6        40.672
E30        59.000    27757951.892 6 145869120.09906      2176.169 6        37.947                                                                    27757960.412 6 108928323.50806      1625.027 6        40.970    27757958.814 6 111769919.33006      1667.424 6        41.490
> 2025 01 02 16 15 15.0000000  0 57
E24         1.000    28372308.143 6 149097602.58206     -3163.308 6        36.968                                                                    28372310.823 6 111339186.67206     -2362.208 6        40.980    28372309.879 6 114243676.10906     -2423.890 6        41.483
E11         2.000    23982667.433 7 126029950.73407     -1092.551 7        43.928                                                                    23982664.951 7  94113395.46307      -815.896 7        45.922    23982664.480 7  96568514.26407      -837.230 7        46.285
G16         3.000    24589891.349 6 129220811.09706      3113.044 6        36.957                                    24589896.556 2 100691587.80402      2425.727 2        16.415
G05         4.000    23314118.031 7 122516586.28107      1327.959 7        43.251                                    23314116.418 6  95467487.07706      1034.776 6        38.276    23314116.144 6  95467486.06906      1034.803 6        39.273
S21         5.000    38369615.296 7 201633319.35607      -480.791 7        42.690
G26         6.000    22020430.252 7 115718333.12207      2233.405 7        44.709                                    22020432.422 7  90170249.86807      1740.312 7        42.942    22020432.405 7  90170236.87707      1740.364 7        42.106
G25         7.000    21331414.460 7 112097514.15107     -3176.312 7        47.053                                    21331414.649 7  87348797.72907     -2475.047 7        45.661    21331415.126 7  87348798.72207     -2475.003 7        42.569
G04         8.000    25056811.364 6 131674405.54306      -500.854 6        37.062                                    25056812.017 3 102603413.25703      -390.269 3        19.552    25056812.733 6 102603422.23106      -390.131 6        37.671
E36         9.000    24405889.112 7 128253972.31907      1685.899 7        46.816                                                                    24405892.141 8  95774203.99408      1258.969 8        49.211    24405891.577 8  98272649.90108      1291.789 8        49.678
R08        10.000    23992600.430 6 128479285.86406     -2016.464 6        39.234                                                                    23992601.575 6  99928328.50806     -1568.440 6        40.703
G20        11.000    23577423.120 6 123900304.45106     -1067.927 6        40.782                                    23577420.721 4  96545750.36204      -832.149 4        24.135
S27        12.000    39164137.061 6 205808973.02106      -470.970 6        36.794
E08        13.000    28318079.429 6 148812588.63806     -3001.268 6        36.144                                                                    28318089.670 6 111126365.63906     -2241.015 6        38.805    28318088.146 6 114025303.37506     -2299.505 6        38.835
S36        14.000    38140798.350 7 200431705.31807      -480.594 7        44.439
C13        15.000                                                                                                                                    38394945.818 7 199932591.86207       824.243 7        43.183    38394949.761 7 154600589.15107       637.358 7        43.900    38394947.640 7 162461624.88007       669.683 7        42.140
G18        16.000    22067761.794 7 115967063.40707      2457.420 7        46.858                                    22067760.736 6  90364032.74206      1914.871 6        36.302    22067761.109 7  90364040.75607      1914.860 7        44.801
G12        17.000    24931508.946 6 131016135.35906     -4049.549 6        38.577                                    24931507.280 5 102090577.11305     -3155.493 5        30.264    24931508.177 5 102090574.09605     -3155.433 5        35.438
R01        18.000    23832651.536 6 127399179.38006      1024.245 6        38.997                                                                    23832654.113 5  99088124.85605       796.668 5        34.138
E02        19.000    23535151.595 7 123678219.76607       672.346 7        47.840                                                                    23535152.585 8  92357214.53408       502.063 8        51.082    23535151.918 8  94766519.10908       515.129 8        51.156
E10        21.000    25664624.285 7 134868718.49007     -2505.526 7        43.175                                                                    25664625.093 7 100713784.41007     -1871.020 7        46.655    25664624.560 7 103341085.84807     -1919.889 7        47.045
I06        22.000    38635734.134 6 151615081.57506      -394.493 6        41.330
S28        23.000    40848238.141 5 214658928.14005      -480.234 5        34.071
S23        25.000    38091121.794 7 200170115.74007      -484.840 7        44.895
S45        26.000    63348567.710 6 332899754.30706      -542.852 6        36.435
R09        27.000    21280041.220 8 113634395.90408      3019.573 8        48.217                                                                    21280042.732 7  88382408.93007      2348.611 7        46.103
R18        28.000    18988502.125 8 101362192.59208      -581.825 8        51.153                                                                    18988503.291 7  78837408.90707      -452.569 7        47.781
C38        29.000                                                                                                                                    38653606.343 7 201279567.40107        63.258 7        43.143                                                                    38653604.906 7 163556176.23007        51.260 7        43.439
C44        30.000                                                                                                                                    21294826.086 8 110887955.98608      -967.730 8        51.525                                                                    21294825.489 8  90105629.50008      -786.479 8        50.048
E12        31.000    27822326.713 5 146207484.97105     -3261.811 5        34.667                                                                    27822325.235 6 109181022.89206     -2435.547 6        38.501    27822324.713 6 112029206.84906     -2499.039 6        38.504
G11        32.000    24985145.146 6 131298029.64106     -3918.991 6        38.354                                    24985142.255 3 102310254.04003     -3053.758 3        20.286    24985143.144 6 102310245.04506     -3053.756 6        37.747
I02        33.000    37932109.659 6 148853770.22406      -816.414 6        41.886
R15        34.000    21650065.387 7 115691520.50207     -4223.657 7        47.472                                                                    21650068.719 7  89982360.66107     -3285.040 7        43.795
E34        35.000    28184058.336 6 148108271.52806      2795.968 6        36.726                                                                    28184070.525 6 110600395.60006      2087.760 6        39.931    28184069.160 6 113485617.66806      2142.261 6        40.343
G29        36.000    20389822.528 8 107149526.24308     -1231.438 8        49.308                                    20389819.545 8  83493244.53708      -959.564 8        51.130    20389820.199 7  83493254.54107      -959.462 7        45.989
G31        37.000    21574087.994 7 113372804.31607      -423.417 7        46.888                                    21574085.946 7  88342537.85607      -329.936 7        45.958    21574086.558 7  88342543.86407      -329.939 7        43.312
C10        38.000                                                                                                                                    40875812.392 5 212851099.98905     -1151.883 5        35.181    40875811.269 6 164589979.49506      -890.992 6        39.622    40875808.715 5 172958948.03805      -936.365 5        35.952
E25        39.000    23910820.410 7 125652412.05907     -1896.693 7        47.780                                                                    23910821.844 8  93831473.90908     -1416.424 8        50.121    23910821.288 8  96279236.07008     -1453.371 8        50.548
C12        40.000                                                                                                                                    21777659.808 7 113402179.74807       548.527 7        47.216    21777658.778 8  87689850.09208       424.082 8        52.606    21777657.572 8  92148629.01208       445.567 8        49.841
E07        41.000    27911867.164 6 146677828.14406     -1379.238 6        37.444                                                                    27911876.603 6 109532155.62506     -1030.110 6        40.710    27911874.866 6 112389512.97806     -1056.970 6        40.903
S44        42.000    40520597.920 6 212937337.48606      -406.392 6        36.578
G28        43.000    21642211.353 7 113730768.61307     -2149.158 7        47.132                                    21642209.555 6  88621466.32606     -1674.667 6        36.703    21642209.852 7  88621466.32107     -1674.646 7        45.065
C05        44.000                                                                                                                                    39333086.697 6 204817693.97406      -424.557 6        38.270    39333084.593 7 158378045.60007      -328.423 7        43.202    39333085.228 6 166431247.61506      -345.234 6        39.513
C11        45.000                                                                                                                                    25120437.941 6 130808745.36506      2587.010 6        41.700    25120441.421 7 101149651.82407      2000.552 7        44.432    25120438.651 7 106292837.62207      2102.060 7        42.506
R16        46.000    19033571.022 8 101674111.16908      -785.731 8        51.894                                                                    19033571.893 7  79079975.88507      -611.107 7        47.347
R17        47.000    21017835.788 8 112470914.46308     -3844.318 8        50.159                                                                    21017835.817 7  87477508.84007     -2989.942 7        46.319
C35        48.000                                                                                                                                    23975174.042 7 124845182.81507     -3180.357 7        45.195                                                                    23975173.927 7 101447001.25107     -2584.364 7        45.308
C24        49.000                                                                                                                                    21759374.205 8 113306835.97408     -1955.063 8        51.098                                                                    21759372.308 8  92071106.13308     -1588.755 8        49.918
R19        50.000    20682687.303 6 110638652.24006      2597.363 6        39.096                                                                    20682688.095 7  86052388.41607      2020.090 7        43.852
S48        51.000    77088665.872 6 405104800.01006      -513.892 6        37.917
C08        52.000                                                                                                                                    38220947.824 6 199026583.81406       685.693 6        41.595    38220943.387 7 153900002.75307       530.318 7        45.264    38220942.097 7 161725415.28107       557.274 7        42.404
C34        53.000                                                                                                                                    22987092.678 8 119700059.73008      1936.952 8        48.021                                                                    22987094.674 7  97266210.68707      1573.826 7        47.207
C60        54.000                                                                                                                                    40520599.157 6 211001562.64206      -402.663 6        39.147                                                                    40520585.479 6 171456015.72906      -327.318 6        40.052
C25        55.000                                                                                                                                    22718036.822 8 118298994.22708      1292.815 8        48.247                                                                    22718036.956 8  96127709.59308      1050.500 8        48.038
C26        56.000                                                                                                                                    25275310.720 7 131615240.86007     -3832.270 7        43.378                                                                    25275313.329 7 106948202.18507     -3114.199 7        42.946
C02        57.000                                                                                                                                    40715376.323 5 212015659.57405      -387.456 5        34.133    40715371.335 6 163943941.55606      -299.373 6        39.378    40715374.196 5 172280086.26205      -314.688 5        34.662
I03        58.000    86055166.735 6 261913663.84606      1085.561 6        40.648
E30        59.000    27755880.782 6 145858237.98406      2176.588 6        38.033                                                                    27755889.527 6 108920197.30906      1625.213 6        40.989    27755887.857 6 111761581.14506      1667.598 6        41.304
> 2025 01 02 16 15 20.0000000  0 57
E24         1.000    28375317.930 6 149113419.97506     -3163.712 6        37.316                                                                    28375320.728 6 111350998.36206     -2362.546 6        40.973    28375319.716 6 114255795.92506     -2424.156 6        41.454
E11         2.000    23983707.959 7 126035419.11507     -1094.933 7        43.941                                                                    23983705.454 7  94117479.00407      -817.690 7        45.941    23983705.063 7  96572704.33107      -839.008 7        46.304
G16         3.000    24586930.054 6 129205247.23306      3112.535 6        37.187                                    24586934.822 2 100679460.21802      2425.363 2        15.667
G05         4.000    23312855.499 6 122509952.99106      1325.257 6        41.790                                    23312854.079 6  95462318.27406      1032.667 6        38.105    23312854.389 6  95462317.28706      1032.632 6        39.255
S21         5.000    38370073.047 7 201635723.40907      -480.844 7        42.603
