     3.04           OBSERVATION DATA    M                   RINEX VERSION / TYPE
ssrcrin-15.6.1x                         20250102 231500 UTC PGM / RUN BY / DATE 
(00000000023479385599111004) Septentrio proprietary         COMMENT             
rref                                                        MARKER NAME         
01                                                          MARKER NUMBER       
geodetic                                                    MARKER TYPE         
NFB                 CLIMERS@TUW                             OBSERVER / AGENCY   
3297213             SEPT ASTERX SB3 PROB4.14.4              REC # / TYPE / VERS 
Unknown             Unknown                                 ANT # / TYPE        
  4127831.7773  1207193.3505  4695247.5441                  APPROX POSITION XYZ 
        0.0000        0.0000        0.0000                  ANTENNA: DELTA H/E/N
G   23 X1  C1C L1C D1C S1C C1W S1W C2W L2W D2W S2W C2L L2L  SYS / # / OBS TYPES 
       D2L S2L C5Q L5Q D5Q S5Q C1L L1L D1L S1L              SYS / # / OBS TYPES 
E   21 X1  C1C L1C D1C S1C C6C L6C D6C S6C C5Q L5Q D5Q S5Q  SYS / # / OBS TYPES 
       C7Q L7Q D7Q S7Q C8Q L8Q D8Q S8Q                      SYS / # / OBS TYPES 
S    9 X1  C1C L1C D1C S1C C5I L5I D5I S5I                  SYS / # / OBS TYPES 
R   17 X1  C1C L1C D1C S1C C2P L2P D2P S2P C2C L2C D2C S2C  SYS / # / OBS TYPES 
       C3Q L3Q D3Q S3Q                                      SYS / # / OBS TYPES 
C   25 X1  C1P L1P D1P S1P C5P L5P D5P S5P C2I L2I D2I S2I  SYS / # / OBS TYPES 
       C7I L7I D7I S7I C6I L6I D6I S6I C7D L7D D7D S7D      SYS / # / OBS TYPES 
J   17 X1  C1C L1C D1C S1C C2L L2L D2L S2L C5Q L5Q D5Q S5Q  SYS / # / OBS TYPES 
       C1L L1L D1L S1L                                      SYS / # / OBS TYPES 
I    5 X1  C5A L5A D5A S5A                                  SYS / # / OBS TYPES 
SEPTENTRIO RECEIVERS OUTPUT ALIGNED CARRIER PHASES.         COMMENT             
NO FURTHER PHASE SHIFT APPLIED IN THE RINEX ENCODER.        COMMENT             
G L1C                                                       SYS / PHASE SHIFT   
G L2W                                                       SYS / PHASE SHIFT   
G L2L  0.00000                                              SYS / PHASE SHIFT   
G L5Q  0.00000                                              SYS / PHASE SHIFT   
G L1L  0.00000                                              SYS / PHASE SHIFT   
E L1C  0.00000                                              SYS / PHASE SHIFT   
E L6C  0.00000                                              SYS / PHASE SHIFT   
E L5Q  0.00000                                              SYS / PHASE SHIFT   
E L7Q  0.00000                                              SYS / PHASE SHIFT   
E L8Q  0.00000                                              SYS / PHASE SHIFT   
S L1C                                                       SYS / PHASE SHIFT   
S L5I                                                       SYS / PHASE SHIFT   
R L1C                                                       SYS / PHASE SHIFT   
R L2P  0.00000                                              SYS / PHASE SHIFT   
R L2C                                                       SYS / PHASE SHIFT   
R L3Q  0.00000                                              SYS / PHASE SHIFT   
C L1P  0.00000                                              SYS / PHASE SHIFT   
C L5P  0.00000                                              SYS / PHASE SHIFT   
C L2I                                                       SYS / PHASE SHIFT   
C L7I                                                       SYS / PHASE SHIFT   
C L6I                                                       SYS / PHASE SHIFT   
C L7D                                                       SYS / PHASE SHIFT   
J L1C                                                       SYS / PHASE SHIFT   
J L2L  0.00000                                              SYS / PHASE SHIFT   
J L5Q  0.00000                                              SYS / PHASE SHIFT   
J L1L  0.00000                                              SYS / PHASE SHIFT   
I L5A                                                       SYS / PHASE SHIFT   
  2025     1     2    23    15    0.0000000     GPS         TIME OF FIRST OBS   
 C1C    0.000 C2C    0.000 C2P    0.000                     GLONASS COD/PHS/BIS 
DBHZ                                                        SIGNAL STRENGTH UNIT
    18                                                      LEAP SECONDS        
 24 R01  1 R02 -4 R03  5 R04  6 R05  1 R06 -4 R07  5 R08  6 GLONASS SLOT / FRQ #
    R09 -2 R10 -7 R11  0 R12 -1 R13 -2 R14 -7 R15  0 R16 -1 GLONASS SLOT / FRQ #
    R17  4 R18 -3 R19  3 R20  2 R21  4 R22 -3 R23  3 R24  2 GLONASS SLOT / FRQ #
                                                            END OF HEADER       
> 2025 01 02 23 15  0.0000000  0 55
G28         1.000    25530107.561 6 134161619.31806      2577.605 6        36.246                                    25530103.737 2 104541509.67802      2008.559 2        16.981    25530104.638 6 104541510.69506      2008.222 6        36.594
E08         2.000    26912300.823 6 141425111.19806      2851.200 6        40.307                                                                    26912299.557 7 105609663.27107      2128.929 7        44.366    26912299.409 7 108364697.16607      2184.555 7        45.481
G21         4.000    20830807.408 7 109466699.38807      -746.436 7        44.305                                    20830802.043 6  85298733.30606      -581.642 6        37.614
S21         5.000    38619544.194 7 202946768.16007      -314.017 7        42.171
E13         6.000    25430771.528 7 133639652.65807      1735.837 7        43.799                                                                    25430772.079 7  99795871.25807      1296.306 7        46.880    25430771.786 8 102399236.98608      1330.054 8        48.294
G10         7.000    23949440.833 6 125855229.32606     -3324.358 6        41.523                                    23949439.652 6  98069025.81606     -2590.408 6        36.953    23949439.550 6  98069019.81106     -2590.501 6        39.523
E15         8.000    23513490.684 7 123564341.89607      -438.176 7        47.737                                                                    23513490.805 8  92272143.38208      -327.230 8        51.215    23513490.188 8  94679230.43308      -335.786 8        51.523
G27        10.000    24942893.703 6 131075935.79106     -4196.523 6        39.489                                    24942892.255 5 102137161.31405     -3270.020 5        34.314    24942892.227 6 102137163.31806     -3270.010 6        38.027
G14        11.000    24186092.871 6 127098779.70006     -1274.603 6        40.129                                    24186090.195 3  99038002.91503      -993.212 3        23.371    24186090.347 6  99038006.89806      -993.052 6        39.174
G32        12.000    22174026.943 8 116525330.18408     -1331.278 8        48.389                                    22174024.590 7  90798959.73907     -1037.360 7        47.611    22174025.450 7  90798932.74807     -1037.382 7        44.033
G03        13.000    22315550.392 7 117269060.86107      2584.625 7        44.408                                    22315548.858 7  91378504.02207      2013.992 7        43.003    22315549.420 7  91378509.02707      2013.969 7        42.821
S36        14.000    38387344.952 7 201727378.07607      -314.027 7        44.011
C13        15.000                                                                                                                                    40717379.171 6 212026135.02806     -1122.158 6        37.437    40717380.980 6 163952090.96906      -867.874 6        39.009    40717378.939 6 172288624.92906      -911.625 6        37.259
G17        16.000    24566888.638 6 129099872.34506      2747.490 6        41.518                                    24566884.126 5 100597278.67105      2140.907 5        34.695    24566884.025 6 100597280.66806      2140.716 6        37.754
C16        17.000                                                                                                                                    40284364.037 6 209771264.86906      1245.740 6        39.180    40284363.372 6 162208454.50906       962.998 6        40.048    40284360.565 6 170456328.57106      1012.223 6        36.582
E27        18.000    27960020.358 6 146930901.41206     -3103.045 6        38.544                                                                    27960021.182 6 109721127.54606     -2317.098 6        41.282    27960020.736 6 112583415.56506     -2377.753 6        41.566
E05        20.000    24382806.237 7 128132540.14107     -1773.312 7        42.246                                                                    24382805.942 7  95683396.08707     -1324.277 7        46.111    24382805.554 7  98179486.66707     -1358.868 7        46.952
C41        21.000                                                                                                                                    24149008.560 7 125750251.45207      2521.178 7        46.837                                                                    24149013.987 7 102182409.15907      2048.547 7        47.559
I06        22.000    38536894.051 7 151227283.58907      -127.285 7        42.472
E03        23.000    24508513.874 7 128793128.43307      1035.323 7        46.201                                                                    24508513.495 8  96176716.32408       773.045 8        49.500    24508513.171 8  98685670.67508       793.224 8        50.603
R22        24.000    20054043.151 8 107049888.14208      1821.697 8        52.131                                                                    20054041.170 8  83261039.53208      1416.900 8        48.646
S23        25.000    38343011.699 7 201493865.11107      -311.558 7        44.680
S45        26.000    63590931.150 6 334173191.39906      -355.611 6        38.090
G02        27.000    21148418.901 8 111135743.60208       753.776 8        48.819                                    21148411.946 6  86599271.73606       587.357 6        41.604
S27        28.000    39285605.127 6 206447325.07906      -287.193 6        36.601
C39        29.000                                                                                                                                    39834972.327 6 207431171.38806       926.929 6        41.638                                                                    39834968.877 7 168554813.10407       753.150 7        42.197
E21        30.000    27220835.423 6 143046468.52906     -1506.895 6        40.024                                                                    27220835.995 7 106820421.29007     -1125.181 7        42.694    27220835.463 7 109607037.31507     -1154.504 7        43.697
C43        31.000                                                                                                                                    24581714.183 7 128003535.55307     -3350.541 7        44.345                                                                    24581712.288 7 104013399.19107     -2722.648 7        43.791
C42        32.000                                                                                                                                    24347097.498 7 126781749.57307     -2968.194 7        46.116                                                                    24347104.879 7 103020599.01607     -2411.805 7        46.815
C28        33.000                                                                                                                                    21659094.065 8 112784600.05308      -305.554 8        50.939                                                                    21659092.644 8  91646727.57408      -248.257 8        48.994
R13        34.000    24032565.357 6 128332556.60506     -2535.236 6        39.730
E34        35.000    26043752.037 7 136861042.86907     -2442.319 7        42.525                                                                    26043752.014 7 102201537.68307     -1823.810 7        45.985    26043752.346 7 104867653.68707     -1871.395 7        47.603
C14        36.000                                                                                                                                    22583073.088 7 117596004.57907     -1739.713 7        46.612    22583069.071 8  90932678.25208     -1345.278 8        51.780    22583067.903 8  95556365.19308     -1413.729 8        49.952
R21        37.000    20069050.702 8 107393602.65608     -2191.482 8        51.340                                                                    20069049.275 7  83528379.56107     -1704.513 7        46.475
R06        38.000    19533427.436 6 104234143.39906     -1131.722 6        40.982
R05        39.000    23638435.633 7 126361006.64207     -4552.741 7        42.307                                                                    23638435.062 6  98280791.97506     -3541.228 6        40.195
C27        40.000                                                                                                                                    23539007.421 7 122573825.08907      2123.982 7        47.164                                                                    23539005.842 7  99601288.66307      1725.911 7        46.612
C06        41.000                                                                                                                                    40023560.105 6 208413189.65206      1346.629 6        36.465    40023555.747 7 161158277.98207      1041.253 7        42.258    40023554.966 6 169352765.36306      1094.147 6        38.652
S44        42.000    40699705.752 6 213878600.03406      -366.152 6        38.411
G08        43.000    22315180.282 7 117267156.25607     -3400.457 7        46.090                                    22315178.513 7  91377045.45507     -2649.702 7        44.853    22315179.344 7  91377043.46007     -2649.752 7        43.166
C05        44.000                                                                                                                                    39312827.282 6 204712252.14406      -285.176 6        38.195    39312823.232 7 158296524.19707      -220.470 7        43.429    39312824.784 6 166345577.78706      -231.713 6        40.365
C11        45.000                                                                                                                                    26455202.077 4 137759313.38504     -3565.783 4        29.858    26455198.437 5 106524298.50305     -2757.363 5        34.000    26455196.939 5 111940764.79305     -2897.678 5        31.381
C33        47.000                                                                                                                                    22051720.683 8 114829125.27808       -58.995 8        50.942                                                                    22051731.762 8  93308128.64808       -47.986 8        49.720
C09        48.000                                                                                                                                    41093351.517 6 213983869.71206      1532.590 6        38.117    41093349.016 6 165465890.11606      1184.964 6        40.617    41093347.113 6 173879399.48506      1245.281 6        38.360
R07        49.000    20506229.212 8 109771504.69208      2688.889 8        52.231                                                                    20506228.014 7  85377835.77707      2091.335 7        46.941
S48        51.000    77373631.806 6 406601435.07606      -329.593 6        37.456
C08        52.000                                                                                                                                    41536641.913 5 216292294.25305     -1209.435 5        31.396    41536634.923 5 167250951.90905      -935.490 5        34.152    41536634.019 5 175755224.58905      -982.754 5        32.347
R14        53.000    24140115.579 7 128680409.89407       786.104 7        42.307                                                                    24140117.063 6 100084702.20906       611.295 6        38.973
C60        54.000                                                                                                                                    40699707.355 6 211934268.61206      -362.793 6        39.952                                                                    40699692.274 6 172213924.36206      -294.939 6        40.760
R08        55.000    24579078.235 6 131619848.24806      4110.507 6        37.448                                                                    24579078.676 5 102371034.60005      3197.097 5        34.143
I09        56.000    37384240.817 7 146703830.30907       -56.636 7        42.954
C02        57.000                                                                                                                                    40705105.556 5 211962217.77305      -324.852 5        33.802    40705098.573 6 163902627.42806      -250.916 6        40.002    40705102.164 6 172236668.81306      -263.859 6        36.560
I03        58.000    77209325.773 6 227200743.94006      1094.857 6        40.062
R23        59.000    23633958.578 7 126425748.87307      3627.891 7        43.014
R20        60.000    24161214.790 4 129201072.67704     -4138.956 4        29.024                                                                    24161216.518 5 100489790.54405     -3219.092 5        35.790
> 2025 01 02 23 15  5.0000000  0 55
G28         1.000    25527654.995 6 134148733.80606      2576.917 6        36.767                                    25527651.736 2 104531469.02002      2008.008 2        17.245    25527652.376 6 104531470.03306      2007.898 6        36.733
E08         2.000    26909588.786 6 141410857.74706      2850.393 6        40.377                                                                    26909587.044 7 105599019.45407      2128.531 7        44.357    26909586.971 7 108353775.68807      2184.093 7        45.335
G21         4.000    20831518.833 7 109470436.17307      -748.254 7        44.391                                    20831513.102 6  85301645.08806      -583.054 6        37.595
S21         5.000    38619846.959 7 202948338.81207      -314.193 7        42.324
E13         6.000    25429120.567 7 133630975.05507      1735.360 7        43.598                                                                    25429120.812 7  99789391.23107      1295.859 7        46.938    25429120.484 8 102392587.91208      1329.617 8        48.234
G10         7.000    23952604.386 6 125871852.54806     -3324.948 6        41.805                                    23952602.918 6  98081978.97606     -2590.867 6        36.786    23952602.773 6  98081972.97506     -2590.795 6        38.859
E15         8.000    23513908.295 7 123566536.21207      -439.471 7        47.710                                                                    23513908.375 8  92273781.99308      -328.188 8        51.243    23513907.789 8  94680911.79008      -336.755 8        51.406
G27        10.000    24946886.694 6 131096918.94306     -4196.684 6        39.219                                    24946885.173 5 102153511.81805     -3270.147 5        34.048    24946885.689 6 102153513.80806     -3270.080 6        37.675
G14        11.000    24187306.858 6 127105159.84206     -1277.464 6        40.346                                    24187304.254 3  99042974.45303      -995.430 3        23.467    24187304.041 6  99042978.44306      -995.470 6        39.162
G32        12.000    22175295.195 8 116531993.95808     -1334.303 8        48.373                                    22175292.662 7  90804152.29007     -1039.715 7        47.583    22175293.414 7  90804125.29907     -1039.643 7        43.915
G03        13.000    22313092.034 7 117256141.58607      2583.136 7        44.757                                    22313090.431 7  91368437.05907      2012.835 7        43.022    22313090.840 7  91368442.05007      2012.860 7        42.533
S36        14.000    38387644.332 7 201728946.96907      -313.704 7        44.245
C13        15.000                                                                                                                                    40718456.568 6 212031744.98006     -1121.862 6        37.055    40718458.551 6 163956428.93006      -867.587 6        39.592    40718456.296 6 172293183.52106      -911.726 6        37.047
G17        16.000    24564274.386 6 129086138.50406      2746.174 6        41.392                                    24564270.628 5 100586576.97505      2139.875 5        34.605    24564270.602 6 100586578.97006      2140.021 6        37.958
C16        17.000                                                                                                                                    40283167.522 6 209765038.14706      1245.052 6        39.300    40283167.633 6 162203639.59806       962.817 6        40.603    40283164.982 6 170451268.87706      1011.738 6        36.132
E27        18.000    27962972.873 6 146946417.83706     -3103.688 6        38.730                                                                    27962973.677 6 109732714.46306     -2317.493 6        41.046    27962973.633 6 112595304.73806     -2377.956 6        41.578
E05        20.000    24384494.605 7 128141412.75507     -1775.592 7        42.408                                                                    24384494.324 7  95690021.73207     -1325.889 7        46.129    24384494.023 7  98186285.15807     -1360.530 7        46.753
C41        21.000                                                                                                                                    24146588.367 7 125737649.63907      2519.650 7        46.371                                                                    24146593.868 7 102172169.16307      2047.386 7        47.371
I06        22.000    38537056.181 7 151227920.38507      -127.364 7        42.834
E03        23.000    24507530.033 7 128787957.93807      1032.998 7        46.542                                                                    24507529.515 8  96172855.23708       771.463 8        49.512    24507529.297 8  98681708.86008       791.574 8        50.518
R22        24.000    20052337.895 8 107040785.60108      1819.338 8        52.236                                                                    20052335.883 8  83253959.77908      1415.092 8        48.380
S23        25.000    38343308.628 7 201495423.12807      -311.533 7        44.852
S45        26.000    63591222.605 6 334174969.02206      -355.336 6        37.928
G02        27.000    21147702.716 8 111131979.14208       752.037 8        49.168                                    21147695.601 6  86596338.39106       586.002 6        41.623
S27        28.000    39285877.990 6 206448761.97006      -287.609 6        36.253
C39        29.000                                                                                                                                    39834082.491 6 207426539.52706       925.870 6        41.378                                                                    39834079.088 7 168551049.36207       752.368 7        42.116
E21        30.000    27222270.499 6 143054007.85706     -1509.040 6        39.922                                                                    27222270.672 7 106826051.30707     -1126.716 7        42.599    27222270.109 7 109612814.21007     -1156.131 7        43.583
C43        31.000                                                                                                                                    24584931.791 7 128020290.99407     -3351.585 7        44.266                                                                    24584929.929 7 104027014.38507     -2723.441 7        43.693
C42        32.000                                                                                                                                    24349948.503 7 126796593.23907     -2969.344 7        46.142                                                                    24349955.509 7 103032660.74007     -2412.850 7        46.525
C28        33.000                                                                                                                                    21659388.705 8 112786133.86208      -307.930 8        51.031                                                                    21659387.219 8  91647973.95008      -250.303 8        48.820
R13        34.000    24034940.388 6 128345240.33106     -2538.284 6        40.760
E34        35.000    26046076.131 7 136873256.46907     -2443.094 7        42.650                                                                    26046076.238 7 102210658.21707     -1824.349 7        46.047    26046076.573 7 104877012.13807     -1871.954 7        47.542
C14        36.000                                                                                                                                    22584744.979 7 117604708.85707     -1742.008 7        46.791    22584740.733 8  90939408.94408     -1346.985 8        51.783    22584739.478 8  95563438.14408     -1415.513 8        49.728
R21        37.000    20071099.862 8 107404567.67908     -2194.511 8        51.523                                                                    20071098.323 7  83536907.90507     -1706.823 7        46.409
R06        38.000    19534489.513 6 104239812.06906     -1135.848 6        40.343
R05        39.000    23642694.477 7 126383772.44507     -4553.549 7        42.694                                                                    23642693.386 6  98298498.70206     -3541.570 6        39.922
C27        40.000                                                                                                                                    23536968.570 7 122563208.42607      2122.620 7        47.388                                                                    23536967.022 7  99592661.77307      1724.772 7        46.435
C06        41.000                                                                                                                                    40022267.389 6 208406458.63206      1345.722 6        36.715    40022263.078 7 161153073.12307      1040.642 7        42.284    40022262.273 6 169347295.86706      1093.700 6        38.045
S44        42.000    40700054.565 6 213880431.11906      -366.228 6        37.932
G08        43.000    22318416.368 7 117284162.84507     -3402.140 7        46.228                                    22318414.787 7  91390297.33907     -2651.014 7        44.811    22318415.725 7  91390295.34207     -2651.050 7        43.585
C05        44.000                                                                                                                                    39313101.298 6 204713678.16706      -285.071 6        38.183    39313097.159 7 158297626.90307      -220.579 7        43.575    39313098.702 6 166346736.56706      -231.697 6        40.253
C11        45.000                                                                                                                                    26458626.387 4 137777143.52104     -3566.614 4        27.820    26458624.128 5 106538085.89405     -2757.581 5        34.662    26458620.686 4 111955253.18404     -2897.638 4        28.607
C33        47.000                                                                                                                                    22051778.611 8 114829426.78308       -61.592 8        51.049                                                                    22051789.676 8  93308373.67208       -50.100 8        49.592
C09        48.000                                                                                                                                    41091881.309 6 213976208.27006      1531.982 6        37.698    41091877.961 6 165459965.80706      1184.802 6        40.539    41091875.953 6 173873173.95706      1244.900 6        38.150
R07        49.000    20503719.569 8 109758067.86808      2685.863 8        52.298                                                                    20503717.854 7  85367384.91007      2089.006 7        46.108
S48        51.000    77373939.695 6 406603083.25706      -329.872 6        38.456
C08        52.000                                                                                                                                    41537802.125 5 216298342.30605     -1209.565 5        30.226    41537795.502 5 167255628.63805      -935.307 5        35.562    41537795.470 5 175760139.12205      -982.533 5        32.060
R14        53.000    24139380.608 6 128676488.94506       782.278 6        41.950                                                                    24139380.845 6 100081652.57106       608.482 6        38.477
C60        54.000                                                                                                                                    40700056.236 6 211936083.06406      -362.825 6        39.862                                                                    40700040.417 6 172215398.75406      -294.882 6        40.420
R08        55.000    24575241.272 6 131599296.24106      4110.365 6        37.561                                                                    24575240.358 5 102355049.74405      3196.855 5        34.371
I09        56.000    37384313.243 7 146704114.20907       -56.844 7        43.227
C02        57.000                                                                                                                                    40705417.063 5 211963841.05305      -324.727 5        33.713    40705410.675 6 163903882.65706      -251.050 6        40.255    40705413.952 6 172237987.88606      -263.739 6        36.159
I03        58.000    77207930.765 6 227195269.66406      1094.879 6        40.346
R23        59.000    23630568.898 7 126407609.60107      3627.781 7        43.124
R20        60.000    24165084.273 4 129221770.32504     -4140.049 4        29.033                                                                    24165087.316 6 100505888.78406     -3219.942 6        37.183
> 2025 01 02 23 15 10.0000000  0 55
G28         1.000    25525203.702 6 134135850.69406      2576.446 6        36.420                                    25525200.174 2 104521430.22802      2007.618 2        17.094    25525200.222 6 104521431.23406      2007.535 6        36.658
E08         2.000    26906876.910 6 141396606.84506      2849.905 6        40.093                                                                    26906875.119 7 105588377.55407      2128.316 7        44.114    26906874.918 7 108342856.17507      2183.889 7        45.034
G21         4.000    20832231.632 7 109474181.76307      -749.825 7        44.471                                    20832225.879 6  85304563.73206      -584.279 6        37.595
S21         5.000    38620144.733 6 202949909.14406      -314.098 6        41.788
E13         6.000    25427469.856 7 133622299.72607      1734.960 7        43.517                                                                    25427469.918 7  99782912.90607      1295.641 7        46.960    25427469.615 8 102385940.58708      1329.386 8        48.134
G10         7.000    23955768.560 7 125888477.86207     -3325.304 7        42.027                                    23955766.609 6  98094933.76106     -2591.142 6        36.896    23955766.610 6  98094927.74306     -2591.017 6        39.000
E15         8.000    23514326.830 7 123568736.43007      -440.591 7        47.755                                                                    23514327.068 8  92275425.01108      -329.022 8        51.205    23514326.454 8  94682597.66808      -337.507 8        51.338
G27        10.000    24950879.924 6 131117902.39406     -4196.476 6        39.667                                    24950878.149 5 102169862.56205     -3269.979 5        33.940    24950878.769 6 102169864.58606     -3270.245 6        37.705
G14        11.000    24188523.849 6 127111553.57706     -1280.180 6        38.874                                    24188520.876 3  99047956.59003      -997.529 3        23.467    24188521.130 6  99047960.58306      -997.481 6        40.033
G32        12.000    22176566.032 8 116538672.56008     -1337.062 8        48.310                                    22176563.555 7  90809356.39507     -1041.868 7        47.601    22176564.185 7  90809329.39507     -1041.871 7        44.375
G03        13.000    22310635.126 7 117243229.50707      2581.816 7        44.620                                    22310633.373 7  91358375.70107      2011.802 7        43.060    22310634.089 7  91358380.70007      2011.725 7        42.821
S36        14.000    38387941.914 7 201730515.47707      -313.540 7        43.960
C13        15.000                                                                                                                                    40719533.778 6 212037353.77206     -1121.302 6        37.686    40719535.682 6 163960766.01306      -867.167 6        39.471    40719533.461 6 172297741.11306      -911.303 6        37.202
G17        16.000    24561661.722 6 129072410.25606      2745.237 6        41.404                                    24561658.154 5 100575879.64005      2139.143 5        34.695    24561658.720 6 100575881.63406      2139.084 6        38.655
C16        17.000                                                                                                                                    40281972.243 6 209758814.64106      1244.586 6        38.958    40281972.511 6 162198827.19206       962.364 6        41.063    40281969.771 5 170446211.77405      1011.036 5        35.995
E27        18.000    27965926.006 6 146961935.98806     -3103.797 6        38.598                                                                    27965926.645 6 109744302.68706     -2317.734 6        41.046    27965926.766 6 112607195.27106     -2378.160 6        41.774
E05        20.000    24386184.837 7 128150295.49407     -1777.455 7        42.118                                                                    24386184.631 7  95696654.94607     -1327.331 7        46.128    24386184.440 7  98193091.40607     -1361.878 7        46.793
C41        21.000                                                                                                                                    24144169.568 7 125725054.70707      2518.407 7        46.514                                                                    24144175.096 7 102161934.75307      2046.440 7        47.549
I06        22.000    38537218.084 7 151228557.03107      -127.233 7        42.552
E03        23.000    24506548.126 7 128782798.30107      1031.018 7        46.453                                                                    24506547.754 8  96169002.27308       769.854 8        49.457    24506547.407 8  98677755.38208       789.963 8        50.402
R22        24.000    20050634.650 8 107031694.72208      1817.166 8        51.832                                                                    20050632.859 8  83246889.09908      1413.417 8        48.532
S23        25.000    38343604.963 7 201496980.96807      -311.392 7        44.701
S45        26.000    63591516.717 6 334176746.32706      -355.592 6        37.429
G02        27.000    21146987.784 8 111128222.78108       750.598 8        49.336                                    21146980.812 6  86593411.35506       584.879 6        41.712
S27        28.000    39286153.531 6 206450198.60906      -287.124 6        36.170
C39        29.000                                                                                                                                    39833194.034 6 207421911.86806       925.264 6        41.461                                                                    39833190.520 7 168547289.01107       751.813 7        42.267
E21        30.000    27223706.935 6 143061557.59706     -1510.853 6        40.057                                                                    27223707.324 7 106831689.11407     -1128.351 7        42.648    27223706.812 7 109618599.06707     -1157.636 7        43.426
C43        31.000                                                                                                                                    24588150.345 7 128037051.49107     -3352.553 7        44.549                                                                    24588148.508 7 104040633.65707     -2724.192 7        43.733
C42        32.000                                                                                                                                    24352799.930 7 126811442.78207     -2970.333 7        45.834                                                                    24352807.288 7 103044727.19907     -2413.648 7        46.678
C28        33.000                                                                                                                                    21659685.621 8 112787679.39008      -310.204 8        50.965                                                                    21659683.992 8  91649229.80708      -252.045 8        49.013
R13        34.000    24037318.554 6 128357939.42806     -2541.123 6        38.153
E34        35.000    26048400.897 7 136885473.59607     -2443.698 7        42.523                                                                    26048401.166 7 102219781.41307     -1824.885 7        45.807    26048401.377 7 104886373.32707     -1872.400 7        47.454
C14        36.000                                                                                                                                    22586418.801 7 117613423.70807     -1743.967 7        46.623    22586414.225 8  90946147.82108     -1348.408 8        51.724    22586413.085 8  95570519.67108     -1417.072 8        49.915
R21        37.000    20073151.630 8 107415547.58808     -2197.353 8        51.410                                                                    20073149.870 7  83545447.84607     -1709.107 7        46.075
R06        38.000    19535555.986 6 104245500.76806     -1139.666 6        41.089
R05        39.000    23646953.971 7 126406541.57907     -4554.000 7        43.092                                                                    23646953.452 6  98316208.02406     -3541.981 6        40.219
C27        40.000                                                                                                                                    23534931.228 7 122552598.22507      2121.516 7        47.228                                                                    23534929.439 7  99584040.11607      1723.892 7        46.586
C06        41.000                                                                                                                                    40020974.942 6 208399730.66506      1345.290 6        36.696    40020971.161 7 161147870.62007      1040.519 7        42.599    40020970.178 6 169341828.83806      1093.150 6        38.189
S44        42.000    40700403.709 6 213882262.11706      -366.119 6        38.060
G08        43.000    22321654.299 7 117301177.70007     -3403.612 7        46.912                                    22321652.626 7  91403555.66507     -2652.165 7        44.904    22321653.222 7  91403553.66707     -2652.117 7        43.443
C05        44.000                                                                                                                                    39313375.909 6 204715104.09306      -285.125 6        38.018    39313370.536 7 158298729.52207      -220.375 7        43.390    39313372.293 6 166347895.25906      -231.650 6        40.336
C11        45.000                                                                                                                                    26462050.355 4 137794975.75504     -3566.429 4        26.443    26462047.308 5 106551874.88505     -2757.690 5        34.438    26462044.040 4 111969743.37904     -2898.166 4        29.621
C33        47.000                                                                                                                                    22051838.877 8 114829740.79408       -63.955 8        50.921                                                                    22051849.972 8  93308628.82408       -51.960 8        49.718
C09        48.000                                                                                                                                    41090410.266 6 213968548.49806      1532.017 6        37.766    41090407.018 6 165454042.77206      1184.650 6        40.870    41090404.978 6 173866949.75006      1244.832 6        38.030
R07        49.000    20501212.568 8 109744646.48008      2682.889 8        52.291                                                                    20501210.226 7  85356946.06607      2086.727 7        46.661
S48        51.000    77374235.247 6 406604731.22706      -329.484 6        37.921
C08        52.000                                                                                                                                    41538963.629 4 216304388.78904     -1209.040 4        29.592    41538958.039 5 167260304.19705      -935.024 5        34.495    41538956.917 5 175765052.44005      -982.650 5        32.000
R14        53.000    24138648.246 7 128672587.20807       778.554 7        42.453                                                                    24138649.239 6 100078617.94206       605.361 6        38.928
C60        54.000                                                                                                                                    40700404.982 6 211937897.40106      -362.657 6        40.200                                                                    40700388.855 6 172216873.04706      -294.617 6        40.782
R08        55.000    24571403.580 6 131578745.85106      4110.121 6        37.342                                                                    24571403.475 5 102339066.15605      3196.687 5        34.643
I09        56.000    37384385.639 7 146704399.12407       -57.009 7        42.855
C02        57.000                                                                                                                                    40705728.350 5 211965464.27505      -324.617 5        33.419    40705722.360 6 163905137.84806      -250.986 6        40.148    40705725.351 6 172239306.91106      -263.848 6        36.038
I03        58.000    77206535.710 6 227189795.44306      1094.846 6        40.091
R23        59.000    23627177.934 7 126389470.39907      3628.015 7        43.024
R20        60.000    24168955.029 4 129242472.22104     -4141.034 4        28.123                                                                    24168958.873 6 100521990.22506     -3220.464 6        37.682
> 2025 01 02 23 15 15.0000000  0 55
G28         1.000    25522752.135 6 134122969.75906      2576.193 6        36.851                                    25522748.924 2 104511393.15502      2007.479 2        16.226    25522749.050 5 104511394.13805      2007.423 5        35.971
E08         2.000    26904165.650 6 141382358.37206      2849.801 6        40.465                                                                    26904163.715 7 105577737.46507      2128.060 7        43.966    26904163.404 7 108331938.51907      2183.511 7        44.808
G21         4.000    20832945.967 7 109477936.02507      -751.434 7        44.599                                    20832940.288 6  85307489.13006      -585.535 6        37.565
S21         5.000    38620443.898 7 202951479.36307      -313.710 7        42.150
E13         6.000    25425819.319 7 133613626.53807      1734.538 7        43.680                                                                    25425819.464 7  99776436.18107      1295.326 7        46.815    25425819.147 8 102379294.90008      1329.067 8        48.057
G10         7.000    23958932.623 6 125905105.12006     -3325.374 6        41.640                                    23958930.698 6  98107890.06006     -2591.200 6        36.851    23958930.654 6  98107884.04606     -2591.157 6        38.607
E15         8.000    23514746.684 7 123570942.39407      -441.589 7        47.723                                                                    23514746.831 8  92277072.32408      -329.765 8        51.123    23514746.251 8  94684287.95708      -338.371 8        51.219
G27        10.000    24954872.826 6 131138886.05006     -4196.510 6        39.501                                    24954871.191 5 102186213.45705     -3270.003 5        33.940    24954871.839 6 102186215.46306     -3269.832 6        37.762
G14        11.000    24189742.834 6 127117960.78206     -1282.641 6        39.667                                    24189739.970 3  99052949.22003      -999.464 3        23.314    24189740.125 6  99052953.20606      -999.366 6        38.541
G32        12.000    22177839.763 7 116545365.82907     -1339.971 7        47.992                                    22177837.248 7  90814571.93207     -1044.132 7        47.505    22177837.920 7  90814544.92907     -1044.160 7        44.251
G03        13.000    22308178.724 7 117230324.48107      2580.606 7        43.833                                    22308177.643 7  91348319.84107      2010.860 7        42.971    22308177.816 7  91348324.85007      2010.809 7        42.455
S36        14.000    38388234.855 7 201732082.57907      -312.991 7        44.083
C13        15.000                                                                                                                                    40720609.996 6 212042961.22306     -1121.193 6        36.473    40720612.373 6 163965102.03106      -866.988 6        39.240    40720610.294 6 172302297.59106      -911.080 6        37.123
G17        16.000    24559050.218 6 129058687.46606      2744.198 6        40.644                                    24559046.776 5 100565186.56305      2138.335 5        34.581    24559047.366 6 100565188.56106      2138.545 6        38.622
C16        17.000                                                                                                                                    40280777.868 6 209752594.20106      1244.132 6        38.793    40280777.801 6 162194017.17306       961.872 6        40.675    40280775.242 6 170441157.14806      1010.686 6        36.336
E27        18.000    27968879.296 6 146977455.77806     -3104.008 6        38.622                                                                    27968880.352 6 109755892.12606     -2317.834 6        41.180    27968879.932 6 112619087.05406     -2378.386 6        41.523
E05        20.000    24387877.083 7 128159188.18807     -1779.305 7        42.459                                                                    24387876.965 7  95703295.59207     -1328.739 7        46.016    24387876.669 7  98199905.28307     -1363.364 7        46.680
C41        21.000                                                                                                                                    24141752.501 7 125712466.57507      2517.199 7        45.938                                                                    24141757.688 7 102151705.85707      2045.369 7        47.430
I06        22.000    38537380.454 7 151229193.38707      -126.994 7        42.772
E03        23.000    24505568.260 7 128777649.39707      1028.913 7        46.722                                                                    24505567.867 8  96165157.30408       768.387 8        49.394    24505567.630 8  98673810.11508       788.366 8        50.309
R22        24.000    20048933.804 8 107022615.32908      1814.929 8        52.252                                                                    20048931.858 8  83239827.35908      1411.628 8        48.223
S23        25.000    38343899.593 7 201498538.42007      -311.449 7        44.698
S45        26.000    63591813.401 6 334178523.26206      -354.904 6        38.228
G02        27.000    21146274.438 8 111124474.38308       749.074 8        49.241                                    21146267.521 6  86590490.52806       583.696 6        41.623
S27        28.000    39286418.015 6 206451634.64106      -286.776 6        36.049
C39        29.000                                                                                                                                    39832306.437 6 207417288.26506       924.535 6        41.011                                                                    39832302.560 7 168543531.95607       751.152 7        42.097
E21        30.000    27225145.794 6 143069117.58106     -1512.861 6        40.148                                                                    27225145.982 7 106837334.54907     -1129.680 7        42.536    27225145.389 7 109624391.78807     -1159.216 7        43.312
C43        31.000                                                                                                                                    24591369.900 7 128053816.86907     -3353.268 7        44.322                                                                    24591368.357 7 104054256.89607     -2724.897 7        43.797
C42        32.000                                                                                                                                    24355652.728 7 126826298.01307     -2971.401 7        45.430                                                                    24355660.094 7 103056798.27907     -2414.628 7        46.701
C28        33.000                                                                                                                                    21659984.429 8 112789236.47808      -312.345 8        50.754                                                                    21659983.028 8  91650495.06208      -253.902 8        48.865
R13        34.000    24039698.466 6 128370653.87506     -2544.281 6        39.027
E34        35.000    26050726.534 7 136897694.15407     -2444.197 7        42.766                                                                    26050726.593 7 102228907.13107     -1825.176 7        45.688    26050726.767 7 104895737.12607     -1872.841 7        47.333
C14        36.000                                                                                                                                    22588093.962 7 117622148.98907     -1745.986 7        46.649    22588089.670 8  90952894.76608     -1350.080 8        52.010    22588088.683 8  95577609.66808     -1418.731 8        49.826
R21        37.000    20075206.055 8 107426542.25408     -2200.181 8        51.623                                                                    20075204.849 7  83553999.24607     -1711.214 7        46.294
R06        38.000    19536625.768 6 104251209.34506     -1143.486 6        41.159
R05        39.000    23651214.112 7 126429313.90407     -4554.583 7        42.789                                                                    23651212.826 6  98333919.81206     -3542.464 6        40.527
C27        40.000                                                                                                                                    23532894.264 7 122541994.40307      2120.266 7        46.730                                                                    23532893.017 7  99575423.63807      1722.787 7        46.527
C06        41.000                                                                                                                                    40019684.564 6 208393005.55206      1344.939 6        36.885    40019679.644 7 161142670.36307      1039.993 7        42.468    40019678.606 6 169336364.14906      1092.631 6        38.285
S44        42.000    40700748.252 6 213884092.81406      -366.018 6        37.754
G08        43.000    22324893.755 7 117318200.68007     -3405.173 7        46.587                                    22324892.039 7  91416820.32707     -2653.382 7        44.873    22324892.642 7  91416818.33007     -2653.428 7        43.211
C05        44.000                                                                                                                                    39313649.403 6 204716529.74106      -284.741 6        38.072    39313644.495 7 158299831.94807      -220.328 7        43.318    39313646.382 6 166349053.72006      -231.429 6        40.482
C11        45.000                                                                                                                                    26465474.531 4 137812809.87804     -3565.973 4        28.701    26465472.009 5 106565665.40005     -2758.171 5        34.557    26465469.970 4 111984235.06504     -2898.637 4        28.607
C33        47.000                                                                                                                                    22051901.474 8 114830067.17108       -66.288 8        50.773                                                                    22051912.690 8  93308894.02008       -53.918 8        49.641
C09        48.000                                                                                                                                    41088939.059 6 213960890.22206      1531.673 6        37.316    41088936.252 6 165448120.90306      1184.305 6        41.602    41088934.152 6 173860726.76606      1244.676 6        38.375
R07        49.000    20498707.849 8 109731239.94408      2680.058 8        52.130                                                                    20498706.326 7  85346518.76207      2084.448 7        46.960
S48        51.000    77374531.934 6 406606378.51606      -328.945 6        37.497
C08        52.000                                                                                                                                    41540124.204 4 216310433.71804     -1208.150 4        29.896    41540118.501 5 167264978.49805      -934.333 5        34.643    41540118.139 5 175769964.41305      -982.208 5        32.030
R14        53.000    24137919.557 7 128668704.59007       774.780 7        42.070                                                                    24137921.480 6 100075598.12406       602.394 6        40.093
C60        54.000                                                                                                                                    40700753.178 6 211939711.47106      -362.671 6        39.817                                                                    40700737.574 6 172218347.12906      -294.802 6        40.849
R08        55.000    24567565.055 6 131558196.73806      4109.826 6        37.108                                                                    24567564.136 5 102323083.56005      3196.742 5        34.533
I09        56.000    37384458.723 7 146704684.95707       -57.097 7        43.016
C02        57.000                                                                                                                                    40706040.523 5 211967087.26205      -324.503 5        33.341    40706033.719 6 163906392.84406      -250.825 6        40.215    40706037.377 5 172240625.70405      -263.761 5        35.781
I03        58.000    77205140.861 6 227184321.16706      1095.017 6        40.257
R23        59.000    23623785.599 7 126371331.13507      3628.022 7        42.665
R20        60.000    24172832.628 4 129263177.95904     -4141.175 4        26.886                                                                    24172830.981 6 100538094.70506     -3221.083 6        37.682
> 2025 01 02 23 15 20.0000000  0 55
G28         1.000    25520301.625 6 134110090.84406      2575.375 6        36.526                                    25520298.175 2 104501357.60402      2006.817 2        17.094    25520298.120 5 104501358.65405      2006.454 5        35.567
E08         2.000    26901454.855 6 141368112.09606      2848.804 6        40.751                                                                    26901452.547 7 105567099.01607      2127.329 7        43.776    26901452.532 7 108321022.54207      2182.767 7        44.491
G21         4.000    20833662.062 7 109481698.76507      -753.700 7        44.376                                    20833656.320 6  85310421.13706      -587.303 6        37.603
S21         5.000    38620741.328 7 202953048.82607      -314.285 7        42.222
E13         6.000    25424169.213 7 133604955.23807      1733.661 7        44.038                                                                    25424169.357 7  99769960.87307      1294.598 7        46.795    25424169.018 7 102372650.65607      1328.470 7        47.969
G10         7.000    23962097.081 6 125921734.09106     -3326.248 6        41.850                                    23962095.064 6  98120847.69606     -2591.885 6        37.040    23962094.859 6  98120841.69706     -2591.885 6        38.345
E15         8.000    23515167.414 7 123573153.89407      -443.214 7        47.956                                                                    23515167.699 8  92278723.76708      -330.959 8        51.095    23515167.061 8  94685982.47808      -339.526 8        51.136
G27        10.000    24958865.981 6 131159869.64406     -4197.049 6        39.426                                    24958864.256 5 102202564.30305     -3270.430 5        33.790    24958864.656 6 102202566.30106     -3270.302 6        37.217
G14        11.000    24190964.950 6 127124381.17606     -1285.900 6        39.357                                    24190961.702 3  99057952.11503     -1002.013 3        23.371    24190961.945 6  99057956.11106     -1001.963 6        38.547
G32        12.000    22179116.125 8 116552073.52008     -1343.260 8        48.097                                    22179113.677 7  90819798.70307     -1046.695 7        47.626    22179114.327 7  90819771.71007     -1046.757 7        44.242
G03        13.000    22305724.341 7 117217426.28207      2578.564 7        44.370                                    22305723.192 7  91338269.30307      2009.265 7        43.092    22305723.468 7  91338274.30707      2009.258 7        42.334
S36        14.000    38388533.586 7 201733648.45007      -313.418 7        43.382
C13        15.000                                                                                                                                    40721686.333 6 212048567.08806     -1121.197 6        36.907    40721688.537 6 163969436.83506      -867.113 6        39.261    40721686.931 6 172306852.86006      -911.123 6        37.459
G17        16.000    24556440.428 6 129044969.92006      2742.738 6        40.820                                    24556436.386 5 100554497.56605      2137.202 5        34.571    24556436.322 6 100554499.54906      2137.260 6        37.527
C16        17.000                                                                                                                                    40279583.507 6 209746376.62306      1243.004 6        39.123    40279583.518 6 162189209.35706       961.182 6        40.882    40279581.197 6 170436104.89406      1010.054 6        36.518
E27        18.000    27971832.772 6 146992976.89106     -3104.626 6        38.513                                                                    27971833.917 6 109767482.57306     -2318.416 6        41.259    27971833.080 6 112630979.85006     -2378.971 6        41.671
