     3.04           OBSERVATION DATA    M                   RINEX VERSION / TYPE
ssrcrin-15.6.1x                         20250102 211500 UTC PGM / RUN BY / DATE 
(00000000023479385599111004) Septentrio proprietary         COMMENT             
rref                                                        MARKER NAME         
01                                                          MARKER NUMBER       
geodetic                                                    MARKER TYPE         
NFB                 CLIMERS@TUW                             OBSERVER / AGENCY   
3297213             SEPT ASTERX SB3 PROB4.14.4              REC # / TYPE / VERS 
Unknown             Unknown                                 ANT # / TYPE        
  4127832.2338  1207193.4763  4695247.6977                  APPROX POSITION XYZ 
        0.0000        0.0000        0.0000                  ANTENNA: DELTA H/E/N
G   23 X1  C1C L1C D1C S1C C1W S1W C2W L2W D2W S2W C2L L2L  SYS / # / OBS TYPES 
       D2L S2L C5Q L5Q D5Q S5Q C1L L1L D1L S1L              SYS / # / OBS TYPES 
E   21 X1  C1C L1C D1C S1C C6C L6C D6C S6C C5Q L5Q D5Q S5Q  SYS / # / OBS TYPES 
       C7Q L7Q D7Q S7Q C8Q L8Q D8Q S8Q                      SYS / # / OBS TYPES 
S    9 X1  C1C L1C D1C S1C C5I L5I D5I S5I                  SYS / # / OBS TYPES 
R   17 X1  C1C L1C D1C S1C C2P L2P D2P S2P C2C L2C D2C S2C  SYS / # / OBS TYPES 
       C3Q L3Q D3Q S3Q                                      SYS / # / OBS TYPES 
C   25 X1  C1P L1P D1P S1P C5P L5P D5P S5P C2I L2I D2I S2I  SYS / # / OBS TYPES 
       C7I L7I D7I S7I C6I L6I D6I S6I C7D L7D D7D S7D      SYS / # / OBS TYPES 
J   17 X1  C1C L1C D1C S1C C2L L2L D2L S2L C5Q L5Q D5Q S5Q  SYS / # / OBS TYPES 
       C1L L1L D1L S1L                                      SYS / # / OBS TYPES 
I    5 X1  C5A L5A D5A S5A                                  SYS / # / OBS TYPES 
SEPTENTRIO RECEIVERS OUTPUT ALIGNED CARRIER PHASES.         COMMENT             
NO FURTHER PHASE SHIFT APPLIED IN THE RINEX ENCODER.        COMMENT             
G L1C                                                       SYS / PHASE SHIFT   
G L2W                                                       SYS / PHASE SHIFT   
G L2L  0.00000                                              SYS / PHASE SHIFT   
G L5Q  0.00000                                              SYS / PHASE SHIFT   
G L1L  0.00000                                              SYS / PHASE SHIFT   
E L1C  0.00000                                              SYS / PHASE SHIFT   
E L6C  0.00000                                              SYS / PHASE SHIFT   
E L5Q  0.00000                                              SYS / PHASE SHIFT   
E L7Q  0.00000                                              SYS / PHASE SHIFT   
E L8Q  0.00000                                              SYS / PHASE SHIFT   
S L1C                                                       SYS / PHASE SHIFT   
S L5I                                                       SYS / PHASE SHIFT   
R L1C                                                       SYS / PHASE SHIFT   
R L2P  0.00000                                              SYS / PHASE SHIFT   
R L2C                                                       SYS / PHASE SHIFT   
R L3Q  0.00000                                              SYS / PHASE SHIFT   
C L1P  0.00000                                              SYS / PHASE SHIFT   
C L5P  0.00000                                              SYS / PHASE SHIFT   
C L2I                                                       SYS / PHASE SHIFT   
C L7I                                                       SYS / PHASE SHIFT   
C L6I                                                       SYS / PHASE SHIFT   
C L7D                                                       SYS / PHASE SHIFT   
J L1C                                                       SYS / PHASE SHIFT   
J L2L  0.00000                                              SYS / PHASE SHIFT   
J L5Q  0.00000                                              SYS / PHASE SHIFT   
J L1L  0.00000                                              SYS / PHASE SHIFT   
I L5A                                                       SYS / PHASE SHIFT   
  2025     1     2    21    15    0.0000000     GPS         TIME OF FIRST OBS   
 C1C    0.000 C2C    0.000 C2P    0.000                     GLONASS COD/PHS/BIS 
DBHZ                                                        SIGNAL STRENGTH UNIT
    18                                                      LEAP SECONDS        
 24 R01  1 R02 -4 R03  5 R04  6 R05  1 R06 -4 R07  5 R08  6 GLONASS SLOT / FRQ #
    R09 -2 R10 -7 R11  0 R12 -1 R13 -2 R14 -7 R15  0 R16 -1 GLONASS SLOT / FRQ #
    R17  4 R18 -3 R19  3 R20  2 R21  4 R22 -3 R23  3 R24  2 GLONASS SLOT / FRQ #
                                                            END OF HEADER       
> 2025 01 02 21 15  0.0000000  0 56
G23         1.000    22793705.241 7 119781804.79107     -3420.974 7        42.762                                    22793701.045 5  93336493.20905     -2665.698 5        30.083    22793701.471 7  93336491.21607     -2665.772 7        42.650
C37         2.000                                                                                                                                    25938045.066 6 135066195.70406     -2232.053 6        41.304                                                                    25938049.204 6 109752366.77406     -1813.732 6        41.707
G16         3.000    24452692.605 6 128499953.65906     -4155.578 6        39.162                                    24452688.526 3 100129914.13203     -3238.108 3        21.357
G21         4.000    21713569.630 7 114105634.11907      1493.448 7        43.355                                    21713565.051 5  88913484.82705      1163.724 5        31.419
S21         5.000    38430571.095 6 201953689.48906      -402.743 6        41.998
E13         6.000    28363826.151 5 149052926.69905      2029.128 5        35.452                                                                    28363828.908 6 111305774.41006      1515.406 6        37.887    28363828.179 6 114209399.54306      1554.953 6        38.733
G10         7.000    20792903.117 8 109267510.73808     -1161.914 8        51.524                                    20792901.180 8  85143531.51208      -905.389 8        52.667    20792900.969 7  85143525.51607      -905.397 7        46.389
E15         8.000    24202903.347 7 127187222.51507       922.975 7        46.857                                                                    24202903.894 8  94977539.07608       689.250 8        50.103    24202903.530 8  97455201.92408       707.215 8        50.798
E36         9.000    27368805.052 6 143824218.75106     -2776.360 6        38.916                                                                    27368807.028 7 107401341.31607     -2073.364 7        42.472    27368805.936 7 110203103.23207     -2127.227 7        42.834
G27        10.000    20518019.657 8 107823072.08508     -2062.493 8        50.531                                    20518017.341 8  84018048.78408     -1607.136 8        52.202    20518017.716 7  84018050.78707     -1607.181 7        45.803
G14        11.000    25547920.367 6 134255226.88406      2522.781 6        36.129                                    25547917.997 2 104614453.90702      1965.809 2        16.755    25547918.225 5 104614457.92305      1965.865 5        35.681
G32        12.000    23525115.381 7 123625331.84107      2447.839 7        43.907                                    23525113.719 6  96331424.59106      1907.407 6        39.886    23525114.876 6  96331397.60906      1907.344 6        41.113
C23        13.000                                                                                                                                    27037237.351 6 140790005.17106     -3271.968 6        38.712                                                                    27037230.780 6 114403396.34006     -2658.739 6        38.366
S36        14.000    38199263.522 7 200739011.22707      -401.676 7        43.780
C13        15.000                                                                                                                                    39220626.485 6 204232150.01706     -1438.585 6        40.241    39220628.206 6 157925286.70206     -1112.518 6        40.567    39220626.646 6 165955373.22206     -1169.026 6        39.937
G18        16.000    25774689.142 5 135447104.35905     -3582.609 5        32.180                                    25774686.109 1 105543288.55701     -2791.637 1         8.571    25774685.868 5 105543296.51205     -2791.568 5        33.066
E27        18.000    25193237.882 7 132391378.28907      -861.577 7        44.754                                                                    25193238.028 7  98863695.78707      -643.354 7        47.912    25193237.573 8 101442745.95008      -660.189 8        48.436
E05        20.000    24495472.828 6 128724594.80906      1440.715 6        41.955                                                                    24495473.303 7  96125511.41507      1075.891 7        45.741    24495472.873 7  98633135.83007      1103.933 7        46.524
R11        21.000    22312311.118 7 119230237.52107     -3470.885 7        45.378                                                                    22312309.957 7  92734631.13407     -2699.516 7        42.241
I06        22.000    38535809.574 6 151223019.46806      -207.832 6        41.492
E03        23.000    27735167.613 6 145749278.47406      2670.123 6        38.465                                                                    27735168.921 6 108838768.16606      1994.046 6        41.368    27735168.289 6 111678037.87206      2045.936 6        41.983
R22        24.000    24016866.267 7 128203667.68107      3011.422 7        43.251                                                                    24016866.715 6  99713969.25206      2342.199 6        38.634
S23        25.000    38156658.086 7 200514558.44807      -401.636 7        44.000
S45        26.000    63409205.290 6 333217979.18306      -446.191 6        37.474
G02        27.000    23654107.704 7 124303208.90807      2217.742 7        42.675                                    23654102.860 4  96859628.96904      1728.113 4        27.653
S27        28.000    39138244.139 6 205672919.00806      -370.223 6        36.435
C38        29.000                                                                                                                                    41354424.161 5 215343458.29105     -1592.354 5        32.455                                                                    41354421.382 5 174984244.62905     -1294.023 5        34.676
E21        30.000    27693499.860 6 145530333.40806      1650.683 6        38.631                                                                    27693500.477 7 108675254.79407      1232.749 7        42.362    27693499.720 7 111510257.85807      1264.891 7        42.713
C43        31.000                                                                                                                                    21648139.907 8 112727652.09008     -1154.362 8        51.123                                                                    21648138.462 8  91600493.66908      -937.959 8        49.630
C42        32.000                                                                                                                                    22488891.418 8 117105581.24608       274.666 8        49.746                                                                    22488898.941 8  95157919.30608       223.260 8        49.701
C28        33.000                                                                                                                                    23382993.325 7 121761382.40007      1960.821 7        46.887                                                                    23382992.337 7  98941095.97307      1593.392 7        45.834
R13        34.000    24591601.875 5 131317777.78705      2753.799 5        34.976
E34        35.000    23715096.971 7 124623882.71507     -1363.930 7        47.580                                                                    23715097.048 8  93063399.75808     -1018.505 8        50.538    23715096.815 8  95491129.41908     -1045.097 8        51.325
C14        36.000                                                                                                                                    22980131.510 7 119663583.17207      1893.997 7        46.152    22980127.946 8  92531459.16708      1464.597 8        50.579    22980126.553 8  97236440.56208      1539.062 8        48.072
R21        37.000    20086503.075 8 107486989.19108      1404.945 8        51.468                                                                    20086502.440 7  83601012.14407      1092.692 7        46.191
R06        38.000    22128562.780 6 118082262.59206      3872.754 6        39.054
R05        39.000    20038921.122 8 107119541.53508      -182.863 8        51.126                                                                    20038920.319 7  83315208.27107      -142.231 7        47.753
R04        41.000    22381274.839 7 119850736.87507     -3734.712 7        45.457                                                                    22381273.182 6  93217246.44806     -2904.809 6        41.230
S44        42.000    40463516.866 6 212637397.55006      -417.880 6        37.062
G08        43.000    20350483.231 8 106942604.03908       370.088 8        50.410                                    20350481.667 8  83331940.00008       288.379 8        51.409    20350482.505 7  83331938.00107       288.332 7        46.385
C05        44.000                                                                                                                                    39179651.836 6 204018758.03606      -346.104 6        38.429    39179646.839 7 157760268.38607      -267.675 7        43.175    39179648.229 6 165782055.33606      -281.226 6        39.598
C11        45.000                                                                                                                                    22639794.619 7 117891492.58107     -2171.600 7        46.848    22639791.163 8  91161240.48208     -1679.185 8        51.215    22639789.763 8  95796534.03708     -1764.464 8        48.146
E09        46.000    27047010.673 6 142133019.73906     -1100.014 6        40.336                                                                    27047010.318 7 106138305.61507      -821.461 7        42.174    27047010.170 7 108907127.98307      -843.050 7        43.467
C33        47.000                                                                                                                                    24571426.352 7 127949873.17607      2895.197 7        44.888                                                                    24571437.698 7 103969807.67607      2352.648 7        45.562
C21        48.000                                                                                                                                    24578656.646 7 127987541.72707     -2615.840 7        45.252                                                                    24578651.188 7 104000348.93107     -2125.539 7        45.321
E06        49.000    28099480.376 6 147663782.92406     -2079.910 6        36.004                                                                    28099481.066 6 110268413.38706     -1553.155 6        40.489    28099480.523 6 113144978.02306     -1593.711 6        40.405
S48        51.000    77179560.163 6 405581946.06606      -433.849 6        37.025
C08        52.000                                                                                                                                    39856944.826 6 207545673.74106     -1622.000 6        36.072    39856939.151 6 160487509.28506     -1254.173 6        40.296    39856938.396 6 168647878.31606     -1317.723 6        37.766
C34        53.000                                                                                                                                    24357076.579 7 126833959.94907     -3073.781 7        44.715                                                                    24357076.600 7 103063096.25407     -2497.669 7        43.763
C60        54.000                                                                                                                                    40463517.817 6 210704349.68606      -414.117 6        40.246                                                                    40463501.291 6 171214512.08806      -336.496 6        39.459
R12        55.000    22426581.855 7 119798769.00607       349.084 7        46.471                                                                    22426582.082 7  93176821.78807       271.552 7        43.304
I09        56.000    37849553.589 7 148529804.54607       234.660 7        43.391
C02        57.000                                                                                                                                    40528879.041 5 211044553.06705      -366.943 5        33.683    40528873.592 6 163193027.84606      -283.982 6        40.384    40528876.874 6 171490988.66906      -298.363 6        36.151
I03        58.000    79520867.888 6 236271714.87206      1094.250 6        40.248
E30        59.000    26148848.742 7 137413339.26007     -3162.524 7        43.530                                                                    26148848.840 7 102613974.89307     -2361.703 7        45.768    26148848.382 7 105290844.70907     -2423.195 7        46.531
R20        60.000    20174758.997 6 107883711.59306     -1989.173 6        38.745                                                                    20174761.328 7  83909622.51907     -1547.024 7        46.640
> 2025 01 02 21 15  5.0000000  0 56
G23         1.000    22796960.781 7 119798912.71007     -3422.079 7        43.166                                    22796956.560 5  93349824.05205     -2666.553 5        30.053    22796956.708 7  93349822.05807     -2666.548 7        42.383
C37         2.000                                                                                                                                    25940189.399 6 135077359.66606     -2233.548 6        41.347                                                                    25940193.064 6 109761438.41706     -1815.065 6        41.709
G16         3.000    24456646.398 6 128520731.37106     -4155.643 6        38.787                                    24456642.277 3 100146104.56003     -3238.156 3        21.262
G21         4.000    21712149.355 7 114098169.75507      1492.339 7        43.401                                    21712144.650 5  88907668.44405      1162.858 5        31.321
S21         5.000    38430951.688 6 201955702.25306      -402.383 6        41.538
E13         6.000    28361895.234 6 149042780.04706      2029.460 6        36.026                                                                    28361897.782 6 111298197.35906      1515.564 6        37.788    28361897.147 6 114201624.84606      1554.983 6        38.571
G10         7.000    20794009.901 8 109273326.57508     -1164.358 8        51.350                                    20794007.902 8  85148063.33308      -907.289 8        52.619    20794007.708 7  85148057.34407      -907.383 7        46.024
E15         8.000    24202025.289 7 127182609.23607       922.419 7        46.790                                                                    24202025.997 8  94974094.10108       688.789 8        50.026    24202025.672 8  97451667.07708       706.760 8        50.673
E36         9.000    27371446.734 6 143838099.91306     -2776.213 6        39.042                                                                    27371448.436 7 107411707.09807     -2073.012 7        42.317    27371447.734 7 110213739.43907     -2127.093 7        42.859
G27        10.000    20519983.147 8 107833390.82708     -2064.925 8        50.474                                    20519980.929 8  84026089.36108     -1609.033 8        52.134    20519981.470 7  84026091.35807     -1609.056 7        45.716
G14        11.000    25545520.503 5 134242616.39605      2521.430 5        35.690                                    25545518.100 2 104604627.58302      1964.710 2        16.528    25545518.574 5 104604631.55105      1964.940 5        35.586
G32        12.000    23522786.960 7 123613095.68607      2446.662 7        43.122                                    23522785.444 6  96321889.93706      1906.488 6        39.991    23522786.202 6  96321862.94106      1906.569 6        40.560
C23        13.000                                                                                                                                    27040379.270 6 140806364.11506     -3271.604 6        39.159                                                                    27040372.396 6 114416689.31106     -2658.356 6        38.553
S36        14.000    38199646.414 7 200741019.75707      -401.650 7        43.587
C13        15.000                                                                                                                                    39222008.028 6 204239342.69206     -1438.437 6        40.002    39222009.935 6 157930848.52706     -1112.224 6        40.517    39222007.988 6 165961217.84506     -1168.765 6        40.107
G18        16.000    25778096.795 5 135465016.70705     -3582.293 5        33.970                                    25778094.643 1 105557246.20801     -2791.330 1        11.333    25778094.717 5 105557254.19805     -2791.287 5        34.862
E27        18.000    25194058.699 7 132395691.82707      -863.717 7        44.625                                                                    25194058.827 7  98866916.93807      -644.982 7        47.920    25194058.392 8 101446051.13108      -661.847 8        48.265
E05        20.000    24494103.042 7 128717395.09007      1439.116 7        42.389                                                                    24494103.210 7  96120135.00207      1074.725 7        45.717    24494102.865 7  98627619.16107      1102.755 7        46.442
R11        21.000    22315559.977 7 119247598.14907     -3473.305 7        46.595                                                                    22315558.838 7  92748133.84107     -2701.344 7        42.368
I06        22.000    38536074.582 6 151224058.85306      -207.726 6        41.535
E03        23.000    27732626.866 6 145735926.72606      2670.592 6        38.832                                                                    27732628.150 6 108828797.71606      1994.285 6        41.874    27732627.597 7 111667807.32107      2046.271 7        42.021
R22        24.000    24014045.344 7 128188609.62807      3011.922 7        42.965                                                                    24014045.524 6  99702257.41106      2342.806 6        36.571
S23        25.000    38157040.302 7 200516565.67407      -401.403 7        44.120
S45        26.000    63409582.910 6 333220209.11706      -445.849 6        37.130
G02        27.000    23651997.641 7 124292121.07607      2217.453 7        43.126                                    23651992.854 4  96850989.11704      1727.879 4        27.557
S27        28.000    39138597.424 6 205674769.28306      -369.951 6        36.102
C38        29.000                                                                                                                                    41355952.519 5 215351419.46305     -1591.959 5        32.677                                                                    41355950.337 5 174990713.72905     -1293.758 5        34.581
E21        30.000    27691930.089 6 145522083.52306      1649.300 6        38.727                                                                    27691930.523 7 108669094.16207      1231.680 7        42.415    27691929.761 7 111503936.51807      1263.702 7        42.622
C43        31.000                                                                                                                                    21649249.258 8 112733427.81008     -1155.879 8        51.395                                                                    21649247.641 8  91605186.91108      -939.247 8        49.757
C42        32.000                                                                                                                                    22488628.848 8 117104214.49008       272.123 8        49.800                                                                    22488636.482 8  95156808.69908       221.050 8        49.946
C28        33.000                                                                                                                                    23381110.621 7 121751579.36607      1960.329 7        46.892                                                                    23381109.801 7  98933130.20907      1592.861 7        45.925
R13        34.000    24589024.619 5 131304014.08205      2751.733 5        35.857
E34        35.000    23716395.040 7 124630704.02507     -1364.491 7        47.524                                                                    23716395.115 8  93068493.59408     -1018.955 8        50.598    23716394.876 8  95496356.13408     -1045.534 8        51.283
C14        36.000                                                                                                                                    22978313.360 7 119654117.88707      1892.148 7        46.077    22978310.141 8  92524140.01208      1463.166 8        50.459    22978308.963 8  97228749.25508      1537.477 8        48.159
R21        37.000    20085191.078 8 107479967.80708      1403.652 8        51.780                                                                    20085190.117 7  83595551.06607      1091.695 7        46.230
R06        38.000    22124934.082 6 118062902.07306      3871.538 6        39.336
R05        39.000    20039093.949 8 107120467.12608      -187.336 8        51.126                                                                    20039093.355 7  83315928.18407      -145.619 7        47.357
R04        41.000    22384762.981 7 119869416.94007     -3737.252 7        45.514                                                                    22384761.498 6  93231775.38506     -2906.670 6        41.087
S44        42.000    40463911.093 6 212639486.39306      -417.654 6        37.059
G08        43.000    20350132.098 8 106940759.60008       367.736 8        50.380                                    20350130.671 8  83330502.77608       286.547 8        51.359    20350131.321 7  83330500.77907       286.523 7        46.163
C05        44.000                                                                                                                                    39179983.170 6 204020487.92706      -345.746 6        38.276    39179978.789 7 157761606.03907      -267.299 7        42.914    39179980.578 6 165783461.01506      -281.019 6        39.775
C11        45.000                                                                                                                                    22641880.600 7 117902353.22907     -2172.600 7        47.115    22641876.617 8  91169638.62508     -1680.042 8        50.963    22641875.475 8  95805359.19708     -1765.464 8        48.168
E09        46.000    27048058.074 6 142138525.39606     -1102.191 6        40.529                                                                    27048058.058 7 106142416.99307      -822.970 7        42.299    27048057.848 7 108911346.60307      -844.569 7        43.217
C33        47.000                                                                                                                                    24568646.409 7 127935399.19607      2894.415 7        45.765                                                                    24568657.898 7 103958046.38907      2351.958 7        45.639
C21        48.000                                                                                                                                    24581168.851 7 128000625.33907     -2617.602 7        45.303                                                                    24581163.835 7 104010980.42907     -2127.008 7        45.371
E06        49.000    28101460.022 6 147674186.49806     -2081.584 6        36.533                                                                    28101460.754 6 110276182.27306     -1554.391 6        40.398    28101460.441 6 113152949.58206     -1594.828 6        40.408
S48        51.000    77179948.631 6 405584114.40506      -433.341 6        37.134
C08        52.000                                                                                                                                    39858502.426 6 207553782.40406     -1621.515 6        36.348    39858496.378 6 160493779.42306     -1253.860 6        40.608    39858495.551 6 168654467.29806     -1317.730 6        37.747
C34        53.000                                                                                                                                    24360028.528 7 126849330.57707     -3074.379 7        44.861                                                                    24360028.286 7 103075586.14707     -2498.208 7        44.024
C60        54.000                                                                                                                                    40463915.510 6 210706419.53706      -413.846 6        40.343                                                                    40463898.980 6 171216194.01906      -336.390 6        39.396
R12        55.000    22426256.985 7 119797033.32807       345.128 7        45.634                                                                    22426257.764 7  93175471.83707       268.399 7        43.763
I09        56.000    37849254.743 7 148528631.31307       234.646 7        43.187
C02        57.000                                                                                                                                    40529231.083 5 211046388.96105      -367.077 5        34.343    40529226.421 6 163194447.46406      -283.772 6        40.386    40529229.510 6 171492480.47506      -298.305 6        36.030
I03        58.000    79519473.007 6 236266243.30306      1094.397 6        40.122
E30        59.000    26151858.028 7 137429153.78507     -3163.241 7        43.111                                                                    26151858.282 7 102625784.41907     -2362.088 7        45.890    26151857.851 7 105302962.32507     -2423.788 7        46.442
R20        60.000    20176620.188 6 107893661.00506     -1990.542 6        39.018                                                                    20176621.695 7  83917360.96107     -1548.282 7        47.023
> 2025 01 02 21 15 10.0000000  0 56
G23         1.000    22800217.460 7 119816026.99707     -3423.253 7        43.350                                    22800213.373 5  93363159.85905     -2667.469 5        30.204    22800213.498 7  93363157.87007     -2667.616 7        42.377
C37         2.000                                                                                                                                    25942334.723 6 135088532.38106     -2235.309 6        41.087                                                                    25942338.629 6 109770517.13606     -1816.198 6        41.554
G16         3.000    24460600.653 6 128541509.32306     -4155.516 6        39.174                                    24460596.076 3 100162295.17603     -3238.065 3        21.738
G21         4.000    21710730.222 7 114090712.06107      1491.087 7        42.990                                    21710725.540 5  88901857.25605      1161.884 5        31.472
S21         5.000    38431335.340 6 201957714.56806      -402.157 6        41.554
E13         6.000    28359964.559 5 149032633.83005      2029.388 5        35.614                                                                    28359967.110 6 111290620.65606      1515.642 6        37.694    28359966.641 6 114193850.48606      1555.179 6        38.784
G10         7.000    20795119.146 8 109279155.57508     -1166.933 8        51.502                                    20795117.124 8  85152605.41008      -909.297 8        52.742    20795117.099 7  85152599.40907      -909.321 7        45.953
E15         8.000    24201148.199 7 127178000.09507       921.606 7        46.603                                                                    24201148.900 8  94970652.20808       688.220 8        50.047    24201148.559 8  97448135.39408       706.174 8        50.690
E36         9.000    27374088.434 6 143851981.35806     -2776.111 6        38.988                                                                    27374089.816 6 107422073.10706     -2073.067 6        41.926    27374089.512 7 110224375.86007     -2127.138 7        42.954
G27        10.000    20521949.244 8 107843722.64108     -2067.500 8        50.615                                    20521947.008 8  84034140.12508     -1611.039 8        52.255    20521947.222 7  84034142.12707     -1611.003 7        45.691
G14        11.000    25543122.185 5 134230013.76005      2520.065 5        35.424                                    25543119.785 2 104594807.35002      1963.700 2        16.491    25543120.041 6 104594811.35906      1963.611 6        36.340
G32        12.000    23520459.721 7 123600866.15607      2445.320 7        42.990                                    23520458.443 6  96312360.43906      1905.439 6        40.160    23520459.369 6  96312333.44806      1905.489 6        40.565
C23        13.000                                                                                                                                    27043520.145 6 140822721.73706     -3271.182 6        39.093                                                                    27043513.843 6 114429981.21806     -2658.041 6        38.315
S36        14.000    38200024.100 7 200743028.46007      -401.472 7        43.452
C13        15.000                                                                                                                                    39223389.267 6 204246534.87306     -1438.064 6        40.374    39223391.133 6 157936409.98306     -1112.144 6        40.567    39223389.027 6 165967062.07306     -1168.540 6        40.029
G18        16.000    25781505.434 5 135482928.86505     -3582.261 5        34.076                                    25781503.263 2 105571203.74002     -2791.373 2        13.576    25781504.096 5 105571211.72905     -2791.376 5        35.624
E27        18.000    25194881.731 7 132400017.29407      -866.081 7        44.730                                                                    25194881.928 7  98870146.99207      -646.758 7        47.971    25194881.574 8 101449365.44508      -663.603 8        48.311
E05        20.000    24492734.610 7 128710204.19207      1437.452 7        42.561                                                                    24492735.032 7  96114765.17907      1073.481 7        45.627    24492734.498 7  98622109.25507      1101.500 7        46.610
R11        21.000    22318810.783 7 119264971.85407     -3475.949 7        46.157                                                                    22318810.401 7  92761646.71507     -2703.420 7        42.758
I06        22.000    38536339.175 6 151225097.87706      -207.656 6        41.309
E03        23.000    27730086.013 6 145722574.40806      2670.780 6        38.766                                                                    27730087.324 6 108818826.83206      1994.481 6        41.805    27730086.784 7 111657576.33407      2046.404 7        42.097
R22        24.000    24011223.664 7 128173550.83707      3012.158 7        42.603                                                                    24011223.534 6  99690545.07606      2342.638 6        37.811
S23        25.000    38157421.123 7 200518572.75807      -401.255 7        44.018
S45        26.000    63409958.432 6 333222438.74906      -445.754 6        37.293
G02        27.000    23649889.144 7 124281036.16607      2216.846 7        42.787                                    23649883.433 4  96842351.53004      1727.415 4        27.844
S27        28.000    39138947.391 6 205676618.82706      -369.684 6        36.242
C38        29.000                                                                                                                                    41357481.798 5 215359379.32005     -1591.211 5        32.790                                                                    41357479.007 5 174997181.74305     -1293.150 5        34.510
E21        30.000    27690361.760 6 145513841.91706      1647.757 6        38.925                                                                    27690362.120 7 108662939.72707      1230.389 7        42.271    27690361.529 7 111497621.52807      1262.468 7        42.466
C43        31.000                                                                                                                                    21650360.124 8 112739212.08808     -1157.520 8        51.390                                                                    21650358.486 8  91609887.10908      -940.461 8        49.601
C42        32.000                                                                                                                                    22488369.198 8 117102861.77408       269.332 8        49.509                                                                    22488376.690 8  95155709.50408       218.941 8        49.651
C28        33.000                                                                                                                                    23379228.837 7 121741780.03407      1959.701 7        47.046                                                                    23379227.964 7  98925167.43707      1592.542 7        45.747
R13        34.000    24586448.393 5 131290262.82005      2749.249 5        35.133
E34        35.000    23717693.949 7 124637529.59807     -1365.327 7        47.577                                                                    23717693.965 8  93073590.61608     -1019.579 8        50.570    23717693.734 8  95501586.12308     -1046.163 8        51.211
C14        36.000                                                                                                                                    22976498.096 7 119644663.26607      1890.062 7        46.210    22976494.526 8  92516829.10008      1461.494 8        50.425    22976493.290 8  97221066.59808      1535.858 8        48.085
R21        37.000    20083881.236 8 107472954.46408      1401.996 8        51.808                                                                    20083879.516 7  83590096.24007      1090.426 7        46.007
R06        38.000    22121307.428 6 118043549.09506      3869.992 6        39.595
R05        39.000    20039271.796 8 107121415.97108      -191.904 8        51.432                                                                    20039271.058 7  83316666.17607      -149.290 7        47.449
R04        41.000    22388253.877 7 119888110.73807     -3739.917 7        45.889                                                                    22388252.279 6  93246315.01006     -2908.764 6        40.658
S44        42.000    40464307.069 6 212641575.04006      -417.578 6        36.953
G08        43.000    20349783.736 8 106938928.85208       364.940 8        50.566                                    20349782.283 8  83329076.22608       284.369 8        51.468    20349783.003 7  83329074.22207       284.351 7        46.227
C05        44.000                                                                                                                                    39180314.602 6 204022217.55606      -345.590 6        38.051    39180310.745 7 157762943.50907      -267.303 7        42.726    39180312.578 6 165784866.47906      -280.864 6        39.513
C11        45.000                                                                                                                                    22643967.140 7 117913220.36307     -2173.855 7        47.060    22643963.323 8  91178041.77608     -1680.964 8        50.750    22643962.461 8  95814189.64208     -1766.453 8        48.122
E09        46.000    27049107.864 6 142144042.73506     -1104.421 6        40.427                                                                    27049108.165 7 106146537.08607      -824.800 7        42.478    27049107.735 7 108915574.17907      -846.300 7        43.247
C33        47.000                                                                                                                                    24565867.017 7 127920930.23407      2893.524 7        45.232                                                                    24565879.287 7 103946289.18307      2351.225 7        45.484
C21        48.000                                                                                                                                    24583683.649 7 128013719.01807     -2619.538 7        45.311                                                                    24583678.312 7 104021620.11607     -2128.548 7        45.270
E06        49.000    28103441.192 6 147684599.38006     -2083.159 6        36.284                                                                    28103442.054 6 110283958.14906     -1555.870 6        40.250    28103441.882 6 113160928.29406     -1596.258 6        40.615
S48        51.000    77180344.383 6 405586282.16006      -433.222 6        37.217
C08        52.000                                                                                                                                    39860059.522 6 207561890.24406     -1621.507 6        36.034    39860053.025 6 160500048.91606     -1253.662 6        40.274    39860052.678 6 168661055.56506     -1317.384 6        37.497
C34        53.000                                                                                                                                    24362981.107 7 126864705.22007     -3075.167 7        44.254                                                                    24362980.933 7 103088079.30107     -2498.745 7        44.056
C60        54.000                                                                                                                                    40464312.934 6 210708489.19606      -413.766 6        40.205                                                                    40464296.359 6 171217875.78106      -336.010 6        39.288
R12        55.000    22425935.612 7 119795318.99807       340.892 7        45.955                                                                    22425937.045 7  93174138.45707       265.166 7        43.507
I09        56.000    37848955.743 7 148527458.99607       234.508 7        43.458
C02        57.000                                                                                                                                    40529584.435 5 211048224.62605      -366.613 5        34.014    40529578.512 6 163195866.92706      -283.757 6        40.248    40529582.420 5 171493972.10805      -298.105 5        35.714
I03        58.000    79518079.058 6 236260771.68806      1094.499 6        40.067
E30        59.000    26154868.209 7 137444973.44807     -3164.222 7        43.052                                                                    26154868.719 7 102637597.80907     -2362.971 7        45.761    26154868.241 7 105315083.88407     -2424.539 7        46.311
R20        60.000    20178482.394 6 107903619.66606     -1992.521 6        38.706                                                                    20178483.994 7  83925106.56407     -1549.664 7        46.821
> 2025 01 02 21 15 15.0000000  0 56
G23         1.000    22803475.148 7 119833147.64107     -3424.619 7        43.283                                    22803471.469 5  93376500.62205     -2668.532 5        30.309    22803471.538 7  93376498.62607     -2668.567 7        42.662
C37         2.000                                                                                                                                    25944481.620 6 135099713.85406     -2237.008 6        41.051                                                                    25944486.062 6 109779603.00206     -1817.690 6        41.814
G16         3.000    24464554.419 6 128562287.53906     -4155.554 6        39.312                                    24464550.158 3 100178485.97403     -3238.089 3        21.595
G21         4.000    21709312.103 7 114083261.04307      1489.681 7        43.285                                    21709307.620 5  88896051.27005      1160.788 5        31.525
S21         5.000    38431720.785 6 201959726.60506      -402.220 6        41.990
E13         6.000    28358033.535 5 149022488.09305      2029.269 5        35.781                                                                    28358036.413 6 111283044.30106      1515.385 6        37.701    28358036.143 6 114186076.48706      1554.831 6        39.105
G10         7.000    20796230.872 8 109284997.69808     -1169.617 8        51.488                                    20796228.845 8  85157157.71308      -911.390 8        52.768    20796228.503 7  85157151.72107      -911.378 7        45.901
E15         8.000    24200271.861 7 127173395.07307       920.663 7        46.773                                                                    24200272.636 8  94967213.38908       687.565 8        50.005    24200272.211 8  97444606.87008       705.434 8        50.818
E36         9.000    27376729.832 6 143865863.06606     -2776.297 6        39.222                                                                    27376731.279 6 107432439.31706     -2073.263 6        41.495    27376731.227 7 110235012.49907     -2127.343 7        43.113
G27        10.000    20523917.915 8 107854067.53108     -2070.194 8        50.568                                    20523915.563 8  84042201.07808     -1613.138 8        52.272    20523916.058 7  84042203.07907     -1613.157 7        45.764
G14        11.000    25540725.821 5 134217419.01805      2518.218 5        35.429                                    25540722.929 2 104584993.28502      1962.234 2        17.057    25540724.083 6 104584997.28006      1962.142 6        36.401
G32        12.000    23518133.756 7 123588643.23107      2444.037 7        43.393                                    23518132.609 6  96302836.09006      1904.445 6        40.088    23518133.167 6  96302809.08306      1904.457 6        40.548
C23        13.000                                                                                                                                    27046661.288 6 140839078.02806     -3270.964 6        39.333                                                                    27046654.871 6 114443272.02406     -2657.902 6        38.495
S36        14.000    38200414.021 7 200745036.67107      -401.465 7        43.596
C13        15.000                                                                                                                                    39224769.788 6 204253726.56906     -1438.183 6        40.000    39224772.176 6 157941971.05506     -1112.221 6        40.772    39224770.280 6 165972905.91706     -1168.531 6        40.091
G18        16.000    25784914.000 5 135500840.85305     -3582.115 5        33.467                                    25784911.900 2 105585161.13502     -2791.279 2        12.970    25784912.392 5 105585169.11105     -2791.184 5        34.771
E27        18.000    25195707.313 7 132404354.67707      -868.563 7        44.743                                                                    25195707.390 7  98873385.94007      -648.615 7        47.808    25195706.944 8 101452688.89708      -665.618 8        48.422
E05        20.000    24491367.616 7 128703022.13807      1435.684 7        42.734                                                                    24491368.382 7  96109401.96607      1072.097 7        45.749    24491367.857 7  98616606.13407      1099.999 7        46.636
R11        21.000    22322063.916 7 119282358.60007     -3478.515 7        45.859                                                                    22322064.176 7  92775169.73007     -2705.470 7        43.187
I06        22.000    38536603.996 6 151226136.54806      -207.637 6        41.445
E03        23.000    27727544.741 6 145709221.51906      2670.745 6        38.850                                                                    27727546.324 6 108808855.53606      1994.351 6        41.681    27727545.785 7 111647344.91707      2046.297 7        42.135
R22        24.000    24008402.716 7 128158491.30307      3012.022 7        42.872                                                                    24008403.868 6  99678832.09106      2342.758 6        37.573
S23        25.000    38157802.477 7 200520579.59907      -401.290 7        43.977
S45        26.000    63410341.847 6 333224668.05906      -445.797 6        37.047
G02        27.000    23647779.736 7 124269954.19307      2216.164 7        42.504                                    23647774.517 4  96833716.22904      1726.878 4        27.772
S27        28.000    39139296.674 6 205678468.32806      -369.697 6        36.257
C38        29.000                                                                                                                                    41359009.487 5 215367337.84805     -1591.624 5        32.880                                                                    41359007.168 5 175003648.71505     -1293.287 5        34.705
E21        30.000    27688794.741 6 145505608.60206      1646.034 6        38.700                                                                    27688795.413 7 108656791.48007      1229.135 7        42.324    27688794.788 7 111491312.88907      1261.146 7        42.692
C43        31.000                                                                                                                                    21651472.616 8 112745004.92708     -1159.234 8        51.328                                                                    21651470.970 8  91614594.27208      -941.974 8        49.677
C42        32.000                                                                                                                                    22488112.416 8 117101523.08508       266.438 8        49.773                                                                    22488119.577 8  95154621.71908       216.511 8        49.825
C28        33.000                                                                                                                                    23377347.927 7 121731984.36707      1958.883 7        47.150                                                                    23377346.734 7  98917207.67407      1591.732 7        45.843
R13        34.000    24583875.912 5 131276523.85805      2746.711 5        35.267
E34        35.000    23718993.542 7 124644359.42207     -1366.285 7        47.625                                                                    23718993.592 8  93078690.80908     -1020.250 8        50.450    23718993.417 8  95506819.37008     -1046.919 8        51.288
C14        36.000                                                                                                                                    22974685.188 7 119635219.32407      1887.814 7        46.324    22974680.894 8  92509526.44708      1459.774 8        50.422    22974679.683 8  97213392.62608      1534.006 8        48.155
R21        37.000    20082571.761 8 107465949.08808      1400.294 8        51.520                                                                    20082570.755 7  83584647.61907      1089.177 7        46.194
R06        38.000    22117682.640 6 118024203.55606      3868.530 6        39.414
R05        39.000    20039453.322 8 107122388.13608      -196.640 8        51.124                                                                    20039453.093 7  83317422.30007      -152.924 7        47.982
R04        41.000    22391747.694 7 119906818.33907     -3742.788 7        45.655                                                                    22391746.132 6  93260865.36706     -2911.206 6        40.880
S44        42.000    40464708.598 6 212643663.47706      -417.734 6        37.074
G08        43.000    20349438.064 8 106937111.76208       362.181 8        50.468                                    20349436.501 8  83327660.30908       282.217 8        51.500    20349437.161 7  83327658.30707       282.207 7        46.177
C05        44.000                                                                                                                                    39180647.045 6 204023946.91806      -345.569 6        38.243    39180643.076 7 157764280.75907      -267.440 7        42.950    39180644.708 6 165786271.73206      -280.906 6        39.622
C11        45.000                                                                                                                                    22646054.860 7 117924093.97007     -2175.210 7        46.904    22646051.560 8  91186449.93708     -1682.052 8        50.561    22646050.646 8  95823025.33908     -1767.603 8        48.097
E09        46.000    27050160.027 6 142149571.72606     -1106.993 6        40.102                                                                    27050160.354 7 106150665.88007      -826.579 7        42.392    27050159.785 7 108919810.67207      -848.095 7        43.312
C33        47.000                                                                                                                                    24563089.436 7 127906466.31207      2892.422 7        45.263                                                                    24563101.762 7 103934536.06007      2350.380 7        45.470
C21        48.000                                                                                                                                    24586200.321 7 128026822.76207     -2621.618 7        45.124                                                                    24586194.816 7 104032267.98807     -2130.322 7        45.228
E06        49.000    28105424.602 6 147695021.64406     -2085.403 6        36.110                                                                    28105425.314 6 110291740.99206     -1557.208 6        40.029    28105425.396 6 113168914.17306     -1597.782 6        40.801
S48        51.000    77180726.228 6 405588449.48306      -433.411 6        37.100
C08        52.000                                                                                                                                    39861615.469 5 207569997.20605     -1621.090 5        35.905    39861609.953 6 160506317.75506     -1253.533 6        40.458    39861609.350 6 168667643.16906     -1317.500 6        37.637
C34        53.000                                                                                                                                    24365933.991 7 126880083.85707     -3075.990 7        44.041                                                                    24365934.279 7 103100575.70507     -2499.550 7        44.212
C60        54.000                                                                                                                                    40464710.023 6 210710558.65106      -413.843 6        40.231                                                                    40464693.887 6 171219557.38706      -336.331 6        39.501
R12        55.000    22425619.227 7 119793625.91107       336.531 7        46.604                                                                    22425619.143 7  93172821.60907       261.767 7        43.397
I09        56.000    37848657.516 7 148526287.61307       234.320 7        43.405
C02        57.000                                                                                                                                    40529937.304 5 211050060.15605      -366.822 5        34.076    40529931.318 6 163197286.27406      -283.781 6        40.205    40529934.497 5 171495463.63305      -298.104 5        35.948
I03        58.000    79516684.873 6 236255300.03106      1094.318 6        40.052
E30        59.000    26157880.007 7 137460798.22207     -3165.335 7        43.228                                                                    26157880.056 7 102649415.00507     -2363.784 7        45.827    26157879.540 7 105327209.36007     -2425.399 7        46.338
R20        60.000    20180346.402 6 107913587.53906     -1994.545 6        38.835                                                                    20180347.764 7  83932859.36507     -1551.275 7        46.610
> 2025 01 02 21 15 20.0000000  0 56
G23         1.000    22806734.048 7 119850274.48007     -3425.847 7        43.232                                    22806730.678 5  93389846.20905     -2669.491 5        30.204    22806730.615 7  93389844.20707     -2669.511 7        42.394
C37         2.000                                                                                                                                    25946631.285 6 135110903.90306     -2238.693 6        41.189                                                                    25946635.014 6 109788695.84506     -1819.193 6        41.645
G16         3.000    24468508.868 6 128583065.82006     -4155.659 6        39.195                                    24468504.284 3 100194676.82903     -3238.165 3        21.762
G21         4.000    21707895.536 7 114075816.53307      1488.417 7        43.278                                    21707890.956 5  88890250.35605      1159.805 5        31.411
S21         5.000    38432102.389 6 201961738.11306      -402.102 6        41.998
E13         6.000    28356103.270 5 149012342.63805      2029.066 5        35.857                                                                    28356106.036 6 111275468.16306      1515.055 6        37.834    28356105.294 6 114178302.71306      1554.647 6        39.072
G10         7.000    20797344.970 8 109290852.80608     -1172.244 8        51.202                                    20797343.026 8  85161720.13508      -913.435 8        52.617    20797342.941 7  85161714.14207      -913.385 7        46.044
E15         8.000    24199396.184 7 127168794.00107       919.862 7        46.926                                                                    24199397.072 8  94963777.52608       686.980 8        50.023    24199396.658 8  97441081.37608       704.891 8        50.899
E36         9.000    27379371.195 6 143879744.90506     -2776.409 6        39.312                                                                    27379372.883 6 107442805.62406     -2073.264 6        41.180    27379372.882 7 110245649.22007     -2127.235 7        43.547
G27        10.000    20525888.679 8 107864425.32608     -2072.715 8        50.144                                    20525886.583 8  84050272.08508     -1615.104 8        52.130    20525887.052 7  84050274.07907     -1615.042 7        45.889
