     3.04           OBSERVATION DATA    M                   RINEX VERSION / TYPE
ssrcrin-15.6.1x                         20250102 091500 UTC PGM / RUN BY / DATE 
(00000000023479385599111004) Septentrio proprietary         COMMENT             
rref                                                        MARKER NAME         
01                                                          MARKER NUMBER       
geodetic                                                    MARKER TYPE         
NFB                 CLIMERS@TUW                             OBSERVER / AGENCY   
3297213             SEPT ASTERX SB3 PROB4.14.4              REC # / TYPE / VERS 
Unknown             Unknown                                 ANT # / TYPE        
  4127831.6536  1207193.1308  4695248.2798                  APPROX POSITION XYZ 
        0.0000        0.0000        0.0000                  ANTENNA: DELTA H/E/N
G   23 X1  C1C L1C D1C S1C C1W S1W C2W L2W D2W S2W C2L L2L  SYS / # / OBS TYPES 
       D2L S2L C5Q L5Q D5Q S5Q C1L L1L D1L S1L              SYS / # / OBS TYPES 
E   21 X1  C1C L1C D1C S1C C6C L6C D6C S6C C5Q L5Q D5Q S5Q  SYS / # / OBS TYPES 
       C7Q L7Q D7Q S7Q C8Q L8Q D8Q S8Q                      SYS / # / OBS TYPES 
S    9 X1  C1C L1C D1C S1C C5I L5I D5I S5I                  SYS / # / OBS TYPES 
R   17 X1  C1C L1C D1C S1C C2P L2P D2P S2P C2C L2C D2C S2C  SYS / # / OBS TYPES 
       C3Q L3Q D3Q S3Q                                      SYS / # / OBS TYPES 
C   25 X1  C1P L1P D1P S1P C5P L5P D5P S5P C2I L2I D2I S2I  SYS / # / OBS TYPES 
       C7I L7I D7I S7I C6I L6I D6I S6I C7D L7D D7D S7D      SYS / # / OBS TYPES 
J   17 X1  C1C L1C D1C S1C C2L L2L D2L S2L C5Q L5Q D5Q S5Q  SYS / # / OBS TYPES 
       C1L L1L D1L S1L                                      SYS / # / OBS TYPES 
I    5 X1  C5A L5A D5A S5A                                  SYS / # / OBS TYPES 
SEPTENTRIO RECEIVERS OUTPUT ALIGNED CARRIER PHASES.         COMMENT             
NO FURTHER PHASE SHIFT APPLIED IN THE RINEX ENCODER.        COMMENT             
G L1C                                                       SYS / PHASE SHIFT   
G L2W                                                       SYS / PHASE SHIFT   
G L2L  0.00000                                              SYS / PHASE SHIFT   
G L5Q  0.00000                                              SYS / PHASE SHIFT   
G L1L  0.00000                                              SYS / PHASE SHIFT   
E L1C  0.00000                                              SYS / PHASE SHIFT   
E L6C  0.00000                                              SYS / PHASE SHIFT   
E L5Q  0.00000                                              SYS / PHASE SHIFT   
E L7Q  0.00000                                              SYS / PHASE SHIFT   
E L8Q  0.00000                                              SYS / PHASE SHIFT   
S L1C                                                       SYS / PHASE SHIFT   
S L5I                                                       SYS / PHASE SHIFT   
R L1C                                                       SYS / PHASE SHIFT   
R L2P  0.00000                                              SYS / PHASE SHIFT   
R L2C                                                       SYS / PHASE SHIFT   
R L3Q  0.00000                                              SYS / PHASE SHIFT   
C L1P  0.00000                                              SYS / PHASE SHIFT   
C L5P  0.00000                                              SYS / PHASE SHIFT   
C L2I                                                       SYS / PHASE SHIFT   
C L7I                                                       SYS / PHASE SHIFT   
C L6I                                                       SYS / PHASE SHIFT   
C L7D                                                       SYS / PHASE SHIFT   
J L1C                                                       SYS / PHASE SHIFT   
J L2L  0.00000                                              SYS / PHASE SHIFT   
J L5Q  0.00000                                              SYS / PHASE SHIFT   
J L1L  0.00000                                              SYS / PHASE SHIFT   
I L5A                                                       SYS / PHASE SHIFT   
  2025     1     2     9    15    0.0000000     GPS         TIME OF FIRST OBS   
 C1C    0.000 C2C    0.000 C2P    0.000                     GLONASS COD/PHS/BIS 
DBHZ                                                        SIGNAL STRENGTH UNIT
    18                                                      LEAP SECONDS        
 24 R01  1 R02 -4 R03  5 R04  6 R05  1 R06 -4 R07  5 R08  6 GLONASS SLOT / FRQ #
    R09 -2 R10 -7 R11  0 R12 -1 R13 -2 R14 -7 R15  0 R16 -1 GLONASS SLOT / FRQ #
    R17  4 R18 -3 R19  3 R20  2 R21  4 R22 -3 R23  3 R24  2 GLONASS SLOT / FRQ #
                                                            END OF HEADER       
> 2025 01 02 09 15  0.0000000  0 53
E24         1.000    25850590.777 7 135845851.32907      2204.196 7        44.390                                                                    25850595.913 7 101443387.88807      1645.995 7        46.343    25850594.760 7 104089727.28007      1688.930 7        46.925
G15         2.000    20289802.416 8 106623587.08608       684.638 8        48.849                                    20289800.687 8  83083291.64608       533.483 8        48.900    20289801.067 7  83083286.64107       533.510 7        45.100
E15         3.000    28416093.679 5 149327542.78205     -1209.148 5        35.757                                                                    28416099.656 6 111510818.14106      -902.837 6        39.577    28416099.008 6 114419793.27806      -926.506 6        40.703
G19         4.000    24530812.132 6 128910325.81906      2886.704 6        40.038                                    24530817.811 4 100449606.29404      2249.365 4        25.594
S21         5.000    38352430.766 7 201543002.57007      -514.750 7        42.311
E05         6.000    23696900.072 7 124528010.96107      1676.800 7        44.042                                                                    23696903.807 7  92991670.78307      1252.126 7        47.445    23696903.033 8  95417539.96608      1284.745 8        48.032
S45         7.000    63378597.343 6 333058059.01406      -564.129 6        36.159
R02         8.000    19881935.723 8 106093756.55808     -3152.109 8        52.365                                                                    19881938.401 7  82517351.06907     -2451.629 7        47.084
R20         9.000    23808034.399 5 127312275.91905     -1916.567 5        31.479                                                                    23808040.178 6  99020678.54806     -1490.651 6        40.622
G24        10.000    22993093.035 6 120829487.42606      2682.645 6        41.919                                    22993096.504 6  94152853.74906      2090.369 6        37.826    22993096.472 6  94152858.76406      2090.292 6        38.664
G30        11.000    22855762.990 7 120107772.09507     -3199.271 7        43.700                                    22855766.168 6  93590442.88606     -2492.938 6        40.646    22855766.773 6  93590450.89706     -2493.039 6        40.157
S27        12.000    39063166.925 6 205278187.75006      -547.719 6        36.552
G13        13.000    19845745.314 8 104290054.47908     -1286.726 8        48.946                                    19845742.883 6  81264945.60606     -1002.645 6        40.717
S36        14.000    38122008.225 7 200332940.07107      -515.635 7        44.369
I09        15.000    40327043.421 6 158251709.64206     -1042.531 6        40.067
E09        16.000    23362934.089 8 122773024.65408      -851.400 8        48.648                                                                    23362936.284 8  91681141.27708      -635.816 8        50.710    23362935.563 8  94072820.92408      -652.352 8        51.170
R21        18.000    23397433.828 7 125204453.23507      1095.919 7        42.834                                                                    23397439.971 6  97381295.37506       852.361 6        39.622
R03        21.000    19629373.094 8 105077533.61108      1179.130 8        52.744                                                                    19629373.134 7  81726961.04007       917.103 7        47.741
I06        22.000    38031475.706 7 149243801.34507      -473.315 7        42.785
S28        23.000    40796628.364 5 214387560.59905      -524.762 5        35.119
S23        25.000    38054590.256 7 199978141.62907      -516.076 7        44.144
R01        26.000                                                                                                                                    23788678.653 3                     -3926.047 3        18.955
C07        27.000                                                                                                                                    38723890.778 6 201645425.64006      -407.088 6        41.447    38723889.097 7 155925020.12207      -314.770 7        44.376    38723886.417 6 163853402.21406      -330.799 6        41.549
R04        28.000    23112515.781 7 123766441.09007      3667.054 7        45.342                                                                    23112519.258 6  96262759.78006      2852.213 6        41.526
C40        29.000                                                                                                                                    38728492.996 7 201669409.13707      -463.066 7        43.642                                                                    38728494.997 7 163872914.87907      -376.178 7        43.388
G17        30.000    22890904.667 7 120292614.54007      1792.319 7        44.345                                    22890906.916 6  93734557.92006      1396.613 6        40.026    22890907.277 6  93734554.92906      1396.656 6        40.672
G14        31.000    20751967.097 7 109052313.18607     -1915.597 7        47.082                                    20751966.198 6  84975825.25806     -1492.672 6        38.577    20751966.823 7  84975811.25907     -1492.695 7        47.451
G23        32.000    23456435.597 7 123264348.49807      1275.680 7        42.004                                    23456436.176 4  96050115.61604       994.041 4        27.533    23456436.990 6  96050110.62406       993.903 6        41.535
I02        33.000    37180967.716 7 145906099.74507        -3.885 7        43.378
E04        34.000    25612747.712 7 134595840.31907     -3002.027 7        43.314                                                                    25612752.451 7 100509864.47507     -2241.801 7        47.035    25612751.676 7 103131859.64307     -2300.277 7        47.463
R13        35.000    19440851.277 7 103813096.10207       793.551 7        47.079
R12        36.000    19731731.907 8 105403345.53708     -2644.903 8        51.560                                                                    19731734.514 7  81980378.11007     -2057.226 7        47.894
C42        37.000                                                                                                                                    26549084.427 6 138248053.00906      2622.246 6        39.315                                                                    26549096.696 7 112337912.63207      2130.954 7        42.061
C10        38.000                                                                                                                                    38562456.676 7 200804817.88807       -24.120 7        42.121    38562457.573 7 155275021.63507       -18.605 7        45.091    38562454.357 6 163170350.36306       -19.633 6        41.433
C19        39.000                                                                                                                                    26181479.892 6 136333609.02006     -4073.376 6        41.704                                                                    26181486.316 6 110782154.38306     -3309.956 6        41.824
C30        40.000                                                                                                                                    26073654.840 6 135772373.34506      1993.099 6        41.538                                                                    26073662.749 6 110326209.76906      1619.711 6        40.322
G05        41.000    23468847.387 7 123329498.07207     -3965.634 7        42.457                                    23468851.417 6  96100854.48906     -3090.093 6        38.033    23468852.101 6  96100863.48506     -3090.110 6        39.796
S44        42.000    40799091.749 6 214400711.04506      -503.696 6        36.533
C36        43.000                                                                                                                                    21650827.121 8 112741506.81208     -1580.175 8        50.444                                                                    21650833.851 8  91611722.45408     -1283.983 8        50.137
C05        44.000                                                                                                                                    39296405.052 6 204626602.47306      -565.714 6        39.141    39296405.891 7 158230262.57507      -437.385 7        42.436    39296405.944 6 166275954.83806      -459.654 6        39.598
R14        45.000    23652099.556 7 126079001.91607      3266.705 7        44.519                                                                    23652109.906 6  98061500.66106      2540.697 6        40.503
R11        47.000    24310463.939 6 129907542.09006     -4470.617 6        40.579                                                                    24310473.385 5 101039155.85905     -3476.964 5        35.952
C45        50.000                                                                                                                                    22354996.830 8 116408356.29708      1190.016 8        50.051                                                                    22354991.333 8  94591312.48408       967.005 8        49.797
S48        51.000    77064922.862 6 404978846.45706      -505.577 6        37.777
E06        52.000    23860141.252 8 125385855.91208     -2088.931 8        48.536                                                                    23860144.811 8  93632289.69608     -1559.940 8        50.173    23860144.201 8  96074870.99308     -1600.641 8        50.857
C09        53.000                                                                                                                                    41131435.644 5 214182007.90205     -1127.452 5        35.048    41131444.360 6 165619055.58106      -871.747 6        40.534    41131439.811 6 174040365.37906      -916.050 6        36.560
C60        54.000                                                                                                                                    40799097.556 6 212451631.49406      -499.154 6        40.079                                                                    40799089.876 6 172634285.48406      -405.569 6        38.640
E31        55.000    23317144.212 8 122532421.57908      -150.850 8        48.552                                                                    23317147.336 8  91501515.49108      -112.679 8        50.513    23317146.656 8  93888507.69208      -115.546 8        51.014
C26        56.000                                                                                                                                    26937119.274 6 140268645.25206      2511.382 6        37.637                                                                    26937124.448 6 113979788.19006      2040.512 6        37.395
C02        57.000                                                                                                                                    40868790.781 5 212814392.76805      -548.194 5        32.108    40868795.885 6 164561536.48206      -424.303 6        37.365    40868796.426 5 172929093.28705      -446.102 5        31.653
I03        58.000    94713056.248 6 295888899.90806       861.369 6        40.548
C21        59.000                                                                                                                                    23026260.039 8 119903730.33408       699.313 8        48.936                                                                    23026256.646 8  97431569.04208       568.300 8        49.037
C22        60.000                                                                                                                                    22349740.757 8 116380899.09008     -2538.098 8        51.001                                                                    22349737.402 8  94568975.86808     -2062.374 8        49.680
> 2025 01 02 09 15  5.0000000  0 52
E24         1.000    25848493.887 7 135834832.21407      2203.372 7        44.220                                                                    25848498.907 7 101435159.35707      1645.369 7        46.267    25848497.745 7 104081284.08607      1688.314 7        47.078
G15         2.000    20289152.206 8 106620171.08108       681.681 8        48.667                                    20289150.643 8  83080629.82208       531.181 8        48.881    20289150.964 7  83080624.82507       531.160 7        45.138
E15         3.000    28417244.946 5 149333593.60405     -1211.125 5        35.781                                                                    28417251.071 6 111515336.61106      -904.591 6        39.297    28417250.489 6 114424429.62006      -928.235 6        40.894
G19         4.000    24528065.376 6 128895891.62306      2886.945 6        40.164                                    24528070.956 4 100438358.92304      2249.554 4        25.233
S21         5.000    38352923.127 7 201545576.32507      -514.650 7        42.290
E05         6.000    23695304.807 7 124519628.71007      1676.044 7        44.001                                                                    23695308.702 7  92985411.31107      1251.612 7        47.264    23695307.934 8  95411117.20308      1284.244 8        48.161
S45         7.000    63379084.401 6 333060878.39906      -563.795 6        36.132
R02         8.000    19884890.667 8 106109524.91508     -3155.337 8        52.543                                                                    19884893.810 7  82529615.32407     -2454.141 7        47.272
R20         9.000    23809826.520 5 127321867.97905     -1920.012 5        30.740                                                                    23809835.116 6  99028139.07706     -1493.641 6        40.305
G24        10.000    22990540.580 7 120816076.14107      2681.980 7        42.140                                    22990544.356 6  94142403.40906      2089.851 6        37.811    22990544.846 6  94142408.43506      2089.651 6        38.273
G30        11.000    22858807.734 7 120123770.26407     -3199.895 7        43.642                                    22858810.556 6  93602908.97406     -2493.419 6        40.567    22858811.139 6  93602916.97206     -2493.434 6        39.943
S27        12.000    39063684.488 6 205280925.56006      -547.479 6        36.514
G13        13.000    19846970.933 8 104296494.18908     -1289.188 8        48.835                                    19846968.313 6  81269963.56006     -1004.559 6        40.751
S36        14.000    38122493.853 7 200335517.79707      -515.461 7        44.333
I09        15.000    40328371.735 6 158256921.45706     -1042.342 6        40.029
E09        16.000    23363744.865 8 122777285.47508      -852.970 8        48.529                                                                    23363747.114 8  91684323.05508      -636.995 8        50.617    23363746.375 8  94076085.70708      -653.624 8        51.307
R21        18.000    23396411.825 7 125198982.37107      1092.321 7        43.048                                                                    23396418.046 6  97377040.22206       849.621 6        39.877
R03        21.000    19628273.019 8 105071646.81208      1175.542 8        52.577                                                                    19628273.864 7  81722382.41307       914.335 7        47.592
I06        22.000    38032078.876 7 149246167.61907      -473.186 7        42.629
S28        23.000    40797127.003 5 214390183.30005      -524.536 5        35.124
S23        25.000    38055081.312 7 199980721.01907      -515.726 7        44.205
C07        27.000                                                                                                                                    38724281.385 6 201647462.27906      -407.544 6        41.447    38724280.137 7 155926594.94307      -315.201 7        44.271    38724277.438 6 163855057.10606      -331.209 6        41.459
R04        28.000    23109092.841 7 123748107.47907      3666.356 7        44.969                                                                    23109095.389 6  96248500.27906      2851.585 6        41.049
C40        29.000                                                                                                                                    38728937.914 7 201671725.74307      -463.678 7        43.765                                                                    38728939.843 7 163874797.31107      -376.924 7        43.448
G17        30.000    22889200.096 7 120283656.79707      1790.671 7        43.761                                    22889202.436 6  93727577.86106      1395.326 6        40.086    22889202.544 6  93727574.86906      1395.261 6        41.006
G14        31.000    20753790.782 7 109061896.99707     -1917.997 7        47.163                                    20753789.923 6  84983293.15406     -1494.544 6        38.523    20753790.125 7  84983279.15307     -1494.504 7        47.111
G23        32.000    23455223.226 7 123257977.41207      1272.808 7        42.142                                    23455223.772 4  96045151.12104       991.798 4        27.413    23455224.088 6  96045146.13106       991.792 6        41.666
I02        33.000    37180972.796 7 145906118.33007        -3.801 7        43.333
E04        34.000    25615604.354 7 134610852.75207     -3003.054 7        43.154                                                                    25615609.039 7 100521075.03007     -2242.468 7        46.858    25615608.406 7 103143362.65607     -2300.950 7        47.680
R13        35.000    19440109.441 7 103809135.28907       790.739 7        47.126
R12        36.000    19734208.290 8 105416575.29808     -2647.041 8        51.502                                                                    19734211.249 8  81990667.91808     -2058.877 8        48.035
C42        37.000                                                                                                                                    26546567.778 6 138234942.31506      2621.869 6        39.730                                                                    26546578.567 6 112327259.08906      2130.522 6        41.816
C10        38.000                                                                                                                                    38562479.425 7 200804939.44507       -24.544 7        42.178    38562480.909 7 155275115.62307       -19.021 7        44.936    38562477.745 6 163170449.11906       -20.048 6        41.473
C19        39.000                                                                                                                                    26185391.121 6 136353975.76206     -4073.271 6        41.328                                                                    26185397.771 7 110798703.97707     -3309.937 7        42.019
C30        40.000                                                                                                                                    26071741.064 6 135762409.84806      1992.327 6        41.159                                                                    26071749.516 6 110318113.60306      1619.077 6        40.553
G05        41.000    23472621.096 7 123349328.18607     -3966.267 7        42.070                                    23472625.028 6  96116306.48606     -3090.590 6        37.853    23472625.496 6  96116315.49906     -3090.972 6        39.802
S44        42.000    40799576.688 6 214403228.90306      -503.499 6        36.461
C36        43.000                                                                                                                                    21652345.098 8 112749410.98808     -1581.581 8        50.483                                                                    21652351.790 8  91618145.22808     -1285.226 8        50.147
C05        44.000                                                                                                                                    39296947.237 6 204629430.46006      -565.347 6        39.039    39296948.808 7 158232449.37007      -437.301 7        42.354    39296948.942 6 166278252.82906      -459.660 6        39.559
R14        45.000    23649036.045 7 126062670.00907      3266.071 7        44.989                                                                    23649046.426 6  98048798.06706      2540.396 6        40.360
R11        47.000    24314646.186 6 129929893.59006     -4469.983 6        40.243                                                                    24314656.127 5 101056540.34605     -3476.636 5        35.629
C45        50.000                                                                                                                                    22353854.858 8 116402409.77008      1188.581 8        50.109                                                                    22353849.335 8  94586480.43908       965.817 8        49.839
S48        51.000    77065407.975 6 404981373.34206      -505.401 6        38.048
E06        52.000    23862129.449 8 125396304.03908     -2090.331 8        48.209                                                                    23862133.098 8  93640091.85408     -1561.022 8        50.058    23862132.427 8  96082876.68408     -1601.710 8        50.973
C09        53.000                                                                                                                                    41132517.583 5 214187644.59705     -1127.136 5        35.529    41132527.106 6 165623414.23906      -871.478 6        39.925    41132522.375 6 174044945.66406      -916.023 6        36.703
C60        54.000                                                                                                                                    40799576.762 6 212454126.45606      -498.870 6        40.157                                                                    40799569.041 6 172636312.85306      -405.558 6        38.306
E31        55.000    23317288.436 8 122533180.53908      -152.812 8        48.522                                                                    23317291.706 8  91502082.24408      -114.095 8        50.454    23317291.055 8  93889089.23408      -117.101 8        51.190
C26        56.000                                                                                                                                    26934709.007 6 140256089.18106      2511.201 6        37.943                                                                    26934713.409 6 113969585.31906      2040.245 6        37.380
C02        57.000                                                                                                                                    40869317.400 5 212817134.04005      -548.305 5        32.216    40869322.338 6 164563656.17406      -424.082 6        37.206    40869322.561 5 172931320.72605      -445.018 5        31.562
I03        58.000    94711958.564 6 295884592.47406       861.554 6        40.329
C21        59.000                                                                                                                                    23025589.458 8 119900239.48908       696.904 8        48.937                                                                    23025586.228 8  97428732.43308       566.245 8        49.073
C22        60.000                                                                                                                                    22352178.972 8 116393594.67308     -2540.179 8        51.047                                                                    22352175.450 8  94579292.04808     -2064.215 8        49.660
> 2025 01 02 09 15 10.0000000  0 52
E24         1.000    25846398.123 7 135823818.34407      2202.155 7        44.254                                                                    25846403.143 7 101426934.74607      1644.441 7        46.265    25846401.818 7 104072844.91507      1687.343 7        47.277
G15         2.000    20288504.969 8 106616770.67108       678.483 8        48.823                                    20288503.568 8  83077980.14708       528.686 8        48.878    20288504.157 7  83077975.14907       528.637 7        45.440
E15         3.000    28418399.171 5 149339655.87505     -1213.634 5        35.852                                                                    28418404.904 6 111519863.60506      -906.424 6        39.249    28418404.097 6 114429074.71206      -929.989 6        40.887
G19         4.000    24525318.016 6 128881457.37306      2886.701 6        40.062                                    24525324.150 4 100427111.52004      2249.361 4        25.248
S21         5.000    38353414.478 7 201548149.62907      -514.586 7        42.385
E05         6.000    23693710.553 7 124511250.71407      1675.164 7        44.110                                                                    23693714.387 7  92979155.02007      1250.926 7        47.310    23693713.609 8  95404697.70108      1283.529 8        48.258
S45         7.000    63379579.897 6 333062097.42216      -563.749 6        36.174
R02         8.000    19887849.215 8 106125310.70608     -3158.861 8        52.490                                                                    19887852.096 7  82541893.14907     -2456.950 7        47.350
R20         9.000    23811622.243 5 127331479.59105     -1924.254 5        31.351                                                                    23811632.198 6  99035614.78306     -1496.661 6        40.825
G24        10.000    22987989.318 7 120802668.97307      2681.010 7        42.336                                    22987992.996 6  94131956.27906      2089.095 6        37.803    22987994.056 6  94131961.27406      2089.009 6        38.216
G30        11.000    22861852.709 7 120139772.29407     -3200.873 7        43.314                                    22861855.579 6  93615378.06906     -2494.185 6        40.467    22861855.820 6  93615386.06606     -2494.169 6        40.045
S27        12.000    39064207.789 6 205283662.88606      -547.369 6        36.219
G13        13.000    19848198.649 8 104302947.54508     -1292.063 8        48.872                                    19848196.342 6  81274992.14506     -1006.803 6        40.741
S36        14.000    38122988.651 7 200338095.67807      -515.576 7        44.572
I09        15.000    40329699.789 6 158262132.82406     -1042.261 6        39.958
E09        16.000    23364557.192 8 122781555.13208      -854.865 8        48.736                                                                    23364559.572 8  91687511.42908      -638.341 8        50.629    23364558.879 8  94079357.25708      -654.998 8        51.424
R21        18.000    23395392.805 7 125193529.91107      1088.623 7        42.466                                                                    23395399.707 6  97372799.41906       846.591 6        39.874
R03        21.000    19627177.336 8 105065778.79908      1171.656 8        52.297                                                                    19627177.637 7  81717818.41107       911.301 7        47.617
I06        22.000    38032682.051 7 149248533.77207      -473.183 7        42.504
S28        23.000    40797623.850 5 214392805.53905      -524.392 5        35.257
S23        25.000    38055571.312 7 199983299.98707      -515.865 7        44.432
C07        27.000                                                                                                                                    38724672.829 6 201649502.38606      -408.515 6        41.244    38724671.890 7 155928172.46107      -315.776 7        44.260    38724669.163 6 163856714.85506      -331.801 6        41.483
R04        28.000    23105669.423 7 123729778.12507      3665.356 7        44.832                                                                    23105672.338 6  96234244.11706      2850.859 6        41.781
C40        29.000                                                                                                                                    38729383.464 7 201674046.83307      -464.716 7        43.338                                                                    38729385.694 7 163876683.40307      -377.533 7        43.399
G17        30.000    22887497.167 7 120274708.64407      1788.673 7        43.909                                    22887499.767 6  93720605.26106      1393.770 6        40.043    22887499.688 6  93720602.28106      1393.653 6        41.006
G14        31.000    20755616.955 7 109071493.50607     -1920.632 7        47.179                                    20755616.057 6  84990770.94906     -1496.594 6        38.604    20755616.066 7  84990756.94107     -1496.553 7        47.114
G23        32.000    23454013.620 6 123251620.74206      1269.837 6        41.559                                    23454014.238 4  96040197.87404       989.487 4        27.317    23454014.476 7  96040192.88607       989.474 7        42.011
I02        33.000    37180977.800 7 145906138.15707        -4.215 7        43.560
E04        34.000    25618462.197 7 134625870.12607     -3004.115 7        42.775                                                                    25618466.831 7 100532289.27907     -2243.253 7        46.757    25618465.980 7 103154869.44107     -2301.775 7        47.741
R13        35.000    19439370.892 7 103805189.61407       787.550 7        47.262
R12        36.000    19736687.407 8 105429816.49808     -2649.454 8        51.323                                                                    19736689.861 8  82000966.62508     -2060.695 8        48.195
C42        37.000                                                                                                                                    26544051.230 6 138221835.53306      2620.926 6        40.446                                                                    26544061.324 6 112316608.74006      2129.739 6        41.385
C10        38.000                                                                                                                                    38562503.387 7 200805064.29607       -25.266 7        42.110    38562504.876 7 155275212.16307       -19.570 7        45.061    38562501.680 6 163170550.58106       -20.487 6        41.595
C19        39.000                                                                                                                                    26189302.870 6 136374343.45006     -4073.610 6        41.349                                                                    26189309.054 6 110815254.34006     -3309.962 6        41.814
C30        40.000                                                                                                                                    26069828.460 6 135752450.84006      1991.395 6        40.996                                                                    26069836.983 6 110310021.10706      1618.222 6        40.706
G05        41.000    23476395.504 7 123369163.03907     -3967.441 7        42.373                                    23476399.529 6  96131762.17106     -3091.505 6        37.909    23476399.723 6  96131771.14706     -3091.575 6        40.563
S44        42.000    40800052.822 6 214405746.27906      -503.371 6        36.718
C36        43.000                                                                                                                                    21653864.526 8 112757323.08508     -1583.308 8        50.493                                                                    21653871.203 8  91624574.46108     -1286.462 8        50.230
C05        44.000                                                                                                                                    39297489.841 6 204632258.06306      -565.575 6        38.952    39297491.837 7 158234635.87107      -437.371 7        42.599    39297491.868 6 166280550.50806      -459.445 6        39.721
R14        45.000    23645973.039 7 126046342.34507      3265.156 7        45.085                                                                    23645982.150 6  98036098.76306      2539.552 6        39.568
R11        47.000    24318828.336 6 129952242.97606     -4469.685 6        40.138                                                                    24318839.092 5 101073923.20005     -3476.271 5        35.938
C45        50.000                                                                                                                                    22352714.487 8 116396471.04308      1186.880 8        49.993                                                                    22352708.871 8  94581654.75408       964.530 8        49.941
S48        51.000    77065898.802 6 404983899.49506      -505.308 6        38.291
E06        52.000    23864119.101 8 125406759.85308     -2091.961 8        48.112                                                                    23864122.779 8  93647899.74508     -1562.164 8        50.054    23864122.112 8  96090888.26608     -1602.923 8        51.135
C09        53.000                                                                                                                                    41133601.187 5 214193281.12205     -1127.414 5        35.762    41133609.650 6 165627772.72406      -871.683 6        40.424    41133604.780 6 174049525.78306      -916.156 6        36.612
C60        54.000                                                                                                                                    40800055.565 6 212456620.95906      -498.941 6        40.081                                                                    40800048.104 6 172638339.85106      -405.434 6        38.691
E31        55.000    23317434.749 8 122533949.90408      -154.977 8        48.383                                                                    23317438.136 8  91502656.77808      -115.743 8        50.419    23317437.458 8  93889678.75608      -118.736 8        51.268
C26        56.000                                                                                                                                    26932297.762 6 140243534.25406      2510.799 6        38.054                                                                    26932302.675 6 113959383.39106      2040.134 6        37.248
C02        57.000                                                                                                                                    40869844.067 5 212819874.80805      -547.986 5        31.909    40869848.702 6 164565775.50406      -424.066 6        37.403    40869848.952 5 172933547.85105      -445.562 5        31.819
I03        58.000    94710861.153 6 295880284.62806       861.501 6        40.374
C21        59.000                                                                                                                                    23024921.379 8 119896761.40408       694.265 8        49.028                                                                    23024918.311 8  97425906.21508       564.198 8        49.122
C22        60.000                                                                                                                                    22354619.258 8 116406301.65808     -2542.612 8        51.141                                                                    22354615.674 8  94589617.51408     -2065.980 8        49.769
> 2025 01 02 09 15 15.0000000  0 52
E24         1.000    25844303.214 7 135812810.29807      2201.204 7        44.044                                                                    25844308.437 7 101418714.48707      1643.682 7        46.435    25844307.099 7 104064410.20807      1686.589 7        47.030
G15         2.000    20287861.304 8 106613386.46108       675.378 8        48.966                                    20287859.565 8  83075343.10008       526.271 8        48.953    20287860.047 7  83075338.09807       526.260 7        45.228
E15         3.000    28419555.403 5 149345730.18905     -1215.825 5        35.862                                                                    28419560.728 6 111524399.60606      -907.804 6        39.402    28419559.805 6 114433729.04706      -931.617 6        40.496
G19         4.000    24522571.511 6 128867023.64506      2886.825 6        39.961                                    24522577.295 4 100415864.50604      2249.465 4        25.263
S21         5.000    38353900.588 7 201550723.04507      -514.476 7        42.169
E05         6.000    23692117.179 7 124502877.55507      1674.360 7        44.277                                                                    23692121.044 7  92972902.34407      1250.313 7        47.481    23692120.336 8  95398281.91308      1282.880 8        48.086
S45         7.000    63380067.572 6 333064916.69906      -563.624 6        36.578
R02         8.000    19890810.369 8 106141114.37908     -3162.371 8        52.318                                                                    19890813.459 7  82554184.88307     -2459.699 7        46.718
R20         9.000    23813425.319 4 127341111.29204     -1928.548 4        29.839                                                                    23813433.954 6  99043106.04106     -1499.643 6        40.977
G24        10.000    22985439.008 6 120789266.48406      2680.158 6        41.769                                    22985442.526 6  94121512.78706      2088.432 6        37.868    22985443.251 6  94121517.78906      2088.425 6        38.931
G30        11.000    22864898.479 7 120155778.79207     -3201.693 7        43.192                                    22864901.460 6  93627850.64706     -2494.818 6        40.403    22864901.803 6  93627858.63606     -2494.756 6        39.925
S27        12.000    39064727.329 6 205286400.31006      -547.247 6        36.654
G13        13.000    19849429.469 8 104309415.12408     -1294.767 8        48.971                                    19849427.080 6  81280031.81606     -1008.908 6        40.825
S36        14.000    38123478.929 7 200340673.93807      -515.556 7        44.698
I09        15.000    40331027.692 6 158267344.18306     -1042.183 6        39.916
E09        16.000    23365371.577 8 122785834.20008      -856.536 8        48.699                                                                    23365373.853 8  91690706.84208      -639.682 8        50.777    23365373.162 8  94082636.03008      -656.359 8        51.285
R21        18.000    23394376.893 7 125188096.51107      1084.963 7        42.536                                                                    23394384.244 6  97368573.40606       843.746 6        40.124
R03        21.000    19626084.215 8 105059930.23108      1167.939 8        52.185                                                                    19626084.799 8  81713269.53608       908.351 8        48.042
I06        22.000    38033284.834 7 149250900.25707      -473.205 7        42.584
S28        23.000    40798120.124 5 214395427.77305      -524.211 5        35.062
S23        25.000    38056064.027 7 199985879.20307      -515.758 7        44.163
C07        27.000                                                                                                                                    38725065.302 6 201651546.58406      -409.096 6        41.590    38725064.451 7 155929753.14807      -316.306 7        44.223    38725061.769 6 163858375.92406      -332.388 6        41.592
R04        28.000    23102248.152 7 123711453.63207      3664.542 7        44.799                                                                    23102250.365 7  96219991.73707      2850.173 7        42.063
C40        29.000                                                                                                                                    38729830.339 7 201676373.02207      -465.667 7        43.530                                                                    38729832.344 7 163878573.61207      -378.228 7        43.518
G17        30.000    22885796.598 7 120265770.67707      1786.749 7        43.752                                    22885798.919 6  93713640.61506      1392.275 6        40.012    22885798.400 6  93713637.62806      1392.294 6        40.589
G14        31.000    20757445.806 7 109081103.31007     -1923.155 7        47.260                                    20757444.772 6  84998259.10206     -1498.561 6        38.568    20757445.081 7  84998245.09407     -1498.592 7        47.138
G23        32.000    23452806.987 7 123245279.11607      1266.935 7        42.195                                    23452807.521 4  96035256.35004       987.222 4        27.341    23452807.748 6  96035251.34306       987.190 6        41.888
I02        33.000    37180983.609 7 145906159.33707        -4.194 7        43.608
E04        34.000    25621321.024 7 134640893.01507     -3004.877 7        43.081                                                                    25621325.661 7 100543507.65207     -2243.953 7        46.986    25621324.718 7 103166380.47807     -2302.610 7        47.566
R13        35.000    19438634.681 7 103801259.50607       784.686 7        47.677
R12        36.000    19739168.401 8 105443069.74308     -2651.672 8        51.660                                                                    19739171.022 8  82011274.70208     -2062.430 8        48.021
C42        37.000                                                                                                                                    26541534.869 6 138208733.25606      2620.090 6        40.856                                                                    26541545.306 6 112305962.04306      2129.098 6        41.385
C10        38.000                                                                                                                                    38562528.230 7 200805193.09707       -25.968 7        42.142    38562529.519 7 155275311.76407       -20.031 7        44.974    38562526.471 6 163170655.24206       -20.918 6        41.669
C19        39.000                                                                                                                                    26193214.365 6 136394712.63106     -4073.854 6        41.237                                                                    26193220.761 6 110831805.92406     -3310.152 6        41.866
C30        40.000                                                                                                                                    26067917.144 6 135742496.93506      1990.362 6        41.132                                                                    26067925.246 6 110301932.73206      1617.440 6        40.501
G05        41.000    23480171.019 7 123389003.14807     -3968.358 7        43.077                                    23480175.103 6  96147221.95606     -3092.220 6        38.069    23480174.992 6  96147230.94006     -3092.278 6        39.826
S44        42.000    40800533.517 6 214408263.79106      -503.191 6        36.699
C36        43.000                                                                                                                                    21655385.651 8 112765243.68408     -1584.834 8        50.671                                                                    21655392.225 8  91631010.59708     -1287.703 8        50.318
C05        44.000                                                                                                                                    39298033.604 6 204635085.86106      -565.452 6        39.087    39298034.858 7 158236822.52107      -437.272 7        42.419    39298035.027 6 166282848.33406      -459.270 6        39.973
R14        45.000    23642910.698 7 126030019.24507      3264.271 7        45.062                                                                    23642921.117 6  98023403.02006      2538.738 6        39.910
R11        47.000    24323011.359 6 129974590.87406     -4469.271 6        40.570                                                                    24323021.637 6 101091304.84806     -3475.925 6        36.083
C45        50.000                                                                                                                                    22351575.596 8 116390540.70408      1185.406 8        50.172                                                                    22351569.973 8  94576835.88108       963.270 8        49.970
S48        51.000    77066374.386 6 404986426.54206      -505.561 6        37.788
E06        52.000    23866110.340 8 125417223.93608     -2093.435 8        48.285                                                                    23866113.996 8  93655713.82908     -1563.340 8        50.188    23866113.349 8  96098906.19308     -1604.119 8        50.886
C09        53.000                                                                                                                                    41134684.491 6 214198917.99506     -1127.339 6        36.079    41134692.305 6 165632131.51506      -871.710 6        40.772    41134687.352 6 174054106.19606      -915.714 6        36.571
C60        54.000                                                                                                                                    40800534.901 6 212459115.58106      -498.789 6        40.198                                                                    40800527.051 6 172640366.94606      -405.239 6        38.372
E31        55.000    23317583.239 8 122534730.26808      -156.973 8        48.544                                                                    23317586.608 8  91503239.52208      -117.226 8        50.644    23317585.950 8  93890276.70208      -120.311 8        51.172
C26        56.000                                                                                                                                    26929886.166 6 140230981.04506      2510.508 6        38.862                                                                    26929891.915 6 113949182.84906      2040.228 6        37.584
C02        57.000                                                                                                                                    40870370.677 5 212822615.76905      -548.150 5        32.216    40870375.432 6 164567894.94706      -423.769 6        37.025    40870375.593 5 172935775.06005      -444.993 5        31.441
I03        58.000    94709763.109 6 295875976.80206       861.658 6        40.458
C21        59.000                                                                                                                                    23024256.210 8 119893296.67808       691.752 8        49.212                                                                    23024252.960 8  97423090.84008       562.207 8        49.185
C22        60.000                                                                                                                                    22357061.886 8 116419020.62108     -2544.804 8        51.015                                                                    22357058.241 8  94599952.70108     -2067.790 8        49.763
> 2025 01 02 09 15 20.0000000  0 53
E24         1.000    25842209.343 7 135801807.71407      2199.999 7        44.042                                                                    25842214.713 7 101410498.28507      1642.952 7        46.518    25842213.327 7 104055979.67307      1685.776 7        47.054
G15         2.000    20287220.372 8 106610018.09008       672.221 8        48.711                                    20287218.576 8  83072718.39408       523.808 8        48.967    20287218.851 7  83072713.39507       523.769 7        45.099
E15         3.000    28420713.042 6 149351816.08006     -1218.093 6        36.416                                                                    28420718.855 6 111528944.27006      -909.686 6        39.673    28420717.734 6 114438392.26006      -933.421 6        40.548
G19         4.000    24519824.887 6 128852590.04906      2886.818 6        40.005                                    24519830.498 4 100404617.60004      2249.451 4        25.068
S21         5.000    38354391.492 7 201553296.32807      -514.604 7        42.580
E05         6.000    23690524.491 7 124494508.85607      1673.519 7        43.973                                                                    23690528.632 7  92966652.99707      1249.696 7        47.627    23690527.776 8  95391869.54308      1282.190 8        48.051
S45         7.000    63380563.229 6 333067735.83906      -563.601 6        36.435
R02         8.000    19893775.154 8 106156935.30008     -3165.783 8        52.513                                                                    19893778.278 7  82566490.02107     -2462.261 7        46.643
R20         9.000    23815230.692 4 127350762.46804     -1932.115 4        29.763                                                                    23815238.706 6  99050612.50406     -1502.665 6        40.963
G24        10.000    22982889.561 7 120775868.28107      2679.404 7        42.334                                    22982892.883 6  94111072.64506      2087.846 6        37.834    22982893.924 6  94111077.66506      2087.744 6        39.090
G30        11.000    22867945.430 7 120171789.34507     -3202.431 7        43.257                                    22867948.187 6  93640326.37706     -2495.399 6        40.417    22867948.521 6  93640334.37106     -2495.413 6        40.098
S27        12.000    39065247.030 6 205289137.78606      -547.473 6        36.624
G13        13.000    19850662.779 8 104315896.59308     -1297.562 8        48.707                                    19850660.452 6  81285082.30606     -1011.083 6        40.794
S36        14.000    38123970.360 7 200343251.80207      -515.459 7        44.700
I09        15.000    40332355.882 6 158272555.26606     -1042.130 6        39.988
E09        16.000    23366187.624 8 122790122.31008      -858.383 8        48.567                                                                    23366189.834 8  91693908.99908      -641.048 8        50.954    23366189.183 8  94085921.71808      -657.696 8        51.244
R21        18.000    23393365.312 7 125182681.82207      1081.192 7        42.908                                                                    23393372.703 6  97364361.93206       840.872 6        40.107
R03        21.000    19624995.323 8 105054100.63008      1164.106 8        52.328                                                                    19624995.851 7  81708735.40707       905.404 7        47.500
I06        22.000    38033887.711 7 149253266.77007      -473.136 7        42.538
S28        23.000    40798625.144 5 214398049.93505      -524.172 5        35.052
S23        25.000    38056554.779 7 199988458.20907      -515.538 7        44.345
R01        26.000    23807519.380 3                     -5044.438 3        20.524
C07        27.000                                                                                                                                    38725459.214 6 201653594.46006      -409.762 6        41.428    38725457.739 7 155931336.67207      -316.851 7        44.129    38725455.005 6 163860039.96506      -332.906 6        41.282
R04        28.000    23098826.250 7 123693133.53307      3663.602 7        43.850                                                                    23098829.067 7  96205742.79907      2849.492 7        42.734
C40        29.000                                                                                                                                    38730278.016 7 201678703.88107      -466.484 7        43.227                                                                    38730279.925 7 163880467.64607      -379.118 7        43.158
G17        30.000    22884097.605 7 120256842.50407      1784.815 7        44.220                                    22884099.859 6  93706683.59006      1390.767 6        39.973    22884099.888 6  93706680.58806      1390.685 6        40.324
G14        31.000    20759276.902 7 109090725.99907     -1925.676 7        47.314                                    20759275.906 6  85005757.29206     -1500.526 6        38.601    20759276.198 7  85005743.29207     -1500.525 7        47.164
G23        32.000    23451602.960 6 123238952.13906      1264.063 6        41.607                                    23451603.609 4  96030326.23804       984.985 4        27.341    23451604.092 6  96030321.23606       984.982 6        41.785
I02        33.000    37180989.100 7 145906181.66207        -4.445 7        43.625
E04        34.000    25624181.107 7 134655921.03807     -3006.026 7        43.136                                                                    25624185.492 7 100554729.85307     -2244.698 7        47.205    25624184.633 7 103177895.43007     -2303.223 7        47.653
R13        35.000    19437902.143 7 103797344.65607       781.609 7        47.546
R12        36.000    19741651.457 8 105456334.61808     -2654.053 8        51.415                                                                    19741654.208 7  82021591.82107     -2064.220 7        47.901
C42        37.000                                                                                                                                    26539018.336 6 138195635.09306      2619.395 6        40.186                                                                    26539030.436 6 112295318.68706      2128.553 6        41.230
C10        38.000                                                                                                                                    38562553.367 7 200805325.42207       -26.694 7        42.199    38562554.763 7 155275414.09707       -20.646 7        44.995    38562551.957 6 163170762.77406       -21.629 6        41.185
C19        39.000                                                                                                                                    26197126.623 6 136415082.90506     -4074.001 6        40.892                                                                    26197132.711 6 110848358.39006     -3310.341 6        41.483
C30        40.000                                                                                                                                    26066006.507 6 135732547.75606      1989.441 6        40.984                                                                    26066014.597 6 110293848.20006      1616.652 6        40.133
G05        41.000    23483947.399 7 123408848.17507     -3969.359 7        43.645                                    23483951.545 6  96162685.56406     -3093.000 6        38.117    23483951.360 6  96162694.56706     -3093.049 6        38.685
