     3.04           OBSERVATION DATA    M                   RINEX VERSION / TYPE
ssrcrin-15.6.1x                         20250102 163000 UTC PGM / RUN BY / DATE 
(00000000023479385599111004) Septentrio proprietary         COMMENT             
rref                                                        MARKER NAME         
01                                                          MARKER NUMBER       
geodetic                                                    MARKER TYPE         
NFB                 CLIMERS@TUW                             OBSERVER / AGENCY   
3297213             SEPT ASTERX SB3 PROB4.14.4              REC # / TYPE / VERS 
Unknown             Unknown                                 ANT # / TYPE        
  4127832.0916  1207193.2464  4695247.5830                  APPROX POSITION XYZ 
        0.0000        0.0000        0.0000                  ANTENNA: DELTA H/E/N
G   23 X1  C1C L1C D1C S1C C1W S1W C2W L2W D2W S2W C2L L2L  SYS / # / OBS TYPES 
       D2L S2L C5Q L5Q D5Q S5Q C1L L1L D1L S1L              SYS / # / OBS TYPES 
E   21 X1  C1C L1C D1C S1C C6C L6C D6C S6C C5Q L5Q D5Q S5Q  SYS / # / OBS TYPES 
       C7Q L7Q D7Q S7Q C8Q L8Q D8Q S8Q                      SYS / # / OBS TYPES 
S    9 X1  C1C L1C D1C S1C C5I L5I D5I S5I                  SYS / # / OBS TYPES 
R   17 X1  C1C L1C D1C S1C C2P L2P D2P S2P C2C L2C D2C S2C  SYS / # / OBS TYPES 
       C3Q L3Q D3Q S3Q                                      SYS / # / OBS TYPES 
C   25 X1  C1P L1P D1P S1P C5P L5P D5P S5P C2I L2I D2I S2I  SYS / # / OBS TYPES 
       C7I L7I D7I S7I C6I L6I D6I S6I C7D L7D D7D S7D      SYS / # / OBS TYPES 
J   17 X1  C1C L1C D1C S1C C2L L2L D2L S2L C5Q L5Q D5Q S5Q  SYS / # / OBS TYPES 
       C1L L1L D1L S1L                                      SYS / # / OBS TYPES 
I    5 X1  C5A L5A D5A S5A                                  SYS / # / OBS TYPES 
SEPTENTRIO RECEIVERS OUTPUT ALIGNED CARRIER PHASES.         COMMENT             
NO FURTHER PHASE SHIFT APPLIED IN THE RINEX ENCODER.        COMMENT             
G L1C                                                       SYS / PHASE SHIFT   
G L2W                                                       SYS / PHASE SHIFT   
G L2L  0.00000                                              SYS / PHASE SHIFT   
G L5Q  0.00000                                              SYS / PHASE SHIFT   
G L1L  0.00000                                              SYS / PHASE SHIFT   
E L1C  0.00000                                              SYS / PHASE SHIFT   
E L6C  0.00000                                              SYS / PHASE SHIFT   
E L5Q  0.00000                                              SYS / PHASE SHIFT   
E L7Q  0.00000                                              SYS / PHASE SHIFT   
E L8Q  0.00000                                              SYS / PHASE SHIFT   
S L1C                                                       SYS / PHASE SHIFT   
S L5I                                                       SYS / PHASE SHIFT   
R L1C                                                       SYS / PHASE SHIFT   
R L2P  0.00000                                              SYS / PHASE SHIFT   
R L2C                                                       SYS / PHASE SHIFT   
R L3Q  0.00000                                              SYS / PHASE SHIFT   
C L1P  0.00000                                              SYS / PHASE SHIFT   
C L5P  0.00000                                              SYS / PHASE SHIFT   
C L2I                                                       SYS / PHASE SHIFT   
C L7I                                                       SYS / PHASE SHIFT   
C L6I                                                       SYS / PHASE SHIFT   
C L7D                                                       SYS / PHASE SHIFT   
J L1C                                                       SYS / PHASE SHIFT   
J L2L  0.00000                                              SYS / PHASE SHIFT   
J L5Q  0.00000                                              SYS / PHASE SHIFT   
J L1L  0.00000                                              SYS / PHASE SHIFT   
I L5A                                                       SYS / PHASE SHIFT   
  2025     1     2    16    30    0.0000000     GPS         TIME OF FIRST OBS   
 C1C    0.000 C2C    0.000 C2P    0.000                     GLONASS COD/PHS/BIS 
DBHZ                                                        SIGNAL STRENGTH UNIT
    18                                                      LEAP SECONDS        
 24 R01  1 R02 -4 R03  5 R04  6 R05  1 R06 -4 R07  5 R08  6 GLONASS SLOT / FRQ #
    R09 -2 R10 -7 R11  0 R12 -1 R13 -2 R14 -7 R15  0 R16 -1 GLONASS SLOT / FRQ #
    R17  4 R18 -3 R19  3 R20  2 R21  4 R22 -3 R23  3 R24  2 GLONASS SLOT / FRQ #
                                                            END OF HEADER       
> 2025 01 02 16 30  0.0000000  0 58
E24         1.000    28910493.258 3                     -3223.169 3        21.024                                                                    28910496.046 4                     -2408.308 4        24.767    28910494.813 3                     -2470.778 3        22.914
E11         2.000    24200351.548 7 127173892.76207     -1486.762 7        43.359                                                                    24200348.988 7  94967638.86307     -1110.341 7        45.556    24200348.592 7  97445042.16207     -1139.232 7        45.928
G16         3.000    24070063.921 6 126489144.17306      3053.532 6        38.877                                    24070065.493 3  98563028.63403      2379.356 3        19.791
G05         4.000    23132395.588 7 121561635.48207       819.960 7        43.045                                    23132393.454 6  94723371.26106       638.928 6        39.081    23132393.426 6  94723370.25706       638.967 6        39.489
S21         5.000    38450428.167 7 202058022.01907      -477.882 7        42.370
G26         6.000    21668394.473 7 113868385.88107      1938.383 7        45.597                                    21668395.629 7  88728736.06507      1510.424 7        44.871    21668395.893 7  88728723.07007      1510.531 7        43.035
G25         7.000    21892283.835 7 115044901.33207     -3477.017 7        45.442                                    21892284.209 7  89645462.73007     -2709.364 7        43.746    21892284.611 7  89645463.72407     -2709.265 7        42.345
G04         8.000    25185234.225 6 132349262.48106     -1020.063 6        37.108                                    25185235.808 3 103129273.00903      -794.872 3        19.552    25185235.427 6 103129282.04106      -794.693 6        36.265
E36         9.000    24149816.324 7 126908308.86307      1351.341 7        47.980                                                                    24149818.683 8  94769327.82008      1009.049 8        49.870    24149818.295 8  97241559.28808      1035.416 8        50.241
R08        10.000    24377361.479 6 130539675.29106     -2625.375 6        38.730                                                                    24377362.611 6 101530855.68206     -2041.873 6        40.658
G20        11.000    23802884.022 6 125085111.41106     -1605.234 6        40.119                                    23802880.948 3  97468977.64703     -1250.855 3        22.305
S27        12.000    39243113.070 6 206223997.18006      -465.849 6        36.359
E08        13.000    28831708.738 5 151511714.76905     -3087.807 5        35.152                                                                    28831719.687 6 113141943.96706     -2305.647 6        36.378    28831717.145 6 116093462.34306     -2365.830 6        36.185
S36        14.000    38221557.866 7 200856099.15307      -477.454 7        44.090
C13        15.000                                                                                                                                    38269204.967 7 199277828.48607       655.269 7        43.636    38269208.221 7 154094285.98707       506.675 7        44.305    38269205.845 7 161929577.13107       532.524 7        42.828
G18        16.000    21684784.088 7 113954511.81907      2082.102 7        47.993                                    21684782.377 6  88795813.34306      1622.418 6        37.898    21684782.366 7  88795821.34807      1622.463 7        45.439
G12        17.000    25619467.043 3                     -4114.608 3        19.522
R01        18.000    23718919.812 6 126791224.02506       340.865 6        38.339                                                                    23718921.928 5  98615271.38405       264.979 5        32.623
E02        19.000    23441008.107 8 123183497.63808       442.201 8        48.779                                                                    23441008.381 8  91987781.09808       330.154 8        51.315    23441007.724 8  94387448.05508       338.786 8        51.169
E10        21.000    26109872.743 7 137208521.92007     -2773.070 7        42.171                                                                    26109874.191 7 102461040.92507     -2070.787 7        45.884    26109873.766 7 105133922.88307     -2124.764 7        45.865
I06        22.000    38723701.158 6 151960288.70006      -384.889 6        40.951
S28        23.000    40928875.067 5 215082670.84305      -476.419 5        34.062
E29        24.000    28918831.805 5 151969497.39105       421.791 5        33.156                                                                    28918833.557 6 113483713.67106       314.801 6        37.652    28918833.329 6 116444159.12106       322.999 6        39.207
S23        25.000    38172579.674 7 200598178.02407      -481.608 7        44.733
S45        26.000    63430110.269 6 333328030.15506      -539.146 6        36.529
R09        27.000    20808244.493 8 111115043.15908      2657.325 8        49.271                                                                    20808245.486 7  86422915.68807      2066.781 7        47.524
R18        28.000    19139717.198 8 102169395.15208     -1233.075 8        51.253                                                                    19139718.306 7  79465234.24407      -959.062 7        47.737
C38        29.000                                                                                                                                    38658730.266 7 201306251.89807      -122.315 7        43.422                                                                    38658728.220 7 163577860.34807       -99.403 7        43.852
C44        30.000                                                                                                                                    21489774.787 8 111903108.68308     -1320.369 8        51.142                                                                    21489773.963 8  90930525.05208     -1072.915 8        50.317
E12        31.000    28383004.982 5 149153877.86205     -3387.687 5        34.700                                                                    28383002.688 6 111381253.65906     -2530.039 6        37.112    28383002.821 6 114286834.67606     -2595.841 6        38.117
G11        32.000    25657248.412 6 134829963.61106     -4050.223 6        36.870                                    25657245.603 3 105062412.14403     -3156.010 3        18.478    25657245.708 6 105062403.14506     -3156.076 6        37.013
I02        33.000    38118324.915 6 149584522.78506      -834.281 6        41.066
R15        34.000    22375960.413 7 119570474.74907     -4528.926 7        45.920                                                                    22375964.479 7  92999322.83607     -3522.532 7        42.559
E34        35.000    27715816.502 6 145647679.81806      2758.821 6        38.850                                                                    27715825.725 6 108762951.66406      2060.180 6        41.638    27715824.213 6 111600239.14106      2113.880 6        41.254
G29        36.000    20626876.314 8 108395257.00908     -1578.358 8        48.559                                    20626873.441 8  84463944.73508     -1229.890 8        50.207    20626873.810 7  84463954.73407     -1229.836 7        45.397
G31        37.000    21696630.401 7 114016773.61807     -1029.105 7        47.436                                    21696627.958 7  88844333.35407      -801.901 7        46.051    21696628.639 7  88844339.36307      -801.954 7        43.486
C10        38.000                                                                                                                                    41071854.757 5 213871950.80805     -1154.508 5        33.659    41071855.301 6 165379365.77806      -892.786 6        39.348    41071852.465 5 173788472.67005      -938.278 5        34.995
E25        39.000    24250352.123 7 127436665.66407     -2134.164 7        47.009                                                                    24250353.776 8  95163871.40608     -1593.669 8        49.936    24250353.177 8  97646391.72408     -1635.272 8        50.208
C12        40.000                                                                                                                                    21716654.626 7 113084512.78507       171.235 7        47.023    21716652.297 8  87444211.33308       132.441 8        51.811    21716651.529 8  91890499.79908       139.152 8        50.109
E07        41.000    28175487.593 6 148063157.33506     -1744.824 6        37.289                                                                    28175497.632 6 110566652.60106     -1302.874 6        40.169    28175496.484 6 113450997.07106     -1336.824 6        40.513
S44        42.000    40589075.525 6 213297183.41906      -405.955 6        37.278
G28        43.000    22046973.908 7 115857811.47107     -2646.385 7        46.742                                    22046972.676 5  90278901.93705     -2062.118 5        35.705    22046972.791 7  90278901.93607     -2062.095 7        44.721
C05        44.000                                                                                                                                    39404854.352 6 205191416.54906      -418.772 6        37.849    39404852.646 7 158667033.15007      -323.904 7        42.874    39404853.477 6 166734929.08606      -340.454 6        40.014
C11        45.000                                                                                                                                    24693703.365 7 128586656.37907      2431.016 7        42.533    24693705.007 7  99431399.49707      1879.687 7        46.069    24693702.243 7 104487214.59307      1975.343 7        44.074
R16        46.000    19221885.353 8 102680054.48908     -1488.187 8        52.240                                                                    19221886.302 7  79862376.95007     -1157.494 7        47.632
R17        47.000    21676771.772 8 115997018.05108     -4107.382 8        48.590                                                                    21676771.844 7  90220034.23007     -3194.590 7        43.685
C35        48.000                                                                                                                                    24526641.551 7 127716822.80807     -3301.235 7        43.306                                                                    24526641.967 7 103780444.22507     -2682.518 7        44.615
C24        49.000                                                                                                                                    22126801.618 8 115220126.99808     -2363.257 8        50.471                                                                    22126799.535 8  93625811.98008     -1920.328 8        50.087
R19        50.000    20294727.833 6 108563343.78906      2085.017 6        40.482                                                                    20294728.465 7  84438262.29807      1621.648 7        44.408
S48        51.000    77170858.104 6 405536788.25106      -511.917 6        38.060
C08        52.000                                                                                                                                    38120800.717 6 198505101.62806       492.574 6        41.592    38120796.971 7 153496760.97907       380.949 7        45.293    38120795.652 7 161301669.36907       400.396 7        42.701
C34        53.000                                                                                                                                    22680494.242 8 118103531.68608      1668.827 8        48.955                                                                    22680495.627 8  95968903.09808      1356.123 8        48.294
C60        54.000                                                                                                                                    40589075.201 6 211358137.21906      -402.110 6        37.902                                                                    40589061.940 6 171745761.67006      -326.708 6        40.458
C25        55.000                                                                                                                                    22531225.902 8 117326228.11108       898.672 8        49.083                                                                    22531225.399 8  95337259.18008       730.252 8        48.800
C26        56.000                                                                                                                                    25934951.091 6 135050152.23106     -3921.228 6        41.785                                                                    25934954.497 7 109739346.83307     -3186.316 7        42.165
C02        57.000                                                                                                                                    40780942.763 5 212357093.95705      -383.888 5        33.545    40780940.861 6 164207961.14106      -296.499 6        39.670    40780941.741 5 172557530.39005      -311.847 5        33.916
I03        58.000    85809797.430 6 260950787.42706      1091.022 6        41.311
E30        59.000    27390724.104 6 143939363.64506      2157.124 6        39.222                                                                    27390729.984 7 107487282.60107      1610.753 7        42.696    27390729.037 7 110291284.78607      1652.894 7        42.993
> 2025 01 02 16 30  5.0000000  0 58
E24         1.000    28913562.070 3                     -3225.076 3        21.500                                                                    28913564.536 4                     -2407.583 4        24.120    28913563.334 3                     -2471.395 3        23.143
E11         2.000    24201767.293 7 127181331.60107     -1489.177 7        43.333                                                                    24201764.578 7  94973193.83407     -1111.957 7        45.628    24201764.173 7  97450742.04907     -1140.958 7        46.007
G16         3.000    24067159.300 6 126473877.36806      3053.024 6        38.198                                    24067159.984 3  98551132.48803      2378.956 3        19.642
G05         4.000    23131616.633 7 121557542.51007       816.901 7        43.420                                    23131614.511 6  94720181.93906       636.542 6        39.060    23131615.159 6  94720180.95606       636.493 6        39.664
S21         5.000    38450886.857 7 202060410.61407      -477.803 7        42.354
G26         6.000    21666550.792 7 113858697.82107      1936.648 7        45.962                                    21666552.037 7  88721186.94807      1509.073 7        44.963    21666551.960 7  88721173.95307      1509.113 7        43.181
G25         7.000    21895592.884 7 115062290.02507     -3478.666 7        45.550                                    21895593.241 7  89659012.36607     -2710.650 7        43.757    21895593.188 7  89659013.37607     -2710.687 7        42.163
G04         8.000    25186205.996 6 132354369.61806     -1022.603 6        37.913                                    25186207.621 3 103133252.62503      -796.842 3        19.493    25186207.782 6 103133261.62006      -797.015 6        36.072
E36         9.000    24148531.721 7 126901557.04507      1349.229 7        47.973                                                                    24148533.834 8  94764285.88508      1007.518 8        49.895    24148533.428 8  97236385.82108      1033.859 8        50.318
R08        10.000    24379813.868 6 130552809.54106     -2628.586 6        37.267                                                                    24379816.134 6 101541071.26106     -2044.314 6        40.420
G20        11.000    23804411.970 6 125093144.81706     -1608.332 6        39.613                                    23804409.662 3  97475237.44303     -1253.255 3        22.648
S27        12.000    39243554.808 6 206226326.08906      -465.894 6        36.095
E08        13.000    28834646.733 5 151527153.95805     -3087.950 5        35.414                                                                    28834657.440 6 113153473.23306     -2306.159 6        36.862    28834655.604 6 116105292.38506     -2366.136 6        36.832
S36        14.000    38222012.156 7 200858486.68207      -477.659 7        44.286
C13        15.000                                                                                                                                    38268576.181 7 199274554.29807       654.202 7        43.458    38268579.374 7 154091754.18407       505.877 7        44.396    38268577.177 7 161926916.56907       531.667 7        42.883
G18        16.000    21682803.950 7 113944106.58407      2079.765 7        47.863                                    21682802.297 6  88787705.38106      1620.590 6        38.012    21682802.481 7  88787713.39407      1620.633 7        45.500
G12        17.000    25623381.685 3                     -4115.221 3        19.403                                                                                                    25623376.738 3                     -3201.328 3        19.194
R01        18.000    23718603.717 6 126789529.08606       336.906 6        38.652                                                                    23718604.540 5  98613953.09105       261.798 5        33.587
E02        19.000    23440587.875 8 123181289.88008       440.689 8        48.578                                                                    23440588.260 8  91986132.45908       329.088 8        51.324    23440587.558 8  94385756.40308       337.725 8        51.185
E10        21.000    26112512.172 7 137222390.04907     -2774.480 7        42.214                                                                    26112513.206 7 102471397.00407     -2071.863 7        45.908    26112512.673 7 105144549.11807     -2125.889 7        45.845
I06        22.000    38724191.800 6 151962213.15606      -384.988 6        41.015
S28        23.000    40929327.108 5 215085053.08705      -476.518 5        34.057
E29        24.000    28918432.481 5 151967394.13305       419.614 5        32.503                                                                    28918433.417 6 113482143.06506       313.098 6        38.123    28918433.104 6 116442547.54406       321.394 6        39.438
S23        25.000    38173036.213 7 200600585.46007      -481.635 7        44.644
S45        26.000    63430565.923 6 333330725.96506      -539.469 6        36.612
R09        27.000    20805757.463 8 111101761.90908      2654.892 8        49.942                                                                    20805758.198 7  86412585.83807      2064.953 7        47.566
R18        28.000    19140873.893 8 102175568.95508     -1236.623 8        51.439                                                                    19140874.732 7  79470036.10607      -961.816 7        47.545
C38        29.000                                                                                                                                    38658848.237 7 201306865.62207      -123.422 7        43.608                                                                    38658846.108 7 163578359.04307      -100.184 7        43.934
C44        30.000                                                                                                                                    21491043.467 8 111909714.99908     -1322.401 8        51.115                                                                    21491042.597 8  90935893.20308     -1074.418 8        50.410
E12        31.000    28386228.815 5 149170818.10305     -3388.329 5        34.662                                                                    28386226.172 6 111393903.84206     -2530.388 6        37.059    28386226.497 6 114299814.88906     -2596.195 6        37.996
G11        32.000    25661102.055 6 134850215.71006     -4050.779 6        37.380                                    25661099.471 3 105078192.98403     -3156.439 3        18.448    25661100.025 6 105078184.00006     -3156.396 6        37.157
I02        33.000    38119388.543 6 149588694.07706      -834.436 6        41.244
R15        34.000    22380199.659 7 119593123.25507     -4530.606 7        46.680                                                                    22380203.182 7  93016938.32607     -3523.735 7        43.306
E34        35.000    27713191.404 6 145633886.12906      2758.220 6        38.853                                                                    27713200.829 6 108752651.20906      2060.015 6        41.666    27713199.412 6 111589669.97006      2113.634 6        41.652
G29        36.000    20628379.105 8 108403152.88408     -1580.237 8        48.656                                    20628375.977 8  84470097.37108     -1231.355 8        50.274    20628376.472 7  84470107.37207     -1231.349 7        45.445
G31        37.000    21697611.085 7 114021926.95107     -1032.531 7        47.348                                    21697608.616 7  88848348.94907      -804.572 7        46.135    21697609.111 7  88848354.94807      -804.496 7        42.921
C10        38.000                                                                                                                                    41072963.765 5 213877723.59305     -1154.653 5        34.114    41072963.542 6 165383829.65806      -893.095 6        39.192    41072961.076 5 173793163.50405      -938.367 5        35.376
E25        39.000    24252383.386 7 127447339.33107     -2135.560 7        47.033                                                                    24252384.893 8  95171842.00408     -1594.754 8        50.033    24252384.340 8  97654570.25008     -1636.383 8        50.183
C12        40.000                                                                                                                                    21716490.872 7 113083661.30307       169.056 7        46.944    21716488.690 8  87443552.92508       130.763 8        51.860    21716487.941 8  91889807.88208       137.540 8        50.186
E07        41.000    28177148.803 6 148071885.66506     -1746.681 6        36.813                                                                    28177158.670 6 110573170.52306     -1304.426 6        40.074    28177157.587 6 113457685.03406     -1338.471 6        40.577
S44        42.000    40589464.999 6 213299212.29206      -405.852 6        37.195
G28        43.000    22049493.276 7 115871049.32907     -2649.078 7        46.679                                    22049491.769 5  90289217.15305     -2064.217 5        35.824    22049491.908 7  90289217.14907     -2064.198 7        44.527
C05        44.000                                                                                                                                    39405256.731 6 205193510.79606      -419.122 6        37.754    39405254.819 7 158668652.55407      -323.856 7        42.743    39405255.682 6 166736630.79806      -340.251 6        40.074
C11        45.000                                                                                                                                    24691369.177 7 128574503.75207      2429.907 7        42.787    24691371.658 7  99422002.35607      1878.968 7        46.403    24691368.401 7 104477339.59207      1974.653 7        44.253
R16        46.000    19223279.777 8 102687504.75308     -1492.198 8        52.083                                                                    19223281.396 7  79868171.60107     -1160.587 7        47.988
R17        47.000    21680610.224 8 116017557.46308     -4108.631 8        48.908                                                                    21680610.431 7  90236009.32907     -3195.621 7        43.276
C35        48.000                                                                                                                                    24529811.866 7 127733330.38907     -3301.942 7        43.594                                                                    24529812.241 7 103793857.95907     -2682.973 7        44.966
C24        49.000                                                                                                                                    22129071.628 8 115231948.46008     -2365.584 8        50.672                                                                    22129069.713 8  93635417.86608     -1922.118 8        50.186
R19        50.000    20292780.849 6 108552925.71506      2081.946 6        40.708                                                                    20292781.071 7  84430159.39207      1619.263 7        44.855
S48        51.000    77171322.165 6 405539347.84306      -511.995 6        38.012
C08        52.000                                                                                                                                    38120328.849 6 198502640.59206       491.448 6        41.480    38120324.124 7 153494857.96707       380.053 7        45.287    38120323.114 7 161299669.57207       399.428 7        42.821
C34        53.000                                                                                                                                    22678892.458 8 118095191.22108      1667.092 8        48.838                                                                    22678893.867 8  95962125.77208      1354.845 8        48.403
C60        54.000                                                                                                                                    40589461.299 6 211360147.67006      -402.226 6        37.743                                                                    40589447.841 6 171747395.30306      -326.757 6        40.489
C25        55.000                                                                                                                                    22530364.192 8 117321740.24308       896.262 8        48.891                                                                    22530363.530 8  95333612.40608       728.406 8        49.018
C26        56.000                                                                                                                                    25938716.437 6 135069758.69906     -3921.621 6        41.502                                                                    25938719.730 7 109755278.66507     -3186.624 7        42.125
C02        57.000                                                                                                                                    40781311.301 5 212359011.04505      -383.456 5        33.281    40781308.853 6 164209443.57306      -296.577 6        39.778    40781309.872 5 172559088.14005      -311.528 5        34.390
I03        58.000    85808407.271 6 260945331.80706      1091.115 6        41.201
E30        59.000    27388671.916 6 143928577.90106      2156.730 6        39.592                                                                    27388677.405 7 107479228.35307      1610.657 7        42.893    27388676.376 7 110283020.42407      1652.662 7        43.026
> 2025 01 02 16 30 10.0000000  0 58
E24         1.000    28916631.352 3                     -3224.465 3        21.405                                                                    28916633.124 4                     -2408.476 4        25.429    28916632.432 3                     -2472.578 3        23.695
E11         2.000    24203185.007 7 127188781.02807     -1490.961 7        43.501                                                                    24203182.148 7  94978756.73207     -1113.323 7        45.708    24203181.749 7  97456450.07107     -1142.405 7        45.845
G16         3.000    24064253.885 6 126458612.87406      3052.747 6        39.165                                    24064255.071 3  98539238.16003      2378.736 3        19.672
G05         4.000    23130840.945 7 121553464.73307       814.033 7        44.101                                    23130838.376 6  94717004.46406       634.307 6        39.072    23130839.132 6  94717003.46506       634.387 6        39.685
S21         5.000    38451338.541 7 202062798.95507      -477.540 7        42.279
G26         6.000    21664708.774 7 113849018.87607      1934.957 7        45.886                                    21664710.180 7  88713644.93307      1507.754 7        44.968    21664710.275 7  88713631.93707      1507.866 7        43.268
G25         7.000    21898903.088 7 115079686.56207     -3479.971 7        45.482                                    21898903.699 7  89672568.11207     -2711.665 7        43.727    21898903.896 6  89672569.12806     -2711.873 6        41.890
G04         8.000    25187181.045 6 132359490.97406     -1025.739 6        37.750                                    25187182.100 3 103137243.26603      -799.246 3        20.024    25187183.070 6 103137252.24106      -799.126 6        37.002
E36         9.000    24147248.552 7 126894814.98107      1347.427 7        47.742                                                                    24147250.894 8  94759251.23808      1006.269 8        49.972    24147250.495 8  97231219.84108      1032.466 8        50.387
R08        10.000    24382271.001 6 130565959.64506     -2631.480 6        38.925                                                                    24382271.098 6 101551299.25206     -2046.602 6        39.315
G20        11.000    23805943.907 6 125101192.97906     -1610.914 6        39.664                                    23805941.045 3  97481508.74903     -1255.261 3        22.324
S27        12.000    39243995.679 6 206228654.75806      -465.870 6        36.333
E08        13.000    28837584.664 5 151542594.70805     -3088.439 5        34.900                                                                    28837595.443 6 113165003.65806     -2306.174 6        37.191    28837593.749 6 116117123.59806     -2366.375 6        36.745
S36        14.000    38222464.295 7 200860874.10307      -477.427 7        44.156
C13        15.000                                                                                                                                    38267948.334 7 199271284.93507       653.407 7        43.689    38267951.314 7 154089226.10007       505.307 7        44.384    38267949.289 7 161924259.95407       530.954 7        42.762
G18        16.000    21680826.510 8 113933712.68008      2077.684 8        48.098                                    21680824.374 6  88779606.25506      1618.974 6        37.996    21680824.740 7  88779614.24907      1619.028 7        44.831
G12        17.000                                                                                                                                                                    25627295.789 3                     -3205.511 3        19.851
R01        18.000    23718291.362 6 126787854.13706       332.933 6        38.613                                                                    23718292.776 5  98612650.31005       258.929 5        34.100
E02        19.000    23440169.022 8 123179088.92008       439.560 8        48.608                                                                    23440169.443 8  91984488.89708       328.263 8        51.368    23440168.700 8  94384069.97008       336.803 8        51.132
E10        21.000    26115152.418 7 137236264.94907     -2775.657 7        42.256                                                                    26115153.456 7 102481758.13307     -2072.630 7        45.806    26115152.995 7 105155180.53407     -2126.742 7        45.794
I06        22.000    38724682.168 6 151964137.29806      -384.639 6        41.087
S28        23.000    40929779.573 5 215087434.88305      -476.416 5        34.314
E29        24.000    28918033.827 5 151965301.56505       417.702 5        32.958                                                                    28918035.273 6 113480580.39106       311.882 6        38.168    28918034.883 6 116440944.11406       319.871 6        38.832
S23        25.000    38173493.763 7 200602992.80807      -481.419 7        44.631
S45        26.000    63431025.588 6 333333421.63506      -539.110 6        36.336
R09        27.000    20803272.796 8 111088492.44308      2652.786 8        49.679                                                                    20803273.099 7  86402265.14607      2063.334 7        47.295
R18        28.000    19142034.009 8 102181760.28508     -1239.977 8        51.492                                                                    19142034.731 7  79474851.59407      -964.386 7        47.334
C38        29.000                                                                                                                                    38658967.099 7 201307484.49607      -124.298 7        43.913                                                                    38658964.894 7 163578861.93607      -100.841 7        43.638
C44        30.000                                                                                                                                    21492313.893 8 111916330.75108     -1324.034 8        51.021                                                                    21492313.071 8  90941269.07008     -1075.945 8        50.250
E12        31.000    28389453.022 5 149187761.19805     -3388.884 5        34.533                                                                    28389450.572 6 111406556.15706     -2530.576 6        37.399    28389450.532 6 114312797.26006     -2596.471 6        37.807
G11        32.000    25664957.437 6 134870470.47406     -4050.958 6        37.202                                    25664953.696 3 105093975.92303     -3156.599 3        18.478    25664953.961 6 105093966.93806     -3156.793 6        37.297
I02        33.000    38120451.354 6 149592865.72706      -834.441 6        41.294
R15        34.000    22384440.038 7 119615779.24807     -4531.892 7        46.411                                                                    22384442.560 7  93034559.63507     -3524.792 7        43.579
E34        35.000    27710566.647 6 145620093.99406      2758.248 6        38.889                                                                    27710576.318 6 108742351.92806      2059.725 6        41.695    27710574.836 7 111579102.00007      2113.588 7        42.047
G29        36.000    20629883.606 8 108411058.07608     -1581.902 8        48.987                                    20629880.285 8  84476257.26408     -1232.653 8        50.248    20629880.829 7  84476267.27007     -1232.643 7        45.407
G31        37.000    21698594.895 7 114027097.09807     -1035.681 7        47.515                                    21698592.462 7  88852377.64607      -807.024 7        46.082    21698592.742 7  88852383.65307      -807.049 7        42.622
C10        38.000                                                                                                                                    41074072.356 5 213883496.43005     -1154.366 5        34.109    41074072.265 6 165388293.58106      -892.838 6        38.982    41074069.871 5 173797854.41105      -938.376 5        35.248
E25        39.000    24254415.499 7 127458019.58107     -2136.664 7        46.991                                                                    24254417.258 8  95179817.52108     -1595.578 8        50.073    24254416.711 8  97662753.81908     -1637.157 8        50.190
C12        40.000                                                                                                                                    21716329.431 7 113082820.29307       167.213 7        46.906    21716327.322 8  87442902.61708       129.326 8        51.898    21716326.502 8  91889124.51508       135.808 8        50.042
E07        41.000    28178811.662 6 148080623.75206     -1748.623 6        37.168                                                                    28178821.420 6 110579695.71306     -1305.674 6        40.198    28178820.264 6 113464380.44206     -1339.758 6        40.563
S44        42.000    40589846.307 6 213301241.09306      -405.687 6        36.998
G28        43.000    22052014.995 7 115884300.21807     -2651.506 7        46.684                                    22052013.281 5  90299542.51905     -2066.108 5        35.781    22052013.652 7  90299542.51507     -2066.026 7        44.736
C05        44.000                                                                                                                                    39405658.976 6 205195604.77606      -418.691 6        37.853    39405656.925 7 158670271.76707      -323.756 7        42.745    39405657.775 6 166738332.35106      -340.246 6        40.031
C11        45.000                                                                                                                                    24689036.056 7 128562355.80307      2429.052 7        42.648    24689038.822 7  99412608.81407      1878.378 7        45.664    24689035.499 7 104467468.42307      1973.824 7        44.020
R16        46.000    19224677.821 8 102694974.81808     -1495.959 8        51.784                                                                    19224679.155 7  79873981.64707     -1163.503 7        47.967
R17        47.000    21684449.201 8 116038102.90808     -4109.685 8        48.256                                                                    21684450.309 7  90251989.12607     -3196.374 7        43.892
C35        48.000                                                                                                                                    24532982.482 7 127749840.70607     -3302.325 7        43.700                                                                    24532982.908 7 103807273.96207     -2683.486 7        44.870
C24        49.000                                                                                                                                    22131344.357 8 115243780.95608     -2367.576 8        50.516                                                                    22131342.080 8  93645032.75508     -1923.894 8        49.976
R19        50.000    20290835.599 6 108542522.69506      2079.218 6        40.541                                                                    20290836.249 7  84422068.15107      1617.177 7        44.531
S48        51.000    77171783.261 6 405541906.78206      -511.681 6        37.679
C08        52.000                                                                                                                                    38119857.572 6 198500185.05406       490.565 6        41.628    38119852.444 7 153492959.18807       379.339 7        45.186    38119851.422 7 161297674.26107       398.536 7        42.573
C34        53.000                                                                                                                                    22677292.152 8 118086858.50908      1665.734 8        48.693                                                                    22677293.653 8  95955354.79308      1353.504 8        48.170
C60        54.000                                                                                                                                    40589847.423 6 211362158.02106      -402.210 6        37.698                                                                    40589833.966 6 171749028.89106      -326.663 6        40.181
C25        55.000                                                                                                                                    22529504.242 8 117317264.07908       894.079 8        48.724                                                                    22529503.904 8  95329975.16908       726.517 8        48.743
C26        56.000                                                                                                                                    25942481.946 6 135089366.91006     -3921.768 6        41.468                                                                    25942485.270 6 109771211.91906     -3186.562 6        41.769
C02        57.000                                                                                                                                    40781679.638 5 212360927.93105      -383.408 5        33.748    40781676.908 6 164210925.84106      -296.478 6        39.652    40781677.998 5 172560645.81605      -311.623 5        33.671
I03        58.000    85807016.608 6 260939875.97806      1091.235 6        41.478
E30        59.000    27386619.490 6 143917792.95106      2157.048 6        39.826                                                                    27386625.081 7 107471174.69607      1610.780 7        42.857    27386624.177 7 110274756.67207      1652.679 7        43.124
> 2025 01 02 16 30 15.0000000  0 58
E24         1.000    28919700.356 3                     -3225.454 3        19.970                                                                    28919703.314 4                     -2409.727 4        24.571    28919702.564 3                     -2470.812 3        23.448
E11         2.000    24204604.457 7 127196241.11507     -1493.165 7        43.414                                                                    24204601.758 7  94984327.57807     -1114.930 7        45.505    24204601.374 7  97462166.23507     -1144.075 7        45.904
G16         3.000    24061349.842 6 126443350.66706      3052.181 6        38.928                                    24061350.814 3  98527345.61003      2378.309 3        19.701
G05         4.000    23130067.809 7 121549402.15107       810.969 7        43.778                                    23130065.156 6  94713838.82306       631.923 6        39.120    23130065.876 6  94713837.82006       631.982 6        39.718
S21         5.000    38451795.598 7 202065187.05807      -477.623 7        42.434
G26         6.000    21662868.513 7 113839349.06207      1933.034 7        45.112                                    21662870.050 7  88706110.02707      1506.255 7        44.936    21662870.377 7  88706097.03407      1506.281 7        43.801
G25         7.000    21902215.000 7 115097090.99807     -3481.738 7        45.431                                    21902215.638 7  89686130.00807     -2713.041 7        43.666    21902216.069 7  89686131.02407     -2713.029 7        42.282
G04         8.000    25188158.697 6 132364626.72206     -1028.728 6        37.970                                    25188159.480 3 103141245.17503      -801.618 3        20.095    25188160.127 6 103141254.23706      -801.742 6        36.873
E36         9.000    24145967.379 7 126888082.72607      1345.495 7        47.743                                                                    24145969.780 8  94754223.92008      1004.711 8        49.839    24145969.362 8  97226061.37108      1030.936 8        50.268
R08        10.000    24384730.146 6 130579125.70106     -2634.761 6        38.237                                                                    24384729.423 6 101561539.58906     -2049.436 6        39.889
G20        11.000    23807478.628 6 125109255.93906     -1614.132 6        39.949                                    23807475.250 3  97487791.56303     -1257.756 3        22.286
S27        12.000    39244440.529 6 206230983.23206      -466.045 6        36.499
E08        13.000    28840523.282 5 151558036.97805     -3088.893 5        34.914                                                                    28840534.018 6 113176535.21406     -2306.406 6        36.677    28840532.149 6 116128955.99106     -2366.972 6        36.231
S36        14.000    38222920.212 7 200863261.25307      -477.401 7        44.128
C13        15.000                                                                                                                                    38267321.412 7 199268020.31307       652.444 7        43.784    38267324.334 7 154086701.70607       504.425 7        44.305    38267322.245 7 161921607.18807       530.137 7        42.817
G18        16.000    21678850.556 8 113923330.14408      2075.309 8        48.217                                    21678848.659 6  88771515.98106      1617.123 6        37.977    21678849.128 7  88771523.98707      1617.145 7        45.424
G12        17.000                                                                                                                                                                    25631210.815 3                     -3205.203 3        20.595
R01        18.000    23717981.462 6 126786199.14106       328.825 6        38.156                                                                    23717982.963 5  98611363.10105       255.932 5        34.467
E02        19.000    23439751.414 8 123176894.82208       438.063 8        48.569                                                                    23439751.868 8  91982850.45708       327.132 8        51.223    23439751.165 8  94382388.79108       335.622 8        51.181
E10        21.000    26117794.044 7 137250146.64307     -2777.043 7        42.106                                                                    26117794.907 7 102492124.35007     -2073.816 7        45.667    26117794.727 7 105165817.16807     -2127.863 7        45.848
I06        22.000    38725172.336 6 151966061.12706      -384.708 6        41.228
S28        23.000    40930233.170 5 215089816.49805      -476.414 5        34.109
E29        24.000    28917638.016 5 151963219.81405       415.451 5        33.120                                                                    28917639.384 6 113479025.82506       310.138 6        38.315    28917638.841 6 116439348.98706       318.026 6        38.733
S23        25.000    38173950.808 7 200605400.02807      -481.426 7        44.667
S45        26.000    63431486.948 6 333336117.03206      -539.020 6        36.654
R09        27.000    20800789.839 8 111075234.58508      2650.345 8        49.801                                                                    20800790.618 7  86391953.50707      2061.367 7        47.486
R18        28.000    19143197.193 8 102187969.24908     -1243.550 8        51.445                                                                    19143197.981 7  79479680.78907      -967.154 7        47.579
C38        29.000                                                                                                                                    38659086.658 7 201308108.53207      -125.345 7        44.217                                                                    38659084.811 7 163579369.03607      -101.844 7        43.615
C44        30.000                                                                                                                                    21493586.247 8 111922955.97808     -1326.010 8        50.969                                                                    21493585.380 8  90946652.60408     -1077.464 8        50.210
E12        31.000    28392677.401 5 149204707.02005     -3389.330 5        34.448                                                                    28392675.385 6 111419210.58606     -2531.345 6        37.350    28392675.190 6 114325781.78606     -2597.260 6        37.766
G11        32.000    25668811.646 6 134890727.86106     -4051.855 6        36.907                                    25668808.485 3 105109760.89503     -3157.282 3        18.507    25668808.898 6 105109751.90706     -3157.396 6        37.493
I02        33.000    38121514.213 6 149597037.94906      -834.506 6        41.368
R15        34.000    22388680.042 7 119638442.78107     -4533.500 7        46.132                                                                    22388683.796 7  93052186.80707     -3525.989 7        43.543
E34        35.000    27707942.526 6 145606303.46406      2758.004 6        38.778                                                                    27707952.043 6 108732053.83006      2059.505 6        41.514    27707950.740 7 111568535.26307      2113.232 7        42.260
G29        36.000    20631389.568 8 108418972.61008     -1583.901 8        48.415                                    20631386.372 8  84482424.43808     -1234.210 8        50.216    20631386.817 7  84482434.43907     -1234.140 7        45.505
G31        37.000    21699582.399 7 114032284.11207     -1039.149 7        47.518                                    21699579.515 7  88856419.48207      -809.727 7        46.050    21699580.183 7  88856425.49007      -809.755 7        43.005
C10        38.000                                                                                                                                    41075181.830 5 213889269.34005     -1154.933 5        34.605    41075181.029 6 165392757.53006      -892.769 6        38.682    41075178.448 5 173802545.34105      -938.157 5        35.248
E25        39.000    24256449.082 7 127468706.45507     -2138.064 7        46.904                                                                    24256450.934 8  95187797.98108     -1596.587 8        49.965    24256450.388 8  97670942.46808     -1638.263 8        50.211
C12        40.000                                                                                                                                    21716169.948 7 113081989.81007       164.976 7        46.990    21716167.946 8  87442260.44008       127.592 8        52.058    21716166.962 8  91888449.67608       134.056 8        49.998
E07        41.000    28180476.961 6 148089371.62106     -1750.416 6        36.994                                                                    28180485.988 6 110586228.19706     -1307.099 6        39.952    28180485.029 6 113471083.35306     -1341.473 6        40.586
S44        42.000    40590235.298 6 213303269.84606      -405.883 6        37.183
G28        43.000    22054538.849 7 115897564.18507     -2654.112 7        46.294                                    22054537.373 5  90309878.07605     -2068.135 5        35.600    22054537.397 7  90309878.07207     -2068.157 7        44.644
C05        44.000                                                                                                                                    39406061.028 6 205197698.57606      -418.780 6        37.758    39406058.853 7 158671890.82607      -323.756 7        42.749    39406059.926 6 166740033.75006      -340.417 6        40.086
C11        45.000                                                                                                                                    24686704.092 7 128550212.64707      2428.073 7        42.855    24686705.955 7  99403218.99307      1877.625 7        45.865    24686703.584 7 104457601.14107      1973.116 7        44.029
R16        46.000    19226080.111 8 102702464.84708     -1500.009 8        51.614                                                                    19226081.353 7  79879807.23707     -1166.694 7        47.756
R17        47.000    21688289.475 8 116058654.36208     -4110.912 8        48.172                                                                    21688290.970 7  90267973.59907     -3197.413 7        44.254
C35        48.000                                                                                                                                    24536153.654 7 127766353.81007     -3303.037 7        43.977                                                                    24536153.934 7 103820692.21707     -2683.894 7        44.777
C24        49.000                                                                                                                                    22133618.579 8 115255624.54108     -2369.854 8        50.321                                                                    22133616.460 8  93654656.62708     -1925.687 8        50.014
R19        50.000    20288893.440 6 108532134.72806      2076.157 6        40.698                                                                    20288894.159 7  84413988.62807      1614.695 7        44.534
S48        51.000    77172246.310 6 405544465.91806      -511.899 6        37.921
C08        52.000                                                                                                                                    38119387.660 6 198497734.94806       489.424 6        41.819    38119381.795 7 153491064.62107       378.493 7        45.162    38119381.001 7 161295683.34207       397.811 7        42.717
C34        53.000                                                                                                                                    22675693.535 8 118078533.59008      1664.168 8        48.765                                                                    22675694.952 8  95948590.12708      1352.217 8        48.195
C60        54.000                                                                                                                                    40590233.503 6 211364168.32906      -401.983 6        37.705                                                                    40590219.907 6 171750662.42606      -326.780 6        40.215
C25        55.000                                                                                                                                    22528646.922 8 117312799.65108       891.642 8        48.676                                                                    22528646.536 8  95326347.46508       724.545 8        48.745
C26        56.000                                                                                                                                    25946247.421 6 135108976.88406     -3922.110 6        41.516                                                                    25946251.196 6 109787146.63406     -3187.142 6        41.518
C02        57.000                                                                                                                                    40782048.882 5 212362844.69405      -383.258 5        33.269    40782045.011 6 164212408.00706      -296.451 6        39.739    40782046.040 5 172562203.33505      -311.754 5        33.431
I03        58.000    85805626.385 6 260934419.97006      1091.228 6        41.595
E30        59.000    27384567.491 6 143907008.87506      2156.734 6        39.817                                                                    27384572.871 7 107463121.68207      1610.568 7        42.690    27384571.912 7 110266493.57307      1652.555 7        43.075
> 2025 01 02 16 30 20.0000000  0 58
