     3.04           OBSERVATION DATA    M                   RINEX VERSION / TYPE
ssrcrin-15.6.1x                         20250102 141500 UTC PGM / RUN BY / DATE 
(00000000023479385599111004) Septentrio proprietary         COMMENT             
rref                                                        MARKER NAME         
01                                                          MARKER NUMBER       
geodetic                                                    MARKER TYPE         
NFB                 CLIMERS@TUW                             OBSERVER / AGENCY   
3297213             SEPT ASTERX SB3 PROB4.14.4              REC # / TYPE / VERS 
Unknown             Unknown                                 ANT # / TYPE        
  4127831.7462  1207193.2399  4695247.7804                  APPROX POSITION XYZ 
        0.0000        0.0000        0.0000                  ANTENNA: DELTA H/E/N
G   23 X1  C1C L1C D1C S1C C1W S1W C2W L2W D2W S2W C2L L2L  SYS / # / OBS TYPES 
       D2L S2L C5Q L5Q D5Q S5Q C1L L1L D1L S1L              SYS / # / OBS TYPES 
E   21 X1  C1C L1C D1C S1C C6C L6C D6C S6C C5Q L5Q D5Q S5Q  SYS / # / OBS TYPES 
       C7Q L7Q D7Q S7Q C8Q L8Q D8Q S8Q                      SYS / # / OBS TYPES 
S    9 X1  C1C L1C D1C S1C C5I L5I D5I S5I                  SYS / # / OBS TYPES 
R   17 X1  C1C L1C D1C S1C C2P L2P D2P S2P C2C L2C D2C S2C  SYS / # / OBS TYPES 
       C3Q L3Q D3Q S3Q                                      SYS / # / OBS TYPES 
C   25 X1  C1P L1P D1P S1P C5P L5P D5P S5P C2I L2I D2I S2I  SYS / # / OBS TYPES 
       C7I L7I D7I S7I C6I L6I D6I S6I C7D L7D D7D S7D      SYS / # / OBS TYPES 
J   17 X1  C1C L1C D1C S1C C2L L2L D2L S2L C5Q L5Q D5Q S5Q  SYS / # / OBS TYPES 
       C1L L1L D1L S1L                                      SYS / # / OBS TYPES 
I    5 X1  C5A L5A D5A S5A                                  SYS / # / OBS TYPES 
SEPTENTRIO RECEIVERS OUTPUT ALIGNED CARRIER PHASES.         COMMENT             
NO FURTHER PHASE SHIFT APPLIED IN THE RINEX ENCODER.        COMMENT             
G L1C                                                       SYS / PHASE SHIFT   
G L2W                                                       SYS / PHASE SHIFT   
G L2L  0.00000                                              SYS / PHASE SHIFT   
G L5Q  0.00000                                              SYS / PHASE SHIFT   
G L1L  0.00000                                              SYS / PHASE SHIFT   
E L1C  0.00000                                              SYS / PHASE SHIFT   
E L6C  0.00000                                              SYS / PHASE SHIFT   
E L5Q  0.00000                                              SYS / PHASE SHIFT   
E L7Q  0.00000                                              SYS / PHASE SHIFT   
E L8Q  0.00000                                              SYS / PHASE SHIFT   
S L1C                                                       SYS / PHASE SHIFT   
S L5I                                                       SYS / PHASE SHIFT   
R L1C                                                       SYS / PHASE SHIFT   
R L2P  0.00000                                              SYS / PHASE SHIFT   
R L2C                                                       SYS / PHASE SHIFT   
R L3Q  0.00000                                              SYS / PHASE SHIFT   
C L1P  0.00000                                              SYS / PHASE SHIFT   
C L5P  0.00000                                              SYS / PHASE SHIFT   
C L2I                                                       SYS / PHASE SHIFT   
C L7I                                                       SYS / PHASE SHIFT   
C L6I                                                       SYS / PHASE SHIFT   
C L7D                                                       SYS / PHASE SHIFT   
J L1C                                                       SYS / PHASE SHIFT   
J L2L  0.00000                                              SYS / PHASE SHIFT   
J L5Q  0.00000                                              SYS / PHASE SHIFT   
J L1L  0.00000                                              SYS / PHASE SHIFT   
I L5A                                                       SYS / PHASE SHIFT   
  2025     1     2    14    15    0.0000000     GPS         TIME OF FIRST OBS   
 C1C    0.000 C2C    0.000 C2P    0.000                     GLONASS COD/PHS/BIS 
DBHZ                                                        SIGNAL STRENGTH UNIT
    18                                                      LEAP SECONDS        
 24 R01  1 R02 -4 R03  5 R04  6 R05  1 R06 -4 R07  5 R08  6 GLONASS SLOT / FRQ #
    R09 -2 R10 -7 R11  0 R12 -1 R13 -2 R14 -7 R15  0 R16 -1 GLONASS SLOT / FRQ #
    R17  4 R18 -3 R19  3 R20  2 R21  4 R22 -3 R23  3 R24  2 GLONASS SLOT / FRQ #
                                                            END OF HEADER       
> 2025 01 02 14 15  0.0000000  0 56
E24         1.000    25453601.137 7 133759689.02207     -2329.364 7        44.482                                                                    25453604.295 8  99885548.51608     -1739.475 8        48.058    25453603.211 8 102491247.55908     -1784.791 8        48.414
E11         2.000    25707709.827 6 135095054.47906      2076.325 6        40.257                                                                    25707712.236 7 100882774.16707      1550.493 7        43.776    25707711.151 7 103514487.43707      1590.942 7        43.695
E03         3.000    26248907.128 7 137938913.60307     -2774.905 7        42.205                                                                    26248915.555 7 103006336.10007     -2072.196 7        45.293    26248914.273 7 105693459.78107     -2126.229 7        45.854
C41         4.000                                                                                                                                    26980169.589 6 140492811.88806     -1201.139 6        39.538                                                                    26980185.337 6 114161985.51506      -976.190 6        41.321
S21         5.000    38590212.144 7 202792516.23807      -509.094 7        42.743
E05         6.000    26986208.698 6 141813219.83706     -3588.402 6        36.597                                                                    26986229.187 6 105899390.10306     -2679.528 6        39.568    26986226.686 6 108661990.15406     -2749.622 6        40.598
G25         7.000    20003067.229 8 105116987.20608        32.296 8        50.028                                    20003068.138 8  81909422.41608        25.163 8        50.514    20003068.892 7  81909423.42307        25.180 7        45.028
C29         8.000                                                                                                                                    25162752.258 7 131029064.92407     -3398.079 7        42.326                                                                    25162753.970 7 106471862.50407     -2761.202 7        42.237
R05         9.000    24551253.859 6 131240425.00506     -4502.600 6        40.493                                                                    24551266.712 6 102075900.87406     -3502.052 6        36.930
G24        10.000    24368121.107 6 128055269.32806     -4362.491 6        39.501                                    24368126.885 5  99783323.40105     -3399.339 5        35.405    24368127.461 6  99783328.39306     -3399.383 6        39.282
G20        11.000    25647444.890 5 134778235.76905      2135.156 5        31.298
S27        12.000    39385749.539 6 206973508.48306      -517.607 6        36.393
E08        13.000    26567561.687 6 139613600.86006      -406.142 6        41.669                                                                    26567567.900 7 104257005.91607      -303.233 7        44.483    26567566.723 7 106976741.30507      -311.204 7        45.105
S36        14.000    38361478.115 7 201591348.04507      -509.258 7        44.551
G06        15.000    23830845.055 6 125232043.55206     -2722.534 6        41.399                                    23830849.795 6  97583481.91206     -2121.454 6        36.771    23830849.845 6  97583483.91406     -2121.505 6        39.622
G12        17.000    21188976.599 8 111349002.44308     -2410.616 8        48.157                                    21188975.240 8  86765539.78008     -1878.400 8        48.192    21188975.828 7  86765536.77207     -1878.338 7        44.947
G32        18.000    23530716.342 7 123654776.85207     -2298.933 7        44.417                                    23530721.793 6  96354418.99506     -1791.372 6        40.348    23530722.750 6  96354422.99406     -1791.404 6        40.203
E02        19.000    26204054.219 7 137703321.54507      1695.259 7        42.165                                                                    26204061.327 7 102830481.73707      1265.877 7        44.996    26204060.028 7 105513004.66207      1298.938 7        45.181
E10        21.000    25284694.336 7 132872138.87507       816.844 7        44.829                                                                    25284698.198 8  99222821.53508       609.941 8        48.754    25284697.359 8 101811229.51508       625.873 8        48.907
I06        22.000    38742570.862 6 152034281.08006      -465.629 6        41.654
S28        23.000    41065893.502 5 215802606.11005      -513.868 5        34.695
S23        25.000    38305468.838 7 201296469.67407      -514.130 7        45.189
S45        26.000    63560837.341 6 334015145.55706      -573.523 6        36.136
C07        27.000                                                                                                                                    41321593.454 5 215172322.00705     -1385.340 5        35.505    41321593.341 6 166384867.81806     -1071.310 6        39.925    41321590.737 5 174845108.16005     -1125.868 5        35.705
R18        28.000    22607239.008 7 120679142.12907      3939.846 7        46.306                                                                    22607247.829 7  93861673.77407      3064.379 7        43.716
C38        29.000                                                                                                                                    40611692.732 6 211475757.26906      1357.647 6        40.603                                                                    40611696.118 6 171841398.20006      1103.205 6        39.721
C44        30.000                                                                                                                                    23095773.469 8 120265908.75908      2175.097 8        48.119                                                                    23095775.513 7  97725973.32007      1767.375 7        47.238
E12        31.000    25821405.136 6 135692535.50206      -527.197 6        40.715                                                                    25821406.815 7 101328939.00407      -393.573 7        43.877    25821406.249 7 103972287.31907      -403.875 7        44.433
G11        32.000    22509987.550 7 118290943.13907      -374.494 7        45.693                                    22509986.983 5  92174851.25405      -291.813 5        34.381    22509987.749 7  92174842.25307      -291.802 7        44.378
I02        33.000    37460149.269 7 147001662.18007      -676.331 7        42.191
R15        34.000    19413462.117 8 103739791.01608      -240.942 8        52.030                                                                    19413464.373 7  80686571.94407      -187.401 7        47.299
R07        35.000    23673990.332 7 126728661.54807       929.888 7        44.333                                                                    23673996.066 6  98566725.53206       723.200 6        41.111
G29        36.000    21847499.295 7 114809623.83107      2046.669 7        47.967                                    21847499.168 7  89462140.25407      1594.803 7        46.866    21847499.540 7  89462150.25607      1594.743 7        43.391
G31        37.000    24742566.006 6 130023118.65006      3051.576 6        39.252                                    24742572.833 5 101316771.12305      2377.835 5        31.102    24742574.173 6 101316777.16206      2377.773 6        37.047
C10        38.000                                                                                                                                    40137900.509 6 209008539.19006     -1228.510 6        36.941    40137903.445 7 161618651.66807      -950.118 7        42.083    40137900.286 6 169836539.71006      -998.392 6        38.856
E25        39.000    23467074.193 8 123320492.38908      -139.956 8        48.087                                                                    23467077.648 8  92090099.35308      -104.560 8        50.880    23467077.048 8  94492435.04208      -107.272 8        51.609
C12        40.000                                                                                                                                    25322347.036 6 131860177.45006      2911.743 6        39.231    25322353.771 7 101962714.15307      2251.509 7        46.387    25322350.579 7 107147239.49107      2365.867 7        43.477
S44        42.000    40851004.175 6 214673541.77906      -427.380 6        36.979
G28        43.000    22753447.139 7 119570307.74907      2184.993 7        44.236                                    22753448.132 5  93171745.31205      1702.588 5        32.144    22753448.494 7  93171745.32907      1702.490 7        43.934
C05        44.000                                                                                                                                    39605983.450 6 206238688.20106      -482.777 6        36.972    39605986.471 7 159476833.62907      -373.175 7        43.471    39605986.725 6 167585909.87006      -392.407 6        40.310
R14        45.000    21557228.617 8 114912247.60808     -3419.792 8        49.050                                                                    21557233.639 7  89376269.52707     -2659.841 7        46.494
R16        46.000    21829350.128 8 116608589.61408      2769.993 8        48.543                                                                    21829354.949 7  90695663.54107      2154.442 7        44.837
R17        47.000    19809499.277 8 106004841.60008      1369.793 8        52.261                                                                    19809500.956 7  82448335.31907      1065.458 7        47.339
C35        48.000                                                                                                                                    22001274.037 8 114566550.39408      -481.213 8        50.865                                                                    22001274.965 8  93094766.69908      -391.078 8        49.333
C24        49.000                                                                                                                                    22307510.976 8 116161099.27408      1220.972 8        50.038                                                                    22307510.411 8  94390422.95708       992.063 8        50.253
C45        50.000                                                                                                                                    25941711.424 6 135085236.77506     -3550.495 6        40.443                                                                    25941710.304 7 109767790.05607     -2885.167 7        43.374
S48        51.000    77300584.476 6 406217845.82906      -529.600 6        37.524
C33        52.000                                                                                                                                    27254933.754 6 141923509.67206     -2939.604 6        37.853                                                                    27254957.547 6 115324541.65906     -2388.714 6        38.297
E33        53.000    28397652.985 5 149230825.67305     -2945.292 5        35.271                                                                    28397658.032 6 111438692.86706     -2199.510 6        40.257    28397656.998 6 114345776.08606     -2256.755 6        40.620
C60        54.000                                                                                                                                    40851004.602 6 212721982.49806      -423.563 6        39.189                                                                    40850995.200 6 172853979.66106      -344.298 6        40.672
C25        55.000                                                                                                                                    26700971.351 6 139038988.50106      2619.484 6        37.735                                                                    26700981.350 6 112980613.53306      2128.373 6        39.006
C26        56.000                                                                                                                                    22118255.256 8 115175653.96808     -1694.214 8        51.030                                                                    22118256.452 8  93589697.25108     -1376.742 8        49.220
C02        57.000                                                                                                                                    41048505.550 5 213750261.39505      -435.343 5        33.186    41048506.389 6 165285222.51006      -336.573 6        38.342    41048508.217 5 173689573.67905      -353.995 5        35.186
I03        58.000    88895327.298 5 273058943.21605      1019.630 5        34.410
R06        59.000    23126409.082 6 123406999.74506     -2231.761 6        36.215
R24        60.000    20950885.105 8 112033939.06108     -3039.870 8        49.519                                                                    20950887.977 7  87137576.04307     -2364.306 7        45.454
> 2025 01 02 14 15  5.0000000  0 56
E24         1.000    25455818.114 7 133771338.51107     -2330.292 7        44.426                                                                    25455821.087 8  99894247.81808     -1740.149 8        48.016    25455820.141 8 102500173.79008     -1785.469 8        48.514
E11         2.000    25705735.287 6 135084676.94306      2074.686 6        40.367                                                                    25705737.456 7 100875024.72107      1549.351 7        43.998    25705736.348 7 103506535.83907      1589.752 7        43.663
E03         3.000    26251548.570 7 137952792.51207     -2776.492 7        42.398                                                                    26251556.617 7 103016700.20307     -2073.392 7        45.368    26251555.304 7 105704094.25207     -2127.427 7        45.866
C41         4.000                                                                                                                                    26981324.458 6 140498825.07806     -1204.117 6        39.571                                                                    26981340.104 6 114166871.71606      -978.353 6        41.259
S21         5.000    38590695.357 7 202795062.15507      -509.153 7        43.001
E05         6.000    26989623.228 6 141831161.47506     -3588.163 6        36.665                                                                    26989643.548 6 105912787.97306     -2679.438 6        39.498    26989641.076 6 108675737.54306     -2749.321 6        40.379
G25         7.000    20003037.646 8 105116832.02008        29.917 8        49.792                                    20003038.599 8  81909301.49608        23.309 8        50.515    20003039.592 7  81909302.50607        23.313 7        44.907
C29         8.000                                                                                                                                    25166015.395 6 131046058.69106     -3399.318 6        41.995                                                                    25166017.737 7 106485671.32807     -2762.188 7        42.154
R05         9.000    24555465.823 6 131262938.89306     -4502.768 6        41.654                                                                    24555478.229 6 102093411.64206     -3502.357 6        36.733
G24        10.000    24372272.388 6 128077084.53806     -4363.437 6        39.862                                    24372278.276 5  99800322.24305     -3400.074 5        35.624    24372278.746 6  99800327.23506     -3400.124 6        39.042
G20        11.000    25645413.683 5 134767561.89905      2134.425 5        31.585
S27        12.000    39386241.758 6 206976096.32706      -517.406 6        36.238
E08        13.000    26567949.413 6 139615637.99206      -408.628 6        41.712                                                                    26567955.554 7 104258527.16707      -305.146 7        44.545    26567954.402 7 106978302.23507      -313.059 7        45.226
S36        14.000    38361962.629 7 201593895.13007      -509.562 7        44.775
G06        15.000    23833436.603 6 125245663.98506     -2725.497 6        41.235                                    23833441.453 6  97594095.23106     -2123.765 6        36.575    23833442.093 6  97594097.23906     -2123.771 6        39.300
G12        17.000    21191271.348 8 111361060.23408     -2412.455 8        48.294                                    21191269.781 8  86774935.46308     -1879.833 8        48.154    21191270.102 7  86774932.45607     -1879.758 7        44.676
G32        18.000    23532905.007 7 123666278.64207     -2301.580 7        43.994                                    23532910.514 6  96363381.41006     -1793.438 6        40.272    23532910.816 6  96363385.40706     -1793.347 6        40.517
E02        19.000    26202441.574 7 137694847.14307      1694.738 7        42.193                                                                    26202448.701 7 102824153.48707      1265.511 7        45.081    26202447.334 7 105506511.32307      1298.519 7        45.407
E10        21.000    25283918.429 7 132868060.90607       814.381 7        44.954                                                                    25283922.143 8  99219776.31308       608.130 8        48.756    25283921.336 8 101808104.85008       624.060 8        48.971
I06        22.000    38743164.080 6 152036609.05406      -465.511 6        41.497
S28        23.000    41066384.531 5 215805176.72605      -514.179 5        34.971
S23        25.000    38305957.354 7 201299040.50707      -514.114 7        45.249
S45        26.000    63561329.881 6 334018014.45006      -573.740 6        36.491
C07        27.000                                                                                                                                    41322923.435 5 215179248.71905     -1385.237 5        35.567    41322923.441 6 166390224.02606     -1071.171 6        39.486    41322920.963 5 174850736.72105     -1125.584 5        35.614
R18        28.000    22603550.429 7 120659446.43707      3938.560 7        46.314                                                                    22603557.640 7  93846354.98307      3063.184 7        43.278
C38        29.000                                                                                                                                    40610389.367 6 211468970.51506      1356.941 6        40.667                                                                    40610392.623 6 171835883.43806      1102.547 6        39.736
C44        30.000                                                                                                                                    23093686.180 8 120255038.18908      2173.214 8        48.521                                                                    23093687.970 7  97717140.10907      1765.895 7        47.297
E12        31.000    25821908.108 6 135695178.25006      -529.845 6        40.610                                                                    25821909.746 7 101330912.50107      -395.724 7        43.922    25821909.108 7 103974312.28107      -405.911 7        44.438
G11        32.000    22510345.207 7 118292824.49207      -377.948 7        45.514                                    22510344.968 5  92176317.25405      -294.504 5        34.329    22510345.684 7  92176308.24607      -294.454 7        44.364
I02        33.000    37461011.007 6 147005044.14506      -676.413 6        41.971
R15        34.000    19413689.016 8 103741003.01508      -243.744 8        52.140                                                                    19413691.272 7  80687514.61907      -189.626 7        47.368
R07        35.000    23673123.276 7 126724022.06807       925.897 7        44.009                                                                    23673129.658 6  98563117.08006       720.171 6        40.596
G29        36.000    21845552.980 7 114799395.90207      2044.510 7        47.794                                    21845552.836 7  89454170.45507      1593.120 7        46.849    21845552.992 7  89454180.46107      1593.122 7        43.139
G31        37.000    24739663.324 6 130007863.93706      3050.482 6        40.207                                    24739669.968 5 101304884.43105      2376.980 5        31.374    24739670.816 6 101304890.46206      2377.005 6        37.229
C10        38.000                                                                                                                                    40139079.454 6 209014682.31006     -1228.704 6        36.817    40139083.359 6 161623401.91106      -950.169 6        41.859    40139079.991 6 169841531.48306      -998.342 6        38.847
E25        39.000    23467208.149 8 123321195.55108      -141.184 8        48.146                                                                    23467211.481 8  92090624.44408      -105.462 8        50.914    23467210.874 8  94492973.83108      -108.142 8        51.641
C12        40.000                                                                                                                                    25319551.912 6 131845621.11206      2910.850 6        39.748    25319558.414 7 101951458.31207      2250.913 7        46.652    25319555.174 7 107135411.31607      2365.233 7        43.668
S44        42.000    40851407.725 6 214675679.71606      -427.714 6        37.100
G28        43.000    22751369.024 7 119559388.38107      2182.839 7        44.150                                    22751370.276 5  93163236.73505      1700.909 5        32.192    22751370.416 7  93163236.74807      1700.912 7        43.985
C05        44.000                                                                                                                                    39606447.345 6 206241101.93706      -482.711 6        37.013    39606450.164 7 159478700.13007      -373.232 7        43.517    39606450.253 6 167587871.28706      -392.430 6        40.324
R14        45.000    21560437.140 8 114929351.30308     -3421.635 8        48.569                                                                    21560442.158 7  89389572.39007     -2661.273 7        46.221
R16        46.000    21826756.984 8 116594742.03208      2769.117 8        48.378                                                                    21826763.087 7  90684893.23507      2153.731 7        45.148
R17        47.000    19808221.604 8 105998003.54808      1365.540 8        52.034                                                                    19808223.564 7  82443016.84707      1062.119 7        47.013
C35        48.000                                                                                                                                    22001737.221 8 114568963.17008      -483.993 8        50.858                                                                    22001738.323 8  93096727.29108      -393.267 8        49.292
C24        49.000                                                                                                                                    22306339.388 8 116154998.63708      1219.292 8        50.048                                                                    22306338.856 8  94385465.70808       990.773 8        50.223
C45        50.000                                                                                                                                    25945120.996 6 135102991.26006     -3551.222 6        40.403                                                                    25945119.921 7 109782217.02307     -2885.713 7        43.683
S48        51.000    77301075.912 6 406220493.95506      -529.708 6        37.913
C33        52.000                                                                                                                                    27257757.357 6 141938210.80106     -2941.005 6        37.395                                                                    27257781.044 6 115336487.52006     -2389.575 6        38.201
E33        53.000    28400456.116 5 149245556.90305     -2947.079 5        35.067                                                                    28400461.223 6 111449693.50506     -2200.760 6        40.205    28400460.187 6 114357063.69806     -2257.992 6        40.586
C60        54.000                                                                                                                                    40851411.488 6 212724100.98206      -423.796 6        38.946                                                                    40851402.050 6 172855701.11606      -344.240 6        40.646
C25        55.000                                                                                                                                    26698455.904 6 139025891.56806      2619.174 6        39.396                                                                    26698466.407 6 112969971.17706      2128.483 6        39.033
C26        56.000                                                                                                                                    22119883.061 8 115184130.55408     -1696.375 8        51.060                                                                    22119884.244 8  93596585.18208     -1378.427 8        49.222
C02        57.000                                                                                                                                    41048923.316 5 213752439.06005      -435.782 5        33.126    41048924.620 6 165286906.41706      -336.703 6        38.339    41048926.417 5 173691343.21505      -353.836 5        34.929
I03        58.000    88894028.288 5 273053844.73605      1019.658 5        34.752
R06        59.000    23128502.769 5 123418168.95005     -2235.643 5        35.905
R24        60.000    20953729.273 8 112049147.72408     -3043.437 8        49.081                                                                    20953732.453 7  87149405.00407     -2367.159 7        45.732
> 2025 01 02 14 15 10.0000000  0 56
E24         1.000    25458035.701 7 133782991.04107     -2330.687 7        44.539                                                                    25458038.504 8  99902949.37708     -1740.459 8        48.069    25458037.509 8 102509102.35608     -1785.865 8        48.342
E11         2.000    25703761.709 6 135074306.13506      2073.720 6        40.653                                                                    25703763.886 7 100867280.31407      1548.414 7        44.047    25703762.948 7 103498589.39607      1588.844 7        43.568
E03         3.000    26254190.725 7 137966678.32007     -2777.775 7        42.391                                                                    26254198.820 7 103027069.45207     -2074.277 7        45.284    26254197.735 7 105714734.01007     -2128.361 7        45.804
C41         4.000                                                                                                                                    26982480.936 6 140504850.47106     -1206.138 6        39.339                                                                    26982497.137 6 114171767.85306      -980.124 6        41.478
S21         5.000    38591179.414 7 202797607.53007      -508.846 7        43.046
E05         6.000    26993036.998 6 141849100.49506     -3587.394 6        36.503                                                                    26993057.328 6 105926183.89606     -2678.999 6        39.580    26993054.882 6 108689482.93706     -2748.827 6        40.203
G25         7.000    20003009.852 8 105116687.55608        27.996 8        49.773                                    20003011.098 8  81909188.93508        21.813 8        50.228    20003012.042 7  81909189.93307        21.867 7        44.930
C29         8.000                                                                                                                                    25169279.799 6 131063057.55106     -3400.178 6        41.657                                                                    25169282.327 7 106499484.29607     -2762.930 7        42.595
R05         9.000    24559677.388 6 131285452.82406     -4502.585 6        41.285                                                                    24559690.151 6 102110922.42406     -3502.088 6        36.975
G24        10.000    24376424.700 6 128098901.60706     -4363.526 6        40.219                                    24376430.004 5  99817322.52405     -3400.147 5        35.695    24376430.463 6  99817327.51306     -3399.902 6        39.405
G20        11.000    25643382.897 5 134756890.57205      2134.342 5        32.186
S27        12.000    39386734.767 6 206978683.49806      -517.276 6        36.340
E08        13.000    26568339.125 6 139617686.98306      -410.846 6        41.564                                                                    26568345.493 7 104260057.25507      -306.733 7        44.486    26568344.365 7 106979872.25307      -314.870 7        45.199
S36        14.000    38362447.903 7 201596441.64107      -509.095 7        44.829
G06        15.000    23836030.697 6 125259297.18806     -2727.784 6        41.642                                    23836035.536 6  97604718.50706     -2125.546 6        36.510    23836036.177 6  97604720.49706     -2125.663 6        39.739
G12        17.000    21193567.493 8 111373126.16908     -2413.788 8        48.508                                    21193565.861 7  86784337.49207     -1880.874 7        47.915    21193566.381 7  86784334.50307     -1880.947 7        44.641
G32        18.000    23535096.334 7 123677792.11307     -2303.740 7        43.928                                    23535101.434 6  96372352.93206     -1795.118 6        39.976    23535102.575 6  96372356.92806     -1795.107 6        40.963
E02        19.000    26200829.559 7 137686374.08407      1694.612 7        42.042                                                                    26200836.384 7 102817826.24007      1265.378 7        45.029    26200834.928 7 105500019.01107      1298.440 7        45.210
E10        21.000    25283144.400 7 132863994.06007       812.405 7        45.023                                                                    25283148.163 8  99216739.39708       606.642 8        48.735    25283147.422 8 101804988.71008       622.480 8        48.867
I06        22.000    38743757.300 6 152038936.50006      -465.380 6        41.435
S28        23.000    41066871.499 5 215807746.98405      -513.967 5        34.657
S23        25.000    38306445.753 7 201301610.78807      -513.894 7        45.368
S45        26.000    63561819.783 6 334020882.86206      -573.459 6        36.389
C07        27.000                                                                                                                                    41324253.724 5 215186174.36905     -1384.728 5        35.457    41324253.735 6 166395579.40706     -1070.986 6        39.444    41324250.746 5 174856364.39405     -1125.255 5        35.762
R18        28.000    22599861.373 7 120639756.56407      3937.509 7        45.719                                                                    22599869.388 7  93831040.69607      3062.498 7        42.764
C38        29.000                                                                                                                                    40609086.268 6 211462186.40206      1356.736 6        40.389                                                                    40609089.996 6 171830370.78806      1102.544 6        40.133
C44        30.000                                                                                                                                    23091600.136 8 120244175.58408      2171.853 8        48.532                                                                    23091601.883 7  97708313.37207      1764.763 7        47.408
E12        31.000    25822413.164 6 135697833.36306      -532.087 6        40.682                                                                    25822414.989 7 101332895.23307      -397.478 7        43.907    25822414.345 7 103976346.73707      -407.795 7        44.346
G11        32.000    22510706.284 7 118294722.05207      -380.973 7        45.688                                    22510706.065 5  92177795.87905      -296.858 5        34.109    22510706.430 7  92177786.88307      -296.854 7        44.301
I02        33.000    37461872.963 7 147008426.38907      -676.456 7        42.110
R15        34.000    19413918.114 8 103742228.01208      -246.204 8        51.922                                                                    19413920.724 7  80688467.39907      -191.442 7        47.515
R07        35.000    23672258.835 7 126719401.82607       922.246 7        43.062                                                                    23672266.321 6  98559523.61806       717.363 6        40.942
G29        36.000    21843608.576 7 114789177.56007      2042.855 7        47.682                                    21843608.333 7  89446208.12707      1591.832 7        46.579    21843608.668 7  89446218.13107      1591.844 7        42.935
G31        37.000    24736760.830 6 129992612.94906      3050.049 6        40.048                                    24736767.782 5 101293000.62605      2376.649 5        31.313    24736768.874 6 101293006.65506      2376.588 6        37.066
C10        38.000                                                                                                                                    40140259.242 6 209020824.66106     -1228.177 6        37.013    40140262.749 6 161628151.58206      -949.685 6        41.726    40140259.417 6 169846522.67006      -998.100 6        38.832
E25        39.000    23467342.839 8 123321903.51208      -141.906 8        48.167                                                                    23467346.141 8  92091153.12208      -105.988 8        50.939    23467345.594 8  94493516.29608      -108.769 8        51.510
C12        40.000                                                                                                                                    25316759.130 6 131831067.89306      2910.438 6        40.729    25316763.858 7 101940204.87207      2250.502 7        46.799    25316760.540 7 107123585.65307      2364.969 7        44.009
S44        42.000    40851815.917 6 214677817.04206      -427.118 6        37.263
G28        43.000    22749293.166 7 119548478.43507      2181.177 7        44.439                                    22749294.160 5  93154735.50405      1699.616 5        32.030    22749294.511 7  93154735.51307      1699.584 7        43.863
C05        44.000                                                                                                                                    39606910.167 6 206243515.03006      -482.576 6        37.028    39606913.496 7 159480566.10807      -372.999 7        43.458    39606913.648 6 167589832.12006      -392.044 6        40.372
R14        45.000    21563646.663 7 114946463.41707     -3423.162 7        47.723                                                                    21563652.153 7  89402881.79607     -2662.411 7        46.348
R16        46.000    21824165.894 8 116580897.99108      2768.567 8        48.637                                                                    21824171.156 7  90674125.67607      2153.360 7        45.416
R17        47.000    19806947.151 8 105991185.81608      1361.585 8        52.162                                                                    19806949.326 7  82437714.18507      1059.039 7        47.352
C35        48.000                                                                                                                                    22002202.990 8 114571389.01308      -486.346 8        50.811                                                                    22002204.188 8  93098698.48408      -395.171 8        49.434
C24        49.000                                                                                                                                    22305168.947 8 116148905.17008      1218.117 8        49.831                                                                    22305168.611 8  94380514.27808       989.810 8        50.424
C45        50.000                                                                                                                                    25948530.919 6 135120748.25106     -3551.556 6        40.486                                                                    25948530.019 7 109796646.01907     -2885.852 7        43.900
S48        51.000    77301561.110 6 406223141.17106      -529.103 6        38.012
C33        52.000                                                                                                                                    27260581.236 6 141952916.72706     -2941.392 6        36.684                                                                    27260605.254 6 115348437.29606     -2390.415 6        38.162
E33        53.000    28403260.649 5 149260294.76405     -2947.986 5        34.967                                                                    28403265.732 6 111460699.11606     -2201.487 6        40.269    28403264.784 6 114368356.42106     -2259.118 6        40.508
C60        54.000                                                                                                                                    40851818.343 6 212726218.89006      -423.380 6        39.048                                                                    40851808.637 6 172857422.10306      -343.840 6        40.779
C25        55.000                                                                                                                                    26695941.710 6 139012793.76406      2619.677 6        38.940                                                                    26695951.159 6 112959328.17006      2128.781 6        39.300
C26        56.000                                                                                                                                    22121512.630 8 115192616.54008     -1698.069 8        50.957                                                                    22121513.912 8  93603480.73408     -1379.761 8        49.394
C02        57.000                                                                                                                                    41049341.847 5 213754616.08005      -435.349 5        33.054    41049342.797 6 165288589.86206      -336.465 6        38.273    41049344.393 5 173693112.27005      -353.692 5        35.305
I03        58.000    88892728.531 5 273048745.63805      1019.945 5        34.543
R06        59.000    23130598.566 5 123429356.18105     -2239.076 5        35.600
R24        60.000    20956576.489 8 112064373.26008     -3046.611 8        49.572                                                                    20956579.534 7  87161247.08607     -2369.655 7        46.000
> 2025 01 02 14 15 15.0000000  0 56
E24         1.000    25460253.616 7 133794647.11207     -2331.242 7        44.757                                                                    25460256.591 7  99911653.58807     -1740.892 7        47.925    25460255.590 8 102518033.63008     -1786.307 8        48.437
E11         2.000    25701789.566 6 135063942.60206      2072.197 6        40.782                                                                    25701791.775 7 100859541.32007      1547.476 7        43.829    25701790.775 7 103490648.51607      1587.776 7        43.704
E03         3.000    26256834.504 7 137980571.49707     -2779.111 7        42.330                                                                    26256842.750 7 103037444.21807     -2075.391 7        45.144    26256841.444 7 105725379.42007     -2129.468 7        45.800
C41         4.000                                                                                                                                    26983640.863 6 140510888.53206     -1208.470 6        39.357                                                                    26983656.751 6 114176674.26706      -982.152 6        41.468
S21         5.000    38591664.236 7 202800152.77507      -508.846 7        42.982
E05         6.000    26996450.105 6 141867037.42706     -3586.811 6        36.767                                                                    26996470.545 6 105939578.25106     -2678.545 6        39.676    26996468.264 6 108703226.71706     -2748.494 6        40.605
G25         7.000    20002984.707 8 105116554.35708        25.703 8        49.999                                    20002985.753 8  81909085.14708        20.030 8        50.366    20002986.533 7  81909086.15007        20.060 7        44.787
C29         8.000                                                                                                                                    25172544.964 7 131080062.00107     -3401.262 7        42.146                                                                    25172548.046 7 106513301.79307     -2763.838 7        42.770
R05         9.000    24563888.995 6 131307967.35506     -4502.647 6        40.534                                                                    24563901.515 6 102128433.71806     -3502.179 6        36.503
G24        10.000    24380576.454 6 128120721.02106     -4363.816 6        40.906                                    24380582.218 6  99834324.63806     -3400.373 6        36.253    24380582.606 6  99834329.64006     -3400.411 6        39.517
G20        11.000    25641352.380 5 134746222.36205      2133.490 5        31.215
S27        12.000    39387225.345 6 206981270.67406      -516.949 6        36.318
E08        13.000    26568731.604 6 139619748.29306      -413.220 6        41.921                                                                    26568737.744 7 104261596.56907      -308.647 7        44.342    26568736.616 7 106981451.71507      -316.709 7        45.100
S36        14.000    38362932.287 7 201598987.92607      -508.966 7        44.736
G06        15.000    23838627.553 6 125272943.67306     -2730.533 6        41.371                                    23838632.283 6  97615352.12406     -2127.689 6        36.839    23838633.293 6  97615354.12006     -2127.557 6        39.360
G12        17.000    21195865.070 8 111385200.75308     -2415.550 8        48.232                                    21195863.578 8  86793746.26008     -1882.246 8        48.047    21195864.175 7  86793743.26107     -1882.252 7        44.655
G32        18.000    23537289.598 7 123689317.79407     -2306.083 7        43.477                                    23537294.721 6  96381333.96806     -1796.943 6        40.014    23537295.197 6  96381337.96606     -1796.900 6        40.679
E02        19.000    26199217.880 7 137677902.86007      1694.241 7        42.284                                                                    26199224.368 7 102811500.36707      1265.261 7        44.919    26199222.925 7 105493528.11807      1298.219 7        45.293
E10        21.000    25282372.731 7 132859938.86407       810.121 7        45.389                                                                    25282376.504 8  99213711.16808       604.917 8        48.640    25282375.797 8 101801881.48608       620.770 8        49.006
I06        22.000    38744350.039 6 152041263.75506      -465.266 6        41.640
S28        23.000    41067365.104 5 215810317.35605      -513.724 5        34.948
S23        25.000    38306935.879 7 201304181.11607      -513.759 7        45.306
S45        26.000    63562309.448 6 334023751.19306      -573.242 6        36.359
C07        27.000                                                                                                                                    41325583.538 5 215193099.43905     -1384.523 5        35.395    41325583.771 6 166400934.33106     -1070.802 6        39.498    41325580.797 5 174861991.61305     -1125.207 5        35.729
R18        28.000    22596173.379 7 120620073.08207      3936.351 7        45.530                                                                    22596181.353 7  93815731.38507      3061.580 7        42.718
C38        29.000                                                                                                                                    40607784.052 6 211455405.44406      1356.067 6        40.443                                                                    40607787.736 6 171824860.70706      1101.959 6        39.991
C44        30.000                                                                                                                                    23089515.659 8 120233321.44208      2170.178 8        48.825                                                                    23089517.469 7  97699493.51107      1763.432 7        47.233
E12        31.000    25822921.368 6 135700501.34906      -534.683 6        41.173                                                                    25822922.770 7 101334887.54907      -399.246 7        43.790    25822922.089 7 103978391.03807      -409.721 7        44.450
G11        32.000    22511070.431 7 118296636.34107      -384.355 7        46.133                                    22511070.364 5  92179287.53705      -299.495 5        34.333    22511070.835 7  92179278.54107      -299.448 7        44.376
I02        33.000    37462734.819 7 147011809.10407      -676.365 7        42.078
R15        34.000    19414149.625 8 103743466.40708      -248.768 8        51.713                                                                    19414152.053 7  80689430.59707      -193.539 7        47.096
R07        35.000    23671400.074 7 126714801.57807       918.352 7        44.138                                                                    23671407.257 6  98555945.68706       714.216 6        41.461
G29        36.000    21841666.247 7 114778969.28807      2040.900 7        47.611                                    21841665.740 7  89438253.64407      1590.308 7        46.738    21841666.130 7  89438263.64707      1590.376 7        42.737
G31        37.000    24733859.118 6 129977366.17806      3049.276 6        40.112                                    24733866.289 5 101281120.11205      2376.047 5        31.162    24733867.372 6 101281126.15906      2375.748 6        37.085
C10        38.000                                                                                                                                    40141439.375 6 209026966.78306     -1228.035 6        37.270    40141442.089 6 161632901.05406      -949.597 6        41.447    40141439.098 6 169851513.64806      -997.959 6        38.868
E25        39.000    23467478.397 8 123322616.75208      -142.898 8        48.449                                                                    23467481.895 8  92091685.73808      -106.711 8        50.810    23467481.309 8  94494062.81608      -109.542 8        51.607
C12        40.000                                                                                                                                    25313965.996 6 131816518.23006      2909.719 6        41.032    25313969.705 7 101928954.17307      2250.052 7        46.611    25313966.408 7 107111762.87507      2364.478 7        43.788
S44        42.000    40852223.447 6 214679954.34806      -427.306 6        37.516
G28        43.000    22747218.735 7 119537578.42907      2179.229 7        44.302                                    22747219.922 5  93146242.01005      1698.097 5        32.126    22747220.406 7  93146242.02307      1698.072 7        43.769
C05        44.000                                                                                                                                    39607373.924 6 206245927.93506      -482.353 6        36.692    39607376.582 7 159482431.97107      -372.893 7        43.329    39607376.939 6 167591792.84506      -391.946 6        40.246
R14        45.000    21566858.821 8 114963584.53908     -3424.876 8        48.793                                                                    21566864.033 7  89416198.21607     -2663.763 7        45.878
R16        46.000    21821575.462 8 116567057.78708      2767.896 8        49.039                                                                    21821580.545 7  90663361.10807      2152.782 7        45.658
R17        47.000    19805676.818 8 105984388.90208      1357.520 8        51.899                                                                    19805678.965 7  82432427.70507      1055.827 7        46.863
C35        48.000                                                                                                                                    22002671.451 8 114573828.42308      -488.953 8        50.567                                                                    22002672.678 8  93100680.70708      -397.350 8        49.258
C24        49.000                                                                                                                                    22304000.075 8 116142819.38308      1216.634 8        49.769                                                                    22303999.943 8  94375569.07508       988.607 8        50.217
C45        50.000                                                                                                                                    25951941.822 6 135138508.22606     -3552.055 6        40.658                                                                    25951940.824 7 109811077.43907     -2886.264 7        44.001
S48        51.000    77302052.671 6 406225788.21606      -529.118 6        38.054
C33        52.000                                                                                                                                    27263406.754 5 141967627.99405     -2942.550 5        35.848                                                                    27263430.209 6 115360391.35606     -2391.141 6        38.300
E33        53.000    28406066.384 5 149275039.84305     -2949.590 5        35.157                                                                    28406071.643 6 111471710.09206     -2202.479 6        40.083    28406070.587 6 114379654.62106     -2260.014 6        40.682
C60        54.000                                                                                                                                    40852224.586 6 212728336.73506      -423.270 6        39.057                                                                    40852215.376 6 172859143.03406      -344.044 6        40.760
C25        55.000                                                                                                                                    26693426.650 6 138999695.57506      2620.230 6        36.684                                                                    26693435.777 6 112948684.89806      2128.703 6        39.580
C26        56.000                                                                                                                                    22123144.101 8 115201112.41308     -1699.904 8        51.057                                                                    22123145.482 8  93610384.33008     -1381.317 8        49.180
C02        57.000                                                                                                                                    41049759.492 5 213756792.96105      -434.956 5        33.234    41049760.759 6 165290273.16706      -336.368 6        38.006    41049762.619 5 173694881.14705      -353.726 5        34.886
I03        58.000    88891429.126 5 273043646.31305      1020.060 5        34.519
R06        59.000    23132698.885 5 123440561.93705     -2242.730 5        35.905
R24        60.000    20959427.386 8 112079616.12308     -3050.015 8        49.481                                                                    20959430.146 7  87173102.63407     -2372.300 7        45.533
> 2025 01 02 14 15 20.0000000  0 56
E24         1.000    25462472.217 7 133806307.08507     -2332.381 7        44.745                                                                    25462475.358 7  99920360.71307     -1741.782 7        47.989    25462474.322 8 102526967.89908     -1787.160 8        48.426
E11         2.000    25699818.787 6 135053586.69206      2070.405 6        40.734                                                                    25699821.009 7 100851808.03007      1546.064 7        43.994    25699820.151 7 103482713.48907      1586.297 7        43.846
E03         3.000    26259479.727 7 137994472.43607     -2780.989 7        42.506                                                                    26259488.063 7 103047824.77407     -2076.802 7        45.290    26259486.775 7 105736030.78207     -2130.971 7        45.830
C41         4.000                                                                                                                                    26984803.883 6 140516939.67406     -1211.596 6        39.817                                                                    26984818.937 6 114181591.31306      -984.382 6        41.526
S21         5.000    38592149.179 7 202802698.33207      -509.227 7        43.001
E05         6.000    26999863.088 6 141884972.61206     -3586.826 6        36.665                                                                    26999883.768 6 105952971.31306     -2678.575 6        39.598    26999881.327 6 108716969.16906     -2748.343 6        40.503
G25         7.000    20002961.895 8 105116432.77408        23.058 8        49.929                                    20002962.608 8  81908990.41408        17.963 8        50.269    20002963.197 7  81908991.41107        17.990 7        44.581
C29         8.000                                                                                                                                    25175812.263 7 131097072.40107     -3402.743 7        42.772                                                                    25175814.749 7 106527124.13707     -2765.000 7        42.789
R05         9.000    24568101.067 6 131330482.81006     -4503.253 6        40.524                                                                    24568113.801 5 102145945.70305     -3502.626 5        35.424
G24        10.000    24384728.797 6 128142543.20006     -4364.707 6        40.517                                    24384734.920 6  99851328.90906     -3401.070 6        36.374    24384735.134 6  99851333.89806     -3401.037 6        39.258
G20        11.000    25639323.698 5 134735557.52505      2132.391 5        30.958
