     3.04           OBSERVATION DATA    M                   RINEX VERSION / TYPE
ssrcrin-15.6.1x                         20250102 084500 UTC PGM / RUN BY / DATE 
(00000000023479385599111004) Septentrio proprietary         COMMENT             
rref                                                        MARKER NAME         
01                                                          MARKER NUMBER       
geodetic                                                    MARKER TYPE         
NFB                 CLIMERS@TUW                             OBSERVER / AGENCY   
3297213             SEPT ASTERX SB3 PROB4.14.4              REC # / TYPE / VERS 
Unknown             Unknown                                 ANT # / TYPE        
  4127832.4990  1207193.3054  4695247.8781                  APPROX POSITION XYZ 
        0.0000        0.0000        0.0000                  ANTENNA: DELTA H/E/N
G   23 X1  C1C L1C D1C S1C C1W S1W C2W L2W D2W S2W C2L L2L  SYS / # / OBS TYPES 
       D2L S2L C5Q L5Q D5Q S5Q C1L L1L D1L S1L              SYS / # / OBS TYPES 
E   21 X1  C1C L1C D1C S1C C6C L6C D6C S6C C5Q L5Q D5Q S5Q  SYS / # / OBS TYPES 
       C7Q L7Q D7Q S7Q C8Q L8Q D8Q S8Q                      SYS / # / OBS TYPES 
S    9 X1  C1C L1C D1C S1C C5I L5I D5I S5I                  SYS / # / OBS TYPES 
R   17 X1  C1C L1C D1C S1C C2P L2P D2P S2P C2C L2C D2C S2C  SYS / # / OBS TYPES 
       C3Q L3Q D3Q S3Q                                      SYS / # / OBS TYPES 
C   25 X1  C1P L1P D1P S1P C5P L5P D5P S5P C2I L2I D2I S2I  SYS / # / OBS TYPES 
       C7I L7I D7I S7I C6I L6I D6I S6I C7D L7D D7D S7D      SYS / # / OBS TYPES 
J   17 X1  C1C L1C D1C S1C C2L L2L D2L S2L C5Q L5Q D5Q S5Q  SYS / # / OBS TYPES 
       C1L L1L D1L S1L                                      SYS / # / OBS TYPES 
I    5 X1  C5A L5A D5A S5A                                  SYS / # / OBS TYPES 
SEPTENTRIO RECEIVERS OUTPUT ALIGNED CARRIER PHASES.         COMMENT             
NO FURTHER PHASE SHIFT APPLIED IN THE RINEX ENCODER.        COMMENT             
G L1C                                                       SYS / PHASE SHIFT   
G L2W                                                       SYS / PHASE SHIFT   
G L2L  0.00000                                              SYS / PHASE SHIFT   
G L5Q  0.00000                                              SYS / PHASE SHIFT   
G L1L  0.00000                                              SYS / PHASE SHIFT   
E L1C  0.00000                                              SYS / PHASE SHIFT   
E L6C  0.00000                                              SYS / PHASE SHIFT   
E L5Q  0.00000                                              SYS / PHASE SHIFT   
E L7Q  0.00000                                              SYS / PHASE SHIFT   
E L8Q  0.00000                                              SYS / PHASE SHIFT   
S L1C                                                       SYS / PHASE SHIFT   
S L5I                                                       SYS / PHASE SHIFT   
R L1C                                                       SYS / PHASE SHIFT   
R L2P  0.00000                                              SYS / PHASE SHIFT   
R L2C                                                       SYS / PHASE SHIFT   
R L3Q  0.00000                                              SYS / PHASE SHIFT   
C L1P  0.00000                                              SYS / PHASE SHIFT   
C L5P  0.00000                                              SYS / PHASE SHIFT   
C L2I                                                       SYS / PHASE SHIFT   
C L7I                                                       SYS / PHASE SHIFT   
C L6I                                                       SYS / PHASE SHIFT   
C L7D                                                       SYS / PHASE SHIFT   
J L1C                                                       SYS / PHASE SHIFT   
J L2L  0.00000                                              SYS / PHASE SHIFT   
J L5Q  0.00000                                              SYS / PHASE SHIFT   
J L1L  0.00000                                              SYS / PHASE SHIFT   
I L5A                                                       SYS / PHASE SHIFT   
  2025     1     2     8    45    0.0000000     GPS         TIME OF FIRST OBS   
 C1C    0.000 C2C    0.000 C2P    0.000                     GLONASS COD/PHS/BIS 
DBHZ                                                        SIGNAL STRENGTH UNIT
    18                                                      LEAP SECONDS        
 24 R01  1 R02 -4 R03  5 R04  6 R05  1 R06 -4 R07  5 R08  6 GLONASS SLOT / FRQ #
    R09 -2 R10 -7 R11  0 R12 -1 R13 -2 R14 -7 R15  0 R16 -1 GLONASS SLOT / FRQ #
    R17  4 R18 -3 R19  3 R20  2 R21  4 R22 -3 R23  3 R24  2 GLONASS SLOT / FRQ #
                                                            END OF HEADER       
> 2025 01 02 08 45  0.0000000  0 53
E24         1.000    26964824.300 6 141701167.76306      2531.359 6        41.707                                                                    26964831.600 7 105815857.66307      1890.379 7        43.591    26964830.638 7 108576262.28307      1939.597 7        44.877
G15         2.000    21006611.780 7 110390443.63407      1713.959 7        47.175                                    21006610.279 7  86018503.93307      1335.550 7        46.268    21006610.346 7  86018498.93607      1335.544 7        43.829
E15         3.000    28449195.903 6 149501505.78606      -336.725 6        36.975                                                                    28449200.995 6 111640728.81306      -251.386 6        40.532    28449200.095 6 114553092.53806      -257.981 6        41.185
G08         4.000    25139688.801 5 132109948.97405     -2878.273 5        34.762                                    25139695.360 4 102942834.11204     -2242.812 4        25.353    25139695.515 5 102942830.10805     -2242.925 5        35.190
S21         5.000    38474679.878 7 202185444.70607      -517.056 7        42.072
E05         6.000    24617631.783 7 129366486.64407      1929.397 7        42.154                                                                    24617635.636 7  96604817.59907      1440.880 7        45.071    24617634.801 7  99124942.85507      1478.503 7        45.914
G20         7.000    24442647.795 6 128446819.29806     -4131.806 6        38.324                                    24442652.412 3 100088369.57403     -3219.581 3        19.045
R02         8.000    19343871.075 8 103222559.27308     -1781.710 8        52.122                                                                    19343873.179 7  80284202.19607     -1385.762 7        47.167
R20         9.000    23711438.259 5 126795744.68005      -415.459 5        32.329                                                                    23711445.698 6  98618933.47106      -323.124 6        39.162
G24        10.000    24257557.483 6 127474283.79906      2933.682 6        38.937                                    24257562.344 5  99330613.68105      2285.989 5        30.475    24257562.774 5  99330618.68005      2285.931 5        34.190
G30        11.000    22115575.517 7 116218081.25907     -2852.286 7        45.707                                    22115577.307 7  90559520.27607     -2222.558 7        44.298    22115577.224 6  90559528.26306     -2222.519 6        41.738
S27        12.000    39174264.374 5 205862067.48605      -549.175 5        35.048
G13        13.000    19874385.171 8 104440562.11808      -300.801 8        48.598                                    19874382.284 6  81382225.47406      -234.393 6        40.548
S36        14.000    38244002.952 7 200974063.26807      -517.997 7        44.176
I09        15.000    40145293.910 6 157538512.31806     -1051.297 6        40.715
E09        16.000    23479099.707 8 123383483.47708      -228.526 8        48.856                                                                    23479101.674 8  92137004.52208      -170.621 8        50.478    23479101.148 8  94540576.13008      -175.086 8        51.270
S45        17.000    63425539.350 6 333303687.68006      -564.874 6        36.348
R21        18.000    24270822.119 6 129878103.55806      2248.675 6        40.822                                                                    24270831.017 6 101016349.36406      1748.989 6        37.879
R03        21.000    20534598.590 8 109923273.54108      2357.983 8        50.473                                                                    20534599.144 7  85495869.12707      1833.960 7        46.310
I06        22.000    38115085.481 7 149571910.26607      -465.663 7        43.234
S28        23.000    40915674.985 5 215013180.54605      -526.321 5        35.024
S23        25.000    38176580.283 7 200619219.92007      -517.450 7        44.156
R01        26.000    22438420.986 6 119946076.45306     -4692.729 6        41.628                                                                    22438428.835 6  93291348.09906     -3649.854 6        37.955
C07        27.000                                                                                                                                    38930278.689 6 202720146.69306      -126.478 6        40.443    38930276.499 7 156756063.46907       -97.717 7        44.114    38930274.492 6 164726701.78006      -102.747 6        41.395
C40        29.000                                                                                                                                    38928292.393 7 202709821.65107      -108.267 7        42.713                                                                    38928293.601 7 164718336.56307       -87.927 7        42.743
G17        30.000    23906223.091 7 125628101.45707      2331.439 7        42.095                                    23906228.005 5  97892068.59405      1816.684 5        35.724    23906228.031 6  97892065.63706      1816.578 6        38.465
G14        31.000    20565437.090 8 108072099.06908      -893.868 8        48.023                                    20565435.923 6  84212023.93506      -696.515 6        39.940    20565435.825 8  84212009.92908      -696.493 8        48.102
G23        32.000    24359599.595 6 128010508.21006      2206.289 6        40.527                                    24359599.574 4  99748422.93504      1719.194 4        24.195    24359599.674 6  99748417.92406      1719.298 6        41.039
I02        33.000    37499091.788 7 147154486.78407        86.747 7        42.910
E04        34.000    24951916.686 7 131123173.60007     -2592.200 7        44.795                                                                    24951919.378 8  97916646.68708     -1935.746 8        48.662    24951918.545 8 100470991.82808     -1986.219 8        49.168
R13        35.000    20191363.055 7 107820778.53307      1873.820 7        46.818
R12        36.000    19299897.440 8 103096567.98608     -1641.376 8        52.004                                                                    19299899.066 7  80186219.50907     -1276.660 7        47.625
I01        37.000   393934676.811 5 242743152.49005     -3174.341 5        31.087
C10        38.000                                                                                                                                    38898463.587 6 202554500.00606       238.099 6        40.787    38898464.648 7 156627987.63807       184.186 7        44.245    38898461.718 6 164592111.02106       193.649 6        41.147
C19        39.000                                                                                                                                    25100706.921 7 130705830.87707     -3871.948 7        43.458                                                                    25100709.667 7 106209142.33307     -3146.286 7        45.481
E34        40.000    28294061.766 6 148686234.99406     -2414.331 6        37.297                                                                    28294066.599 6 111031909.41806     -1802.927 6        38.294    28294066.016 6 113928395.92906     -1849.856 6        39.730
G05        41.000    22493424.751 7 118203673.48707     -3412.491 7        45.368                                    22493425.271 7  92106719.57307     -2659.078 7        42.732    22493425.303 6  92106728.55606     -2658.984 6        41.642
S44        42.000    40923389.379 6 215053870.37306      -516.210 6        37.527
C36        43.000                                                                                                                                    21513004.199 8 112023832.83108      -927.524 8        50.734                                                                    21513010.618 8  91028554.74508      -753.690 8        49.359
C05        44.000                                                                                                                                    39398781.183 6 205159720.07906      -571.674 6        38.198    39398783.550 7 158642505.62507      -442.110 7        43.153    39398783.930 6 166709158.71206      -464.639 6        39.991
G18        46.000    25798308.989 5 135570981.49905     -2552.089 5        34.905                                    25798308.219 2 105639700.32502     -1988.618 2        13.818    25798307.736 5 105639690.32105     -1988.369 5        34.514
R11        47.000    23094332.418 7 123408988.30207     -4483.761 7        44.239                                                                    23094336.894 6  95984746.07006     -3487.398 6        41.642
C45        50.000                                                                                                                                    23163648.658 7 120619208.91907      1750.091 7        47.888                                                                    23163643.799 8  98012973.00208      1422.074 8        48.233
S48        51.000    77189053.731 6 405629939.20306      -506.083 6        37.856
E06        52.000    23542993.419 8 123719245.32208     -1507.665 8        48.912                                                                    23542996.298 8  92387746.26608     -1125.826 8        50.568    23542995.835 8  94797860.81208     -1155.214 8        51.328
C09        53.000                                                                                                                                    41040418.556 5 213708078.10905     -1132.918 5        35.262    41040425.837 6 165252588.39506      -875.988 6        40.777    41040421.219 5 173655262.93805      -920.647 5        35.576
C60        54.000                                                                                                                                    40923389.301 6 213098853.05406      -511.778 6        40.429                                                                    40923380.874 6 173160207.31106      -415.929 6        38.252
E31        55.000    23697257.826 8 124529931.66208       623.750 8        48.965                                                                    23697261.131 8  92993162.36208       465.834 8        50.267    23697260.340 8  95419067.12608       477.959 8        50.812
G07        56.000    25000147.034 6 131376503.83206     -3360.030 6        38.535                                    25000152.764 4 102371241.34304     -2618.205 4        28.986    25000153.309 5 102371250.35405     -2618.138 5        35.376
C02        57.000                                                                                                                                    40976197.326 5 213373665.14205      -560.225 5        32.892    40976202.385 6 164993996.89906      -432.956 6        36.798    40976202.810 5 173383544.30705      -454.832 5        31.970
I03        58.000    95404207.689 6 298601108.18006       848.669 6        40.014
C21        59.000                                                                                                                                    23718715.226 7 123509525.46507      1543.256 7        47.386                                                                    23718711.826 7 100361572.80407      1253.962 7        47.348
C22        60.000                                                                                                                                    21925563.119 8 114172108.63808     -1625.808 8        51.475                                                                    21925558.758 8  92774155.76308     -1321.077 8        49.633
> 2025 01 02 08 45  5.0000000  0 53
E24         1.000    26962416.572 7 141688513.14007      2530.672 7        42.074                                                                    26962423.505 7 105806407.78507      1889.789 7        43.479    26962422.644 7 108566565.88607      1939.159 7        45.132
G15         2.000    21004982.450 7 110381880.51907      1711.462 7        47.292                                    21004980.771 7  86011831.37607      1333.609 7        46.334    21004980.742 7  86011826.36507      1333.614 7        43.642
E15         3.000    28449517.727 6 149503196.11606      -339.234 6        37.202                                                                    28449522.634 6 111641991.06606      -253.231 6        40.510    28449522.011 6 114554387.72206      -259.892 6        41.473
G08         4.000    25142428.603 5 132124346.85105     -2880.634 5        34.800                                    25142435.114 4 102954053.21404     -2244.645 4        25.414    25142436.284 5 102954049.21005     -2244.599 5        35.348
S21         5.000    38475170.715 7 202188030.61207      -517.049 7        42.053
E05         6.000    24615796.346 7 129356841.01407      1929.056 7        42.070                                                                    24615800.129 7  96597614.70507      1440.445 7        45.002    24615799.326 7  99117552.06107      1478.041 7        45.877
G20         7.000    24446578.612 6 128467479.08906     -4131.959 6        38.438                                    24446583.768 3 100104468.04203     -3219.690 3        19.104
R02         8.000    19345542.431 8 103231477.99408     -1785.711 8        52.090                                                                    19345544.367 7  80291138.96707     -1388.874 7        47.142
R20         9.000    23711829.109 5 126797833.19705      -419.748 5        32.096                                                                    23711835.450 6  98620557.89406      -326.557 6        38.817
G24        10.000    24254767.304 6 127459617.27006      2933.088 6        37.777                                    24254771.233 5  99319185.20805      2285.524 5        30.574    24254771.698 5  99319190.21305      2285.504 5        34.505
G30        11.000    22118289.914 7 116232345.89507     -2853.410 7        45.953                                    22118291.784 7  90570635.56207     -2223.434 7        44.348    22118291.991 6  90570643.55906     -2223.329 6        41.931
S27        12.000    39174789.512 5 205864814.16405      -549.291 5        35.595
G13        13.000    19874672.500 8 104442072.96408      -303.353 8        48.450                                    19874669.813 6  81383402.75406      -236.381 6        40.582
S36        14.000    38244496.941 7 200976653.02207      -517.713 7        44.345
I09        15.000    40146633.292 6 157543769.04306     -1051.225 6        40.501
E09        16.000    23479318.046 8 123384630.58108      -230.128 8        48.979                                                                    23479319.962 8  92137861.12108      -171.850 8        50.419    23479319.424 8  94541455.07408      -176.337 8        51.372
S45        17.000    63426027.857 6 333306513.12506      -564.941 6        36.446
R21        18.000    24268721.983 6 129866867.27506      2246.065 6        40.472                                                                    24268731.192 6 101007610.02206      1747.003 6        37.769
R03        21.000    20532397.536 8 109911490.51408      2355.343 8        50.642                                                                    20532397.672 7  85486704.55007      1831.937 7        46.241
I06        22.000    38115678.839 7 149574238.55707      -465.717 7        42.882
S28        23.000    40916176.428 5 215015811.44905      -526.167 5        34.967
S23        25.000    38177072.219 7 200621807.94907      -517.583 7        44.123
R01        26.000    22442811.302 6 119969543.91106     -4694.160 6        41.580                                                                    22442818.832 6  93309600.53406     -3650.996 6        37.278
C07        27.000                                                                                                                                    38930400.446 6 202720781.19006      -127.204 6        40.350    38930398.632 7 156756554.10207       -98.363 7        44.200    38930396.363 6 164727217.35306      -103.294 6        41.325
C40        29.000                                                                                                                                    38928397.088 7 202710365.82407      -109.225 7        42.936                                                                    38928398.101 7 164718778.75507       -88.744 7        42.760
G17        30.000    23904005.252 6 125616446.48806      2330.614 6        41.678                                    23904009.964 5  97882986.91405      1816.034 5        35.571    23904009.805 6  97882983.96506      1816.003 6        38.489
G14        31.000    20566289.206 7 108076576.28607      -896.884 7        47.664                                    20566287.906 6  84215512.66906      -698.869 6        39.994    20566287.743 8  84215498.66708      -698.852 8        48.089
G23        32.000    24357501.067 6 127999482.36306      2204.132 6        39.949                                    24357501.565 4  99739831.35104      1717.505 4        24.331    24357501.200 6  99739826.37006      1717.480 6        41.213
I02        33.000    37498981.557 7 147154054.01007        86.589 7        42.768
E04        34.000    24954383.787 7 131136137.92507     -2593.427 7        45.011                                                                    24954386.468 8  97926327.81608     -1936.619 8        48.621    24954385.615 8 100480925.51408     -1987.112 8        49.254
R13        35.000    20189610.351 7 107811417.06407      1870.959 7        46.882
R12        36.000    19301435.333 8 103104783.25408     -1644.527 8        51.707                                                                    19301437.096 7  80192609.16407     -1279.135 7        47.941
I01        37.000   393938723.018 5 242759023.92505     -3173.922 5        30.506
C10        38.000                                                                                                                                    38898235.304 6 202553310.99706       237.510 6        40.846    38898236.521 7 156627068.22107       183.634 7        44.328    38898233.432 6 164591144.87306       192.903 6        41.225
C19        39.000                                                                                                                                    25104425.664 7 130725193.48707     -3872.771 7        43.907                                                                    25104427.900 7 106224876.01307     -3147.113 7        45.205
E34        40.000    28296359.807 6 148698311.31806     -2415.862 6        37.558                                                                    28296364.725 6 111040927.45206     -1804.151 6        38.480    28296364.165 6 113937649.20206     -1851.139 6        39.781
G05        41.000    22496672.766 7 118220741.33607     -3414.505 7        45.607                                    22496673.208 7  92120019.17007     -2660.649 7        42.798    22496673.959 6  92120028.16606     -2660.678 6        41.559
S44        42.000    40923881.790 6 215056452.68006      -516.376 6        37.440
C36        43.000                                                                                                                                    21513895.778 8 112028475.67108      -929.498 8        50.690                                                                    21513902.180 8  91032327.44108      -755.341 8        49.544
C05        44.000                                                                                                                                    39399330.423 6 205162579.00406      -571.827 6        38.330    39399332.567 7 158644716.30707      -442.046 7        43.354    39399332.987 6 166711481.80706      -464.555 6        39.994
G18        46.000    25800738.441 5 135583747.36405     -2553.839 5        34.748                                    25800737.352 2 105649647.78902     -1990.004 2        13.636    25800738.240 5 105649637.77605     -1990.231 5        34.262
R11        47.000    23098528.099 7 123431408.32707     -4484.023 7        44.096                                                                    23098532.779 6  96002183.82406     -3487.587 6        41.912
C45        50.000                                                                                                                                    23161968.973 7 120610462.55807      1748.604 7        47.949                                                                    23161964.130 8  98005865.88208      1420.889 8        48.373
S48        51.000    77189543.696 6 405632470.94606      -506.027 6        38.231
E06        52.000    23544429.016 8 123726788.01808     -1509.211 8        48.789                                                                    23544431.615 8  92393378.79708     -1127.026 8        50.524    23544431.190 8  94803640.27908     -1156.407 8        51.393
C09        53.000                                                                                                                                    41041506.692 5 213713742.71205     -1132.822 5        35.352    41041514.281 6 165256968.60306      -875.832 6        40.944    41041509.288 5 173659865.88705      -920.502 5        35.671
C60        54.000                                                                                                                                    40923880.478 6 213101411.89706      -511.738 6        40.579                                                                    40923872.171 6 173162286.59606      -415.737 6        38.192
E31        55.000    23696665.578 8 124526818.81708       621.680 8        48.970                                                                    23696668.736 8  92990837.84108       464.205 8        50.250    23696667.977 8  95416681.96108       476.347 8        50.921
G07        56.000    25003344.349 6 131393305.08406     -3360.226 6        38.520                                    25003349.912 4 102384333.22604     -2618.353 4        29.336    25003349.590 5 102384342.23905     -2618.387 5        35.876
C02        57.000                                                                                                                                    40976734.462 5 213376465.45705      -559.966 5        32.748    40976740.331 6 164996162.29106      -432.882 6        36.953    40976740.737 5 173385819.80705      -455.084 5        31.834
I03        58.000    95403126.717 6 298596864.69106       848.875 6        39.892
C21        59.000                                                                                                                                    23717234.082 7 123501814.93007      1541.196 7        47.357                                                                    23717231.078 7 100355307.37107      1252.249 7        47.555
C22        60.000                                                                                                                                    21927125.595 8 114180244.76908     -1628.449 8        51.700                                                                    21927121.244 8  92780767.04208     -1323.301 8        49.811
> 2025 01 02 08 45 10.0000000  0 53
E24         1.000    26960009.205 6 141675862.19306      2529.586 6        41.802                                                                    26960016.147 7 105796960.66207      1888.902 7        43.771    26960015.295 7 108556872.32407      1938.136 7        44.981
G15         2.000    21003355.138 7 110373330.11607      1708.663 7        47.507                                    21003353.681 7  86005168.72207      1331.424 7        46.196    21003354.120 7  86005163.71307      1331.418 7        43.716
E15         3.000    28449841.262 6 149504898.93506      -342.212 6        37.406                                                                    28449846.686 6 111643262.63806      -255.522 6        40.415    28449845.972 6 114555692.46306      -262.158 6        41.242
G08         4.000    25145170.604 5 132138756.91405     -2883.743 5        34.800                                    25145177.176 4 102965281.81604     -2247.074 4        25.263    25145177.391 5 102965277.78405     -2246.974 5        35.195
S21         5.000    38475661.525 6 202190616.94906      -517.612 6        41.928
E05         6.000    24613961.473 7 129347198.16207      1928.072 7        42.356                                                                    24613965.148 7  96590413.85507      1439.852 7        45.139    24613964.430 7  99110163.36707      1477.405 7        45.860
G20         7.000    24450510.201 6 128488139.32306     -4132.341 6        38.285                                    24450515.121 3 100120566.87803     -3220.000 3        19.045
R02         8.000    19347217.738 8 103240417.07408     -1789.992 8        52.516                                                                    19347219.828 7  80298091.57607     -1392.169 7        47.144
R20         9.000    23712222.084 5 126799943.17205      -424.518 5        31.358                                                                    23712230.393 6  98622198.97906      -329.896 6        38.937
G24        10.000    24251975.966 6 127444953.56206      2932.369 6        37.388                                    24251980.735 5  99307758.92905      2284.962 5        30.325    24251981.849 5  99307763.93005      2284.835 5        35.071
G30        11.000    22121005.463 7 116246616.24407     -2854.803 7        46.088                                    22121007.328 7  90581755.30207     -2224.520 7        44.185    22121007.740 7  90581763.30607     -2224.665 7        42.209
S27        12.000    39175308.560 5 205867561.11105      -549.551 5        35.267
G13        13.000    19874962.457 8 104443597.26508      -306.416 8        48.691                                    19874959.879 6  81384590.51606      -238.766 6        40.424
S36        14.000    38244989.834 7 200979242.72707      -518.022 7        44.200
I09        15.000    40147972.884 6 157549025.90206     -1051.528 6        40.482
E09        16.000    23479537.873 8 123385785.99608      -232.161 8        49.002                                                                    23479539.831 8  92138723.93008      -173.370 8        50.484    23479539.281 8  94542340.38908      -177.869 8        51.246
S45        17.000    63426528.857 6 333309338.87706      -565.439 6        36.352
R21        18.000    24266625.884 6 129855644.16206      2242.992 6        41.027                                                                    24266633.097 6 100998880.94506      1744.626 6        37.512
R03        21.000    20530198.854 8 109899721.32808      2352.296 8        51.018                                                                    20530199.647 7  85477550.73507      1829.572 7        46.452
I06        22.000    38116272.112 7 149576567.11407      -465.934 7        43.054
S28        23.000    40916677.545 5 215018442.41605      -526.291 5        34.857
S23        25.000    38177564.277 7 200624396.29207      -517.988 7        44.050
R01        26.000    22447202.476 7 119993019.02607     -4695.986 7        42.076                                                                    22447211.379 6  93327858.88706     -3652.538 6        37.792
C07        27.000                                                                                                                                    38930522.600 6 202721419.87806      -128.528 6        40.536    38930521.100 7 156757047.97507       -99.270 7        44.212    38930518.949 6 164727736.35306      -104.469 6        41.275
C40        29.000                                                                                                                                    38928502.651 7 202710915.22507      -110.586 7        43.204                                                                    38928503.611 7 164719225.21707       -90.012 7        42.844
G17        30.000    23901788.084 6 125604796.78506      2329.304 6        41.597                                    23901792.902 5  97873909.34605      1815.019 5        35.267    23901792.963 6  97873906.39406      1814.884 6        38.658
G14        31.000    20567144.004 7 108081068.83507      -900.256 7        47.627                                    20567142.809 6  84219013.35306      -701.496 6        39.871    20567142.983 8  84218999.35308      -701.457 8        48.158
G23        32.000    24355404.753 6 127988467.66306      2201.667 6        40.086                                    24355405.505 4  99731248.46004      1715.585 4        24.135    24355404.929 6  99731243.46306      1715.564 6        39.931
I02        33.000    37498871.617 7 147153622.81607        85.964 7        42.627
E04        34.000    24956852.246 7 131149108.51307     -2595.026 7        45.570                                                                    24956854.678 8  97936013.62708     -1937.775 8        48.641    24956853.801 8 100490864.00308     -1988.332 8        49.129
R13        35.000    20187860.250 7 107802070.16807      1867.724 7        47.187
R12        36.000    19302975.915 8 103113014.73508     -1648.103 8        51.757                                                                    19302977.977 7  80199011.42107     -1281.843 7        47.626
I01        37.000   393942765.585 5 242774895.29805     -3174.472 5        30.558
C10        38.000                                                                                                                                    38898007.501 6 202552125.79706       236.476 6        40.663    38898008.740 7 156626151.75707       182.866 7        44.248    38898005.943 6 164590181.81906       192.076 6        41.066
C19        39.000                                                                                                                                    25108145.274 7 130744560.67207     -3874.081 7        43.757                                                                    25108146.900 7 106240613.39907     -3148.073 7        44.643
E34        40.000    28298659.488 6 148710396.19806     -2418.069 6        37.580                                                                    28298664.244 6 111049951.82506     -1805.733 6        38.607    28298663.895 6 113946909.00906     -1852.711 6        39.784
G05        41.000    22499922.584 7 118237819.71207     -3416.941 7        45.944                                    22499923.107 7  92133326.96907     -2662.545 7        42.616    22499923.470 6  92133335.96006     -2662.469 6        41.302
S44        42.000    40924373.136 6 215059035.05306      -516.848 6        37.414
C36        43.000                                                                                                                                    21514789.321 8 112033128.58108      -931.828 8        50.788                                                                    21514795.758 8  91036108.31408      -757.219 8        49.486
C05        44.000                                                                                                                                    39399879.887 6 205165438.05706      -572.113 6        38.408    39399881.674 7 158646927.09607      -442.356 7        43.325    39399881.964 6 166713805.02806      -465.016 6        40.176
G18        46.000    25803169.499 5 135596522.74805     -2556.223 5        35.276                                    25803168.448 2 105659602.59702     -1991.886 2        13.455    25803168.601 5 105659592.57605     -1991.803 5        34.171
R11        47.000    23102724.306 7 123453830.25807     -4484.760 7        44.175                                                                    23102729.119 6  96019623.06506     -3488.182 6        41.752
C45        50.000                                                                                                                                    23160291.009 7 120601723.78407      1746.809 7        47.863                                                                    23160285.969 8  97998764.92808      1419.381 8        48.377
S48        51.000    77190026.412 6 405635003.07806      -506.594 6        37.932
E06        52.000    23545865.937 8 123734339.00708     -1511.234 8        48.972                                                                    23545868.505 8  92399017.51408     -1128.512 8        50.589    23545868.068 8  94809426.09708     -1157.995 8        51.273
C09        53.000                                                                                                                                    41042594.159 5 213719407.30105     -1133.265 5        35.048    41042602.165 6 165261348.80106      -876.205 6        40.820    41042596.868 5 173664468.82005      -920.765 5        35.943
C60        54.000                                                                                                                                    40924372.441 6 213103970.77306      -512.093 6        40.558                                                                    40924363.665 6 173164365.91806      -416.102 6        38.174
E31        55.000    23696075.168 8 124523716.83908       619.046 8        49.040                                                                    23696078.489 8  92988521.43008       462.291 8        50.306    23696077.646 8  95414305.12308       474.346 8        50.825
G07        56.000    25006541.290 6 131410107.60306     -3360.707 6        39.252                                    25006547.319 4 102397426.10704     -2618.738 4        29.678    25006547.426 5 102397435.09905     -2618.666 5        35.662
C02        57.000                                                                                                                                    40977271.548 5 213379265.84005      -560.188 5        33.311    40977278.481 6 164998327.72906      -433.105 6        36.964    40977278.092 5 173388095.38505      -455.432 5        32.024
I03        58.000    95402045.230 6 298592621.20706       848.518 6        39.694
C21        59.000                                                                                                                                    23715755.647 7 123494114.84707      1538.793 7        47.469                                                                    23715752.320 7 100349050.43207      1250.294 7        47.492
C22        60.000                                                                                                                                    21928690.780 8 114188394.50008     -1631.496 8        51.871                                                                    21928686.285 8  92787389.37108     -1325.820 8        49.831
> 2025 01 02 08 45 15.0000000  0 54
E24         1.000    26957602.497 6 141663215.16106      2529.223 6        41.306                                                                    26957609.635 7 105787516.46107      1888.760 7        43.723    26957608.497 7 108547181.74007      1937.959 7        44.867
G15         2.000    21001730.825 7 110364792.62507      1706.375 7        47.439                                    21001729.038 7  85998516.13007      1329.642 7        46.326    21001729.733 7  85998511.13407      1329.587 7        44.117
E15         3.000    28450168.288 6 149506614.38406      -344.066 6        37.584                                                                    28450173.066 6 111644543.65806      -257.001 6        40.477    28450172.440 6 114557006.91606      -263.752 6        41.290
G08         4.000    25147915.111 5 132153179.24005     -2885.408 5        34.267                                    25147921.728 4 102976519.97604     -2248.366 4        25.519    25147921.599 5 102976515.96005     -2248.142 5        35.224
S21         5.000    38476157.043 7 202193203.64507      -517.130 7        42.241
E05         6.000    24612127.319 7 129337558.20507      1927.926 7        42.406                                                                    24612130.805 7  96583215.19107      1439.672 7        45.180    24612129.879 7  99102776.90107      1477.241 7        45.837
G20         7.000    24454441.950 6 128508800.29106     -4132.146 6        38.123                                    24454446.638 3 100136666.25803     -3219.822 3        18.627
R02         8.000    19348896.620 8 103249376.55608     -1793.785 8        52.132                                                                    19348898.310 7  80305060.06407     -1395.187 7        46.983
R20         9.000    23712622.449 5 126802074.79405      -428.215 5        31.102                                                                    23712629.746 6  98623856.92606      -333.190 6        39.450
G24        10.000    24249186.929 6 127430292.87306      2931.866 6        38.180                                    24249190.890 5  99296335.00305      2284.571 5        30.408    24249192.533 5  99296340.00405      2284.743 5        34.743
G30        11.000    22123722.397 7 116260892.46507     -2855.632 7        46.275                                    22123723.973 7  90592879.61807     -2225.164 7        44.278    22123724.531 7  90592887.61307     -2225.087 7        42.172
S27        12.000    39175836.762 5 205870308.89605      -549.482 5        35.395
G13        13.000    19875255.314 8 104445135.14908      -308.764 8        48.505                                    19875252.551 6  81385788.86506      -240.597 6        40.608
S36        14.000    38245482.196 7 200981832.73507      -517.763 7        43.956
I09        15.000    40149312.230 6 157554283.00406     -1051.297 6        40.319
E09        16.000    23479759.239 8 123386949.87708      -233.445 8        48.951                                                                    23479761.325 8  92139593.06008      -174.324 8        50.502    23479760.755 8  94543232.19108      -178.880 8        51.206
S45        17.000    63427018.102 6 333312164.96506      -564.876 6        36.771
R21        18.000    24264530.186 6 129844434.31806      2240.799 6        40.746                                                                    24264538.474 6 100990162.16906      1742.903 6        38.348
R03        21.000    20528002.919 8 109887965.75908      2349.921 8        50.894                                                                    20528003.363 7  85468407.51407      1827.710 7        46.305
I06        22.000    38116865.510 7 149578896.05807      -465.612 7        42.976
S28        23.000    40917176.940 5 215021073.65305      -526.066 5        34.643
S23        25.000    38178057.085 7 200626985.03207      -517.501 7        43.752
R01        26.000    22451595.926 7 120016501.74307     -4697.157 7        42.828                                                                    22451603.786 6  93346123.15206     -3653.287 6        38.228
C07        27.000                                                                                                                                    38930646.316 6 202722062.89406      -128.734 6        40.594    38930644.510 7 156757545.20107       -99.548 7        44.214    38930642.433 6 164728258.85706      -104.702 6        41.449
R04        28.000    24665697.947 7 132083699.42717      3796.453 7        42.389                                                                    24665695.480 6 102731751.93716      2952.858 6        37.074
C40        29.000                                                                                                                                    38928609.217 7 202711470.01107      -111.342 7        43.598                                                                    38928610.153 7 164719676.01407       -90.463 7        42.923
G17        30.000    23899572.008 6 125593152.44606      2328.488 6        41.185                                    23899576.980 5  97864835.95305      1814.377 5        35.262    23899577.584 6  97864832.99806      1814.477 6        38.880
G14        31.000    20568002.025 7 108085576.86107      -902.920 7        47.632                                    20568000.632 6  84222526.09506      -703.570 6        39.997    20568000.780 8  84222512.10108      -703.623 8        48.144
G23        32.000    24353311.005 6 127977464.28506      2199.759 6        40.050                                    24353311.489 4  99722674.38904      1714.099 4        24.165    24353311.072 6  99722669.38106      1714.125 6        39.456
I02        33.000    37498761.814 7 147153193.05307        85.917 7        42.650
E04        34.000    24959321.502 7 131162085.52807     -2595.826 7        45.714                                                                    24959324.149 8  97945704.24508     -1938.479 8        48.669    24959323.256 8 100500807.41808     -1989.012 8        49.081
R13        35.000    20186111.781 7 107792737.95507      1865.107 7        46.843
R12        36.000    19304520.147 8 103121262.57008     -1650.975 8        51.997                                                                    19304522.155 7  80205426.40707     -1284.122 7        47.769
I01        37.000   393946810.803 5 242790766.62905     -3174.297 5        30.385
C10        38.000                                                                                                                                    38897780.443 6 202550944.68506       236.140 6        40.713    38897781.668 7 156625238.42807       182.588 7        44.296    38897779.108 6 164589222.05106       191.593 6        41.359
C19        39.000                                                                                                                                    25111865.186 7 130763932.55507     -3874.636 7        43.680                                                                    25111866.866 7 106256354.58307     -3148.607 7        44.426
E34        40.000    28300959.978 6 148722489.70106     -2419.366 6        36.964                                                                    28300965.598 6 111058982.65506     -1806.577 6        38.721    28300965.448 6 113956175.44906     -1853.833 6        39.799
G05        41.000    22503174.774 7 118254908.77807     -3418.696 7        46.427                                    22503175.041 7  92146643.09707     -2663.914 7        42.711    22503175.852 6  92146652.10306     -2663.994 6        41.552
S44        42.000    40924864.523 6 215061617.57406      -516.280 6        37.588
C36        43.000                                                                                                                                    21515684.693 8 112037791.70008      -933.455 8        50.868                                                                    21515691.290 8  91039897.46808      -758.598 8        49.732
C05        44.000                                                                                                                                    39400429.088 6 205168297.37506      -571.615 6        38.456    39400430.744 7 158649138.10207      -442.098 7        43.587    39400431.066 6 166716128.44506      -464.736 6        40.284
G18        46.000    25805602.476 5 135609307.79605     -2557.802 5        35.510                                    25805601.377 2 105669564.97902     -1993.102 2        13.576    25805600.503 5 105669554.95505     -1993.138 5        33.748
R11        47.000    23106920.527 7 123476254.18507     -4484.882 7        44.466                                                                    23106924.642 6  96037063.85506     -3488.158 6        41.433
C45        50.000                                                                                                                                    23158614.455 8 120592992.74308      1745.560 8        48.195                                                                    23158609.245 8  97991670.24608      1418.350 8        48.416
S48        51.000    77190512.571 6 405637535.48006      -506.211 6        38.093
E06        52.000    23547304.374 8 123741898.42408     -1512.535 8        48.869                                                                    23547307.037 8  92404662.53208     -1129.531 8        50.654    23547306.575 8  94815218.37208     -1159.007 8        51.285
C09        53.000                                                                                                                                    41043682.458 5 213725072.02005     -1132.965 5        35.471    41043689.567 6 165265729.10906      -875.898 6        40.694    41043684.848 6 173669071.85606      -920.496 6        36.219
C60        54.000                                                                                                                                    40924863.470 6 213106529.83706      -511.664 6        40.574                                                                    40924855.101 6 173166445.38006      -415.724 6        38.342
E31        55.000    23695486.936 8 124520625.84608       617.254 8        48.790                                                                    23695490.325 8  92986213.22608       460.949 8        50.286    23695489.483 8  95411936.70408       473.002 8        50.819
G07        56.000    25009739.296 6 131426911.53306     -3360.874 6        39.727                                    25009745.039 5 102410520.07705     -2618.863 5        30.060    25009745.108 5 102410529.07405     -2618.433 5        35.562
C02        57.000                                                                                                                                    40977809.762 5 213382066.47005      -560.136 5        33.060    40977815.832 6 165000493.36306      -432.899 6        36.828    40977816.122 5 173390371.09905      -455.178 5        32.275
I03        58.000    95400964.151 6 298588377.82906       848.770 6        39.901
C21        59.000                                                                                                                                    23714278.894 7 123486425.38507      1537.078 7        47.706                                                                    23714275.728 7 100342802.11507      1248.814 7        47.619
C22        60.000                                                                                                                                    21930258.361 8 114196557.99508     -1633.878 8        52.017                                                                    21930254.026 8  92794022.85808     -1327.685 8        49.919
> 2025 01 02 08 45 20.0000000  0 54
E24         1.000    26955196.829 6 141650571.75806      2528.468 6        41.282                                                                    26955203.573 7 105778074.97307      1888.104 7        43.881    26955202.365 7 108537493.94507      1937.411 7        44.736
G15         2.000    21000108.431 7 110356267.79407      1703.863 7        47.322                                    21000106.823 7  85991873.40207      1327.683 7        46.603    21000107.079 7  85991868.39907      1327.728 7        44.265
E15         3.000    28450497.108 6 149508342.29406      -346.751 6        37.705                                                                    28450501.896 6 111645833.94406      -258.851 6        40.417    28450501.017 6 114558330.85506      -265.725 6        41.285
G08         4.000    25150662.248 5 132167613.67305     -2888.019 5        35.081                                    25150668.534 4 102987767.56404     -2250.395 4        26.072    25150668.663 5 102987763.56605     -2250.408 5        35.186
S21         5.000    38476650.093 7 202195790.45507      -517.211 7        42.040
E05         6.000    24610293.301 7 129327920.95707      1927.264 7        42.339                                                                    24610296.909 7  96576018.53207      1439.208 7        45.272    24610295.997 7  99095392.50907      1476.764 7        45.794
G20         7.000    24458373.631 6 128529461.53506     -4132.151 6        37.955                                    24458378.308 3 100152765.86103     -3219.857 3        19.104
R02         8.000    19350579.261 8 103258356.02408     -1797.712 8        52.225                                                                    19350581.374 7  80312044.07707     -1398.248 7        47.100
R20         9.000    23713026.058 5 126804227.83405      -432.515 5        31.985                                                                    23713031.290 6  98625531.49206      -336.345 6        39.652
G24        10.000    24246398.933 6 127415634.96506      2931.390 6        38.796                                    24246401.720 5  99284913.25405      2284.209 5        30.936    24246402.537 5  99284918.24605      2284.360 5        35.171
G30        11.000    22126439.873 7 116275174.33207     -2856.797 7        46.098                                    22126441.682 7  90604008.33407     -2226.076 7        44.479    22126441.825 6  90604016.33106     -2226.069 6        41.945
S27        12.000    39176356.615 5 205873056.57705      -549.196 5        35.571
G13        13.000    19875550.576 8 104446686.41208      -311.436 8        48.581                                    19875547.754 6  81386997.63806      -242.679 6        40.839
S36        14.000    38245971.659 7 200984422.98907      -517.739 7        44.057
I09        15.000    40150652.155 6 157559540.17106     -1051.274 6        40.470
E09        16.000    23479982.382 8 123388122.00108      -235.052 8        48.869                                                                    23479984.371 8  92140468.34108      -175.598 8        50.619    23479983.789 8  94544130.30808      -180.135 8        51.089
S45        17.000    63427513.231 6 333314991.23206      -565.203 6        36.302
R21        18.000    24262437.991 6 129833237.63806      2238.113 6        40.899                                                                    24262446.709 6 100981453.65406      1740.757 6        38.225
R03        21.000    20525809.693 8 109876223.91308      2347.125 8        50.986                                                                    20525809.619 7  85459274.96207      1825.546 7        46.042
I06        22.000    38117459.034 7 149581225.21707      -465.748 7        42.980
S28        23.000    40917682.439 5 215023705.27805      -526.385 5        35.190
S23        25.000    38178550.426 7 200629573.74607      -517.415 7        43.968
R01        26.000    22455990.682 7 120039991.94707     -4698.532 7        42.916                                                                    22455998.171 6  93364393.26006     -3654.384 6        38.375
C07        27.000                                                                                                                                    38930770.351 6 202722710.04106      -129.585 6        40.608    38930769.052 7 156758045.61907      -100.313 7        44.459    38930766.699 6 164728784.71806      -105.435 6        41.533
R04        28.000    24662151.616 6 132064717.35806      3796.700 6        41.275                                                                    24662150.388 6 102716988.03806      2952.865 6        37.225
C40        29.000                                                                                                                                    38928716.710 7 202712029.93507      -112.313 7        43.754                                                                    38928717.739 7 164720131.00607       -91.273 7        43.009
G17        30.000    23897357.387 6 125581513.31406      2327.563 6        40.775                                    23897362.096 5  97855766.62005      1813.660 5        35.519    23897362.186 6  97855763.66506      1813.623 6        39.033
G14        31.000    20568862.674 7 108090100.14707      -905.988 7        47.619                                    20568861.410 6  84226050.73106      -705.965 6        40.248    20568861.550 8  84226036.73308      -706.034 8        48.738
G23        32.000    24351219.749 6 127966472.01806      2197.444 6        39.799                                    24351219.548 4  99714108.96004      1712.298 4        24.105    24351219.280 6  99714103.94506      1712.406 6        40.069
I02        33.000    37498652.815 7 147152764.36507        85.603 7        42.574
E04        34.000    24961791.737 7 131175068.76407     -2597.071 7        45.449                                                                    24961794.806 8  97955399.49408     -1939.317 8        48.715    24961793.935 8 100510755.59208     -1989.954 8        49.048
R13        35.000    20184366.834 7 107783420.28707      1862.255 7        46.723
R12        36.000    19306067.049 8 103129526.51008     -1654.192 8        52.196                                                                    19306069.137 8  80211853.89508     -1286.563 8        48.084
I01        37.000   393950856.499 5 242806637.83005     -3174.133 5        30.392
C10        38.000                                                                                                                                    38897554.518 6 202549767.32106       235.231 6        40.846    38897555.519 7 156624327.99307       181.914 7        44.328    38897552.984 6 164588265.31406       191.111 6        41.402
C19        39.000                                                                                                                                    25115586.101 7 130783308.88807     -3875.531 7        43.873                                                                    25115587.877 7 106272099.38307     -3149.086 7        44.221
E34        40.000    28303263.263 6 148734591.61506     -2421.038 6        36.408                                                                    28303268.728 6 111068019.78906     -1807.969 6        38.808    28303268.299 6 113965448.32006     -1855.153 6        39.718
G05        41.000    22506428.392 7 118272008.20707     -3420.753 7        45.675                                    22506428.933 7  92159967.30107     -2665.516 7        42.925    22506429.958 7  92159976.28307     -2665.455 7        42.019
S44        42.000    40925356.719 6 215064200.10406      -516.379 6        37.527
C36        43.000                                                                                                                                    21516582.226 8 112042464.79808      -935.456 8        50.916                                                                    21516588.703 8  91043694.72108      -760.107 8        49.709
