     3.04           OBSERVATION DATA    M                   RINEX VERSION / TYPE
ssrcrin-15.6.1x                         20250102 124500 UTC PGM / RUN BY / DATE 
(00000000023479385599111004) Septentrio proprietary         COMMENT             
rref                                                        MARKER NAME         
01                                                          MARKER NUMBER       
geodetic                                                    MARKER TYPE         
NFB                 CLIMERS@TUW                             OBSERVER / AGENCY   
3297213             SEPT ASTERX SB3 PROB4.14.4              REC # / TYPE / VERS 
Unknown             Unknown                                 ANT # / TYPE        
  4127831.7097  1207193.5793  4695248.8669                  APPROX POSITION XYZ 
        0.0000        0.0000        0.0000                  ANTENNA: DELTA H/E/N
G   23 X1  C1C L1C D1C S1C C1W S1W C2W L2W D2W S2W C2L L2L  SYS / # / OBS TYPES 
       D2L S2L C5Q L5Q D5Q S5Q C1L L1L D1L S1L              SYS / # / OBS TYPES 
E   21 X1  C1C L1C D1C S1C C6C L6C D6C S6C C5Q L5Q D5Q S5Q  SYS / # / OBS TYPES 
       C7Q L7Q D7Q S7Q C8Q L8Q D8Q S8Q                      SYS / # / OBS TYPES 
S    9 X1  C1C L1C D1C S1C C5I L5I D5I S5I                  SYS / # / OBS TYPES 
R   17 X1  C1C L1C D1C S1C C2P L2P D2P S2P C2C L2C D2C S2C  SYS / # / OBS TYPES 
       C3Q L3Q D3Q S3Q                                      SYS / # / OBS TYPES 
C   25 X1  C1P L1P D1P S1P C5P L5P D5P S5P C2I L2I D2I S2I  SYS / # / OBS TYPES 
       C7I L7I D7I S7I C6I L6I D6I S6I C7D L7D D7D S7D      SYS / # / OBS TYPES 
J   17 X1  C1C L1C D1C S1C C2L L2L D2L S2L C5Q L5Q D5Q S5Q  SYS / # / OBS TYPES 
       C1L L1L D1L S1L                                      SYS / # / OBS TYPES 
I    5 X1  C5A L5A D5A S5A                                  SYS / # / OBS TYPES 
SEPTENTRIO RECEIVERS OUTPUT ALIGNED CARRIER PHASES.         COMMENT             
NO FURTHER PHASE SHIFT APPLIED IN THE RINEX ENCODER.        COMMENT             
G L1C                                                       SYS / PHASE SHIFT   
G L2W                                                       SYS / PHASE SHIFT   
G L2L  0.00000                                              SYS / PHASE SHIFT   
G L5Q  0.00000                                              SYS / PHASE SHIFT   
G L1L  0.00000                                              SYS / PHASE SHIFT   
E L1C  0.00000                                              SYS / PHASE SHIFT   
E L6C  0.00000                                              SYS / PHASE SHIFT   
E L5Q  0.00000                                              SYS / PHASE SHIFT   
E L7Q  0.00000                                              SYS / PHASE SHIFT   
E L8Q  0.00000                                              SYS / PHASE SHIFT   
S L1C                                                       SYS / PHASE SHIFT   
S L5I                                                       SYS / PHASE SHIFT   
R L1C                                                       SYS / PHASE SHIFT   
R L2P  0.00000                                              SYS / PHASE SHIFT   
R L2C                                                       SYS / PHASE SHIFT   
R L3Q  0.00000                                              SYS / PHASE SHIFT   
C L1P  0.00000                                              SYS / PHASE SHIFT   
C L5P  0.00000                                              SYS / PHASE SHIFT   
C L2I                                                       SYS / PHASE SHIFT   
C L7I                                                       SYS / PHASE SHIFT   
C L6I                                                       SYS / PHASE SHIFT   
C L7D                                                       SYS / PHASE SHIFT   
J L1C                                                       SYS / PHASE SHIFT   
J L2L  0.00000                                              SYS / PHASE SHIFT   
J L5Q  0.00000                                              SYS / PHASE SHIFT   
J L1L  0.00000                                              SYS / PHASE SHIFT   
I L5A                                                       SYS / PHASE SHIFT   
  2025     1     2    12    45    0.0000000     GPS         TIME OF FIRST OBS   
 C1C    0.000 C2C    0.000 C2P    0.000                     GLONASS COD/PHS/BIS 
DBHZ                                                        SIGNAL STRENGTH UNIT
    18                                                      LEAP SECONDS        
 24 R01  1 R02 -4 R03  5 R04  6 R05  1 R06 -4 R07  5 R08  6 GLONASS SLOT / FRQ #
    R09 -2 R10 -7 R11  0 R12 -1 R13 -2 R14 -7 R15  0 R16 -1 GLONASS SLOT / FRQ #
    R17  4 R18 -3 R19  3 R20  2 R21  4 R22 -3 R23  3 R24  2 GLONASS SLOT / FRQ #
                                                            END OF HEADER       
> 2025 01 02 12 45  0.0000000  0 53
E24         1.000    23798187.516 8 125060436.81708     -1420.138 8        48.217                                                                    23798190.203 8  93389355.36708     -1060.505 8        50.967    23798189.208 8  95825588.31308     -1088.175 8        51.401
E03         3.000    24794454.186 7 130295738.36307      -461.651 7        45.202                                                                    24794459.962 8  97298778.70008      -344.727 8        48.408    24794458.926 8  99837008.58308      -353.676 8        49.249
G19         4.000    22308666.806 7 117232972.21507     -3123.327 7        44.715                                    22308666.756 5  91350394.09605     -2433.764 5        32.581
S21         5.000    38363384.962 7 201600513.25307      -518.645 7        42.980
E05         6.000    23711324.221 7 124603766.68907     -3032.686 7        45.087                                                                    23711331.323 7  93048228.55407     -2264.577 7        47.701    23711330.315 8  95475574.68208     -2323.726 8        48.358
G25         7.000    21459600.660 7 112771083.00107      2073.685 7        45.090                                    21459604.634 7  87873642.62707      1615.858 7        43.901    21459605.496 7  87873643.63207      1615.918 7        42.980
C29         8.000                                                                                                                                    22935623.289 8 119431836.13008     -1165.522 8        48.436                                                                    22935624.757 7  97048167.38007      -947.136 7        47.310
R05         9.000    21187025.738 8 113256845.62008     -1979.970 8        49.328                                                                    21187030.452 7  88088709.16307     -1539.955 7        45.384
G24        10.000    20842070.466 8 109525814.71808     -2731.910 8        49.224                                    20842072.433 8  85344803.71508     -2128.756 8        50.450    20842073.085 7  85344808.71307     -2128.817 7        45.220
C14        11.000                                                                                                                                    25098714.759 7 130695575.00007     -1952.830 7        42.931    25098717.961 7 101062130.98907     -1510.059 7        45.536    25098714.405 7 106200867.70407     -1586.939 7        43.130
S27        12.000    39143709.755 6 205701464.87006      -539.286 6        36.552
E08        13.000    27710717.363 6 145620836.64506      1849.385 6        37.981                                                                    27710731.158 7 108742901.60807      1381.160 7        42.047    27710729.178 7 111579663.54007      1417.039 7        42.692
S36        14.000    38134366.525 7 200397868.03507      -519.061 7        45.020
G06        15.000    23069067.821 7 121228859.49007       718.608 7        42.747                                    23069073.235 6  94464113.07106       559.955 6        39.850    23069073.556 6  94464115.07806       560.015 6        40.865
G12        17.000    20097865.664 8 105615172.42508      -199.744 8        50.387                                    20097864.257 8  82297619.58108      -155.646 8        51.848    20097864.645 7  82297616.58907      -155.665 7        46.794
G32        18.000    23105607.098 7 121420819.47507       975.582 7        44.983                                    23105612.396 6  94613674.44406       760.194 6        41.735    23105613.277 6  94613678.44706       760.126 6        41.836
E02        19.000    28414616.644 5 149319822.85605      1991.704 5        35.300                                                                    28414629.074 6 111505118.24406      1487.266 6        37.887    28414627.462 6 114413938.77606      1526.157 6        38.640
E10        21.000    27429752.699 6 144144392.80806      2434.541 6        39.402                                                                    27429764.840 7 107640382.73807      1818.012 7        44.081    27429762.935 7 110448382.89707      1865.410 7        43.947
I06        22.000    38381467.182 6 150617210.47806      -494.345 6        41.847
S28        23.000    40831934.109 5 214573092.01405      -527.315 5        35.495
S23        25.000    38073421.811 7 200077041.07607      -523.547 7        45.454
S45        26.000    63326476.285 6 332783977.72106      -581.333 6        36.465
C07        27.000                                                                                                                                    40138388.723 6 209011022.98506     -1451.566 6        37.607    40138391.001 6 161620550.70306     -1122.421 6        39.856    40138387.315 6 169838540.07006     -1179.483 6        38.126
R04        28.000    22643616.428 7 121255439.06307     -4634.255 7        46.102                                                                    22643622.007 6  94309742.39206     -3604.341 6        40.770
C40        29.000                                                                                                                                    40675673.796 6 211808814.28306     -1722.573 6        38.477                                                                    40675679.334 6 172111996.28006     -1399.865 6        37.705
G17        30.000    25382367.035 6 133385293.64006     -3963.489 6        37.251                                    25382372.446 4 103936634.27304     -3088.435 4        28.171    25382372.585 5 103936631.27105     -3088.208 5        35.771
E12        31.000    26900945.993 6 141365504.52106      1831.533 6        36.166                                                                    26900952.333 6 105565229.96806      1367.693 6        41.383    26900950.937 6 108319092.18606      1403.443 6        41.452
G11        32.000    24031703.249 6 126287538.62206      2356.857 6        41.304                                    24031708.513 4  98405945.06104      1836.514 4        26.515    24031708.587 6  98405936.06506      1836.521 6        40.975
I02        33.000    36916633.377 7 144868778.85007      -545.360 7        42.567
R15        34.000    20670665.547 8 110457865.06008      1865.954 8        50.510                                                                    20670669.575 7  85911731.29307      1451.305 7        46.279
R13        35.000    23112856.708 6 123421293.31706     -3771.321 6        37.187
G29        36.000    25078103.091 6 131786381.96906      3326.207 6        39.583                                    25078113.739 5 102690738.07105      2591.819 5        30.966    25078114.079 6 102690748.12806      2591.722 6        36.272
C42        37.000                                                                                                                                    25361666.350 7 132064777.08107     -2998.257 7        42.334                                                                    25361681.363 7 107313478.76507     -2436.339 7        43.312
C10        38.000                                                                                                                                    39158860.670 6 203910413.11006     -1209.934 6        40.403    39158864.098 7 157676454.81507      -935.383 7        43.141    39158860.682 6 165693892.75606      -983.182 6        39.631
E25        39.000    24187656.826 7 127107155.21107       943.327 7        46.777                                                                    24187662.064 8  94917795.00208       704.444 8        49.799    24187661.203 8  97393897.49308       722.856 8        50.644
C30        40.000                                                                                                                                    26585005.675 6 138435114.69906     -3475.793 6        38.165                                                                    26585013.410 6 112489905.57706     -2824.457 6        37.641
R23        41.000    21687134.639 7 116011620.80607     -2811.003 7        44.701
S44        42.000    40703859.626 6 213900230.61806      -447.074 6        37.698
C05        44.000                                                                                                                                    39387755.311 6 205102274.76506      -519.324 6        38.577    39387758.541 7 158598077.80707      -401.484 7        42.717    39387758.223 6 166662473.71806      -422.181 6        39.369
R14        45.000    19481748.499 8 103848788.01908     -1220.966 8        51.607                                                                    19481752.496 7  80771360.53007      -949.649 7        47.620
R17        47.000    23187635.385 7 124081777.82507      4034.885 7        42.720                                                                    23187647.082 6  96508136.29006      3138.199 6        41.909
C35        48.000                                                                                                                                    23263482.022 8 121139153.59908      2152.851 8        48.329                                                                    23263485.010 7  98435535.97207      1749.285 7        46.788
C45        50.000                                                                                                                                    23030031.708 8 119923410.89308     -2543.801 8        48.097                                                                    23030027.582 8  97447576.18508     -2067.084 8        48.581
S48        51.000    77070840.120 6 405010982.16106      -527.922 6        38.595
C33        52.000                                                                                                                                    25526052.804 7 132920854.11807      -651.310 7        42.845                                                                    25526072.188 7 108009164.02307      -529.531 7        42.622
E33        53.000    26755845.900 6 140603035.91506      -631.741 6        40.133                                                                    26755854.456 7 104995851.62807      -471.595 7        43.187    26755852.852 7 107734862.04107      -484.108 7        43.922
C60        54.000                                                                                                                                    40703858.005 6 211955700.96706      -443.208 6        39.090                                                                    40703851.165 6 172231302.09106      -360.272 6        39.715
E31        55.000    26929200.380 6 141513811.48306     -2938.157 6        39.841                                                                    26929210.567 7 105675902.39307     -2194.220 7        43.382    26929209.074 7 108432664.42007     -2251.198 7        43.473
C26        56.000                                                                                                                                    21730278.174 8 113155346.91108       281.883 8        50.903                                                                    21730279.942 8  91948030.41508       228.969 8        49.453
C02        57.000                                                                                                                                    40878980.307 5 212867428.04705      -473.617 5        31.955    40878985.791 6 164602541.03906      -366.510 6        36.163    40878986.663 5 172972184.19705      -385.364 5        32.802
I03        58.000    90562803.759 5 279602379.11305       965.076 5        32.629
C21        59.000                                                                                                                                    27321590.817 3                     -3634.998 3        23.010                                                                    27321600.906 3                     -2953.722 3        21.524
R24        60.000    20487633.181 8 109556707.64508      1624.884 8        50.472                                                                    20487637.218 7  85210836.83407      1263.788 7        45.576
> 2025 01 02 12 45  5.0000000  0 53
E24         1.000    23799539.169 8 125067540.21208     -1421.194 8        48.299                                                                    23799541.907 8  93394659.84608     -1061.322 8        50.945    23799540.955 8  95831031.17108     -1088.999 8        51.377
G15         2.000    25762179.759 3                     -4191.255 3        19.164
E03         3.000    24794894.617 7 130298052.80407      -464.200 7        45.029                                                                    24794900.331 8  97300507.00908      -346.664 8        48.446    24794899.359 8  99838781.98308      -355.656 8        49.196
G19         4.000    22311639.996 7 117248594.86407     -3125.654 7        43.683                                    22311639.714 5  91362567.57505     -2435.573 5        32.731
S21         5.000    38363877.149 7 201603106.50507      -518.689 7        42.891
E05         6.000    23714210.372 7 124618933.55907     -3034.176 7        45.339                                                                    23714217.500 7  93059554.45307     -2265.727 7        47.602    23714216.499 8  95487196.03908     -2324.832 8        48.320
G25         7.000    21457628.607 7 112760718.48507      2072.137 7        45.336                                    21457632.326 7  87865566.39007      1614.646 7        43.964    21457632.778 7  87865567.39407      1614.642 7        42.751
C29         8.000                                                                                                                                    22936743.139 8 119437670.96608     -1168.419 8        48.163                                                                    22936745.407 7  97052908.65707      -949.385 7        47.310
R05         9.000    21188880.505 8 113266756.60108     -1984.392 8        49.721                                                                    21188884.255 7  88096417.70807     -1543.463 7        45.121
G24        10.000    20844670.954 8 109539480.76208     -2734.475 8        49.431                                    20844672.999 8  85355452.57608     -2130.759 8        50.492    20844673.317 7  85355457.57507     -2130.739 7        44.944
C14        11.000                                                                                                                                    25100589.870 7 130705345.14107     -1955.262 7        42.339    25100594.582 7 101069685.83807     -1511.879 7        45.848    25100590.673 7 106208806.71907     -1588.778 7        43.151
S27        12.000    39144220.155 6 205704161.87906      -539.323 6        36.507
E08        13.000    27708958.253 6 145611593.34706      1848.105 6        38.195                                                                    27708972.140 7 108735999.19107      1380.008 7        42.212    27708969.990 7 111572581.03607      1416.021 7        42.461
S36        14.000    38134861.323 7 200400463.22207      -519.236 7        44.888
G06        15.000    23068385.232 6 121225273.51506       715.582 6        41.685                                    23068390.812 6  94461318.81006       557.592 6        39.802    23068391.507 6  94461320.80406       557.662 6        40.493
G12        17.000    20098057.047 8 105616177.01908      -202.128 8        50.428                                    20098055.433 8  82298402.38608      -157.502 8        51.884    20098055.805 7  82298399.38807      -157.516 7        46.579
G32        18.000    23104680.431 7 121415949.19807       972.449 7        44.938                                    23104685.612 6  94609879.42806       757.750 6        41.764    23104686.122 7  94609883.44007       757.710 7        42.172
E02        19.000    28412721.309 6 149309864.61506      1991.564 6        36.060                                                                    28412733.985 6 111497681.92106      1486.996 6        37.883    28412732.661 6 114406308.46506      1525.818 6        39.078
E10        21.000    27427436.710 6 144132221.54206      2433.984 6        39.877                                                                    27427448.670 7 107631293.91507      1817.540 7        44.078    27427446.675 7 110439056.95707      1864.984 7        43.628
I06        22.000    38382097.063 6 150619681.80306      -494.297 6        41.723
S28        23.000    40832437.788 5 214575728.72405      -527.657 5        35.414
S23        25.000    38073920.329 7 200079658.95607      -523.667 7        45.530
S45        26.000    63326975.734 6 332786885.30906      -581.705 6        36.628
C07        27.000                                                                                                                                    40139781.898 6 209018280.56306     -1451.678 6        37.478    40139784.413 6 161626162.74206     -1122.440 6        40.031    40139780.947 6 169844437.46606     -1179.525 6        37.955
R04        28.000    22647944.058 7 121278613.33207     -4635.487 7        46.227                                                                    22647949.655 6  94327766.79306     -3605.305 6        41.216
C40        29.000                                                                                                                                    40677327.776 6 211817427.18806     -1722.631 6        38.264                                                                    40677333.402 6 172118994.98506     -1399.699 6        37.474
G17        30.000    25386138.526 6 133405112.20006     -3963.886 6        36.960                                    25386143.813 4 103952077.33104     -3088.746 4        27.916    25386144.071 5 103952074.35405     -3088.596 5        35.829
E12        31.000    26899204.372 6 141356350.50906      1830.039 6        36.631                                                                    26899210.282 6 105558394.22906      1366.569 6        41.211    26899209.030 6 108312078.12406      1402.292 6        41.571
G11        32.000    24029461.399 6 126275757.70006      2355.549 6        40.987                                    24029466.660 4  98396765.15804      1835.489 4        26.419    24029466.940 6  98396756.16306      1835.451 6        40.753
I02        33.000    36917328.454 7 144871506.22507      -545.556 7        42.591
R15        34.000    20668920.208 8 110448538.69808      1864.532 8        50.470                                                                    20668924.475 7  85904477.46007      1450.168 7        46.069
R13        35.000    23116388.909 6 123440150.90106     -3771.761 6        37.974
G29        36.000    25074938.256 6 131769752.08706      3325.712 6        39.351                                    25074949.047 5 102677779.87605      2591.429 5        30.649    25074949.146 6 102677789.93206      2591.570 6        36.064
C42        37.000                                                                                                                                    25364545.874 7 132079772.09207     -2999.708 7        42.542                                                                    25364561.063 7 107325663.43207     -2437.524 7        43.221
C10        38.000                                                                                                                                    39160022.606 6 203916463.01006     -1210.066 6        40.384    39160026.054 7 157681132.98707      -935.662 7        43.156    39160022.311 6 165698808.80706      -983.355 6        39.535
E25        39.000    24186759.744 7 127102441.11707       942.239 7        47.032                                                                    24186765.025 8  94914274.74308       703.621 8        49.797    24186764.105 8  97390285.40308       721.981 8        50.493
C30        40.000                                                                                                                                    26588343.458 6 138452496.67006     -3477.085 6        38.012                                                                    26588351.454 6 112504029.90406     -2825.359 6        37.788
R23        41.000    21689763.529 7 116025686.15507     -2815.000 7        44.910
S44        42.000    40704283.786 6 213902466.95406      -447.107 6        37.622
C05        44.000                                                                                                                                    39388253.588 6 205104871.21606      -519.344 6        38.471    39388257.217 7 158600085.53707      -401.630 7        42.707    39388256.934 6 166664583.52706      -421.810 6        39.339
R14        45.000    19482894.863 8 103854898.62008     -1223.188 8        51.962                                                                    19482898.709 7  80776113.22607      -951.367 7        47.541
R17        47.000    23183865.699 7 124061604.81607      4034.386 7        42.789                                                                    23183876.979 6  96492446.27006      3137.755 6        41.969
C35        48.000                                                                                                                                    23261415.787 8 121128393.88808      2151.011 8        48.329                                                                    23261418.595 7  98426792.83907      1747.947 7        46.747
C45        50.000                                                                                                                                    23032474.956 7 119936132.82507     -2545.018 7        47.914                                                                    23032470.705 8  97457913.79308     -2067.994 8        48.570
S48        51.000    77071335.025 6 405013622.91506      -528.170 6        38.535
C33        52.000                                                                                                                                    25526680.155 7 132924118.53007      -654.291 7        42.591                                                                    25526699.161 7 108011816.60307      -531.670 7        42.601
E33        53.000    26756448.665 6 140606200.75906      -634.250 6        39.838                                                                    26756456.739 7 104998214.99607      -473.699 7        43.316    26756455.028 7 107737287.05907      -486.019 7        43.746
C60        54.000                                                                                                                                    40704283.798 6 211957916.97006      -443.200 6        38.994                                                                    40704276.609 6 172233102.80906      -360.202 6        39.649
E31        55.000    26931995.932 6 141528502.80906     -2938.441 6        39.742                                                                    26932006.364 7 105686873.16007     -2194.328 7        43.139    26932004.610 7 108443921.39807     -2251.534 7        43.410
C26        56.000                                                                                                                                    21730008.458 8 113153941.69208       280.213 8        50.797                                                                    21730010.118 8  91946888.56408       227.748 8        49.468
C02        57.000                                                                                                                                    40879435.465 5 212869797.32205      -473.973 5        32.449    40879440.792 6 164604373.08506      -366.301 6        36.185    40879441.736 5 172974109.38105      -384.891 5        32.796
I03        58.000    90561573.838 5 279597554.70705       964.696 5        32.826
R24        60.000    20486115.959 8 109548593.48708      1620.807 8        50.281                                                                    20486119.837 7  85204525.84507      1260.593 7        46.041
> 2025 01 02 12 45 10.0000000  0 52
E24         1.000    23800891.766 8 125074648.76108     -1422.204 8        48.082                                                                    23800894.656 8  93399968.17308     -1062.099 8        50.827    23800893.676 8  95836477.97508     -1089.776 8        51.381
E03         3.000    24795337.031 7 130300379.48807      -466.552 7        45.273                                                                    24795343.055 8  97302244.46808      -348.414 8        48.354    24795342.152 8  99840564.76508      -357.521 8        49.141
G19         4.000    22314614.652 7 117264228.20007     -3127.766 7        43.924                                    22314614.778 5  91374749.37505     -2437.209 5        32.629
S21         5.000    38364372.927 7 201605699.93107      -518.622 7        42.980
E05         6.000    23717097.947 7 124634107.58407     -3035.570 7        45.237                                                                    23717105.049 7  93070885.69607     -2266.832 7        47.418    23717103.992 8  95498822.88008     -2325.985 8        48.216
G25         7.000    21455657.592 7 112750361.23007      2070.770 7        45.714                                    21455661.391 7  87857495.80807      1613.588 7        44.030    21455662.143 7  87857496.81807      1613.585 7        42.701
C29         8.000                                                                                                                                    22937866.598 8 119443519.74508     -1171.250 8        48.217                                                                    22937868.553 7  97057661.30107      -951.713 7        47.252
R05         9.000    21190738.050 8 113276688.74708     -1988.584 8        49.039                                                                    21190742.693 7  88104142.69207     -1546.658 7        45.505
G24        10.000    20847273.909 8 109553158.81208     -2736.820 8        49.475                                    20847275.841 8  85366110.79008     -2132.588 8        50.539    20847276.394 7  85366115.79507     -2132.564 7        45.076
C14        11.000                                                                                                                                    25102468.166 7 130715127.07707     -1957.565 7        42.324    25102472.995 7 101077249.83207     -1513.726 7        45.744    25102469.225 7 106216755.34507     -1590.706 7        43.094
S27        12.000    39144734.744 6 205706858.50906      -539.297 6        36.692
E08        13.000    27707200.863 6 145602357.10106      1846.586 6        38.258                                                                    27707214.667 6 108729101.97606      1378.884 6        41.948    27707212.578 7 111565503.90407      1414.855 7        42.463
S36        14.000    38135352.240 7 200403058.72307      -519.066 7        44.805
G06        15.000    23067706.047 7 121221702.46607       712.701 7        42.595                                    23067711.184 6  94458536.19106       555.353 6        39.796    23067712.146 6  94458538.18906       555.417 6        40.536
G12        17.000    20098250.315 8 105617192.90808      -204.345 8        50.768                                    20098248.745 8  82299193.99208      -159.231 8        51.970    20098249.058 7  82299191.00007      -159.238 7        46.357
G32        18.000    23103756.627 7 121411093.53407       969.571 7        45.467                                    23103761.609 6  94606095.80706       755.506 6        41.840    23103762.060 6  94606099.81806       755.576 6        41.907
E02        19.000    28410827.098 6 149299907.32306      1991.384 6        36.284                                                                    28410838.950 6 111490246.28606      1487.122 6        38.141    28410837.566 6 114398678.84506      1525.883 6        38.760
E10        21.000    27425121.097 6 144120052.73806      2433.444 6        39.282                                                                    27425132.917 7 107622206.91807      1817.200 7        44.041    27425130.964 7 110429732.88907      1864.589 7        43.621
I06        22.000    38382726.841 6 150622153.03006      -494.242 6        41.564
S28        23.000    40832938.695 5 214578365.45605      -527.505 5        35.252
S23        25.000    38074419.407 7 200082276.90707      -523.520 7        45.524
S45        26.000    63327478.907 6 332789792.89806      -581.496 6        36.575
C07        27.000                                                                                                                                    40141175.937 6 209025538.32006     -1451.658 6        37.686    40141178.384 6 161631774.89206     -1122.488 6        40.083    40141174.864 6 169850335.01006     -1179.324 6        38.168
R04        28.000    22652272.864 7 121301793.83507     -4636.717 7        46.410                                                                    22652278.931 6  94345796.04606     -3606.340 6        41.142
C40        29.000                                                                                                                                    40678981.605 6 211826039.94706     -1722.419 6        38.087                                                                    40678987.172 6 172125993.60906     -1399.741 6        37.176
G17        30.000    25389910.142 6 133424932.42406     -3964.230 6        37.036                                    25389915.349 4 103967521.69704     -3089.016 4        27.772    25389914.661 5 103967518.70905     -3089.039 5        35.667
E12        31.000    26897463.377 6 141347203.70206      1828.641 6        36.450                                                                    26897469.447 6 105551563.84206      1365.568 6        41.230    26897468.543 6 108305069.56506      1401.170 6        41.669
G11        32.000    24027221.083 6 126263982.96006      2354.296 6        41.712                                    24027226.028 4  98387590.05404      1834.519 4        26.383    24027225.766 6  98387581.06306      1834.394 6        40.493
I02        33.000    36918023.962 7 144874234.37307      -545.735 7        42.536
R15        34.000    20667176.048 8 110439218.58008      1863.365 8        50.339                                                                    20667180.490 7  85897228.48907      1449.304 7        46.008
R13        35.000    23119919.296 6 123459011.46206     -3772.511 6        38.249
G29        36.000    25071773.537 6 131753123.25506      3325.860 6        39.171                                    25071784.560 5 102664822.51205      2591.541 5        30.317    25071784.779 5 102664832.58905      2591.396 5        35.848
C42        37.000                                                                                                                                    25367426.754 6 132094774.05606     -3001.098 6        41.933                                                                    25367442.088 7 107337853.74407     -2438.608 7        43.189
C10        38.000                                                                                                                                    39161184.634 6 203922513.42506     -1210.131 6        40.365    39161187.770 7 157685811.55807      -935.749 7        43.266    39161184.338 6 165703725.28206      -983.390 6        39.529
E25        39.000    24185863.600 7 127097731.88107       941.356 7        46.851                                                                    24185868.856 8  94910758.11108       702.919 8        49.683    24185867.954 8  97386677.03208       721.289 8        50.482
C30        40.000                                                                                                                                    26591682.549 6 138469884.23506     -3478.370 6        37.792                                                                    26591690.491 6 112518158.77406     -2826.204 6        37.637
R23        41.000    21692397.100 7 116039771.12607     -2818.939 7        45.228
S44        42.000    40704706.761 6 213904703.15006      -447.221 6        37.482
C05        44.000                                                                                                                                    39388752.643 6 205107467.46306      -519.253 6        38.544    39388755.722 7 158602093.12107      -401.662 7        42.739    39388755.529 6 166666693.21306      -421.910 6        39.459
R14        45.000    19484043.276 8 103861019.63008     -1225.329 8        51.722                                                                    19484047.265 8  80780874.00908      -953.048 8        48.065
R17        47.000    23180095.945 7 124041434.05507      4033.966 7        42.925                                                                    23180107.999 7  96476757.98907      3137.554 7        42.118
C35        48.000                                                                                                                                    23259351.220 8 121117642.80108      2149.312 8        48.445                                                                    23259353.881 7  98418056.74607      1746.492 7        46.701
C45        50.000                                                                                                                                    23034918.923 8 119948860.59808     -2546.126 8        48.066                                                                    23034914.916 8  97468256.16708     -2068.922 8        48.564
S48        51.000    77071829.748 6 405016263.51806      -528.261 6        38.556
C33        52.000                                                                                                                                    25527309.540 7 132927396.94607      -657.096 7        42.100                                                                    25527328.687 7 108014480.57807      -533.854 7        42.646
E33        53.000    26757053.081 6 140609378.28206      -636.883 6        39.156                                                                    26757061.355 7 105000587.81307      -475.587 7        43.261    26757059.793 7 107739721.77207      -487.989 7        43.623
C60        54.000                                                                                                                                    40704709.210 6 211960132.83106      -443.156 6        38.919                                                                    40704702.227 6 172234903.41106      -360.068 6        39.550
E31        55.000    26934791.483 6 141543194.79006     -2938.508 6        39.556                                                                    26934801.997 7 105697844.42507     -2194.233 7        42.993    26934800.400 7 108455178.87607     -2251.580 7        43.268
C26        56.000                                                                                                                                    21729739.919 8 113152544.15808       278.754 8        50.779                                                                    21729741.680 8  91945752.97808       226.519 8        49.407
C02        57.000                                                                                                                                    40879889.594 5 212872166.32105      -473.720 5        32.425    40879895.561 6 164606204.95406      -366.257 6        36.144    40879896.643 5 172976034.44505      -385.048 5        32.737
I03        58.000    90560344.152 5 279592729.97305       965.060 5        32.407
R24        60.000    20484602.056 8 109540499.26108      1616.883 8        50.179                                                                    20484605.807 7  85198230.35807      1257.501 7        45.657
> 2025 01 02 12 45 15.0000000  0 53
E24         1.000    23802245.514 8 125081762.46408     -1423.290 8        48.227                                                                    23802248.336 8  93405280.34308     -1062.801 8        50.997    23802247.316 8  95841928.72308     -1090.506 8        51.305
E03         3.000    24795782.015 7 130302718.41807      -468.952 7        44.968                                                                    24795788.184 8  97303991.06708      -350.236 8        48.501    24795787.255 8  99842356.92608      -359.299 8        49.039
G19         4.000    22317592.089 7 117279872.17307     -3129.819 7        44.942                                    22317591.909 5  91386939.46705     -2438.820 5        32.725
S21         5.000    38364868.128 7 201608293.25607      -518.640 7        43.001
E05         6.000    23719987.060 7 124649288.76407     -3036.946 7        45.351                                                                    23719993.914 7  93082222.27107     -2267.782 7        47.680    23719992.872 8  95510455.19208     -2326.952 8        48.172
G25         7.000    21453688.280 7 112740011.29607      2069.305 7        45.574                                    21453691.861 7  87849430.93107      1612.442 7        44.101    21453692.845 7  87849431.93807      1612.432 7        43.012
C29         8.000                                                                                                                                    22938992.915 8 119449382.47108     -1173.921 8        48.315                                                                    22938994.413 7  97062425.23307      -954.006 7        47.458
R05         9.000    21192599.490 8 113286642.11008     -1992.729 8        48.950                                                                    21192604.794 7  88111884.17907     -1549.907 7        45.269
G24        10.000    20849879.025 8 109566848.85008     -2739.153 8        49.451                                    20849880.973 8  85376778.34608     -2134.402 8        50.564    20849881.665 7  85376783.34507     -2134.358 7        45.210
C14        11.000                                                                                                                                    25104349.785 7 130724920.77607     -1959.967 7        42.176    25104353.791 7 101084822.90407     -1515.522 7        46.022    25104350.024 7 106224713.48607     -1592.702 7        43.316
S27        12.000    39145246.593 6 205709555.37606      -539.494 6        36.612
E08        13.000    27705445.138 6 145593127.92206      1845.205 6        38.240                                                                    27705458.463 7 108722210.05307      1377.975 7        42.125    27705456.456 7 111558432.20307      1413.691 7        42.635
S36        14.000    38135847.580 7 200405653.76207      -518.930 7        44.913
G06        15.000    23067029.491 7 121218146.36207       709.730 7        42.201                                    23067034.377 6  94455765.20806       553.034 6        39.739    23067035.598 6  94455767.20906       553.014 6        41.168
G12        17.000    20098445.738 8 105618220.13608      -206.568 8        50.639                                    20098444.222 8  82299994.43408      -160.964 8        52.011    20098444.812 7  82299991.44007      -161.004 7        46.629
G32        18.000    23102835.545 7 121406252.52707       966.666 7        45.350                                    23102840.370 6  94602323.60106       753.247 6        41.876    23102840.797 6  94602327.59706       753.361 6        41.888
E02        19.000    28408932.168 6 149289950.98106      1991.238 6        36.469                                                                    28408944.699 6 111482811.35706      1487.006 6        38.153    28408942.931 6 114391049.97906      1525.746 6        38.685
E10        21.000    27422805.821 6 144107886.39706      2432.979 6        39.547                                                                    27422817.670 7 107613121.74507      1816.923 7        43.987    27422815.701 7 110420410.70207      1864.264 7        43.445
I06        22.000    38383356.643 6 150624624.12706      -494.259 6        41.549
S28        23.000    40833440.357 5 214581001.96805      -527.171 5        35.710
S23        25.000    38074915.484 7 200084894.84807      -523.624 7        45.460
S45        26.000    63327978.513 6 332791000.53016      -581.789 6        36.794
C07        27.000                                                                                                                                    40142569.895 6 209032796.14306     -1451.511 6        37.342    40142572.453 6 161637387.10006     -1122.431 6        40.269    40142568.589 6 169856232.57806     -1179.646 6        38.204
R04        28.000    22656602.290 7 121324980.57007     -4638.031 7        46.335                                                                    22656609.522 6  94363830.13606     -3607.302 6        40.715
C40        29.000                                                                                                                                    40680635.871 6 211834652.58006     -1722.438 6        38.450                                                                    40680640.932 6 172132992.07806     -1399.797 6        37.274
G17        30.000    25393682.235 6 133444754.32406     -3964.476 6        36.892                                    25393687.248 4 103982967.36004     -3089.200 4        27.904    25393686.628 5 103982964.39005     -3089.302 5        35.881
E12        31.000    26895724.232 6 141338064.04806      1827.393 6        36.476                                                                    26895730.206 6 105544738.82006      1364.557 6        41.571    26895729.420 6 108298066.48906      1400.097 6        41.607
G11        32.000    24024981.525 6 126252214.43906      2353.098 6        41.735                                    24024986.439 4  98378419.79504      1833.579 4        26.228    24024986.007 6  98378410.79106      1833.649 6        40.563
I02        33.000    36918719.232 7 144876963.07307      -545.793 7        42.609
R15        34.000    20665432.514 8 110429904.72908      1862.178 8        50.272                                                                    20665437.427 7  85889984.39107      1448.333 7        46.167
R13        35.000    23123452.953 6 123477875.17106     -3773.047 6        38.027
G29        36.000    25068609.342 6 131736495.51806      3325.486 6        39.201                                    25068620.212 5 102651865.99905      2591.259 5        30.166    25068621.117 5 102651876.03705      2591.448 5        35.405
C42        37.000                                                                                                                                    25370308.628 7 132109782.93607     -3002.409 7        42.197                                                                    25370324.355 7 107350049.65207     -2439.842 7        43.321
C10        38.000                                                                                                                                    39162346.457 6 203928564.42606     -1210.298 6        40.164    39162349.710 7 157690490.57607      -935.888 7        43.263    39162346.356 6 165708642.19906      -983.528 6        39.763
E25        39.000    24184968.615 7 127093027.51707       940.366 7        47.095                                                                    24184973.655 8  94907245.11208       702.276 8        49.825    24184972.766 8  97383072.39408       720.567 8        50.414
C30        40.000                                                                                                                                    26595022.889 6 138487277.37106     -3479.258 6        38.000                                                                    26595030.713 6 112532292.16206     -2827.020 6        37.720
R23        41.000    21695034.293 7 116053875.65407     -2822.762 7        44.874
S44        42.000    40705134.946 6 213906939.19606      -447.065 6        37.543
C05        44.000                                                                                                                                    39389250.814 6 205110063.52506      -519.375 6        38.538    39389254.259 7 158604100.54207      -401.489 7        42.671    39389254.102 6 166668802.71406      -422.082 6        39.634
R14        45.000    19485193.599 8 103867151.25108     -1227.341 8        52.072                                                                    19485197.427 8  80785643.05208      -954.599 8        48.042
R17        47.000    23176326.574 7 124021265.46307      4033.553 7        43.325                                                                    23176338.145 7  96461071.40807      3137.212 7        42.317
C35        48.000                                                                                                                                    23257288.023 8 121106900.36908      2147.653 8        48.359                                                                    23257290.941 7  98409327.65207      1745.003 7        46.922
C45        50.000                                                                                                                                    23037364.113 8 119961594.19908     -2547.294 8        48.423                                                                    23037360.208 8  97478603.24508     -2070.017 8        48.688
S48        51.000    77072327.578 6 405018904.15306      -528.066 6        38.655
C33        52.000                                                                                                                                    25527941.938 7 132930689.36007      -659.858 7        42.339                                                                    25527961.091 7 108017155.92507      -536.263 7        42.734
E33        53.000    26757660.729 6 140612568.40406      -639.141 6        39.006                                                                    26757668.400 7 105002970.07307      -477.406 7        43.445    26757666.660 7 107742166.18707      -489.828 7        43.357
C60        54.000                                                                                                                                    40705134.488 6 211962348.55206      -443.195 6        39.165                                                                    40705127.675 6 172236703.87306      -360.193 6        39.940
E31        55.000    26937587.439 6 141557887.39806     -2938.526 6        39.510                                                                    26937597.920 7 105708816.17607     -2194.305 7        43.077    26937596.313 7 108466436.84407     -2251.631 7        43.069
C26        56.000                                                                                                                                    21729472.695 8 113151154.31208       277.169 8        50.763                                                                    21729474.806 8  91944623.60208       225.137 8        49.547
C02        57.000                                                                                                                                    40880344.376 5 212874535.08405      -473.554 5        32.371    40880350.607 6 164608036.63406      -366.264 6        36.284    40880351.742 5 172977959.27505      -385.170 5        33.042
I03        58.000    90559114.520 5 279587904.93705       965.342 5        32.976
R06        59.000    23428332.535 5 125018080.33815      2154.689 5        34.076
R24        60.000    20483092.050 8 109532424.96408      1612.906 8        50.753                                                                    20483096.164 7  85191950.35607      1254.398 7        46.173
> 2025 01 02 12 45 20.0000000  0 53
E24         1.000    23803600.243 8 125088881.19008     -1424.351 8        48.384                                                                    23803603.012 8  93410596.28108     -1063.699 8        50.956    23803602.045 8  95847383.33608     -1091.420 8        51.515
E03         3.000    24796229.510 7 130305069.49407      -471.621 7        45.094                                                                    24796235.611 8  97305746.73408      -352.156 8        48.491    24796234.614 8  99844158.39908      -361.318 8        49.257
G19         4.000    22320570.844 7 117295526.70007     -3132.051 7        45.109                                    22320571.038 5  91399137.78405     -2440.559 5        32.748
S21         5.000    38365358.687 7 201610886.35407      -518.822 7        43.094
E05         6.000    23722877.186 7 124664476.97207     -3038.432 7        45.062                                                                    23722884.166 7  93093564.10407     -2269.003 7        47.680    23722883.112 8  95522092.90008     -2328.149 8        48.367
G25         7.000    21451720.142 7 112729668.58107      2067.611 7        45.427                                    21451723.698 7  87841371.68007      1611.124 7        44.056    21451724.173 7  87841372.69107      1611.067 7        42.811
C29         8.000                                                                                                                                    22940121.527 8 119455259.02608     -1176.889 8        48.493                                                                    22940122.938 7  97067200.41307      -956.285 7        47.246
R05         9.000    21194465.375 8 113296616.82008     -1997.198 8        48.670                                                                    21194470.073 7  88119642.28207     -1553.480 7        44.649
G24        10.000    20852486.452 8 109580550.77308     -2741.689 8        48.968                                    20852488.371 8  85387455.16408     -2136.378 8        50.536    20852488.693 7  85387460.16007     -2136.417 7        44.694
C14        11.000                                                                                                                                    25106231.650 7 130734726.11707     -1962.435 7        42.193    25106237.058 7 101092404.98407     -1517.431 7        46.230    25106233.041 7 106232681.10207     -1594.639 7        43.196
S27        12.000    39145758.196 6 205712252.21706      -539.540 6        36.393
E08        13.000    27703690.268 6 145583905.78006      1843.525 6        38.282                                                                    27703703.383 6 108715323.42906      1376.738 6        41.917    27703701.641 7 111551365.92007      1412.577 7        43.073
S36        14.000    38136342.226 7 200408248.37607      -518.990 7        44.880
G06        15.000    23066355.470 7 121214605.10207       706.567 7        42.034                                    23066360.468 6  94453005.79906       550.567 6        39.685    23066361.414 6  94453007.79306       550.641 6        41.008
G12        17.000    20098643.150 8 105619258.57308      -208.928 8        50.805                                    20098641.837 8  82300803.60708      -162.801 8        52.009    20098642.517 7  82300800.60207      -162.823 7        46.564
G32        18.000    23101916.687 7 121401426.04507       963.652 7        45.667                                    23101921.943 6  94598562.71806       750.897 6        41.866    23101922.405 6  94598566.72906       750.883 6        41.950
E02        19.000    28407038.185 6 149279995.47106      1991.011 6        36.722                                                                    28407050.171 6 111475377.06106      1486.797 6        38.318    28407048.236 6 114383421.75306      1525.276 6        38.544
E10        21.000    27420490.990 6 144095722.40106      2432.486 6        39.637                                                                    27420502.683 7 107604038.35207      1816.391 7        43.932    27420500.748 7 110411090.33707      1863.718 7        43.591
I06        22.000    38383985.995 6 150627095.02106      -494.281 6        41.623
S28        23.000    40833947.090 5 214583638.23905      -527.603 5        35.762
S23        25.000    38075413.954 7 200087512.72107      -523.695 7        45.595
S45        26.000    63328477.707 6 332793907.93706      -581.493 6        36.945
C07        27.000                                                                                                                                    40143962.981 6 209040053.96906     -1451.640 6        37.497    40143965.907 6 161642999.31506     -1122.577 6        40.114    40143962.523 6 169862130.15906     -1179.701 6        37.864
R04        28.000    22660932.750 7 121348173.30107     -4639.405 7        45.502                                                                    22660940.371 6  94381868.89706     -3608.278 6        40.629
C40        29.000                                                                                                                                    40682289.350 6 211843264.96406     -1722.687 6        38.727                                                                    40682294.839 6 172139990.35706     -1399.695 6        37.021
G17        30.000    25397454.627 6 133464577.78106     -3965.046 6        36.832                                    25397459.558 4 103998414.22904     -3089.654 4        27.832    25397459.680 5 103998411.26705     -3089.659 5        35.762
E12        31.000    26893986.454 6 141328931.48106      1825.602 6        36.824                                                                    26893992.618 6 105537919.07706      1363.370 6        41.642    26893991.441 7 108291068.83507      1398.953 7        42.036
G11        32.000    24022742.916 7 126240452.01007      2351.784 7        42.186                                    24022747.971 4  98369254.27904      1832.557 4        26.192    24022747.475 6  98369245.28606      1832.450 6        40.632
I02        33.000    36919414.484 7 144879692.34207      -546.195 7        42.660
R15        34.000    20663691.064 8 110420597.01208      1860.795 8        50.604                                                                    20663695.513 7  85882745.05607      1447.272 7        45.892
R13        35.000    23126986.206 6 123496741.83406     -3773.732 6        37.909
G29        36.000    25065445.225 6 131719868.79106      3325.038 6        39.501                                    25065456.002 4 102638910.26604      2590.904 4        29.867    25065456.218 5 102638920.33305      2591.079 5        34.914
