     3.04           OBSERVATION DATA    M                   RINEX VERSION / TYPE
ssrcrin-15.6.1x                         20250102 144500 UTC PGM / RUN BY / DATE 
(00000000023479385599111004) Septentrio proprietary         COMMENT             
rref                                                        MARKER NAME         
01                                                          MARKER NUMBER       
geodetic                                                    MARKER TYPE         
NFB                 CLIMERS@TUW                             OBSERVER / AGENCY   
3297213             SEPT ASTERX SB3 PROB4.14.4              REC # / TYPE / VERS 
Unknown             Unknown                                 ANT # / TYPE        
  4127831.9521  1207193.0758  4695247.5553                  APPROX POSITION XYZ 
        0.0000        0.0000        0.0000                  ANTENNA: DELTA H/E/N
G   23 X1  C1C L1C D1C S1C C1W S1W C2W L2W D2W S2W C2L L2L  SYS / # / OBS TYPES 
       D2L S2L C5Q L5Q D5Q S5Q C1L L1L D1L S1L              SYS / # / OBS TYPES 
E   21 X1  C1C L1C D1C S1C C6C L6C D6C S6C C5Q L5Q D5Q S5Q  SYS / # / OBS TYPES 
       C7Q L7Q D7Q S7Q C8Q L8Q D8Q S8Q                      SYS / # / OBS TYPES 
S    9 X1  C1C L1C D1C S1C C5I L5I D5I S5I                  SYS / # / OBS TYPES 
R   17 X1  C1C L1C D1C S1C C2P L2P D2P S2P C2C L2C D2C S2C  SYS / # / OBS TYPES 
       C3Q L3Q D3Q S3Q                                      SYS / # / OBS TYPES 
C   25 X1  C1P L1P D1P S1P C5P L5P D5P S5P C2I L2I D2I S2I  SYS / # / OBS TYPES 
       C7I L7I D7I S7I C6I L6I D6I S6I C7D L7D D7D S7D      SYS / # / OBS TYPES 
J   17 X1  C1C L1C D1C S1C C2L L2L D2L S2L C5Q L5Q D5Q S5Q  SYS / # / OBS TYPES 
       C1L L1L D1L S1L                                      SYS / # / OBS TYPES 
I    5 X1  C5A L5A D5A S5A                                  SYS / # / OBS TYPES 
SEPTENTRIO RECEIVERS OUTPUT ALIGNED CARRIER PHASES.         COMMENT             
NO FURTHER PHASE SHIFT APPLIED IN THE RINEX ENCODER.        COMMENT             
G L1C                                                       SYS / PHASE SHIFT   
G L2W                                                       SYS / PHASE SHIFT   
G L2L  0.00000                                              SYS / PHASE SHIFT   
G L5Q  0.00000                                              SYS / PHASE SHIFT   
G L1L  0.00000                                              SYS / PHASE SHIFT   
E L1C  0.00000                                              SYS / PHASE SHIFT   
E L6C  0.00000                                              SYS / PHASE SHIFT   
E L5Q  0.00000                                              SYS / PHASE SHIFT   
E L7Q  0.00000                                              SYS / PHASE SHIFT   
E L8Q  0.00000                                              SYS / PHASE SHIFT   
S L1C                                                       SYS / PHASE SHIFT   
S L5I                                                       SYS / PHASE SHIFT   
R L1C                                                       SYS / PHASE SHIFT   
R L2P  0.00000                                              SYS / PHASE SHIFT   
R L2C                                                       SYS / PHASE SHIFT   
R L3Q  0.00000                                              SYS / PHASE SHIFT   
C L1P  0.00000                                              SYS / PHASE SHIFT   
C L5P  0.00000                                              SYS / PHASE SHIFT   
C L2I                                                       SYS / PHASE SHIFT   
C L7I                                                       SYS / PHASE SHIFT   
C L6I                                                       SYS / PHASE SHIFT   
C L7D                                                       SYS / PHASE SHIFT   
J L1C                                                       SYS / PHASE SHIFT   
J L2L  0.00000                                              SYS / PHASE SHIFT   
J L5Q  0.00000                                              SYS / PHASE SHIFT   
J L1L  0.00000                                              SYS / PHASE SHIFT   
I L5A                                                       SYS / PHASE SHIFT   
  2025     1     2    14    45    0.0000000     GPS         TIME OF FIRST OBS   
 C1C    0.000 C2C    0.000 C2P    0.000                     GLONASS COD/PHS/BIS 
DBHZ                                                        SIGNAL STRENGTH UNIT
    18                                                      LEAP SECONDS        
 24 R01  1 R02 -4 R03  5 R04  6 R05  1 R06 -4 R07  5 R08  6 GLONASS SLOT / FRQ #
    R09 -2 R10 -7 R11  0 R12 -1 R13 -2 R14 -7 R15  0 R16 -1 GLONASS SLOT / FRQ #
    R17  4 R18 -3 R19  3 R20  2 R21  4 R22 -3 R23  3 R24  2 GLONASS SLOT / FRQ #
                                                            END OF HEADER       
> 2025 01 02 14 45  0.0000000  0 55
E24         1.000    25994915.181 7 136604308.58507     -2575.122 7        43.164                                                                    25994918.836 7 102009776.03907     -1922.989 7        46.415    25994917.605 7 104670889.87307     -1973.125 7        47.002
E11         2.000    24798769.012 7 130318557.32507      1450.204 7        42.916                                                                    24798768.944 7  97315915.91607      1083.015 7        44.950    24798768.572 7  99854579.94907      1111.307 7        45.603
E03         3.000    26978243.451 6 141771572.49206     -3190.830 6        39.799                                                                    26978253.305 7 105868378.44507     -2382.678 7        42.391    26978251.848 7 108630165.03307     -2444.784 7        43.520
C41         4.000                                                                                                                                    27245496.418 6 141874420.56606     -2036.109 6        36.181                                                                    27245512.986 6 115284652.08106     -1654.366 6        39.697
S21         5.000    38464735.929 7 202133151.13507      -505.024 7        43.107
G26         6.000    25425109.127 6 133609850.89006      2925.757 6        36.280                                    25425123.546 4 104111643.81204      2279.797 4        24.105    25425123.777 5 104111630.85105      2279.845 5        34.167
G25         7.000    19834276.101 8 104229989.75208      -800.511 8        49.423                                    19834276.920 8  81218256.85908      -623.774 8        50.238    19834277.537 7  81218257.86207      -623.785 7        45.368
C29         8.000                                                                                                                                    26094355.270 6 135880185.55006     -3684.674 6        40.093                                                                    26094356.539 6 110413799.29706     -2994.154 6        39.222
E36         9.000    27480366.941 6 144410345.54506      2809.470 6        39.033                                                                    27480378.403 6 107838993.81106      2098.018 6        41.611    27480377.097 7 110652177.35107      2152.621 7        43.084
G20        11.000    24674268.192 6 129664193.63406      1742.062 6        37.357                                    24674269.722 3 101037075.59103      1357.484 3        18.030
S27        12.000    39262392.676 6 206325257.44306      -508.981 6        36.287
E08        13.000    26558174.093 6 139564270.45106     -1277.655 6        41.673                                                                    26558180.307 7 104220168.69907      -954.047 7        43.945    26558179.098 7 106938943.07107      -979.007 7        44.713
S36        14.000    38236041.916 7 200932184.79807      -505.055 7        44.773
G06        15.000    24611509.173 6 129334470.91406     -3531.186 6        37.709                                    24611512.042 5 100780181.44205     -2751.583 5        31.434    24611513.383 6 100780183.44606     -2751.501 6        36.752
G12        17.000    21816860.457 7 114648550.56407     -2986.446 7        46.481                                    21816859.511 7  89336615.11507     -2327.099 7        45.144    21816859.878 7  89336612.11207     -2327.177 7        42.997
G32        18.000    24151909.428 6 126919139.56106     -3019.774 6        41.356                                    24151916.406 5  98898071.16705     -2353.063 5        35.505    24151917.143 6  98898075.14906     -2353.055 6        38.099
E02        19.000    25349109.156 7 133210582.23307      1542.797 7        43.882                                                                    25349113.817 7  99475522.61107      1152.115 7        46.728    25349112.692 7 102070523.87407      1182.088 7        47.265
E10        21.000    24855014.388 7 130614166.46007       -68.236 7        45.989                                                                    24855017.393 8  97536676.52108       -51.010 8        48.822    24855016.718 8 100081097.73708       -52.292 8        49.555
I06        22.000    38653897.897 7 151686310.99007      -452.030 7        42.171
S28        23.000    40941898.985 5 215151037.14605      -508.641 5        34.919
S23        25.000    38181694.925 7 200646051.41407      -509.957 7        45.248
S45        26.000    63437749.410 6 333368054.69806      -570.083 6        36.272
C07        27.000                                                                                                                                    41493768.043 5 216068917.65905     -1341.153 5        33.737    41493764.632 6 167078183.22106     -1037.623 6        37.119    41493762.604 5 175573674.28005     -1090.107 5        33.916
R18        28.000    21081084.346 8 112532486.17708      3264.637 8        49.935                                                                    21081088.980 7  87525401.49207      2539.126 7        46.126
C38        29.000                                                                                                                                    39885867.327 6 207696218.37906      1100.300 6        41.445                                                                    39885868.408 6 168770219.11706       893.908 6        40.532
C44        30.000                                                                                                                                    22159932.579 8 115392761.09608      1482.426 8        49.966                                                                    22159933.609 8  93766146.05908      1204.587 8        48.492
E12        31.000    25859404.087 6 135892224.49306     -1431.475 6        39.793                                                                    25859405.611 7 101478058.37407     -1069.028 7        43.071    25859404.921 7 104125296.62907     -1096.814 7        44.191
G11        32.000    22544730.960 7 118473528.20107     -1566.532 7        45.148                                    22544730.929 5  92317126.37205     -1220.678 5        33.683    22544730.915 7  92317117.36707     -1220.607 7        44.164
I02        33.000    37479833.214 7 147078911.82307      -713.794 7        42.518
R15        34.000    19366441.228 8 103488529.07008     -1275.469 8        52.286                                                                    19366443.469 7  80491146.81607      -992.013 7        47.594
R07        35.000    23310984.468 7 124785472.16007      -566.481 7        43.863                                                                    23310991.142 6  97055357.50006      -440.580 6        41.597
G29        36.000    20978855.533 8 110244886.95308      1259.794 8        48.645                                    20978854.111 8  85905206.93308       981.656 8        49.260    20978854.440 7  85905216.93607       981.685 7        45.148
G31        37.000    23467450.767 6 123322415.18206      2595.656 6        41.440                                    23467452.942 6  96095462.40906      2022.579 6        36.578    23467453.287 6  96095468.43306      2022.661 6        39.396
C10        38.000                                                                                                                                    40259749.391 6 209643054.98706     -1206.610 6        36.431    40259751.783 6 162109303.19506      -932.862 6        40.403    40259748.794 6 170352138.73506      -980.529 6        37.769
E25        39.000    23282591.049 8 122351030.78908      -534.566 8        48.133                                                                    23282594.015 8  91366152.11208      -399.135 8        50.727    23282593.326 8  93749602.06508      -409.550 8        51.240
C12        40.000                                                                                                                                    24073360.428 7 125356424.92407      2549.064 7        43.407    24073362.270 8  96933614.51508      1971.121 8        49.000    24073360.241 7 101862419.38707      2071.303 7        46.494
E07        41.000    28369759.692 6 149084050.32906      1063.696 6        36.533                                                                    28369769.990 6 111329004.26906       794.407 6        40.327    28369769.276 7 114233236.59107       815.217 7        42.080
S44        42.000    40697475.740 6 213866769.32906      -423.147 6        37.947
G28        43.000    21844758.394 7 114795138.69807      1326.867 7        45.610                                    21844758.237 5  89450839.79705      1033.921 5        35.062    21844758.476 7  89450839.80307      1033.955 7        45.550
C05        44.000                                                                                                                                    39471511.587 6 205538457.70406      -470.138 6        38.054    39471512.112 7 158935373.34007      -363.719 7        43.081    39471512.371 6 167016917.13106      -382.038 6        39.562
R14        45.000    22514921.226 7 120017275.73507     -4001.340 7        44.877                                                                    22514928.418 7  93346842.33807     -3112.149 7        44.527
R16        46.000    20659122.066 8 110357473.44808      2352.460 8        51.110                                                                    20659125.551 7  85833691.93907      1829.729 7        46.503
R17        47.000    19311524.112 8 103340083.90608      -205.199 8        52.303                                                                    19311525.193 7  80375748.37207      -159.635 7        46.844
C35        48.000                                                                                                                                    22032680.195 8 114730094.44708     -1414.622 8        50.567                                                                    22032681.112 8  93227660.34008     -1149.459 8        49.179
C24        49.000                                                                                                                                    21691178.004 8 112951701.57208       586.762 8        50.994                                                                    21691176.762 8  91782526.63608       476.805 8        50.215
S48        51.000    77176795.435 6 405566824.36506      -529.511 6        37.819
C08        52.000                                                                                                                                    40069078.763 6 208650227.16906      1620.725 6        37.198    40069079.111 7 161341598.44907      1253.330 7        42.635    40069076.329 6 169545401.11906      1316.887 6        38.381
C34        53.000                                                                                                                                    26234492.945 6 136609936.48506      2929.492 6        39.796                                                                    26234503.835 6 111006831.53206      2380.438 6        39.246
C60        54.000                                                                                                                                    40697476.785 6 211922544.49906      -419.481 6        38.991                                                                    40697466.971 6 172204374.88206      -340.597 6        40.625
C25        55.000                                                                                                                                    25499960.620 6 132785086.95906      2573.645 6        41.480                                                                    25499966.165 6 107898822.82506      2091.233 6        41.883
C26        56.000                                                                                                                                    22526323.324 8 117300570.22308     -2390.902 8        50.054                                                                    22526324.922 8  95316365.19608     -1942.775 8        48.373
C02        57.000                                                                                                                                    40897887.320 5 212965970.68005      -424.409 5        33.257    40897887.586 6 164678763.35406      -327.800 6        40.007    40897889.204 5 173052276.62605      -344.651 5        35.214
I03        58.000    88124517.694 6 270034139.86206      1036.611 6        36.699
R06        59.000    23782599.675 5 126908528.93905     -3358.502 5        33.126
R24        60.000    21860982.354 7 116900625.57207     -4068.126 7        47.907                                                                    21860985.905 7  90922773.98907     -3164.099 7        42.864
> 2025 01 02 14 45  5.0000000  0 56
E24         1.000    25997365.598 7 136617185.97707     -2575.938 7        43.221                                                                    25997369.312 7 102019392.27407     -1923.653 7        46.424    25997368.027 7 104680756.95707     -1973.693 7        46.900
E11         2.000    24797390.159 7 130311311.08007      1448.216 7        43.221                                                                    24797390.088 7  97310504.78007      1081.456 7        45.055    24797389.571 7  99849027.64907      1109.687 7        45.338
E03         3.000    26981279.520 6 141787528.21806     -3191.652 6        40.117                                                                    26981289.700 7 105880293.40707     -2383.387 7        42.485    26981288.233 7 108642390.82807     -2445.592 7        43.374
C41         4.000                                                                                                                                    27247451.943 6 141884604.90306     -2038.031 6        38.622                                                                    27247468.585 6 115292927.75906     -1656.018 6        39.535
S21         5.000    38465216.382 7 202135676.06207      -505.073 7        43.092
G26         6.000    25422326.712 5 133595222.66705      2925.445 5        34.900                                    25422340.019 3 104100245.27003      2279.542 3        23.924    25422339.589 5 104100232.30505      2279.497 5        33.263
G25         7.000    19835038.902 8 104233997.88308      -802.895 8        49.285                                    19835039.645 8  81221380.08108      -625.635 8        50.156    19835040.015 7  81221381.08607      -625.653 7        45.144
C29         8.000                                                                                                                                    26097893.899 6 135898610.08306     -3685.226 6        40.045                                                                    26097894.615 6 110428770.77606     -2994.494 6        39.132
E36         9.000    27477693.515 6 144396298.53206      2809.219 6        38.532                                                                    27477705.065 6 107828504.24006      2097.813 6        41.595    27477704.173 7 110641414.14107      2152.437 7        43.295
G20        11.000    24672611.654 6 129655487.61106      1740.193 6        37.267                                    24672612.905 3 101030291.68003      1355.963 3        18.209
S27        12.000    39262878.733 6 206327802.21506      -509.024 6        36.333
E08        13.000    26559390.594 6 139570664.42506     -1280.066 6        41.774                                                                    26559396.972 7 104224943.40907      -955.867 7        44.001    26559395.838 7 106943842.34007      -980.750 7        44.579
S36        14.000    38236522.213 7 200934709.90407      -505.097 7        44.870
G06        15.000    24614869.719 6 129352131.52606     -3532.956 6        36.711                                    24614872.873 5 100793942.98205     -2752.961 5        31.404    24614873.849 6 100793945.00306     -2753.043 6        37.161
G12        17.000    21819702.860 7 114663486.31807     -2987.926 7        46.726                                    21819701.652 7  89348253.36307     -2328.254 7        44.995    21819702.060 7  89348250.36007     -2328.189 7        42.660
G32        18.000    24154783.567 7 126934242.41407     -3021.464 7        42.500                                    24154790.416 5  98909839.59605     -2354.382 5        35.362    24154790.526 6  98909843.60206     -2354.600 6        37.735
E02        19.000    25347641.909 7 133202869.68707      1542.155 7        43.556                                                                    25347646.195 7  99469763.25807      1151.661 7        46.848    25347645.009 7 102064614.27807      1181.631 7        47.188
E10        21.000    24855080.520 7 130614514.08107       -70.805 7        45.905                                                                    24855083.514 8  97536936.12008       -52.943 8        48.830    24855082.802 8 100081364.10608       -54.283 8        49.471
I06        22.000    38654473.812 7 151688570.81107      -451.984 7        42.044
S28        23.000    40942381.397 5 215153580.88505      -508.819 5        34.771
S23        25.000    38182180.127 7 200648601.31107      -510.039 7        45.350
S45        26.000    63438240.506 6 333370902.64306      -569.566 6        36.454
C07        27.000                                                                                                                                    41495056.866 5 216075625.58905     -1341.663 5        34.052    41495052.597 6 167083370.19706     -1037.479 6        37.130    41495050.997 5 175579124.99405     -1090.107 5        34.000
R18        28.000    21078028.130 8 112516169.15808      3262.112 8        49.408                                                                    21078031.917 7  87512710.48907      2537.159 7        45.743
C38        29.000                                                                                                                                    39884810.756 6 207690719.36506      1099.342 6        41.528                                                                    39884812.505 6 168765750.71906       893.341 6        40.765
C44        30.000                                                                                                                                    22158510.294 8 115385354.33008      1480.211 8        50.044                                                                    22158511.201 8  93760127.45708      1202.845 8        48.536
E12        31.000    25860767.332 6 135899388.00106     -1434.050 6        39.910                                                                    25860768.875 7 101483407.74607     -1070.786 7        43.084    25860768.120 7 104130785.57007     -1098.758 7        44.090
G11        32.000    22546223.197 7 118481368.70807     -1569.788 7        44.849                                    22546222.912 5  92323235.86305     -1223.213 5        33.503    22546223.055 7  92323226.85607     -1223.130 7        44.236
I02        33.000    37480742.637 7 147082480.98707      -713.927 7        42.633
R15        34.000    19367636.164 8 103494913.87808     -1278.510 8        52.231                                                                    19367637.914 7  80496112.77807      -994.414 7        47.107
R07        35.000    23311514.757 7 124788315.29107      -570.852 7        44.512                                                                    23311522.539 6  97057568.83806      -444.146 6        41.900
G29        36.000    20977657.830 8 110238593.64008      1257.440 8        48.322                                    20977656.525 8  85900303.06108       979.820 8        49.147    20977657.001 7  85900313.06007       979.800 7        45.199
G31        37.000    23464981.538 6 123309441.39606      2593.929 6        41.163                                    23464984.074 6  96085353.00406      2021.231 6        36.405    23464984.550 6  96085359.03806      2021.188 6        39.240
C10        38.000                                                                                                                                    40260908.333 6 209649088.08406     -1206.747 6        36.915    40260910.284 6 162113968.39106      -933.008 6        40.346    40260907.399 6 170357041.12706      -980.486 6        37.796
E25        39.000    23283099.913 7 122353706.22707      -535.732 7        47.986                                                                    23283103.150 8  91368150.01808      -400.059 8        50.879    23283102.401 8  93751652.09008      -410.516 8        51.194
C12        40.000                                                                                                                                    24070913.690 7 125343682.56407      2547.834 7        43.029    24070915.445 8  96923761.34308      1970.064 8        49.290    24070913.101 7 101852065.18007      2070.306 7        46.476
E07        41.000    28368748.757 6 149078736.29106      1061.663 6        37.070                                                                    28368758.728 6 111325036.01406       792.887 6        40.491    28368757.937 7 114229164.80807       813.600 7        42.197
S44        42.000    40697879.975 6 213868884.93906      -423.327 6        38.132
G28        43.000    21843497.466 7 114788511.01207      1324.025 7        45.741                                    21843497.025 5  89445675.37405      1031.706 5        34.905    21843497.475 7  89445675.38507      1031.706 7        45.606
C05        44.000                                                                                                                                    39471962.577 6 205540809.08006      -470.220 6        38.129    39471963.554 7 158937191.56707      -363.742 7        43.137    39471963.889 6 167018827.81206      -382.260 6        39.498
R14        45.000    22518675.334 7 120037285.63207     -4002.832 7        45.228                                                                    22518682.415 7  93362405.56107     -3113.269 7        44.525
R16        46.000    20656921.104 8 110345715.06708      2350.749 8        51.809                                                                    20656924.490 7  85824546.54607      1828.328 7        46.553
R17        47.000    19311718.069 8 103341121.15808      -209.805 8        52.244                                                                    19311719.237 7  80376555.13207      -163.154 7        46.393
C35        48.000                                                                                                                                    22034039.953 8 114737173.29108     -1417.030 8        50.659                                                                    22034040.579 8  93233412.48708     -1151.420 8        49.311
C24        49.000                                                                                                                                    21690615.597 8 112948772.61808       584.700 8        50.957                                                                    21690614.258 8  91780146.62008       475.172 8        50.293
C45        50.000                                                                                                                                    26904529.861 3                     -3714.079 3        20.143
S48        51.000    77177280.964 6 405569470.87306      -529.419 6        37.626
C08        52.000                                                                                                                                    40067523.128 6 208642125.11006      1620.025 6        37.036    40067523.420 7 161335333.44707      1252.689 7        42.519    40067520.354 6 169538817.52206      1316.502 6        38.405
C34        53.000                                                                                                                                    26231680.001 6 136595289.89406      2929.145 6        40.195                                                                    26231691.045 6 110994930.05806      2380.205 6        39.222
C60        54.000                                                                                                                                    40697879.593 6 211924640.86506      -419.482 6        39.261                                                                    40697869.561 6 172206078.38406      -340.664 6        40.806
C25        55.000                                                                                                                                    25497489.692 6 132772219.44106      2573.186 6        41.344                                                                    25497495.081 6 107888366.94906      2091.141 6        41.890
C26        56.000                                                                                                                                    22528620.002 8 117312529.12408     -2392.804 8        50.389                                                                    22528621.521 8  95326082.78208     -1944.311 8        48.456
C02        57.000                                                                                                                                    40898294.801 5 212968091.76305      -424.267 5        33.593    40898295.237 6 164680403.56906      -328.174 6        40.052    40898296.301 5 173054000.17505      -344.618 5        35.405
I03        58.000    88123197.082 6 270028957.31806      1036.499 6        36.628
R06        59.000    23785748.426 5 126925328.37905     -3360.867 5        32.533
R24        60.000    21864787.618 7 116920971.58907     -4070.387 7        47.959                                                                    21864790.776 7  90938598.66207     -3165.897 7        43.386
> 2025 01 02 14 45 10.0000000  0 56
E24         1.000    25999816.823 7 136630066.45407     -2576.624 7        43.052                                                                    25999820.329 7 102029010.79607     -1924.164 7        46.403    25999819.086 7 104690626.40707     -1974.338 7        46.818
E11         2.000    24796012.975 7 130304074.71307      1446.107 7        43.255                                                                    24796013.037 7  97305101.00107      1079.864 7        44.972    24796012.497 7  99843482.90507      1108.047 7        45.404
E03         3.000    26984316.791 6 141803487.86006     -3192.485 6        40.129                                                                    26984326.754 7 105892211.28607     -2384.008 7        42.624    26984325.267 7 108654619.62207     -2446.240 7        43.365
C41         4.000                                                                                                                                    27249408.951 6 141894799.49506     -2040.063 6        39.595                                                                    27249426.335 6 115301211.68506     -1657.867 6        39.610
S21         5.000    38465699.394 7 202138200.90007      -505.233 7        43.045
G26         6.000    25419541.688 5 133580594.16405      2925.594 5        34.705                                    25419556.390 3 104088846.51003      2279.688 3        23.181    25419555.344 5 104088833.53705      2279.661 5        32.683
G25         7.000    19835803.730 8 104238017.64208      -805.319 8        49.462                                    19835804.574 8  81224512.36608      -627.520 8        50.290    19835805.382 7  81224513.37407      -627.520 7        45.115
C29         8.000                                                                                                                                    26101432.128 6 135917036.86306     -3685.828 6        39.835                                                                    26101433.191 6 110443744.08706     -2995.008 6        39.189
E36         9.000    27475020.571 6 144382252.22406      2808.979 6        38.372                                                                    27475032.204 6 107818015.19406      2097.596 6        41.552    27475031.147 7 110630651.47407      2152.274 7        43.680
G20        11.000    24670956.117 6 129646789.27406      1738.752 6        37.996                                    24670957.600 3 101023513.77603      1354.859 3        18.537
S27        12.000    39263366.645 6 206330347.20306      -509.186 6        36.359
E08        13.000    26560609.587 6 139577069.86206     -1282.628 6        41.361                                                                    26560615.993 7 104229726.69107      -957.641 7        44.041    26560614.722 7 106948750.40107      -982.569 7        44.618
S36        14.000    38237002.850 7 200937234.31807      -505.106 7        44.680
G06        15.000    24618232.442 6 129369801.00006     -3535.000 6        37.493                                    24618235.341 5 100807711.43005     -2754.551 5        31.487    24618236.334 6 100807713.44506     -2754.690 6        37.539
G12        17.000    21822546.461 7 114678429.19607     -2989.463 7        47.372                                    21822545.103 7  89359897.16107     -2329.451 7        45.187    21822545.734 7  89359894.17707     -2329.536 7        42.703
G32        18.000    24157659.348 7 126949352.74507     -3023.070 7        42.353                                    24157665.978 5  98921613.85105     -2355.635 5        35.543    24157666.084 6  98921617.84206     -2355.570 6        38.180
E02        19.000    25346174.525 7 133195159.40807      1541.643 7        43.115                                                                    25346178.935 7  99464005.60507      1151.182 7        46.800    25346177.777 7 102058706.41307      1181.224 7        47.154
E10        21.000    24855149.110 7 130614874.27507       -73.500 7        45.704                                                                    24855152.065 8  97537205.10208       -54.912 8        48.829    24855151.315 8 100081640.10508       -56.365 8        49.422
I06        22.000    38655049.364 6 151690830.30906      -452.066 6        41.979
S28        23.000    40942866.644 5 215156124.10005      -508.847 5        34.771
S23        25.000    38182664.815 7 200651151.08907      -510.090 7        45.359
S45        26.000    63438723.388 6 333373750.37306      -569.690 6        36.503
C07        27.000                                                                                                                                    41496344.606 5 216082332.69005     -1341.617 5        34.109    41496340.951 6 167088556.59506     -1037.440 6        36.711    41496338.660 5 175584575.09705     -1090.076 5        33.850
R18        28.000    21074973.263 8 112499864.37208      3259.496 8        49.708                                                                    21074977.789 7  87500029.00707      2535.197 7        45.384
C38        29.000                                                                                                                                    39883755.224 6 207685224.18506      1098.407 6        41.607                                                                    39883757.266 6 168761285.44306       892.570 6        40.691
C44        30.000                                                                                                                                    22157089.861 8 115377958.03108      1477.986 8        50.167                                                                    22157090.758 8  93754117.37208      1200.936 8        48.525
E12        31.000    25862133.003 6 135906563.37006     -1436.573 6        40.000                                                                    25862134.204 7 101488765.97807     -1072.664 7        43.069    25862133.607 7 104136283.57207     -1100.741 7        44.153
G11        32.000    22547718.202 7 118489225.02407     -1573.005 7        45.305                                    22547717.879 5  92329357.67405     -1225.719 5        33.689    22547718.084 7  92329348.67707     -1225.729 7        44.191
I02        33.000    37481652.592 7 147086050.51907      -714.223 7        42.451
R15        34.000    19368833.836 8 103501313.57808     -1281.668 8        52.180                                                                    19368835.814 7  80501090.32007      -996.842 7        47.365
R07        35.000    23312050.436 7 124791179.53807      -575.092 7        44.810                                                                    23312057.097 6  97059796.59806      -447.351 6        40.594
G29        36.000    20976462.299 8 110232311.77008      1254.970 8        48.376                                    20976461.126 8  85895408.10808       977.897 8        49.303    20976461.520 7  85895418.11007       977.974 7        45.150
G31        37.000    23462514.400 7 123296476.00707      2592.063 7        42.146                                    23462516.776 6  96075250.14906      2019.784 6        36.446    23462517.454 6  96075256.15206      2019.629 6        38.670
C10        38.000                                                                                                                                    40262066.910 6 209655120.67906     -1206.411 6        37.043    40262069.102 6 162118633.21306      -933.093 6        40.477    40262065.805 6 170361943.13306      -980.567 6        37.660
E25        39.000    23283610.210 7 122356387.19707      -536.982 7        47.928                                                                    23283613.264 8  91370152.04208      -401.016 8        50.794    23283612.562 8  93753706.33708      -411.470 8        51.143
C12        40.000                                                                                                                                    24068467.649 7 125330946.47707      2546.387 7        43.247    24068469.710 8  96913913.01508      1968.972 8        48.966    24068467.279 7 101841716.09507      2069.048 7        46.422
E07        41.000    28367739.110 6 149073432.03006      1059.695 6        36.465                                                                    28367749.579 6 111321075.02306       791.337 6        40.410    28367748.498 7 114225100.50207       811.899 7        42.191
S44        42.000    40698280.194 6 213871000.32606      -423.169 6        37.932
G28        43.000    21842238.694 7 114781896.97407      1321.180 7        45.713                                    21842238.366 5  89440521.58605      1029.486 5        35.086    21842238.542 7  89440521.59907      1029.531 7        45.484
C05        44.000                                                                                                                                    39472414.076 6 205543160.09206      -470.435 6        38.123    39472415.009 7 158939009.52707      -363.686 7        43.067    39472415.277 6 167020738.20406      -382.297 6        39.670
R14        45.000    22522430.750 7 120057302.47307     -4004.240 7        45.657                                                                    22522437.438 7  93377974.20907     -3114.507 7        44.376
R16        46.000    20654721.411 8 110333964.40908      2349.140 8        51.190                                                                    20654724.762 7  85815407.16807      1827.092 7        46.701
R17        47.000    19311915.836 8 103342180.48508      -214.313 8        51.961                                                                    19311916.879 7  80377379.05807      -166.714 7        46.567
C35        48.000                                                                                                                                    22035401.418 8 114744264.11808     -1419.568 8        50.574                                                                    22035402.251 8  93239174.37208     -1153.603 8        49.194
C24        49.000                                                                                                                                    21690054.912 8 112945853.42408       582.633 8        51.039                                                                    21690053.728 8  91777774.55208       473.349 8        50.235
C45        50.000                                                                                                                                    26908093.878 3                     -3711.779 3        20.286
S48        51.000    77177769.297 6 405572116.88906      -529.348 6        37.853
C08        52.000                                                                                                                                    40065967.974 6 208634025.80906      1619.521 6        37.361    40065967.522 7 161329070.61507      1252.165 7        42.322    40065964.941 6 169532236.24706      1315.639 6        38.447
C34        53.000                                                                                                                                    26228867.867 6 136580644.46006      2928.945 6        40.484                                                                    26228878.486 6 110983029.54806      2379.864 6        39.144
C60        54.000                                                                                                                                    40698282.294 6 211926737.03006      -419.485 6        39.201                                                                    40698272.136 6 172207781.72106      -340.911 6        40.768
C25        55.000                                                                                                                                    25495018.446 6 132759353.49206      2572.776 6        41.192                                                                    25495024.370 6 107877912.35206      2090.534 6        41.957
C26        56.000                                                                                                                                    22530918.452 8 117324497.18608     -2394.800 8        50.262                                                                    22530919.836 8  95335807.81008     -1946.020 8        48.362
C02        57.000                                                                                                                                    40898702.385 5 212970212.61405      -424.298 5        33.707    40898702.472 6 164682043.55206      -328.120 6        40.093    40898703.607 5 173055723.57305      -344.804 5        35.119
I03        58.000    88121876.353 6 270023774.42706      1036.455 6        36.836
R06        59.000    23788901.070 5 126942140.01905     -3363.695 5        32.048
R24        60.000    21868593.891 7 116941328.49107     -4072.670 7        47.331                                                                    21868597.505 7  90954431.81607     -3167.655 7        43.420
> 2025 01 02 14 45 15.0000000  0 56
E24         1.000    26002268.668 7 136642950.73307     -2577.366 7        43.556                                                                    26002272.039 7 102038632.17307     -1924.603 7        46.441    26002270.852 7 104700498.78007     -1974.844 7        46.848
E11         2.000    24794637.722 7 130296848.90007      1444.090 7        43.312                                                                    24794638.053 7  97299705.11107      1078.357 7        45.096    24794637.415 7  99837946.25207      1106.484 7        45.430
E03         3.000    26987354.488 6 141819452.10106     -3193.309 6        40.188                                                                    26987364.633 7 105904132.60607     -2384.672 7        42.777    26987363.373 7 108666851.92507     -2446.966 7        43.439
C41         4.000                                                                                                                                    27251368.340 6 141905004.79806     -2042.067 6        39.450                                                                    27251386.108 6 115309504.30306     -1659.395 6        39.285
S21         5.000    38466180.737 7 202140726.48107      -505.155 7        42.997
G26         6.000    25416757.622 5 133565966.08105      2925.331 5        35.729                                    25416772.398 3 104077448.07703      2279.463 3        22.724    25416772.302 5 104077435.06805      2279.656 5        32.449
G25         7.000    19836570.960 8 104242049.72008      -807.707 8        49.419                                    19836571.851 8  81227654.24708      -629.384 8        50.147    19836572.655 7  81227655.24907      -629.373 7        44.772
C29         8.000                                                                                                                                    26104971.053 6 135935466.54206     -3686.117 6        39.577                                                                    26104972.375 6 110458719.74606     -2995.401 6        38.895
E36         9.000    27472347.982 6 144368207.31506      2808.723 6        38.480                                                                    27472359.653 7 107807527.18507      2097.402 7        42.057    27472358.514 7 110619889.85407      2152.121 7        43.791
G20        11.000    24669302.210 6 129638099.36406      1737.158 6        38.456                                    24669303.972 3 101016742.44703      1353.636 3        18.985
S27        12.000    39263848.605 6 206332892.27006      -509.149 6        36.548
E08        13.000    26561831.150 6 139583487.44806     -1284.838 6        41.819                                                                    26561837.262 7 104234519.04007      -959.321 7        44.092    26561835.993 7 106953667.77207      -984.495 7        44.570
S36        14.000    38237483.326 7 200939759.08407      -505.101 7        44.813
G06        15.000    24621596.984 6 129387479.97906     -3536.935 6        37.240                                    24621599.535 5 100821487.28705     -2756.059 5        31.389    24621600.353 6 100821489.29306     -2755.957 6        36.972
G12        17.000    21825391.413 7 114693379.90807     -2990.979 7        47.473                                    21825390.061 7  89371547.06707     -2330.634 7        45.043    21825390.910 7  89371544.07407     -2330.681 7        42.891
G32        18.000    24160535.921 6 126964471.21306     -3024.650 6        41.917                                    24160543.060 5  98933394.44505     -2356.858 5        35.400    24160544.072 6  98933398.43406     -2356.874 6        38.315
E02        19.000    25344707.625 7 133187452.09107      1541.058 7        43.160                                                                    25344712.356 7  99458250.15607      1150.830 7        46.889    25344711.186 7 102052800.82507      1180.803 7        47.091
E10        21.000    24855219.863 7 130615247.71607       -76.137 7        46.029                                                                    24855223.112 8  97537483.97508       -56.851 8        48.836    24855222.411 8 100081926.25108       -58.334 8        49.436
I06        22.000    38655625.094 6 151693089.94706      -452.014 6        41.952
S28        23.000    40943348.632 5 215158667.78805      -508.850 5        34.776
S23        25.000    38183149.289 7 200653701.30707      -510.186 7        45.287
S45        26.000    63439209.310 6 333376598.59506      -569.583 6        36.325
C07        27.000                                                                                                                                    41497632.395 5 216089039.70505     -1341.515 5        34.195    41497628.933 6 167093742.89406     -1037.193 6        36.189    41497626.835 5 175590025.10105     -1090.175 5        33.599
R18        28.000    21071921.429 8 112483572.47608      3257.013 8        49.770                                                                    21071925.576 7  87487357.54107      2533.178 7        44.862
C38        29.000                                                                                                                                    39882700.844 6 207679733.52606      1097.607 6        41.580                                                                    39882702.850 6 168756823.82106       891.966 6        40.822
C44        30.000                                                                                                                                    22155671.592 8 115370572.87508      1475.840 8        50.095                                                                    22155672.544 8  93748116.32308      1199.239 8        48.444
E12        31.000    25863500.866 6 135913751.27306     -1438.976 6        40.219                                                                    25863501.957 7 101494133.57107     -1074.481 7        43.115    25863501.384 7 104141791.19207     -1102.551 7        44.182
G11        32.000    22549216.578 7 118497097.83707     -1576.304 7        45.226                                    22549216.011 5  92335492.33405     -1228.288 5        33.623    22549216.192 7  92335483.33207     -1228.194 7        43.522
I02        33.000    37482562.660 7 147089621.06907      -714.318 7        42.354
R15        34.000    19370034.358 8 103507728.76708     -1284.719 8        52.367                                                                    19370036.572 7  80506079.92107      -999.203 7        47.237
R07        35.000    23312589.110 7 124794065.19307      -579.347 7        45.178                                                                    23312595.689 6  97062041.00006      -450.667 6        40.565
G29        36.000    20975269.516 8 110226042.04408      1252.642 8        48.726                                    20975268.026 8  85890522.61508       976.083 8        49.170    20975268.451 7  85890532.61207       976.041 7        45.028
G31        37.000    23460048.528 7 123283519.60007      2590.347 7        42.044                                    23460051.212 6  96065154.29206      2018.446 6        36.397    23460051.959 6  96065160.29106      2018.388 6        39.192
C10        38.000                                                                                                                                    40263225.323 6 209661153.43406     -1206.751 6        37.025    40263227.516 6 162123298.14306      -933.021 6        40.610    40263224.220 6 170366845.23806      -980.598 6        37.841
E25        39.000    23284121.672 8 122359074.37908      -538.125 8        48.141                                                                    23284124.651 8  91372158.70208      -401.835 8        50.837    23284123.941 8  93755765.34808      -412.306 8        51.145
C12        40.000                                                                                                                                    24066023.778 7 125318217.36107      2545.004 7        43.801    24066024.662 8  96904070.07308      1967.965 8        48.869    24066022.694 7 101831372.63807      2068.056 7        46.324
E07        41.000    28366731.873 6 149068138.10206      1057.847 6        36.465                                                                    28366742.100 6 111317121.73806       789.975 6        40.274    28366740.969 6 114221044.09406       810.545 6        41.990
S44        42.000    40698684.500 6 213873116.18506      -423.347 6        38.030
G28        43.000    21840982.639 7 114775297.27507      1318.430 7        46.159                                    21840982.448 5  89435378.98005      1027.348 5        34.990    21840982.656 7  89435378.98007      1027.322 7        45.260
C05        44.000                                                                                                                                    39472865.581 6 205545511.44306      -470.336 6        38.111    39472866.562 7 158940827.75607      -363.735 7        43.071    39472866.857 6 167022648.86406      -382.270 6        39.402
R14        45.000    22526188.196 7 120077326.80907     -4005.666 7        46.386                                                                    22526193.934 7  93393548.68907     -3115.647 7        43.742
R16        46.000    20652523.257 8 110322222.33408      2347.528 8        51.154                                                                    20652526.523 7  85806274.45307      1825.866 7        46.452
R17        47.000    19312117.870 8 103343262.64008      -218.839 8        52.012                                                                    19312119.094 7  80378220.73907      -170.189 7        46.736
C35        48.000                                                                                                                                    22036765.557 8 114751367.59008     -1421.985 8        50.745                                                                    22036766.392 8  93244946.50408     -1155.496 8        49.132
C24        49.000                                                                                                                                    21689496.255 8 112942944.67008       580.618 8        51.107                                                                    21689495.104 8  91775410.93308       471.806 8        50.114
C45        50.000                                                                                                                                    26911654.072 3                     -3713.603 3        19.343
S48        51.000    77178254.910 6 405574763.58306      -529.489 6        37.694
C08        52.000                                                                                                                                    40064413.286 6 208625930.07806      1618.642 6        37.577    40064412.902 7 161322810.48507      1251.835 7        42.063    40064410.371 6 169525657.79906      1315.265 6        38.453
C34        53.000                                                                                                                                    26226055.330 6 136566000.91206      2928.350 6        40.360                                                                    26226066.114 6 110971130.53206      2379.553 6        39.384
C60        54.000                                                                                                                                    40698684.771 6 211928833.65906      -419.547 6        39.147                                                                    40698674.766 6 172209485.38706      -340.865 6        40.522
C25        55.000                                                                                                                                    25492548.253 6 132746489.75706      2572.542 6        40.913                                                                    25492553.629 6 107867459.53806      2090.314 6        41.878
C26        56.000                                                                                                                                    22533218.475 8 117336475.05208     -2396.613 8        50.337                                                                    22533220.118 8  95345540.78708     -1947.470 8        48.302
C02        57.000                                                                                                                                    40899109.003 5 212972333.78605      -424.156 5        33.647    40899109.957 6 164683683.81006      -328.190 6        40.079    40899111.146 5 173057447.20705      -344.865 5        35.233
I03        58.000    88120555.224 6 270018591.66906      1036.394 6        36.620
R06        59.000    23792052.181 5 126958964.58805     -3366.258 5        31.389
R24        60.000    21872401.818 7 116961696.89207     -4074.957 7        46.708                                                                    21872406.108 7  90970273.90907     -3169.415 7        42.591
> 2025 01 02 14 45 20.0000000  0 56
E24         1.000    26004721.255 7 136655838.28107     -2577.870 7        43.403                                                                    26004724.427 7 102048255.98607     -1925.047 7        46.412    26004723.136 7 104710373.65107     -1975.310 7        46.796
E11         2.000    24793264.317 7 130289633.09307      1442.053 7        42.914                                                                    24793264.946 7  97294316.69607      1076.958 7        44.945    24793264.395 7  99832417.26807      1105.101 7        45.520
E03         3.000    26990393.635 6 141835420.36206     -3194.195 6        40.329                                                                    26990403.460 7 105916056.92607     -2385.177 7        42.732    26990402.099 7 108679087.31607     -2447.382 7        43.429
C41         4.000                                                                                                                                    27253330.852 6 141915220.28406     -2043.998 6        37.921                                                                    27253347.864 6 115317805.24406     -1661.107 6        39.009
S21         5.000    38466658.266 7 202143251.94007      -505.122 7        43.043
G26         6.000    25413974.470 5 133551337.81805      2925.601 5        34.695                                    25413988.531 3 104066049.49303      2279.664 3        22.667    25413988.128 5 104066036.53905      2279.671 5        32.455
G25         7.000    19837340.432 8 104246093.54208      -809.987 8        49.281                                    19837341.364 8  81230805.28008      -631.158 8        50.173    19837342.171 7  81230806.28307      -631.167 7        45.046
C29         8.000                                                                                                                                    26108510.894 6 135953898.54706     -3686.602 6        39.339                                                                    26108511.900 6 110473697.32406     -2995.944 6        39.003
E36         9.000    27469675.327 6 144354163.22606      2808.681 6        38.676                                                                    27469687.194 7 107797039.80607      2097.420 7        42.224    27469685.948 7 110609128.88407      2152.122 7        43.949
