     3.04           OBSERVATION DATA    M                   RINEX VERSION / TYPE
ssrcrin-15.6.1x                         20250102 064500 UTC PGM / RUN BY / DATE 
(00000000023479385599111004) Septentrio proprietary         COMMENT             
rref                                                        MARKER NAME         
01                                                          MARKER NUMBER       
geodetic                                                    MARKER TYPE         
NFB                 CLIMERS@TUW                             OBSERVER / AGENCY   
3297213             SEPT ASTERX SB3 PROB4.14.4              REC # / TYPE / VERS 
Unknown             Unknown                                 ANT # / TYPE        
  4127831.3078  1207193.2557  4695248.0547                  APPROX POSITION XYZ 
        0.0000        0.0000        0.0000                  ANTENNA: DELTA H/E/N
G   23 X1  C1C L1C D1C S1C C1W S1W C2W L2W D2W S2W C2L L2L  SYS / # / OBS TYPES 
       D2L S2L C5Q L5Q D5Q S5Q C1L L1L D1L S1L              SYS / # / OBS TYPES 
E   21 X1  C1C L1C D1C S1C C6C L6C D6C S6C C5Q L5Q D5Q S5Q  SYS / # / OBS TYPES 
       C7Q L7Q D7Q S7Q C8Q L8Q D8Q S8Q                      SYS / # / OBS TYPES 
S    9 X1  C1C L1C D1C S1C C5I L5I D5I S5I                  SYS / # / OBS TYPES 
R   17 X1  C1C L1C D1C S1C C2P L2P D2P S2P C2C L2C D2C S2C  SYS / # / OBS TYPES 
       C3Q L3Q D3Q S3Q                                      SYS / # / OBS TYPES 
C   25 X1  C1P L1P D1P S1P C5P L5P D5P S5P C2I L2I D2I S2I  SYS / # / OBS TYPES 
       C7I L7I D7I S7I C6I L6I D6I S6I C7D L7D D7D S7D      SYS / # / OBS TYPES 
J   17 X1  C1C L1C D1C S1C C2L L2L D2L S2L C5Q L5Q D5Q S5Q  SYS / # / OBS TYPES 
       C1L L1L D1L S1L                                      SYS / # / OBS TYPES 
I    5 X1  C5A L5A D5A S5A                                  SYS / # / OBS TYPES 
SEPTENTRIO RECEIVERS OUTPUT ALIGNED CARRIER PHASES.         COMMENT             
NO FURTHER PHASE SHIFT APPLIED IN THE RINEX ENCODER.        COMMENT             
G L1C                                                       SYS / PHASE SHIFT   
G L2W                                                       SYS / PHASE SHIFT   
G L2L  0.00000                                              SYS / PHASE SHIFT   
G L5Q  0.00000                                              SYS / PHASE SHIFT   
G L1L  0.00000                                              SYS / PHASE SHIFT   
E L1C  0.00000                                              SYS / PHASE SHIFT   
E L6C  0.00000                                              SYS / PHASE SHIFT   
E L5Q  0.00000                                              SYS / PHASE SHIFT   
E L7Q  0.00000                                              SYS / PHASE SHIFT   
E L8Q  0.00000                                              SYS / PHASE SHIFT   
S L1C                                                       SYS / PHASE SHIFT   
S L5I                                                       SYS / PHASE SHIFT   
R L1C                                                       SYS / PHASE SHIFT   
R L2P  0.00000                                              SYS / PHASE SHIFT   
R L2C                                                       SYS / PHASE SHIFT   
R L3Q  0.00000                                              SYS / PHASE SHIFT   
C L1P  0.00000                                              SYS / PHASE SHIFT   
C L5P  0.00000                                              SYS / PHASE SHIFT   
C L2I                                                       SYS / PHASE SHIFT   
C L7I                                                       SYS / PHASE SHIFT   
C L6I                                                       SYS / PHASE SHIFT   
C L7D                                                       SYS / PHASE SHIFT   
J L1C                                                       SYS / PHASE SHIFT   
J L2L  0.00000                                              SYS / PHASE SHIFT   
J L5Q  0.00000                                              SYS / PHASE SHIFT   
J L1L  0.00000                                              SYS / PHASE SHIFT   
I L5A                                                       SYS / PHASE SHIFT   
  2025     1     2     6    45    0.0000000     GPS         TIME OF FIRST OBS   
 C1C    0.000 C2C    0.000 C2P    0.000                     GLONASS COD/PHS/BIS 
DBHZ                                                        SIGNAL STRENGTH UNIT
    18                                                      LEAP SECONDS        
 24 R01  1 R02 -4 R03  5 R04  6 R05  1 R06 -4 R07  5 R08  6 GLONASS SLOT / FRQ #
    R09 -2 R10 -7 R11  0 R12 -1 R13 -2 R14 -7 R15  0 R16 -1 GLONASS SLOT / FRQ #
    R17  4 R18 -3 R19  3 R20  2 R21  4 R22 -3 R23  3 R24  2 GLONASS SLOT / FRQ #
                                                            END OF HEADER       
> 2025 01 02 06 45  0.0000000  0 56
G09         1.000    23431076.302 6 123131116.53406     -3585.090 6        40.331                                    23431077.553 6  95946316.62506     -2793.571 6        37.720    23431077.272 6  95946316.60506     -2793.453 6        39.619
E11         3.000    26975995.369 6 141759800.28906     -3360.486 6        37.951                                                                    26975992.475 6 105859573.43106     -2509.540 6        38.724    26975992.289 6 108621124.64506     -2575.037 6        39.517
G08         4.000    24720346.361 6 129906324.28406      1346.758 6        37.894                                    24720350.886 4 101225732.41304      1049.416 4        29.336    24720351.397 5 101225728.41105      1049.674 5        35.486
S21         5.000    38398589.452 7 201785622.74007      -468.537 7        42.442
E10         6.000    28471870.546 6 149620638.72106     -3597.240 6        37.811                                                                    28471873.242 6 111729676.86806     -2686.067 6        39.526    28471872.885 6 114644365.60606     -2756.248 6        40.429
G20         7.000    20730505.343 8 108939535.51608     -1342.929 8        48.139                                    20730501.007 6  84887927.16806     -1046.433 6        39.210
R02         8.000    20956303.865 8 111826844.41308      2558.323 8        50.944                                                                    20956303.290 7  86976433.27507      1989.893 7        45.883
R10         9.000    22420380.618 6 119513220.17906     -4359.816 6        39.003
R17        10.000    23492012.027 7 125710505.03507     -3490.061 7        43.907                                                                    23492009.835 6  97774830.04006     -2714.635 6        36.140
G30        11.000    20369177.838 8 107040754.39408      -253.331 8        50.534                                    20369176.339 8  83408370.08908      -197.398 8        52.250    20369176.704 7  83408378.09207      -197.512 7        45.199
S27        12.000    39058214.111 6 205252234.46506      -493.272 6        36.397
G13        13.000    22183386.816 7 116574478.48007      2370.953 7        44.522                                    22183382.399 4  90837232.47704      1847.501 4        28.654
S36        14.000    38167016.407 7 200569535.04607      -468.835 7        44.442
I09        15.000    38903546.895 7 152665807.00207      -930.987 7        42.400
E09        16.000    25039360.822 7 131582743.01607      1380.940 7        45.497                                                                    25039360.808 8  98259837.29508      1031.175 8        48.247    25039360.447 8 100823133.92008      1058.085 8        49.206
S45        17.000    63349172.072 6 332903409.13406      -512.091 6        36.941
E36        18.000    26243278.081 7 137909343.18507     -1554.716 7        42.730                                                                    26243279.107 7 102984266.64107     -1160.859 7        44.817    26243278.563 7 105670811.38207     -1191.341 7        45.484
R19        19.000    24189088.526 5 129395301.44505      1800.661 5        31.675                                                                    24189088.978 6 100640789.80206      1400.568 6        36.896
E21        20.000    26041134.556 7 136847060.76507     -1697.536 7        42.781                                                                    26041135.863 7 102190995.54507     -1267.636 7        45.488    26041135.127 7 104856844.69007     -1300.676 7        45.994
G11        21.000    24555555.855 6 129040295.49006     -3641.422 6        40.846                                    24555553.496 3 100550852.66003     -2837.468 3        23.886    24555553.003 6 100550865.65006     -2837.484 6        38.604
I06        22.000    37935065.526 7 148865543.89607      -381.443 7        42.777
S28        23.000    40830203.618 5 214564050.73405      -472.935 5        34.643
R08        24.000    22227662.680 7 119028112.71307     -3822.768 7        44.357                                                                    22227662.967 7  92577412.46007     -2973.391 7        42.739
S23        25.000    38101713.636 7 200225804.51707      -466.313 7        44.470
R01        26.000    19148094.404 8 102357534.89008      -675.455 8        48.759                                                                    19148095.214 6  79611406.07606      -525.373 6        41.476
C07        27.000                                                                                                                                    40160139.651 6 209124382.28106       982.658 6        37.486    40160137.546 7 161708230.33207       759.904 7        42.612    40160135.452 6 169930672.34506       798.473 6        39.498
C40        29.000                                                                                                                                    40371894.152 6 210227041.01906      1248.928 6        40.751                                                                    40371895.067 6 170826694.43906      1014.828 6        39.862
E19        30.000    26152971.927 6 137434776.25906     -2746.225 6        38.144                                                                    26152972.940 6 102629853.05506     -2050.576 6        40.021    26152972.238 6 105307152.07106     -2104.372 6        39.529
G14        31.000    22792815.290 7 119777046.09407      2808.153 7        44.512                                    22792813.933 5  93332760.84105      2188.177 5        31.509    22792813.976 7  93332746.83107      2188.159 7        42.313
G27        32.000    24906164.787 6 130882768.57106        41.743 6        36.631                                    24906166.337 4 101986592.01904        32.527 4        28.152    24906166.803 5 101986582.02205        32.275 5        34.333
C37        33.000                                                                                                                                    25298243.891 7 131734553.76307     -3388.136 7        42.226                                                                    25298248.186 7 107045119.22607     -2753.181 7        42.942
E04        34.000    23285745.367 8 122367441.31608      -738.630 8        48.575                                                                    23285743.995 8  91378291.93608      -551.547 8        51.382    23285743.352 8  93762069.35808      -565.907 8        51.275
C16        35.000                                                                                                                                    41415274.002 5 215660118.84705     -1354.690 5        35.171    41415279.924 5 166762067.98905     -1047.745 5        34.757    41415275.681 4 175241489.64904     -1100.703 4        29.621
R12        36.000    21212913.258 8 113315561.96808      3356.093 8        49.686                                                                    21212914.169 7  88134328.01707      2610.330 7        44.900
I01        37.000   388761682.487 6 222443446.85606     -3078.229 6        40.949
C10        38.000                                                                                                                                    40516975.362 6 210982529.53606      1152.198 6        37.388    40516976.402 6 163145077.71406       890.929 6        41.497    40516973.760 6 171440577.83206       936.131 6        38.336
C19        39.000                                                                                                                                    21913967.151 8 114111766.22608     -1276.498 8        52.050                                                                    21913962.621 8  92725132.25208     -1037.289 8        50.325
E34        40.000    27790031.744 6 146037607.65906       942.794 6        38.156                                                                    27790031.257 7 109054058.72607       704.089 7        42.144    27790031.400 7 111898946.77407       722.476 7        42.902
G05        41.000    21397870.817 7 112446573.73307      1188.768 7        46.985                                    21397866.792 7  87620686.70907       926.315 7        46.179    21397867.351 7  87620695.70507       926.414 7        43.513
S44        42.000    40820517.770 6 214513361.50906      -507.144 6        36.537
C36        43.000                                                                                                                                    22999948.701 8 119766759.72508      2145.074 8        48.829                                                                    22999954.467 8  97320320.63308      1743.004 8        48.395
C05        44.000                                                                                                                                    39235574.253 6 204309918.65006      -527.840 6        39.405    39235571.433 7 157985401.46407      -408.183 7        43.549    39235573.248 6 166018638.46706      -429.166 6        40.536
R18        45.000    23042649.343 7 123003237.81207      -858.276 7        44.847                                                                    23042649.209 7  95669167.94507      -667.545 7        42.595
G18        46.000    25551599.308 6 134274564.87106      1493.760 6        36.824                                    25551594.723 3 104629518.47303      1163.977 3        19.134    25551595.659 6 104629508.47406      1163.917 6        37.456
R11        47.000    19356453.882 8 103434997.52808      -911.561 8        51.416                                                                    19356452.718 8  80449444.50508      -709.013 8        48.852
C20        49.000                                                                                                                                    24751146.659 7 128885693.29007     -3384.054 7        45.287                                                                    24751143.711 7 104730156.60407     -2749.834 7        44.763
C06        50.000                                                                                                                                    40891107.412 5 212930663.88105     -1417.872 5        34.833    40891107.877 6 164651454.87706     -1096.215 6        39.402    40891106.421 6 173023567.28506     -1151.912 6        36.378
S48        51.000    77122666.511 6 405282175.53606      -452.982 6        37.758
E06        52.000    23548865.662 8 123750141.11808       485.251 8        48.600                                                                    23548865.584 8  92410828.78608       362.352 8        50.604    23548865.591 8  94821544.20908       371.805 8        51.613
C09        53.000                                                                                                                                    40015915.409 6 208373342.56806     -1230.580 6        38.321    40015914.345 7 161127464.39807      -951.553 7        42.866    40015911.781 6 169320379.01006     -1000.073 6        38.396
C60        54.000                                                                                                                                    40820520.165 6 212563258.53906      -502.555 6        40.002                                                                    40820509.328 6 172725006.88006      -408.377 6        38.526
E31        55.000    26879460.576 6 141252500.88106      2706.664 6        40.687                                                                    26879465.489 7 105480789.22507      2021.242 7        43.359    26879465.069 7 108232458.87607      2073.930 7        44.944
G07        56.000    21543542.324 7 113212082.51707     -2257.383 7        47.461                                    21543538.285 7  88217186.75807     -1758.999 7        46.163    21543538.354 7  88217195.75607     -1758.984 7        42.863
C02        57.000                                                                                                                                    40813340.832 5 212525705.66705      -539.086 5        35.133    40813342.077 6 164338319.93306      -416.840 6        40.343    40813343.700 5 172694523.14505      -438.168 5        35.448
I03        58.000    97564124.696 6 307077199.62206       857.142 6        40.532
C22        60.000                                                                                                                                    22824257.671 8 118851887.93408      1717.948 8        49.534                                                                    22824251.389 8  96576868.28308      1395.905 8        48.962
> 2025 01 02 06 45  5.0000000  0 56
G09         1.000    23434487.808 6 123149043.58106     -3585.917 6        40.482                                    23434489.093 6  95960285.71106     -2794.215 6        37.830    23434489.178 6  95960285.69106     -2794.116 6        40.260
E11         3.000    26979192.910 6 141776604.80006     -3361.164 6        38.057                                                                    26979190.546 6 105872122.22106     -2510.067 6        38.544    26979190.245 6 108634000.82106     -2575.547 6        39.447
G08         4.000    24719065.950 6 129899595.92106      1344.648 6        36.888                                    24719070.423 4 101220489.56904      1047.772 4        29.270    24719071.173 5 101220485.61805      1047.524 5        35.529
S21         5.000    38399035.787 7 201787964.95907      -468.544 7        42.381
E10         6.000    28475293.307 6 149638623.37106     -3596.670 6        38.216                                                                    28475295.731 6 111743106.92906     -2685.937 6        39.429    28475295.355 6 114658146.02206     -2755.938 6        40.315
G20         7.000    20731784.679 8 108946258.13508     -1346.154 8        48.191                                    20731780.289 6  84893165.56006     -1048.949 6        39.348
R02         8.000    20953907.218 8 111814055.60208      2557.151 8        49.868                                                                    20953906.508 7  86966486.41707      1988.923 7        45.747
R10         9.000    22424470.854 6 119535023.02206     -4361.524 6        39.147
R17        10.000    23495274.309 7 125727961.22107     -3492.307 7        44.345                                                                    23495274.153 6  97788407.04306     -2716.574 6        37.955
G30        11.000    20369420.067 8 107042026.76208      -255.617 8        50.688                                    20369418.473 8  83409361.53808      -199.180 8        52.366    20369418.654 7  83409369.53507      -199.182 7        45.407
S27        12.000    39058679.853 6 205254700.76806      -493.199 6        36.597
G13        13.000    22181131.199 7 116562625.78407      2370.056 7        44.191                                    22181126.899 4  90827996.60104      1846.799 4        28.701
S36        14.000    38167460.999 7 200571879.13507      -468.824 7        44.367
I09        15.000    38904733.175 7 152670461.82807      -930.963 7        42.406
E09        16.000    25038047.278 7 131575839.70607      1380.356 7        45.755                                                                    25038047.115 8  98254682.20908      1030.785 8        48.302    25038046.881 8 100817844.35108      1057.687 8        49.263
S45        17.000    63349617.486 6 332905969.34106      -511.925 6        36.888
E36        18.000    26244758.134 7 137917122.51307     -1557.063 7        43.048                                                                    26244759.443 7 102990075.86507     -1162.741 7        44.816    26244758.968 7 105676772.13607     -1192.985 7        45.386
R19        19.000    24187405.007 5 129386305.62705      1797.573 5        30.996                                                                    24187406.442 6 100633793.06506      1397.985 6        36.945
E21        20.000    26042750.760 7 136855553.27007     -1699.664 7        43.187                                                                    26042751.852 7 102197337.34107     -1269.269 7        45.395    26042751.183 7 104863351.91707     -1302.327 7        46.007
G11        21.000    24559020.529 6 129058503.63606     -3641.974 6        39.790                                    24559018.221 4 100565040.81204     -2837.868 4        24.000    24559018.147 6 100565053.78806     -2837.842 6        39.165
I06        22.000    37935551.816 7 148867451.07607      -381.464 7        42.722
S28        23.000    40830650.373 5 214566414.42605      -472.849 5        35.257
R08        24.000    22231232.073 7 119047230.51607     -3824.402 7        43.905                                                                    22231232.915 7  92592281.82407     -2974.481 7        42.453
S23        25.000    38102157.436 7 200228135.81907      -466.351 7        44.605
R01        26.000    19148727.338 8 102360919.40508      -678.456 8        48.538                                                                    19148728.397 6  79614038.48106      -527.678 6        41.723
C07        27.000                                                                                                                                    40159195.962 6 209119469.88206       982.119 6        37.860    40159194.104 7 161704431.74107       759.447 7        42.404    40159192.117 6 169926680.61406       797.979 6        39.147
C40        29.000                                                                                                                                    40370695.066 6 210220797.71606      1248.313 6        40.636                                                                    40370696.003 6 170821621.23406      1014.268 6        39.745
E19        30.000    26155585.115 6 137448508.68106     -2746.707 6        38.006                                                                    26155586.286 6 102640107.75906     -2051.100 6        40.143    26155585.652 6 105317674.26606     -2104.538 6        39.547
G14        31.000    22790143.581 7 119763008.35407      2806.995 7        43.209                                    22790142.581 5  93321822.33605      2187.272 5        31.457    22790143.079 7  93321808.33807      2187.182 7        42.969
G27        32.000    24906125.774 6 130882568.02006        38.468 6        36.299                                    24906128.306 4 101986435.74904        29.975 4        28.483    24906129.318 5 101986425.76005        30.073 5        34.800
C37        33.000                                                                                                                                    25301497.565 7 131751496.86307     -3389.113 7        42.667                                                                    25301502.015 7 107058886.87207     -2754.032 7        42.912
E04        34.000    23286448.703 8 122371136.74808      -739.691 8        48.980                                                                    23286447.174 8  91381051.50408      -552.413 8        51.338    23286446.575 8  93764900.91808      -566.814 8        51.387
C16        35.000                                                                                                                                    41416574.140 5 215666891.96105     -1354.571 5        34.905    41416581.023 5 166767305.37005     -1047.445 5        34.724    41416576.758 4 175246993.31904     -1100.666 4        29.706
R12        36.000    21209772.550 8 113298786.78408      3353.855 8        49.964                                                                    21209773.297 7  88121280.66507      2608.509 7        45.172
I01        37.000   388765604.309 6 222458838.45106     -3078.341 6        40.903
C10        38.000                                                                                                                                    40515870.291 6 210976769.46306      1152.039 6        37.444    40515870.286 6 163140623.65106       890.689 6        41.235    40515867.568 6 171435897.28906       935.771 6        38.571
C19        39.000                                                                                                                                    21915193.833 8 114118153.99608     -1278.646 8        52.050                                                                    21915189.367 8  92730322.83308     -1039.103 8        50.282
E34        40.000    27789135.271 6 146032898.36606       940.874 6        38.712                                                                    27789135.246 7 109050542.06207       702.468 7        42.125    27789135.169 7 111895338.35107       720.891 7        42.929
G05        41.000    21396741.077 7 112440636.98407      1185.913 7        46.934                                    21396737.072 7  87616060.66307       924.089 7        46.263    21396737.329 7  87616069.66107       924.096 7        43.807
S44        42.000    40821004.198 6 214515896.59306      -507.085 6        36.420
C36        43.000                                                                                                                                    22997890.146 8 119756038.42508      2143.394 8        49.060                                                                    22997895.544 8  97311608.70508      1741.639 8        48.372
C05        44.000                                                                                                                                    39236081.719 6 204312558.16106      -527.879 6        39.526    39236078.206 7 157987442.49307      -408.214 7        43.393    39236080.232 6 166020783.26606      -428.908 6        40.424
R18        45.000    23043454.621 7 123007539.33307      -862.447 7        44.605                                                                    23043453.908 7  95672513.56807      -670.727 7        42.428
G18        46.000    25550179.145 6 134267102.06206      1491.414 6        36.586                                    25550174.719 3 104623703.30903      1162.146 3        19.164    25550175.530 6 104623693.31506      1161.887 6        37.656
R11        47.000    19357309.479 8 103439565.92208      -915.860 8        51.891                                                                    19357307.801 8  80452997.69408      -712.381 8        48.565
C20        49.000                                                                                                                                    24754396.270 7 128902615.73507     -3385.050 7        45.806                                                                    24754393.343 7 104743907.45407     -2750.646 7        44.579
C06        50.000                                                                                                                                    40892468.858 5 212937751.61405     -1417.386 5        35.186    40892468.569 6 164656935.52206     -1096.147 6        39.009    40892467.692 6 173029326.62606     -1151.933 6        36.522
S48        51.000    77123104.886 6 405284440.80206      -452.922 6        37.739
E06        52.000    23548404.326 8 123747717.10408       484.284 8        48.790                                                                    23548404.354 8  92409018.63608       361.656 8        50.625    23548404.326 8  94819686.84008       371.067 8        51.669
C09        53.000                                                                                                                                    40017097.236 6 208379495.27806     -1230.660 6        38.480    40017095.938 7 161132222.04207      -951.340 7        42.641    40017093.254 6 169325378.58306     -1000.091 6        38.372
C60        54.000                                                                                                                                    40821002.506 6 212565770.57006      -502.200 6        39.841                                                                    40820991.632 6 172727048.11506      -408.264 6        38.438
E31        55.000    26876885.414 6 141238968.11706      2706.428 6        40.830                                                                    26876890.310 7 105470683.58507      2020.985 7        43.348    26876889.869 7 108222089.61307      2073.739 7        44.933
G07        56.000    21545690.505 7 113223372.98507     -2258.893 7        47.125                                    21545686.797 7  88225984.51707     -1760.173 7        46.257    21545687.401 7  88225993.51007     -1760.109 7        43.718
C02        57.000                                                                                                                                    40813858.517 5 212528400.69805      -539.023 5        34.752    40813859.498 6 164340403.87206      -416.757 6        40.141    40813861.362 5 172696713.04205      -437.946 5        35.862
I03        58.000    97563032.513 6 307072913.66806       857.092 6        40.558
C22        60.000                                                                                                                                    22822608.612 8 118843301.26208      1716.655 8        49.491                                                                    22822602.488 8  96569890.90108      1394.843 8        48.930
> 2025 01 02 06 45 10.0000000  0 56
G09         1.000    23437900.034 6 123166974.92606     -3586.400 6        40.241                                    23437901.437 6  95974258.14606     -2794.590 6        37.705    23437900.982 6  95974258.14206     -2794.506 6        40.236
E11         3.000    26982391.432 6 141793413.11106     -3361.521 6        38.015                                                                    26982388.841 6 105884673.85306     -2510.341 6        38.468    26982388.647 6 108646879.89506     -2575.964 6        39.345
G08         4.000    24717787.519 6 129892878.90706      1342.773 6        37.497                                    24717792.183 4 101215255.57204      1046.310 4        28.844    24717792.814 5 101215251.60905      1046.221 5        35.448
S21         5.000    38399480.906 7 201790307.31007      -468.250 7        42.603
E10         6.000    28478715.187 6 149656606.45006     -3596.221 6        38.568                                                                    28478717.768 6 111756535.80806     -2685.512 6        39.390    28478717.375 6 114671925.21106     -2755.468 6        40.112
G20         7.000    20733067.152 7 108952997.45807     -1349.167 7        47.916                                    20733062.778 6  84898416.97106     -1051.293 6        39.300
R02         8.000    20951511.292 8 111801273.48908      2556.072 8        50.262                                                                    20951511.129 7  86956544.76107      1988.114 7        45.242
R10         9.000    22428563.438 6 119556834.88406     -4362.899 6        40.181
R17        10.000    23498539.079 7 125745429.67307     -3494.616 7        44.712                                                                    23498538.067 6  97801993.59606     -2718.053 6        38.889
G30        11.000    20369664.399 8 107043311.21308      -257.758 8        50.883                                    20369662.896 8  83410362.40208      -200.848 8        52.373    20369663.477 7  83410370.40407      -200.862 7        45.676
S27        12.000    39059149.749 6 205257167.15206      -492.902 6        36.733
G13        13.000    22178876.512 7 116550778.13507      2369.338 7        44.035                                    22178872.436 4  90818764.66104      1846.237 4        28.692
S36        14.000    38167910.951 7 200574223.12907      -468.483 7        44.796
I09        15.000    38905919.321 7 152675117.39407      -930.983 7        42.303
E09        16.000    25036734.268 7 131568939.75707      1379.946 7        45.619                                                                    25036734.136 8  98249529.65108      1030.460 8        48.169    25036733.824 8 100812557.37208      1057.450 8        49.183
S45        17.000    63350057.475 6 332906829.85716      -511.889 6        36.624
E36        18.000    26246241.425 7 137924913.83007     -1559.148 7        42.825                                                                    26246242.108 7 102995894.04907     -1164.260 7        44.649    26246241.626 7 105682742.09907     -1194.647 7        45.267
R19        19.000    24185729.185 5 129377327.36405      1794.270 5        31.826                                                                    24185728.476 6 100626809.97506      1395.417 6        37.637
E21        20.000    26044368.829 7 136864057.16107     -1701.553 7        43.132                                                                    26044369.976 7 102203687.63807     -1270.748 7        45.354    26044369.446 7 104869867.88007     -1303.820 7        45.865
G11        21.000    24562485.887 6 129076715.08406     -3642.228 6        40.203                                    24562483.872 3 100579231.50903     -2838.098 3        23.867    24562484.123 6 100579244.49606     -2838.183 6        39.429
I06        22.000    37936037.982 7 148869358.64607      -381.299 7        42.667
S28        23.000    40831100.956 5 214568778.66805      -472.671 5        35.105
R08        24.000    22234804.420 7 119066356.49607     -3825.665 7        44.567                                                                    22234804.752 7  92607157.55907     -2975.468 7        43.088
S23        25.000    38102599.246 7 200230467.47707      -466.028 7        44.664
R01        26.000    19149363.604 8 102364319.58308      -681.254 8        48.925                                                                    19149363.776 6  79616683.04906      -529.852 6        41.356
C07        27.000                                                                                                                                    40158254.281 6 209114560.61806       981.817 6        37.943    40158251.152 7 161700635.55107       759.349 7        42.745    40158249.219 6 169922691.39906       797.765 6        39.231
C40        29.000                                                                                                                                    40369497.138 6 210214558.08506      1247.834 6        41.116                                                                    40369497.849 6 170816551.01906      1013.807 6        39.751
E19        30.000    26158198.330 6 137462243.94606     -2746.754 6        37.399                                                                    26158199.899 6 102650364.58506     -2051.274 6        39.961    26158199.460 6 105328198.67806     -2104.882 6        39.637
G14        31.000    22787473.423 7 119748976.99007      2805.913 7        42.984                                    22787472.593 5  93310888.80305      2186.424 5        31.177    22787472.800 7  93310874.81807      2186.487 7        43.130
G27        32.000    24906091.055 6 130882383.45906        35.610 6        36.321                                    24906093.195 4 101986291.94504        27.752 4        28.341    24906092.962 5 101986281.92005        27.801 5        34.781
C37        33.000                                                                                                                                    25304752.376 7 131768445.25807     -3389.944 7        42.764                                                                    25304756.714 7 107072658.79907     -2754.684 7        42.899
E04        34.000    23287152.918 8 122374838.22908      -740.566 8        48.932                                                                    23287151.592 8  91383815.58908      -553.004 8        51.336    23287150.947 8  93767737.11408      -567.460 8        51.306
C16        35.000                                                                                                                                    41417874.548 5 215673664.40905     -1354.048 5        35.033    41417881.324 5 166772542.19505     -1046.818 5        35.257    41417877.323 4 175252496.46304     -1100.158 4        29.659
R12        36.000    21206634.295 8 113282023.27908      3351.873 8        49.738                                                                    21206636.090 7  88108242.38707      2607.034 7        45.923
I01        37.000   388769526.422 6 222474230.91906     -3078.288 6        41.151
C10        38.000                                                                                                                                    40514763.431 6 210971011.54406      1151.670 6        37.664    40514764.291 6 163136171.28606       890.525 6        41.178    40514761.843 6 171431218.54106       935.605 6        38.384
C19        39.000                                                                                                                                    21916422.727 8 114124553.02308     -1280.602 8        52.261                                                                    21916418.188 8  92735522.55408     -1040.721 8        50.209
E34        40.000    27788241.223 6 146028200.49206       938.695 6        38.931                                                                    27788241.372 7 109047033.88407       701.023 7        42.028    27788241.302 7 111891738.67507       719.268 7        42.933
G05        41.000    21395614.371 7 112434715.60507      1183.085 7        46.916                                    21395610.286 7  87611446.59207       921.886 7        46.238    21395610.848 7  87611455.59707       921.805 7        43.507
S44        42.000    40821481.409 6 214518431.85706      -506.900 6        36.321
C36        43.000                                                                                                                                    22995833.233 8 119745325.84908      2141.928 8        49.154                                                                    22995838.312 8  97302903.85608      1740.414 8        48.297
C05        44.000                                                                                                                                    39236588.345 6 204315197.97906      -527.615 6        39.559    39236585.378 7 157989483.76807      -408.063 7        43.445    39236587.309 6 166022928.33506      -428.865 6        40.431
R18        45.000    23044264.318 7 123011862.54707      -866.387 7        45.079                                                                    23044263.950 6  95675876.06506      -673.958 6        41.554
G18        46.000    25548761.477 6 134259652.33906      1489.038 6        37.270                                    25548757.174 3 104617898.32903      1160.289 3        19.463    25548757.793 6 104617888.34006      1160.271 6        37.278
R11        47.000    19358168.610 8 103444156.51708      -920.071 8        51.586                                                                    19358166.716 8  80456568.13708      -715.597 8        48.573
C20        49.000                                                                                                                                    24757647.497 7 128919543.70407     -3385.847 7        46.577                                                                    24757644.439 7 104757662.80107     -2751.282 7        44.453
C06        50.000                                                                                                                                    40893829.952 5 212944838.81005     -1417.272 5        35.243    40893829.484 6 164662415.73206     -1095.669 6        38.529    40893828.596 5 173035085.51705     -1151.528 5        35.962
S48        51.000    77123540.373 6 405286707.15906      -453.241 6        38.003
E06        52.000    23547944.074 8 123745298.43308       483.542 8        48.872                                                                    23547944.092 8  92407212.48008       361.036 8        50.479    23547944.123 8  94817833.56708       370.490 8        51.590
C09        53.000                                                                                                                                    40018278.910 6 208385647.76706     -1230.091 6        38.360    40018277.220 7 161136979.53207      -951.139 7        42.567    40018274.627 6 169330377.96706      -999.811 6        38.195
C60        54.000                                                                                                                                    40821484.837 6 212568282.77906      -502.129 6        40.050                                                                    40821474.156 6 172729089.47906      -408.028 6        38.378
E31        55.000    26874310.920 6 141225437.46306      2706.198 6        40.906                                                                    26874315.419 7 105460579.52607      2020.899 7        43.350    26874315.154 7 108211721.98107      2073.552 7        44.695
G07        56.000    21547840.731 7 113234671.08307     -2260.083 7        47.309                                    21547836.767 7  88234788.21907     -1761.102 7        46.222    21547837.372 7  88234797.22107     -1761.117 7        44.129
C02        57.000                                                                                                                                    40814375.217 5 212531095.91705      -538.953 5        34.752    40814377.294 6 164342487.96606      -416.611 6        40.479    40814378.702 5 172698903.11805      -437.913 5        35.381
I03        58.000    97561940.499 6 307068627.87506       857.395 6        40.493
C22        60.000                                                                                                                                    22820960.793 8 118834721.76508      1715.533 8        49.459                                                                    22820954.865 8  96562919.34908      1393.853 8        48.822
> 2025 01 02 06 45 15.0000000  0 56
G09         1.000    23441313.029 6 123184910.09406     -3587.606 6        40.026                                    23441314.403 6  95988233.56406     -2795.528 6        37.490    23441314.062 6  95988233.53606     -2795.325 6        39.568
E11         3.000    26985590.746 6 141810224.73706     -3362.806 6        37.909                                                                    26985588.188 6 105897227.95106     -2511.136 6        38.793    26985587.905 6 108659761.49006     -2576.804 6        39.306
G08         4.000    24716511.795 6 129886172.76106      1340.110 6        36.401                                    24716515.969 4 101210030.05404      1044.227 4        28.237    24716517.288 5 101210026.08705      1043.951 5        35.905
S21         5.000    38399928.792 7 201792649.47107      -468.566 7        42.252
E10         6.000    28482136.910 6 149674587.47106     -3596.161 6        38.928                                                                    28482139.461 6 111769963.15006     -2685.429 6        39.616    28482138.994 6 114685702.83606     -2755.537 6        40.076
G20         7.000    20734352.718 8 108959753.02208     -1352.824 8        48.151                                    20734348.351 6  84903681.03306     -1054.144 6        39.210
R02         8.000    20949117.229 8 111788497.46708      2554.424 8        50.279                                                                    20949116.891 7  86946607.84807      1986.827 7        45.705
R10         9.000    22432656.686 6 119578655.05006     -4365.047 6        40.072
R17        10.000    23501804.591 7 125762909.72007     -3497.318 7        44.221                                                                    23501804.450 6  97815589.22106     -2720.214 6        39.027
G30        11.000    20369911.077 8 107044607.28008      -260.515 8        50.765                                    20369909.533 8  83411372.32108      -202.997 8        52.291    20369910.347 7  83411380.31507      -203.025 7        45.646
S27        12.000    39059621.670 6 205259633.29706      -493.294 6        36.832
G13        13.000    22176623.263 7 116538935.08907      2368.014 7        43.446                                    22176618.882 4  90809536.30604      1845.205 4        28.616
S36        14.000    38168356.012 7 200576566.74007      -468.925 7        44.656
I09        15.000    38907105.649 7 152679773.29507      -931.385 7        42.030
E09        16.000    25035421.815 7 131562042.70507      1379.046 7        45.890                                                                    25035421.667 8  98244379.24008      1029.748 8        48.257    25035421.379 8 100807272.61308      1056.627 8        49.125
S45        17.000    63350501.682 6 332909390.26906      -512.326 6        36.609
E36        18.000    26247726.293 7 137932716.68707     -1561.800 7        42.654                                                                    26247726.974 7 103001720.83207     -1166.229 7        44.789    26247726.493 7 105688720.89707     -1196.701 7        45.254
R19        19.000    24184053.422 5 129368366.16705      1790.634 5        30.717                                                                    24184053.988 6 100619840.12206      1392.544 6        38.168
E21        20.000    26045989.118 7 136872571.94207     -1704.148 7        43.295                                                                    26045990.300 7 102210046.06007     -1272.637 7        45.427    26045989.784 7 104876392.17507     -1305.784 7        45.854
G11        21.000    24565952.514 6 129094929.31006     -3643.381 6        40.453                                    24565949.978 4 100593424.38804     -2838.990 4        24.256    24565950.082 6 100593437.37006     -2838.806 6        39.489
I06        22.000    37936524.059 7 148871266.26307      -381.590 7        42.669
S28        23.000    40831549.218 5 214571142.47805      -472.766 5        34.876
R08        24.000    22238378.149 7 119085490.00507     -3827.559 7        44.543                                                                    22238378.656 7  92622039.12207     -2976.989 7        43.562
S23        25.000    38103046.059 7 200232798.74307      -466.384 7        44.385
R01        26.000    19150002.617 8 102367735.09708      -684.745 8        49.011                                                                    19150003.054 7  79619339.53607      -532.581 7        42.169
C07        27.000                                                                                                                                    40157312.293 6 209109653.98906       980.970 6        37.974    40157309.039 7 161696841.43007       758.546 7        42.518    40157307.078 6 169918704.36906       796.955 6        39.315
C40        29.000                                                                                                                                    40368299.804 6 210208321.65806      1246.888 6        40.887                                                                    40368300.071 6 170811483.40506      1013.015 6        39.682
E19        30.000    26160812.642 6 137475981.49906     -2747.747 6        37.508                                                                    26160814.047 6 102660623.10406     -2051.930 6        40.145    26160813.817 6 105338724.81106     -2105.480 6        39.913
G14        31.000    22784805.044 7 119734951.55407      2804.368 7        43.293                                    22784803.750 5  93299959.89705      2185.222 5        31.147    22784803.773 7  93299945.90007      2185.205 7        43.137
G27        32.000    24906059.231 6 130882214.38106        32.135 6        36.336                                    24906060.999 4 101986160.20004        25.036 4        28.474    24906061.736 5 101986150.19805        25.154 5        35.005
C37        33.000                                                                                                                                    25308008.308 7 131785398.44207     -3391.357 7        42.925                                                                    25308012.503 7 107086434.63407     -2755.763 7        42.882
E04        34.000    23287858.322 8 122378545.25708      -742.028 8        48.941                                                                    23287857.045 8  91386583.81608      -554.166 8        51.367    23287856.369 8  93770577.55208      -568.591 8        51.259
C16        35.000                                                                                                                                    41419175.333 5 215680435.69805     -1354.503 5        34.529    41419181.640 5 166777778.17305     -1047.616 5        34.933    41419177.312 5 175257998.66505     -1101.023 5        30.030
R12        36.000    21203498.165 8 113265271.05708      3349.180 8        50.014                                                                    21203499.919 7  88095212.88107      2605.027 7        46.534
I01        37.000   388773449.073 6 222489623.65706     -3078.624 6        41.318
C10        38.000                                                                                                                                    40513658.437 6 210965255.44206      1150.909 6        37.187    40513658.873 6 163131720.30706       890.030 6        40.739    40513656.506 6 171426541.25006       935.107 6        38.429
C19        39.000                                                                                                                                    21917653.718 8 114130962.82308     -1283.164 8        52.208                                                                    21917649.104 8  92740731.04108     -1042.741 8        50.310
E34        40.000    27787349.468 6 146023513.48806       936.143 6        39.375                                                                    27787349.622 7 109043533.83707       699.183 7        42.082    27787349.385 7 111888147.33407       717.313 7        42.834
G05        41.000    21394490.229 7 112428809.31307      1179.606 7        46.989                                    21394486.357 7  87606844.27707       919.176 7        46.177    21394486.638 7  87606853.26807       919.211 7        43.388
S44        42.000    40821972.295 6 214520966.78806      -507.206 6        36.552
C36        43.000                                                                                                                                    22993777.526 8 119734621.51808      2139.875 8        49.220                                                                    22993782.567 8  97294205.71808      1738.749 8        48.405
C05        44.000                                                                                                                                    39237094.439 6 204317837.63706      -528.201 6        39.207    39237092.187 7 157991524.89907      -408.313 7        43.570    39237094.235 6 166025073.27306      -429.299 6        40.558
R18        45.000    23045078.482 7 123016206.89307      -871.056 7        44.570                                                                    23045078.437 7  95679254.96307      -677.452 7        42.025
G18        46.000    25547346.896 6 134252215.19006      1486.001 6        37.115                                    25547342.035 3 104612103.14503      1157.930 3        18.985    25547343.081 6 104612093.15906      1157.916 6        37.769
R11        47.000    19359031.365 8 103448768.74908      -924.758 8        51.501                                                                    19359030.316 8  80460155.43908      -719.212 8        49.167
C20        49.000                                                                                                                                    24760899.888 7 128936476.74907     -3387.274 7        46.648                                                                    24760896.247 7 104771422.28207     -2752.518 7        44.561
C06        50.000                                                                                                                                    40895191.228 5 212951924.92105     -1417.237 5        34.619    40895190.576 6 164667895.13306     -1095.805 6        38.634    40895189.253 6 173040843.54906     -1151.763 6        36.034
S48        51.000    77123978.811 6 405288973.61006      -453.424 6        37.629
E06        52.000    23547484.637 8 123742884.61108       482.131 8        49.134                                                                    23547484.743 8  92405409.94508       360.013 8        50.525    23547484.780 8  94815984.00908       369.455 8        51.499
C09        53.000                                                                                                                                    40019459.585 6 208391799.55906     -1230.413 6        38.468    40019458.931 7 161141736.47107      -951.354 7        42.445    40019456.097 6 169335376.79506     -1000.041 6        38.459
C60        54.000                                                                                                                                    40821967.294 6 212570794.66206      -502.441 6        39.931                                                                    40821956.515 6 172731130.58406      -408.291 6        38.291
E31        55.000    26871736.292 6 141211908.46706      2705.581 6        41.104                                                                    26871741.050 7 105450476.70607      2020.340 7        43.627    26871740.558 7 108201355.61007      2073.001 7        44.361
G07        56.000    21549992.209 7 113245976.34907     -2261.868 7        46.636                                    21549988.105 7  88243597.50707     -1762.492 7        46.126    21549988.372 7  88243606.51007     -1762.565 7        43.536
C02        57.000                                                                                                                                    40814892.763 5 212533790.88605      -538.829 5        34.700    40814894.772 6 164344571.86306      -416.911 6        40.560    40814896.413 5 172701093.00105      -438.023 5        35.557
I03        58.000    97560848.485 6 307064341.88206       857.001 6        40.741
C22        60.000                                                                                                                                    22819314.709 8 118826148.98508      1713.804 8        49.351                                                                    22819308.571 8  96555953.25908      1392.523 8        48.894
> 2025 01 02 06 45 20.0000000  0 56
G09         1.000    23444727.438 6 123202849.65506     -3588.425 6        40.050                                    23444728.071 6  96002212.40706     -2796.161 6        37.180    23444727.334 6  96002212.40206     -2796.133 6        38.513
E11         3.000    26988790.472 6 141827040.23606     -3363.166 6        37.448                                                                    26988788.142 6 105909784.96306     -2511.551 6        38.580    26988787.879 6 108672646.07406     -2577.250 6        39.276
G08         4.000    24715237.028 6 129879478.07906      1337.762 6        36.000                                    24715241.999 4 101204813.46404      1042.401 4        27.353    24715242.249 5 101204809.49605      1042.612 5        34.881
S21         5.000    38400372.037 7 201794992.01707      -468.439 7        42.387
E10         6.000    28485558.351 6 149692566.98206     -3595.585 6        38.787                                                                    28485560.849 6 111783389.37906     -2685.112 6        39.366    28485560.443 6 114699479.32706     -2755.057 6        40.148
G20         7.000    20735641.663 8 108966525.38108     -1356.079 8        48.032                                    20735637.100 6  84908958.18606     -1056.679 6        39.210
R02         8.000    20946725.067 8 111775728.43308      2553.223 8        50.428                                                                    20946724.218 7  86936676.36107      1985.887 7        45.010
R10         9.000    22436750.310 6 119600484.17406     -4366.553 6        38.450
R17        10.000    23505074.588 7 125780402.08007     -3499.619 7        44.516                                                                    23505073.132 6  97829194.39906     -2722.137 6        39.459
G30        11.000    20370159.933 8 107045915.54308      -262.760 8        50.644                                    20370158.491 8  83412391.74108      -204.746 8        52.297    20370158.817 7  83412399.74107      -204.779 7        45.099
S27        12.000    39060087.309 6 205262099.48306      -493.256 6        36.703
G13        13.000    22174370.382 7 116527097.28007      2367.150 7        43.977                                    22174366.212 4  90800312.03204      1844.542 4        28.626
S36        14.000    38168802.897 7 200578910.59007      -468.746 7        44.775
I09        15.000    38908292.643 7 152684429.97907      -931.289 7        42.045
E09        16.000    25034109.886 7 131555149.14507      1378.450 7        45.658                                                                    25034109.873 8  98239231.44808      1029.382 8        48.169    25034109.590 8 100801990.52808      1056.235 8        49.277
S45        17.000    63350948.155 6 332911951.08906      -512.131 6        36.329
E36        18.000    26249213.357 7 137940531.65607     -1564.056 7        42.298                                                                    26249214.120 7 103007556.68107     -1168.082 7        44.668    26249213.616 7 105694708.97707     -1198.398 7        45.341
R19        19.000    24182380.125 5 129359422.57505      1787.106 5        31.374                                                                    24182381.454 6 100612884.01306      1390.109 6        38.156
E21        20.000    26047611.653 7 136881098.22107     -1706.381 7        43.137                                                                    26047612.840 7 102216413.07807     -1274.207 7        45.377    26047612.511 7 104882925.29307     -1307.483 7        46.036
G11        21.000    24569419.254 6 129113146.91206     -3643.641 6        39.538                                    24569416.595 4 100607619.88104     -2839.196 4        24.015    24569416.770 6 100607632.88106     -2839.324 6        38.751
I06        22.000    37937010.169 7 148873174.34607      -381.617 7        42.654
