     3.04           OBSERVATION DATA    M                   RINEX VERSION / TYPE
ssrcrin-15.6.1x                         20250102 110000 UTC PGM / RUN BY / DATE 
(00000000023479385599111004) Septentrio proprietary         COMMENT             
rref                                                        MARKER NAME         
01                                                          MARKER NUMBER       
geodetic                                                    MARKER TYPE         
NFB                 CLIMERS@TUW                             OBSERVER / AGENCY   
3297213             SEPT ASTERX SB3 PROB4.14.4              REC # / TYPE / VERS 
Unknown             Unknown                                 ANT # / TYPE        
  4127832.1743  1207193.1366  4695247.8302                  APPROX POSITION XYZ 
        0.0000        0.0000        0.0000                  ANTENNA: DELTA H/E/N
G   23 X1  C1C L1C D1C S1C C1W S1W C2W L2W D2W S2W C2L L2L  SYS / # / OBS TYPES 
       D2L S2L C5Q L5Q D5Q S5Q C1L L1L D1L S1L              SYS / # / OBS TYPES 
E   21 X1  C1C L1C D1C S1C C6C L6C D6C S6C C5Q L5Q D5Q S5Q  SYS / # / OBS TYPES 
       C7Q L7Q D7Q S7Q C8Q L8Q D8Q S8Q                      SYS / # / OBS TYPES 
S    9 X1  C1C L1C D1C S1C C5I L5I D5I S5I                  SYS / # / OBS TYPES 
R   17 X1  C1C L1C D1C S1C C2P L2P D2P S2P C2C L2C D2C S2C  SYS / # / OBS TYPES 
       C3Q L3Q D3Q S3Q                                      SYS / # / OBS TYPES 
C   25 X1  C1P L1P D1P S1P C5P L5P D5P S5P C2I L2I D2I S2I  SYS / # / OBS TYPES 
       C7I L7I D7I S7I C6I L6I D6I S6I C7D L7D D7D S7D      SYS / # / OBS TYPES 
J   17 X1  C1C L1C D1C S1C C2L L2L D2L S2L C5Q L5Q D5Q S5Q  SYS / # / OBS TYPES 
       C1L L1L D1L S1L                                      SYS / # / OBS TYPES 
I    5 X1  C5A L5A D5A S5A                                  SYS / # / OBS TYPES 
SEPTENTRIO RECEIVERS OUTPUT ALIGNED CARRIER PHASES.         COMMENT             
NO FURTHER PHASE SHIFT APPLIED IN THE RINEX ENCODER.        COMMENT             
G L1C                                                       SYS / PHASE SHIFT   
G L2W                                                       SYS / PHASE SHIFT   
G L2L  0.00000                                              SYS / PHASE SHIFT   
G L5Q  0.00000                                              SYS / PHASE SHIFT   
G L1L  0.00000                                              SYS / PHASE SHIFT   
E L1C  0.00000                                              SYS / PHASE SHIFT   
E L6C  0.00000                                              SYS / PHASE SHIFT   
E L5Q  0.00000                                              SYS / PHASE SHIFT   
E L7Q  0.00000                                              SYS / PHASE SHIFT   
E L8Q  0.00000                                              SYS / PHASE SHIFT   
S L1C                                                       SYS / PHASE SHIFT   
S L5I                                                       SYS / PHASE SHIFT   
R L1C                                                       SYS / PHASE SHIFT   
R L2P  0.00000                                              SYS / PHASE SHIFT   
R L2C                                                       SYS / PHASE SHIFT   
R L3Q  0.00000                                              SYS / PHASE SHIFT   
C L1P  0.00000                                              SYS / PHASE SHIFT   
C L5P  0.00000                                              SYS / PHASE SHIFT   
C L2I                                                       SYS / PHASE SHIFT   
C L7I                                                       SYS / PHASE SHIFT   
C L6I                                                       SYS / PHASE SHIFT   
C L7D                                                       SYS / PHASE SHIFT   
J L1C                                                       SYS / PHASE SHIFT   
J L2L  0.00000                                              SYS / PHASE SHIFT   
J L5Q  0.00000                                              SYS / PHASE SHIFT   
J L1L  0.00000                                              SYS / PHASE SHIFT   
I L5A                                                       SYS / PHASE SHIFT   
  2025     1     2    11     0    0.0000000     GPS         TIME OF FIRST OBS   
 C1C    0.000 C2C    0.000 C2P    0.000                     GLONASS COD/PHS/BIS 
DBHZ                                                        SIGNAL STRENGTH UNIT
    18                                                      LEAP SECONDS        
 24 R01  1 R02 -4 R03  5 R04  6 R05  1 R06 -4 R07  5 R08  6 GLONASS SLOT / FRQ #
    R09 -2 R10 -7 R11  0 R12 -1 R13 -2 R14 -7 R15  0 R16 -1 GLONASS SLOT / FRQ #
    R17  4 R18 -3 R19  3 R20  2 R21  4 R22 -3 R23  3 R24  2 GLONASS SLOT / FRQ #
                                                            END OF HEADER       
> 2025 01 02 11 00  0.0000000  0 55
E24         1.000    23658956.701 8 124328779.94208       323.896 8        48.801                                                                    23658958.589 8  92842990.30608       241.901 8        50.527    23658957.765 8  95264970.00608       248.215 8        51.086
G15         2.000    21390956.468 7 112410156.75507     -3355.527 7        47.929                                    21390956.884 7  87592298.50207     -2614.689 7        46.438    21390957.302 7  87592293.49007     -2614.655 7        43.397
E03         3.000    26483907.716 6 139173856.45406      1985.551 6        41.099                                                                    26483915.547 7 103928535.59807      1482.643 7        44.098    26483914.347 7 106639716.42707      1521.357 7        44.733
G19         4.000    21341856.747 7 112152381.91907       740.968 7        47.124                                    21341854.673 6  87391500.37306       577.384 6        38.150
S21         5.000    38349547.330 7 201527837.44507      -498.113 7        42.525
E05         6.000    22144651.101 8 116370884.87208      -399.635 8        48.385                                                                    22144655.259 8  86900309.43608      -298.405 8        50.646    22144654.515 8  89167273.66408      -306.264 8        51.157
C29         8.000                                                                                                                                    24205478.071 7 126044278.93207      2006.789 7        45.234                                                                    24205480.633 7 102421313.55507      1630.720 7        43.898
R05         9.000    22713064.287 7 121414361.88807      3125.874 7        47.032                                                                    22713070.030 7  94433436.44207      2431.201 7        42.800
G24        10.000    20192367.788 8 106111615.01508       645.792 8        49.770                                    20192369.425 8  82684390.97808       503.212 8        52.173    20192369.841 7  82684395.98907       503.104 7        46.092
C14        11.000                                                                                                                                    25410422.358 6 132318744.92006      1462.376 6        39.880    25410427.043 7 102317273.05507      1130.895 7        46.251    25410423.392 7 107519829.58407      1188.294 7        42.999
S27        12.000    39098751.735 6 205465168.90906      -528.352 6        36.798
G13        13.000    22664621.077 7 119103282.25807     -4092.647 7        44.313                                    22664622.006 4  92807704.91804     -3189.077 4        28.436
S36        14.000    38120027.994 7 200322530.62207      -498.854 7        44.390
G02        15.000    25804313.532 6 135602581.47306     -1583.657 6        36.057                                    25804320.691 2 105664375.04902     -1233.999 2        16.453
E09        16.000    25157343.555 7 132202670.14007     -3062.876 7        46.279                                                                    25157348.967 7  98722747.71407     -2287.229 7        47.846    25157348.071 8 101298122.83708     -2346.831 8        48.797
G12        17.000    22138820.593 7 116340431.99307      2475.488 7        47.088                                    22138820.958 7  90654957.19407      1928.952 7        44.623    22138821.381 7  90654954.20807      1928.828 7        42.368
R21        18.000    24510672.582 6 131161542.02206     -3745.194 6        39.012                                                                    24510683.148 6 102014568.03206     -2913.007 6        38.553
R22        19.000    22241204.693 7 118725131.97907      -584.809 7        46.179                                                                    22241211.002 7  92341764.66007      -454.881 7        43.778
R03        21.000    20790064.352 8 111290758.97308     -3983.492 8        50.778                                                                    20790067.316 7  86559458.40907     -3098.271 7        45.535
I06        22.000    38190594.085 6 149868205.35406      -481.654 6        41.385
S28        23.000    40806253.893 5 214438155.15805      -508.749 5        35.100
S23        25.000    38054482.660 7 199977508.42907      -501.715 7        44.807
S45        26.000    63305105.265 6 332671490.15706      -554.611 6        36.541
C07        27.000                                                                                                                                    39105877.758 6 203634494.52606     -1159.189 6        39.880    39105878.701 7 157463084.28607      -896.274 7        43.189    39105875.480 6 165469675.52806      -942.014 6        40.355
R04        28.000    19950090.683 8 106831814.32808      -181.469 8        51.520                                                                    19950091.820 7  83091388.16107      -141.182 7        47.420
C40        29.000                                                                                                                                    39309957.767 7 204697202.13607     -1409.150 7        42.036                                                                    39309961.733 6 166333235.15006     -1145.057 6        41.678
G17        30.000    22174414.131 7 116527447.47307     -1820.618 7        46.595                                    22174414.965 7  90800665.92107     -1418.662 7        43.801    22174415.109 7  90800662.92407     -1418.745 7        42.650
G14        31.000    23829959.683 6 125227161.62006     -3760.752 6        40.641                                    23829965.957 4  97579575.00804     -2930.451 4        25.008    23829965.849 6  97579561.00106     -2930.312 6        39.459
G23        32.000    23723406.575 6 124667214.92506     -2580.783 6        40.443                                    23723411.876 4  97143239.08304     -2010.993 4        25.504    23723411.897 6  97143234.07306     -2010.818 6        40.322
I02        33.000    36821454.117 7 144495283.11207      -300.044 7        43.160
R15        34.000    24172350.892 6 129169702.01406      2897.665 6        40.439                                                                    24172362.508 6 100465353.75706      2253.760 6        36.771
R13        35.000    19948944.674 7 106526265.01607     -2381.246 7        46.796
R12        36.000    23280157.921 7 124358269.90207     -3924.535 7        43.869                                                                    23280169.518 6  96723063.81706     -3052.337 6        41.361
C42        37.000                                                                                                                                    24015167.437 7 125053273.83807       110.692 7        45.732                                                                    24015179.336 7 101616072.37407        89.895 7        46.436
C10        38.000                                                                                                                                    38487171.312 6 200412771.51706      -808.014 6        41.826    38487173.705 7 154971861.77007      -624.907 7        44.835    38487170.491 6 162851776.77406      -656.839 6        41.242
E25        39.000    26646335.953 6 140027536.84006      2112.711 6        41.030                                                                    26646346.109 7 104566112.58607      1577.606 7        42.646    26646344.832 7 107293912.57207      1618.746 7        43.795
C30        40.000                                                                                                                                    24431307.048 7 127220266.89507      -695.024 7        45.297                                                                    24431313.909 7 103376928.26307      -564.804 7        43.342
R23        41.000    22248683.343 7 119015513.00407      2513.044 7        44.328
S44        42.000    40761548.547 6 214203417.33106      -452.539 6        38.562
C36        43.000                                                                                                                                    23899275.346 7 124449701.64007     -2925.690 7        45.627                                                                    23899284.725 7 101125576.67507     -2377.263 7        46.183
C05        44.000                                                                                                                                    39349175.104 6 204901385.65906      -528.315 6        38.811    39349177.641 7 158442739.73107      -408.711 7        42.688    39349177.346 6 166499236.59206      -429.495 6        39.015
R14        45.000    20181373.962 8 107578183.06408      1358.374 8        51.580                                                                    20181378.123 7  83672000.56307      1056.537 7        47.157
E26        46.000    28093621.862 6 147633000.64006       198.977 6        36.544                                                                    28093634.632 6 110245484.32506       148.623 6        40.195    28093632.636 6 113121443.37306       152.609 6        40.288
G10        47.000    24259309.052 6 127483471.95006      -277.791 6        40.746                                    24259314.794 5  99337765.31005      -216.461 5        35.114    24259314.921 6  99337766.30706      -216.477 6        37.720
C45        50.000                                                                                                                                    21545732.145 8 112194298.43608      -829.709 8        50.580                                                                    21545726.201 8  91167044.92008      -674.230 8        50.044
S48        51.000    77057604.971 6 404940446.22406      -496.313 6        38.048
E06        52.000    26784112.692 6 140751333.01206     -3589.684 6        39.480                                                                    26784123.375 7 105106481.11807     -2680.754 7        43.736    26784122.445 7 107848392.45707     -2750.543 7        44.859
E33        53.000    28314908.864 6 148795887.60006      1907.677 6        36.215                                                                    28314922.782 6 111113867.07006      1424.458 6        39.526    28314920.962 6 114012480.59006      1461.582 6        40.548
C60        54.000                                                                                                                                    40761549.525 6 212256131.52206      -448.243 6        40.100                                                                    40761541.424 6 172475430.23706      -364.414 6        39.153
E31        55.000    24294919.203 7 127670639.14207     -2258.253 7        46.128                                                                    24294924.354 8  95338488.53708     -1686.385 8        48.526    24294923.575 8  97825576.57108     -1730.340 8        49.441
C26        56.000                                                                                                                                    23661409.951 7 123211233.99507      1778.768 7        45.943                                                                    23661413.067 7 100119257.39907      1445.331 7        46.459
C02        57.000                                                                                                                                    40889671.407 5                      -493.695 5        30.423    40889677.991 5 164645602.06305      -381.774 5        35.829    40889677.758 5                      -401.094 5        30.709
I03        58.000    92672941.903 5 287883027.26905       922.448 5        33.754
C21        59.000                                                                                                                                    23704265.385 7 123434241.17707     -2722.351 7        47.539                                                                    23704263.859 7 100300389.83907     -2212.162 7        47.738
C22        60.000                                                                                                                                    26021195.333 6 135498963.14006     -4003.708 6        40.555                                                                    26021199.825 6 110103935.09906     -3253.368 6        41.533
> 2025 01 02 11 00  5.0000000  0 55
E24         1.000    23658649.013 8 124327164.50908       322.299 8        48.852                                                                    23658651.184 8  92841783.97908       240.673 8        50.667    23658650.331 8  95263732.20508       246.965 8        51.142
G15         2.000    21394150.210 8 112426940.06408     -3357.819 8        48.240                                    21394150.660 7  87605376.38307     -2616.477 7        46.432    21394151.263 7  87605371.37707     -2616.501 7        43.007
E03         3.000    26482019.088 6 139163931.15906      1984.521 6        40.639                                                                    26482026.941 7 103921123.85707      1481.984 7        44.178    26482025.591 7 106632111.34207      1520.611 7        44.746
G19         4.000    21341153.567 7 112148685.12107       737.849 7        47.392                                    21341151.211 6  87388619.74406       574.949 6        38.171
S21         5.000    38350024.286 7 201530328.52507      -498.366 7        42.535
E05         6.000    22145032.644 8 116372888.80708      -401.903 8        48.439                                                                    22145036.588 8  86901805.87008      -300.071 8        50.706    22145035.830 8  89168809.13408      -307.952 8        51.217
C29         8.000                                                                                                                                    24203551.892 7 126034249.03007      2005.278 7        45.007                                                                    24203554.694 7 102413163.45207      1629.341 7        44.038
R05         9.000    22710140.754 7 121398738.87307      3123.519 7        46.149                                                                    22710147.784 7  94421285.25407      2429.363 7        43.124
G24        10.000    20191754.777 8 106108392.38408       643.369 8        50.114                                    20191756.182 8  82681879.83808       501.326 8        52.198    20191756.652 7  82681884.84607       501.318 7        46.287
C14        11.000                                                                                                                                    25409019.640 6 132311438.34106      1460.227 6        39.532    25409023.429 7 102311623.17607      1129.096 7        46.334    25409020.281 7 107513892.42107      1186.658 7        43.198
S27        12.000    39099254.090 6 205467810.85006      -528.278 6        36.741
G13        13.000    22668515.176 7 119123748.57907     -4093.844 7        44.551                                    22668516.562 4  92823652.67604     -3190.007 4        28.796
S36        14.000    38120502.974 7 200325025.52707      -499.227 7        44.385
G02        15.000    25805822.209 6 135610507.48006     -1586.527 6        36.299                                    25805828.893 2 105670551.14802     -1236.246 2        16.981
E09        16.000    25160258.336 7 132217987.85507     -3064.191 7        46.361                                                                    25160263.837 8  98734186.23908     -2288.177 8        48.081    25160262.792 8 101309859.76408     -2347.857 8        48.828
G12        17.000    22136466.006 7 116328058.83307      2473.793 7        47.077                                    22136466.429 7  90645315.79507      1927.625 7        44.691    22136466.699 7  90645312.80207      1927.717 7        42.569
R21        18.000    24514172.622 6 131180273.94806     -3747.531 6        39.009                                                                    24514183.612 6 102029137.31306     -2914.861 6        38.544
R22        19.000    22241754.360 7 118728066.68107      -589.190 7        46.039                                                                    22241759.532 7  92344047.22407      -458.220 7        42.554
R03        21.000    20793786.709 8 111310684.04108     -3986.491 8        50.395                                                                    20793789.198 7  86574955.65407     -3100.574 7        44.986
I06        22.000    38191207.599 6 149870613.14506      -481.431 6        41.275
S28        23.000    40806739.091 5 214440699.71005      -508.772 5        35.181
S23        25.000    38054957.810 7 199980016.68907      -501.430 7        44.826
S45        26.000    63305581.886 6 332674263.05106      -554.545 6        36.280
C07        27.000                                                                                                                                    39106991.128 6 203640291.50906     -1159.515 6        40.236    39106991.878 7 157467566.87507      -896.685 7        43.462    39106988.940 6 165474386.04606      -942.255 6        40.293
R04        28.000    19950262.450 8 106832733.41508      -186.154 8        51.737                                                                    19950263.906 7  83092103.01007      -144.814 7        47.174
C40        29.000                                                                                                                                    39311310.874 6 204704249.37706     -1409.673 6        41.897                                                                    39311315.212 6 166338961.60706     -1145.479 6        41.526
G17        30.000    22176147.965 7 116536557.82707     -1823.544 7        46.348                                    22176148.560 7  90807764.89007     -1420.942 7        43.835    22176148.638 7  90807761.89407     -1420.924 7        42.161
G14        31.000    23833537.686 6 125245966.24006     -3761.046 6        40.300                                    23833544.190 4  97594227.91704     -2930.669 4        24.361    23833544.323 6  97594213.90506     -2930.754 6        39.607
G23        32.000    23725863.752 6 124680124.04806     -2583.018 6        41.869                                    23725868.429 4  97153298.10804     -2012.738 4        25.549    23725867.995 6  97153293.10306     -2012.626 6        40.641
I02        33.000    36821836.607 7 144496784.01807      -300.216 7        43.208
R15        34.000    24169640.225 6 129155215.10606      2897.222 6        41.862                                                                    24169651.594 6 100454086.21606      2253.427 6        37.516
R13        35.000    19951175.354 7 106538175.36007     -2382.853 7        46.778
R12        36.000    23283832.088 7 124377892.67407     -3924.554 7        44.218                                                                    23283842.645 6  96738325.91506     -3052.448 6        41.018
C42        37.000                                                                                                                                    24015062.815 7 125052727.87607       107.810 7        45.895                                                                    24015074.541 7 101615628.74707        87.574 7        46.579
C10        38.000                                                                                                                                    38487947.536 6 200416813.38206      -808.504 6        41.838    38487949.732 7 154974987.19007      -625.228 7        44.966    38487946.634 6 162855061.12006      -657.021 6        41.347
E25        39.000    26644326.879 6 140016975.56906      2111.890 6        41.159                                                                    26644336.596 7 104558225.92207      1577.092 7        42.861    26644335.008 7 107285820.16607      1618.266 7        43.909
C30        40.000                                                                                                                                    24431976.030 7 127223748.98707      -697.760 7        45.303                                                                    24431982.611 7 103379757.75307      -566.961 7        43.378
R23        41.000    22246336.370 7 119002954.80207      2510.209 7        43.981
S44        42.000    40761976.209 6 214205679.59506      -452.486 6        38.396
C36        43.000                                                                                                                                    23902084.982 7 124464331.34907     -2926.201 7        45.059                                                                    23902094.304 7 101137464.50707     -2377.799 7        46.139
C05        44.000                                                                                                                                    39349682.499 6 204904027.55106      -528.345 6        38.667    39349685.246 7 158444782.60807      -408.573 7        42.762    39349684.727 6 166501383.35806      -429.306 6        39.003
R14        45.000    20180101.056 8 107571395.98708      1356.431 8        52.360                                                                    20180105.102 7  83666721.73507      1055.033 7        47.414
E26        46.000    28093433.283 6 147632010.38006       196.987 6        36.609                                                                    28093446.204 6 110244744.82006       147.104 6        40.143    28093444.116 6 113120684.58606       150.953 6        40.143
G10        47.000    24259574.708 6 127484868.72806      -280.885 6        40.889                                    24259580.520 5  99338853.69605      -218.873 5        34.938    24259580.485 6  99338854.70306      -218.881 6        37.917
C45        50.000                                                                                                                                    21546529.370 8 112198450.77308      -831.188 8        50.492                                                                    21546523.626 8  91170419.04308      -675.409 8        50.078
S48        51.000    77058071.258 6 404942927.95706      -496.364 6        37.921
E06        52.000    26787528.531 6 140769283.51206     -3590.465 6        39.763                                                                    26787539.347 7 105119885.67307     -2681.090 7        44.004    26787537.972 7 107862146.70807     -2751.051 7        44.775
E33        53.000    28313094.535 6 148786352.54706      1906.610 6        36.454                                                                    28313107.988 6 111106746.75606      1423.630 6        39.739    28313106.612 6 114005174.50706      1460.951 6        40.713
C60        54.000                                                                                                                                    40761980.048 6 212258373.23006      -448.349 6        40.133                                                                    40761971.835 6 172477251.81206      -364.205 6        39.063
E31        55.000    24297068.300 7 127681933.08507     -2259.277 7        46.175                                                                    24297073.533 8  95346922.31608     -1687.135 8        48.560    24297072.759 8  97834230.36108     -1731.169 8        49.545
C26        56.000                                                                                                                                    23659702.621 7 123202342.27607      1777.918 7        45.910                                                                    23659705.484 7 100112032.16707      1444.753 7        46.512
C02        57.000                                                                                                                                    40890145.949 4                      -493.639 4        29.962    40890151.836 5 164647511.02505      -381.613 5        35.962    40890152.162 5                      -400.898 5        30.400
I03        58.000    92671766.769 5 287878415.42705       922.427 5        33.838
C21        59.000                                                                                                                                    23706880.441 7 123447858.17307     -2724.444 7        47.515                                                                    23706878.933 7 100311454.75707     -2213.795 7        47.847
C22        60.000                                                                                                                                    26025039.421 6 135518981.36006     -4003.488 6        40.548                                                                    26025044.160 6 110120201.44906     -3253.288 6        41.628
> 2025 01 02 11 00 10.0000000  0 55
E24         1.000    23658343.156 8 124325557.29008       320.837 8        48.818                                                                    23658345.324 8  92840583.78208       239.606 8        50.812    23658344.530 8  95262500.69708       245.886 8        51.206
G15         2.000    21397346.311 8 112443735.15308     -3359.927 8        48.387                                    21397346.690 7  87618463.44207     -2618.122 7        46.623    21397347.188 7  87618458.43707     -2618.198 7        43.562
E03         3.000    26480131.074 6 139154011.44506      1983.476 6        40.327                                                                    26480139.147 7 103913716.28907      1481.282 7        44.474    26480137.954 7 106624510.52607      1519.927 7        44.948
G19         4.000    21340452.967 7 112145004.12007       734.872 7        47.870                                    21340450.736 6  87385751.42106       572.629 6        38.375
S21         5.000    38350494.996 7 201532819.79707      -498.075 7        42.275
E05         6.000    22145416.183 8 116374904.08508      -403.984 8        48.349                                                                    22145420.073 8  86903310.77808      -301.638 8        50.863    22145419.342 8  89170353.29808      -309.512 8        51.299
C29         8.000                                                                                                                                    24201627.575 7 126024226.99007      2003.959 7        44.730                                                                    24201630.226 7 102405019.72507      1628.343 7        44.150
R05         9.000    22707220.311 7 121383128.24207      3121.157 7        46.937                                                                    22707227.067 7  94409143.66607      2427.458 7        43.536
G24        10.000    20191143.636 8 106105181.83008       641.074 8        50.124                                    20191145.242 8  82679378.10708       499.539 8        52.385    20191145.574 7  82679383.11407       499.529 7        46.191
C14        11.000                                                                                                                                    25407619.313 6 132304143.28206      1458.078 6        39.847    25407622.394 7 102305982.19207      1127.482 7        46.410    25407619.264 7 107507964.59707      1184.925 7        42.959
S27        12.000    39099753.025 6 205470453.36406      -528.277 6        36.715
G13        13.000    22672410.979 7 119144221.09307     -4094.903 7        44.253                                    22672412.709 4  92839605.25304     -3190.823 4        29.374
S36        14.000    38120977.552 7 200327520.41907      -498.680 7        44.524
G02        15.000    25807333.467 5 135618446.41505     -1588.851 5        35.538                                    25807339.787 2 105676737.32202     -1238.067 2        16.717
E09        16.000    25163174.509 7 132233312.48407     -3065.430 7        46.123                                                                    25163180.011 8  98745629.93308     -2289.097 8        48.217    25163178.818 8 101321601.99408     -2348.752 8        48.810
G12        17.000    22134112.771 7 116315693.89707      2472.341 7        47.026                                    22134113.475 7  90635680.80807      1926.494 7        44.913    22134113.906 7  90635677.81707      1926.597 7        42.389
R21        18.000    24517676.105 6 131199018.64606     -3749.967 6        38.922                                                                    24517686.411 6 102043716.46406     -2916.605 6        37.758
R22        19.000    22242307.742 7 118731023.41807      -593.379 7        44.930                                                                    22242313.473 7  92346346.91107      -461.446 7        42.652
R03        21.000    20797511.312 8 111330623.80108     -3989.135 8        50.363                                                                    20797514.481 7  86590464.33307     -3102.705 7        45.347
I06        22.000    38191821.518 6 149873021.01706      -481.436 6        41.302
S28        23.000    40807226.266 5 214443244.32305      -508.617 5        34.838
S23        25.000    38055437.499 7 199982524.99607      -501.502 7        44.677
S45        26.000    63306063.202 6 332677036.09006      -554.496 6        36.121
C07        27.000                                                                                                                                    39108104.877 6 203646090.67806     -1159.795 6        40.286    39108105.544 7 157472051.14607      -896.848 7        43.634    39108102.404 6 165479098.32506      -942.171 6        40.348
R04        28.000    19950438.893 8 106833676.17008      -190.606 8        52.071                                                                    19950439.795 7  83092836.25507      -148.301 7        47.559
C40        29.000                                                                                                                                    39312665.325 6 204711299.20606     -1409.994 6        41.797                                                                    39312669.005 6 166344690.14106     -1145.631 6        41.359
G17        30.000    22177884.248 7 116545682.80807     -1826.247 7        45.758                                    22177884.954 7  90814875.26207     -1423.047 7        43.979    22177885.143 6  90814872.26406     -1422.984 6        41.681
G14        31.000    23837116.720 6 125264772.97906     -3761.329 6        40.174                                    23837122.870 4  97608882.48504     -2930.897 4        24.571    23837123.295 6  97608868.45906     -2930.851 6        39.868
G23        32.000    23728322.666 6 124693044.37106     -2584.932 6        41.449                                    23728327.164 4  97163365.86904     -2014.231 4        26.060    23728327.027 6  97163360.86606     -2014.412 6        40.076
I02        33.000    36822219.311 7 144498286.14307      -300.369 7        43.071
R15        34.000    24166931.023 6 129140730.39406      2896.901 6        41.776                                                                    24166940.297 6 100442820.35506      2253.243 6        36.662
R13        35.000    19953406.899 7 106550094.41907     -2384.374 7        46.646
R12        36.000    23287505.569 7 124397515.93807     -3924.508 7        44.158                                                                    23287515.750 6  96753588.40806     -3052.284 6        41.416
C42        37.000                                                                                                                                    24014960.733 7 125052196.34307       105.108 7        46.011                                                                    24014972.454 7 101615196.82307        85.426 7        46.475
C10        38.000                                                                                                                                    38488724.429 7 200420857.79907      -808.984 7        42.042    38488726.321 7 154978114.58207      -625.564 7        45.061    38488723.261 6 162858347.53306      -657.420 6        41.344
E25        39.000    26642317.184 6 140006417.99206      2111.383 6        40.973                                                                    26642327.454 7 104550342.02507      1576.676 7        43.005    26642326.014 7 107277730.60607      1617.846 7        43.829
C30        40.000                                                                                                                                    24432647.294 7 127227245.27207      -700.502 7        45.068                                                                    24432654.091 7 103382598.76207      -569.178 7        43.289
R23        41.000    22243991.445 7 118990411.07207      2507.518 7        44.519
S44        42.000    40762411.610 6 214207941.79006      -452.168 6        38.565
C36        43.000                                                                                                                                    23904894.656 7 124478964.22507     -2926.604 7        44.828                                                                    23904904.271 7 101149354.87907     -2378.095 7        46.012
C05        44.000                                                                                                                                    39350189.420 6 204906669.37206      -528.129 6        38.715    39350192.485 7 158446825.45107      -408.370 7        42.811    39350192.002 6 166503530.05806      -429.102 6        39.108
R14        45.000    20178829.735 8 107564618.82808      1354.720 8        52.321                                                                    20178833.610 7  83661450.61907      1053.719 7        47.222
E26        46.000    28093247.056 6 147631031.86506       194.803 6        36.684                                                                    28093260.017 6 110244014.09706       145.422 6        40.260    28093257.938 6 113119934.80506       149.306 6        40.010
G10        47.000    24259844.121 6 127486281.21606      -283.751 6        41.397                                    24259849.341 5  99339954.33505      -221.105 5        35.286    24259849.612 6  99339955.35406      -221.328 6        38.183
C45        50.000                                                                                                                                    21547328.209 8 112202610.66408      -832.537 8        50.557                                                                    21547322.547 8  91173799.28808      -676.419 8        49.989
S48        51.000    77058547.732 6 404945409.39306      -496.077 6        38.141
E06        52.000    26790945.134 6 140787236.98406     -3590.771 6        39.958                                                                    26790955.831 7 105133292.47107     -2681.460 7        44.125    26790954.067 7 107875903.24407     -2751.308 7        44.462
E33        53.000    28311281.513 6 148776822.74206      1905.698 6        36.450                                                                    28311294.647 6 111099630.31606      1423.156 6        39.772    28311293.284 6 113997872.44506      1460.410 6        40.818
C60        54.000                                                                                                                                    40762410.634 6 212260614.85306      -448.162 6        40.181                                                                    40762402.318 6 172479073.30706      -364.059 6        38.979
E31        55.000    24299218.637 7 127693232.37107     -2260.156 7        46.120                                                                    24299223.682 8  95355360.08708     -1687.791 8        48.685    24299222.925 8  97842888.24908     -1731.758 8        49.623
C26        56.000                                                                                                                                    23657995.846 7 123193454.91207      1777.263 7        45.922                                                                    23657998.734 7 100104810.46007      1444.246 7        46.420
C02        57.000                                                                                                                                    40890620.093 5                      -493.619 5        30.008    40890625.702 6 164649419.95806      -381.585 6        36.253    40890626.619 4                      -400.957 4        29.763
I03        58.000    92670591.873 5 287873803.40605       922.652 5        34.024
C21        59.000                                                                                                                                    23709497.160 7 123461485.82407     -2726.403 7        47.436                                                                    23709496.003 7 100322528.32207     -2215.359 7        47.757
C22        60.000                                                                                                                                    26028883.747 6 135538998.93906     -4003.168 6        40.298                                                                    26028888.493 6 110136467.26006     -3252.825 6        41.492
> 2025 01 02 11 00 15.0000000  0 55
E24         1.000    23658038.915 8 124323958.20708       319.053 8        48.932                                                                    23658041.082 8  92839389.66908       238.244 8        50.912    23658040.223 8  95261275.43308       244.481 8        51.249
G15         2.000    21400544.558 8 112460541.93808     -3362.473 8        48.283                                    21400544.959 7  87631559.61807     -2620.106 7        46.614    21400545.216 7  87631554.61207     -2620.176 7        43.206
E03         3.000    26478244.979 6 139144097.15806      1982.608 6        40.749                                                                    26478252.537 7 103906312.78607      1480.349 7        44.524    26478251.350 7 106616913.89507      1518.897 7        44.892
G19         4.000    21339755.505 7 112141338.78807       731.598 7        47.650                                    21339753.234 6  87382895.30606       570.079 6        38.387
S21         5.000    38350973.558 7 201535311.19207      -498.427 7        42.679
E05         6.000    22145801.919 8 116376930.59408      -406.267 8        48.339                                                                    22145805.675 8  86904824.07208      -303.408 8        50.963    22145804.952 8  89171906.07108      -311.304 8        51.362
C29         8.000                                                                                                                                    24199704.787 7 126014212.74307      2002.152 7        44.646                                                                    24199707.216 7 102396882.33307      1626.891 7        44.275
R05         9.000    22704302.757 7 121367529.56607      3118.694 7        46.465                                                                    22704309.306 7  94397011.37007      2425.613 7        43.092
G24        10.000    20190535.234 8 106101983.22008       638.641 8        50.132                                    20190536.583 8  82676885.68408       497.643 8        52.380    20190536.886 7  82676890.68407       497.698 7        46.253
C14        11.000                                                                                                                                    25406220.815 6 132296859.67206      1455.651 6        40.291    25406224.022 7 102300350.06207      1125.601 7        46.723    25406220.606 7 107502046.09007      1182.778 7        43.056
S27        12.000    39100258.631 6 205473095.46506      -528.119 6        36.760
G13        13.000    22676307.655 7 119164699.65407     -4096.166 7        44.229                                    22676309.974 4  92855562.54704     -3191.813 4        29.469
S36        14.000    38121452.260 7 200330014.73307      -498.548 7        44.412
G02        15.000    25808845.807 5 135626398.16605     -1591.697 5        35.529                                    25808853.015 2 105682933.48202     -1240.278 2        17.057
E09        16.000    25166092.079 7 132248643.91207     -3066.913 7        46.244                                                                    25166097.477 8  98757078.69708     -2290.191 8        48.285    25166096.258 8 101333349.42308     -2349.951 8        48.784
G12        17.000    22131761.354 7 116303337.13307      2470.604 7        46.789                                    22131762.045 7  90626052.18507      1925.140 7        44.864    22131762.059 7  90626049.18907      1925.035 7        42.049
R21        18.000    24521181.455 6 131217775.78906     -3752.447 6        39.246                                                                    24521192.115 6 102058305.24706     -2918.425 6        37.157
R22        19.000    22242865.835 7 118734002.05507      -597.759 7        46.049                                                                    22242872.087 7  92348663.65507      -464.978 7        43.917
R03        21.000    20801238.789 8 111350577.98808     -3992.225 8        50.137                                                                    20801242.164 7  86605984.21907     -3105.002 7        45.574
I06        22.000    38192435.446 6 149875428.87206      -481.364 6        41.266
S28        23.000    40807705.668 5 214445788.92305      -508.815 5        35.090
S23        25.000    38055913.280 7 199985033.25907      -501.416 7        44.635
S45        26.000    63306542.636 6 332678109.02716      -554.360 6        36.299
C07        27.000                                                                                                                                    39109218.692 6 203651891.85906     -1160.216 6        40.100    39109219.666 7 157476536.99107      -897.251 7        43.791    39109216.585 6 165483812.27506      -942.925 6        40.498
R04        28.000    19950618.324 8 106834642.31208      -195.451 8        52.001                                                                    19950620.178 7  83093587.70307      -152.072 7        47.295
C40        29.000                                                                                                                                    39314019.489 6 204718351.52106     -1410.655 6        41.795                                                                    39314023.468 6 166350420.72906     -1146.317 6        41.418
G17        30.000    22179623.168 7 116554822.31107     -1829.271 7        46.182                                    22179624.111 7  90821996.93907     -1425.401 7        43.922    22179624.721 7  90821993.94607     -1425.366 7        42.129
G14        31.000    23840696.257 6 125283581.70206     -3761.824 6        40.276                                    23840702.005 4  97623538.59704     -2931.280 4        24.767    23840702.306 6  97623524.57606     -2931.299 6        40.231
G23        32.000    23730783.201 6 124705975.79306     -2587.262 6        40.732                                    23730787.845 4  97173442.25904     -2016.036 4        25.714    23730787.904 6  97173437.25706     -2015.930 6        39.601
I02        33.000    36822602.141 7 144499789.32907      -300.804 7        42.936
R15        34.000    24164219.737 7 129126247.81707      2896.386 7        42.258                                                                    24164230.434 6 100431556.14806      2252.862 6        37.051
R13        35.000    19955640.504 7 106562021.85607     -2386.205 7        46.592
R12        36.000    23291178.119 7 124417139.51207     -3924.673 7        43.308                                                                    23291189.657 6  96768851.15106     -3052.499 6        41.256
C42        37.000                                                                                                                                    24014861.285 7 125051679.14607       102.036 7        45.904                                                                    24014873.134 7 101614776.55707        82.867 7        46.410
C10        38.000                                                                                                                                    38489501.837 7 200424904.55307      -809.442 7        42.044    38489503.794 7 154981243.78907      -625.958 7        45.154    38489500.463 6 162861635.85306      -657.889 6        41.154
E25        39.000    26640308.865 6 139995864.01906      2110.585 6        41.020                                                                    26640319.054 7 104542460.81107      1576.109 7        43.077    26640317.673 7 107269643.79607      1617.169 7        43.907
C30        40.000                                                                                                                                    24433321.494 7 127230755.63607      -703.383 7        44.754                                                                    24433328.123 7 103385451.21507      -571.673 7        43.132
R23        41.000    22241649.534 7 118977881.64507      2504.583 7        44.029
S44        42.000    40762839.750 6 214210203.81506      -452.393 6        38.396
C36        43.000                                                                                                                                    23907705.392 7 124493600.12607     -2927.460 7        45.204                                                                    23907714.982 7 101161247.73207     -2378.888 7        45.952
C05        44.000                                                                                                                                    39350696.828 6 204909311.04806      -528.289 6        38.610    39350699.969 7 158448868.17007      -408.495 7        42.827    39350699.517 6 166505676.64906      -429.266 6        38.937
R14        45.000    20177560.075 8 107557851.18908      1352.583 8        52.091                                                                    20177564.078 7  83656186.90107      1051.980 7        47.572
E26        46.000    28093063.278 6 147630064.98906       192.250 6        36.503                                                                    28093075.896 6 110243292.05206       143.455 6        40.081    28093073.898 6 113119193.92606       147.338 6        39.904
G10        47.000    24260115.679 6 127487709.36106      -287.255 6        40.675                                    24260121.189 5  99341067.17105      -223.828 5        35.219    24260121.414 6  99341068.15806      -223.698 6        38.393
C45        50.000                                                                                                                                    21548128.629 8 112206778.01108      -834.116 8        50.487                                                                    21548122.863 8  91177185.60208      -677.897 8        50.011
S48        51.000    77059017.659 6 404947890.60306      -496.196 6        37.924
E06        52.000    26794361.920 6 140805193.34506     -3591.396 6        40.105                                                                    26794372.774 7 105146701.41607     -2681.927 7        44.298    26794370.938 7 107889661.99507     -2751.835 7        44.316
E33        53.000    28309468.712 6 148767298.05106      1904.409 6        36.711                                                                    28309482.487 6 111092517.70206      1422.413 6        40.143    28309480.655 6 113990574.29406      1459.309 6        40.932
C60        54.000                                                                                                                                    40762841.153 6 212262856.31406      -448.122 6        39.970                                                                    40762832.837 6 172480894.69406      -364.457 6        39.093
E31        55.000    24301369.647 7 127704536.88007     -2261.394 7        46.166                                                                    24301374.887 8  95363801.75208     -1688.688 8        48.766    24301374.148 8  97851550.13708     -1732.761 8        49.587
C26        56.000                                                                                                                                    23656290.083 7 123184571.78107      1776.380 7        46.112                                                                    23656292.899 7 100097592.20507      1443.378 7        46.371
C02        57.000                                                                                                                                    40891094.581 5                      -493.693 5        30.000    40891099.797 5 164651328.68905      -381.433 5        35.862    40891100.235 4                      -401.126 4        29.934
I03        58.000    92669416.488 5 287869191.14105       922.770 5        33.748
C21        59.000                                                                                                                                    23712116.444 7 123475124.02607     -2728.532 7        47.585                                                                    23712115.043 7 100333610.48207     -2217.308 7        47.689
C22        60.000                                                                                                                                    26032727.904 6 135559015.78706     -4003.244 6        40.238                                                                    26032732.593 6 110152732.49606     -3252.942 6        41.661
> 2025 01 02 11 00 20.0000000  0 55
E24         1.000    23657736.177 8 124322367.53008       317.273 8        48.898                                                                    23657738.351 8  92838201.83108       236.904 8        50.840    23657737.520 8  95260056.60708       243.073 8        51.211
G15         2.000    21403744.945 8 112477360.70808     -3365.013 8        48.295                                    21403745.496 7  87644665.13407     -2622.083 7        46.606    21403745.845 7  87644660.13407     -2622.037 7        43.628
E03         3.000    26476359.627 6 139134188.67206      1981.117 6        41.211                                                                    26476366.993 7 103898913.59307      1479.420 7        44.415    26476365.714 7 106609321.67407      1517.926 7        44.921
G19         4.000    21339060.600 7 112137689.41607       728.290 7        47.546                                    21339058.814 6  87380051.63306       567.498 6        38.396
S21         5.000    38351447.769 7 201537802.80407      -498.390 7        42.641
E05         6.000    22146189.612 8 116378968.64508      -408.818 8        48.391                                                                    22146193.506 8  86906345.98108      -305.259 8        50.932    22146192.771 8  89173467.68508      -313.314 8        51.288
C29         8.000                                                                                                                                    24197783.724 7 126004206.58607      2000.489 7        45.687                                                                    24197785.452 7 102388751.51707      1625.534 7        44.397
R05         9.000    22701386.236 7 121351943.21107      3115.989 7        45.493                                                                    22701393.371 7  94384888.69807      2423.456 7        42.279
G24        10.000    20189928.654 8 106098796.87208       636.134 8        50.183                                    20189930.244 8  82674402.81708       495.689 8        52.374    20189930.555 7  82674407.82207       495.674 7        46.636
C14        11.000                                                                                                                                    25404824.014 6 132289587.75606      1453.184 6        39.961    25404827.555 7 102294726.96407      1123.715 7        46.796    25404824.011 7 107496137.07307      1180.875 7        43.054
S27        12.000    39100759.520 6 205475737.92706      -528.644 6        36.692
G13        13.000    22680206.147 7 119185184.58307     -4097.640 7        44.760                                    22680208.236 4  92871524.79604     -3192.963 4        29.393
S36        14.000    38121923.202 7 200332508.98907      -498.807 7        44.269
G02        15.000    25810362.313 5 135634363.03905     -1594.249 5        35.348                                    25810368.623 2 105689139.86902     -1242.284 2        16.868
E09        16.000    25169010.900 7 132263982.40107     -3068.402 7        46.537                                                                    25169016.260 8  98768532.74908     -2291.333 8        48.278    25169015.176 8 101345102.27608     -2351.040 8        48.721
G12        17.000    22129411.568 7 116290988.82307      2468.855 7        46.775                                    22129412.203 7  90616430.15107      1923.781 7        44.837    22129413.007 7  90616427.16407      1923.844 7        42.870
R21        18.000    24524689.673 6 131236546.09906     -3755.439 6        38.853                                                                    24524700.282 6 102072904.33606     -2920.950 6        38.138
R22        19.000    22243428.909 7 118737002.89307      -602.481 7        46.014                                                                    22243434.522 7  92350997.62107      -468.659 7        44.090
R03        21.000    20804969.211 8 111370546.84208     -3995.242 8        49.825                                                                    20804972.564 7  86621515.53107     -3107.443 7        45.568
I06        22.000    38193049.059 6 149877836.97606      -481.592 6        41.402
S28        23.000    40808189.641 5 214448333.74905      -508.884 5        35.376
S23        25.000    38056390.053 7 199987541.74507      -501.687 7        44.603
S45        26.000    63307019.097 6 332680882.34706      -554.762 6        36.117
C07        27.000                                                                                                                                    39110333.500 6 203657695.38206     -1160.910 6        40.472    39110334.222 7 157481024.62907      -897.806 7        44.125    39110331.093 6 165488528.08706      -943.335 6        40.343
