     3.04           OBSERVATION DATA    M                   RINEX VERSION / TYPE
ssrcrin-15.6.1x                         20250102 160000 UTC PGM / RUN BY / DATE 
(00000000023479385599111004) Septentrio proprietary         COMMENT             
rref                                                        MARKER NAME         
01                                                          MARKER NUMBER       
geodetic                                                    MARKER TYPE         
NFB                 CLIMERS@TUW                             OBSERVER / AGENCY   
3297213             SEPT ASTERX SB3 PROB4.14.4              REC # / TYPE / VERS 
Unknown             Unknown                                 ANT # / TYPE        
  4127832.0991  1207193.0307  4695247.5858                  APPROX POSITION XYZ 
        0.0000        0.0000        0.0000                  ANTENNA: DELTA H/E/N
G   23 X1  C1C L1C D1C S1C C1W S1W C2W L2W D2W S2W C2L L2L  SYS / # / OBS TYPES 
       D2L S2L C5Q L5Q D5Q S5Q C1L L1L D1L S1L              SYS / # / OBS TYPES 
E   21 X1  C1C L1C D1C S1C C6C L6C D6C S6C C5Q L5Q D5Q S5Q  SYS / # / OBS TYPES 
       C7Q L7Q D7Q S7Q C8Q L8Q D8Q S8Q                      SYS / # / OBS TYPES 
S    9 X1  C1C L1C D1C S1C C5I L5I D5I S5I                  SYS / # / OBS TYPES 
R   17 X1  C1C L1C D1C S1C C2P L2P D2P S2P C2C L2C D2C S2C  SYS / # / OBS TYPES 
       C3Q L3Q D3Q S3Q                                      SYS / # / OBS TYPES 
C   25 X1  C1P L1P D1P S1P C5P L5P D5P S5P C2I L2I D2I S2I  SYS / # / OBS TYPES 
       C7I L7I D7I S7I C6I L6I D6I S6I C7D L7D D7D S7D      SYS / # / OBS TYPES 
J   17 X1  C1C L1C D1C S1C C2L L2L D2L S2L C5Q L5Q D5Q S5Q  SYS / # / OBS TYPES 
       C1L L1L D1L S1L                                      SYS / # / OBS TYPES 
I    5 X1  C5A L5A D5A S5A                                  SYS / # / OBS TYPES 
SEPTENTRIO RECEIVERS OUTPUT ALIGNED CARRIER PHASES.         COMMENT             
NO FURTHER PHASE SHIFT APPLIED IN THE RINEX ENCODER.        COMMENT             
G L1C                                                       SYS / PHASE SHIFT   
G L2W                                                       SYS / PHASE SHIFT   
G L2L  0.00000                                              SYS / PHASE SHIFT   
G L5Q  0.00000                                              SYS / PHASE SHIFT   
G L1L  0.00000                                              SYS / PHASE SHIFT   
E L1C  0.00000                                              SYS / PHASE SHIFT   
E L6C  0.00000                                              SYS / PHASE SHIFT   
E L5Q  0.00000                                              SYS / PHASE SHIFT   
E L7Q  0.00000                                              SYS / PHASE SHIFT   
E L8Q  0.00000                                              SYS / PHASE SHIFT   
S L1C                                                       SYS / PHASE SHIFT   
S L5I                                                       SYS / PHASE SHIFT   
R L1C                                                       SYS / PHASE SHIFT   
R L2P  0.00000                                              SYS / PHASE SHIFT   
R L2C                                                       SYS / PHASE SHIFT   
R L3Q  0.00000                                              SYS / PHASE SHIFT   
C L1P  0.00000                                              SYS / PHASE SHIFT   
C L5P  0.00000                                              SYS / PHASE SHIFT   
C L2I                                                       SYS / PHASE SHIFT   
C L7I                                                       SYS / PHASE SHIFT   
C L6I                                                       SYS / PHASE SHIFT   
C L7D                                                       SYS / PHASE SHIFT   
J L1C                                                       SYS / PHASE SHIFT   
J L2L  0.00000                                              SYS / PHASE SHIFT   
J L5Q  0.00000                                              SYS / PHASE SHIFT   
J L1L  0.00000                                              SYS / PHASE SHIFT   
I L5A                                                       SYS / PHASE SHIFT   
  2025     1     2    16     0    0.0000000     GPS         TIME OF FIRST OBS   
 C1C    0.000 C2C    0.000 C2P    0.000                     GLONASS COD/PHS/BIS 
DBHZ                                                        SIGNAL STRENGTH UNIT
    18                                                      LEAP SECONDS        
 24 R01  1 R02 -4 R03  5 R04  6 R05  1 R06 -4 R07  5 R08  6 GLONASS SLOT / FRQ #
    R09 -2 R10 -7 R11  0 R12 -1 R13 -2 R14 -7 R15  0 R16 -1 GLONASS SLOT / FRQ #
    R17  4 R18 -3 R19  3 R20  2 R21  4 R22 -3 R23  3 R24  2 GLONASS SLOT / FRQ #
                                                            END OF HEADER       
> 2025 01 02 16 00  0.0000000  0 56
E24         1.000    28127904.976 6 147813251.87406     -3083.948 6        38.667                                                                    28127906.865 6 110380093.53806     -2302.849 6        40.889    28127906.139 6 113259563.14406     -2362.973 6        41.623
E11         2.000    24129693.973 7 126802576.98607      -657.248 7        43.983                                                                    24129691.871 7  94690355.40007      -490.830 7        46.032    24129691.442 7  97160525.47607      -503.621 7        46.693
G16         3.000    25433719.983 5 133655103.33605      3130.546 5        34.667                                    25433728.163 1 104146867.37701      2439.360 1        11.111
G05         4.000    23885384.206 6 125518602.69906      1777.350 6        40.992                                    23885382.993 5  97806718.54505      1384.943 5        35.957    23885383.763 6  97806717.55606      1384.823 6        39.069
S21         5.000    38585424.686 7 202767411.83507      -482.281 7        42.863
G26         6.000    22731287.919 7 119453898.46507      2479.432 7        43.388                                    22731291.697 6  93081075.30606      1932.023 6        40.513    22731291.988 6  93081062.30506      1932.248 6        41.206
G25         7.000    21107983.426 7 110923376.54307     -2826.241 7        47.708                                    21107983.721 7  86433885.30607     -2202.265 7        47.598    21107984.714 7  86433886.30607     -2202.271 7        43.886
G04         8.000    25317078.187 6 133042134.06906        48.201 6        37.535                                    25317078.567 3 103669179.79503        37.565 3        19.284    25317078.595 6 103669188.80306        37.346 6        38.285
E36         9.000    25026928.543 7 131517545.39707      1998.941 7        45.738                                                                    25026932.190 8  98211284.77208      1492.662 8        48.594    25026931.467 8 100773307.04908      1531.629 8        48.754
R08        10.000    24007017.419 6 128556486.06106     -1312.481 6        38.276                                                                    24007017.135 6  99988374.10606     -1020.731 6        38.883
G20        11.000    23740573.799 6 124757660.40806      -500.184 6        41.049                                    23740570.912 4  97213819.00004      -389.765 4        24.135
S27        12.000    39381460.922 6 206951065.08306      -474.718 6        36.336
E08        13.000    28107739.686 6 147707255.07006     -2846.340 6        37.055                                                                    28107749.227 6 110300957.00806     -2125.588 6        39.429    28107747.979 6 113178362.02706     -2180.991 6        39.940
S36        14.000    38356659.025 7 201566057.32907      -482.504 7        44.417
C13        15.000                                                                                                                                    38854313.949 7 202324632.61807       991.820 7        43.039    38854317.510 7 156450265.36207       766.961 7        43.126    38854315.210 6 164405352.76006       806.062 6        41.747
G18        16.000    22824591.404 7 119944212.89307      2782.056 7        45.549                                    22824590.821 5  93463106.40205      2167.830 5        33.844    22824591.379 7  93463114.42107      2167.867 7        44.147
G12        17.000    24534585.305 6 128930289.75506     -3945.912 6        40.193                                    24534584.025 5 100465242.81705     -3074.739 5        32.934    24534585.056 6 100465239.83306     -3074.798 6        37.316
R01        18.000    24363175.465 6 130235134.81706      1658.042 6        37.985                                                                    24363175.178 5 101293868.93705      1289.543 5        32.234
E02        19.000    23970660.676 7 125966829.28307       883.245 7        47.763                                                                    23970662.255 8  94066239.22608       659.560 8        50.561    23970661.407 8  96520127.27408       676.818 8        50.871
E10        21.000    25555879.366 7 134297258.80207     -2177.444 7        44.590                                                                    25555880.610 7 100287044.15107     -1626.017 7        46.915    25555880.528 8 102903213.33408     -1668.411 8        48.425
I06        22.000    38842472.466 6 152426357.49706      -402.778 6        37.675
S28        23.000    41064116.532 5 215793376.66405      -482.086 5        34.295
S23        25.000    38306233.986 7 201300535.31607      -486.470 7        45.076
S45        26.000    63563540.732 6 334030021.48706      -544.805 6        36.594
R09        27.000    22121665.551 7 118128605.41407      3288.476 7        46.079                                                                    22121668.350 7  91877900.79007      2557.642 7        44.223
R18        28.000    19249318.824 8 102754446.28508       133.150 8        50.994                                                                    19249320.430 7  79920271.67007       103.558 7        46.885
C38        29.000                                                                                                                                    38981384.910 7 202986395.54807       256.515 7        43.625                                                                    38981384.306 7 164943113.02007       208.545 7        43.289
C44        30.000                                                                                                                                    21458772.341 8 111741662.47608      -572.691 8        51.535                                                                    21458771.876 8  90799335.10508      -465.321 8        50.130
E12        31.000    27569422.039 5 144878456.47405     -3076.397 5        35.000                                                                    27569420.938 6 108188564.53406     -2297.464 6        38.769    27569421.152 6 111010858.51706     -2357.288 6        40.346
G11        32.000    24619899.723 6 129378643.45906     -3705.399 6        40.162                                    24619897.373 3 100814626.25903     -2887.344 3        23.371    24619898.108 6 100814617.25806     -2887.333 6        39.072
I02        33.000    38043698.044 7 149291663.33507      -796.791 7        42.032
R15        34.000    21259031.768 8 113601956.05608     -3832.166 8        50.265                                                                    21259033.964 7  88357145.05607     -2980.629 7        45.603
G29        36.000    20508444.110 8 107772883.24708      -843.826 8        50.144                                    20508441.387 8  83978976.20208      -657.529 8        52.201    20508441.860 7  83978986.20507      -657.512 7        46.518
G31        37.000    21854859.123 7 114848257.80107       204.377 7        46.399                                    21854857.027 7  89492240.23307       159.253 7        44.889    21854857.477 7  89492246.24407       159.204 7        43.369
C10        38.000                                                                                                                                    40973131.479 5 213357867.69305     -1151.738 5        35.400    40973130.063 6 164981844.23506      -890.632 6        39.216    40973127.907 5 173370738.13705      -935.938 5        35.748
E25        39.000    23901799.300 7 125605005.04307     -1649.223 7        47.441                                                                    23901801.166 8  93796071.93908     -1231.586 8        50.455    23901800.665 8  96242910.64008     -1263.703 8        51.120
C12        40.000                                                                                                                                    22208237.369 7 115644299.32507       940.870 7        47.413    22208235.899 8  89423597.57908       727.592 8        52.333    22208234.566 8  93970533.53708       764.631 8        49.756
E07        41.000    28006665.452 6 147175998.45206      -969.528 6        37.898                                                                    28006674.672 6 109904166.44406      -724.070 6        41.352    28006673.184 6 112771228.36106      -742.982 6        41.456
S44        42.000    40749569.383 6 214140604.38906      -405.597 6        38.309
G28        43.000    21616808.548 7 113597275.14907     -1576.680 7        47.303                                    21616806.971 6  88517445.17306     -1228.581 6        37.338    21616806.929 7  88517445.17507     -1228.575 7        46.103
C05        44.000                                                                                                                                    39557737.853 6 205987504.38406      -429.026 6        38.171    39557736.196 7 159282615.57307      -331.817 7        43.103    39557737.381 6 167381813.06906      -348.581 6        40.188
C11        45.000                                                                                                                                    25886774.369 6 134799224.47906      2718.848 6        40.951    25886777.558 7 104235337.02407      2102.394 7        42.779    25886773.808 6 109535423.62806      2209.311 6        40.722
R16        46.000    19259521.034 8 102881092.36508       -81.347 8        51.810                                                                    19259522.755 7  80018738.17307       -63.316 7        47.879
R17        47.000    20690968.017 8 110721777.53508     -3465.926 8        50.454                                                                    20690968.291 7  86117068.66107     -2695.786 7        46.709
C35        48.000                                                                                                                                    23730518.397 7 123571194.65307     -3006.963 7        46.843                                                                    23730518.516 7 100411780.98307     -2443.336 7        46.271
C24        49.000                                                                                                                                    21754462.034 8 113281254.91408     -1508.873 8        51.274                                                                    21754460.054 8  92050319.10108     -1226.028 8        50.030
R19        50.000    21467741.671 6 114838142.74806      3066.152 6        38.423                                                                    21467742.451 7  89318654.81507      2384.889 7        42.224
S48        51.000    77303110.035 6 406231651.77206      -514.284 6        38.135
C08        52.000                                                                                                                                    38658304.568 6 201304008.23806       879.917 6        40.949    38658299.965 7 155661050.42007       680.362 7        44.289    38658298.906 7 163576008.08407       715.073 7        42.241
C34        53.000                                                                                                                                    23649992.506 7 123151939.22007      2192.898 7        46.487                                                                    23649995.223 7 100071142.58907      1781.913 7        46.243
C60        54.000                                                                                                                                    40749574.783 6 212193890.66906      -402.053 6        40.420                                                                    40749561.070 6 172424878.28806      -326.510 6        39.664
C25        55.000                                                                                                                                    23277130.309 7 121210328.47807      1650.593 7        46.997                                                                    23277130.586 7  98493404.94607      1341.333 7        47.132
C26        56.000                                                                                                                                    24913454.092 7 129730963.87707     -3688.852 7        44.364                                                                    24913456.192 7 105417074.18707     -2997.411 7        44.179
C02        57.000                                                                                                                                    40946790.187 5 213220691.76405      -390.007 5        33.826    40946787.220 6 164875747.13806      -301.251 6        39.865    40946789.822 5 173259272.21305      -316.773 5        35.448
I03        58.000    86607391.666 6 264080705.94806      1080.661 6        40.045
E30        59.000    28434735.816 6 149425607.79606      2175.686 6        36.703                                                                    28434746.538 6 111584131.82806      1624.700 6        39.616    28434744.816 6 114495010.83206      1667.112 6        39.832
> 2025 01 02 16 00  5.0000000  0 56
E24         1.000    28130839.373 6 147828673.33506     -3084.551 6        38.598                                                                    28130841.783 6 110391609.57806     -2303.403 6        40.865    28130840.844 6 113271379.60006     -2363.502 6        41.554
E11         2.000    24130320.704 7 126805869.87307      -659.831 7        44.071                                                                    24130318.564 7  94692814.38607      -492.818 7        46.004    24130318.061 7  97163048.61107      -505.628 7        46.638
G16         3.000    25430741.290 5 133639451.83205      3130.171 5        34.167                                    25430749.794 1 104134671.47801      2439.085 1        11.259
G05         4.000    23883694.414 6 125509722.18106      1774.854 6        41.395                                    23883693.105 6  97799798.68006      1382.997 6        36.091    23883693.364 6  97799797.68306      1383.220 6        39.300
S21         5.000    38585885.071 7 202769823.97807      -482.504 7        42.777
G26         6.000    22728929.733 7 119441504.45807      2478.121 7        43.001                                    22728933.171 6  93071417.66906      1930.997 6        40.453    22728933.446 6  93071404.68706      1931.043 6        41.056
G25         7.000    21110673.733 7 110937513.80607     -2828.465 7        47.643                                    21110673.965 7  86444901.35607     -2203.998 7        47.468    21110674.629 7  86444902.36007     -2204.029 7        43.947
G04         8.000    25317034.514 6 133041901.47306        44.991 6        37.180                                    25317034.356 3 103668998.56603        35.035 3        19.582    25317033.744 6 103669007.56706        34.886 6        37.728
E36         9.000    25025027.594 7 131507555.48907      1997.130 7        45.968                                                                    25025031.215 8  98203824.79708      1491.345 8        48.443    25025030.399 8 100765652.46308      1530.271 8        48.745
R08        10.000    24008244.753 6 128563059.74906     -1316.713 6        37.989                                                                    24008244.063 6  99993486.98606     -1024.243 6        39.760
G20        11.000    23741050.900 6 124760169.67106      -503.489 6        40.903                                    23741048.370 4  97215774.28004      -392.323 4        24.030
S27        12.000    39381915.015 6 206953439.11406      -474.957 6        36.654
E08        13.000    28110449.207 6 147721490.55006     -2847.700 6        37.909                                                                    28110458.061 6 110311587.38206     -2126.522 6        39.219    28110456.732 6 113189269.70106     -2181.848 6        40.017
S36        14.000    38357117.979 7 201568470.15407      -482.610 7        44.293
C13        15.000                                                                                                                                    38853361.939 7 202319676.71207       990.841 7        42.861    38853365.754 7 156446433.16207       766.151 7        43.020    38853363.492 6 164401325.69306       805.061 6        41.955
G18        16.000    22821944.857 7 119930307.18607      2780.272 7        46.097                                    22821944.685 5  93452270.81405      2166.438 5        33.976    22821944.950 7  93452278.82307      2166.531 7        43.600
G12        17.000    24538339.970 6 128950021.64706     -3946.731 6        40.188                                    24538338.891 5 100480618.32205     -3075.380 5        32.994    24538339.133 6 100480615.31406     -3075.332 6        37.047
R01        18.000    24361625.884 6 130226853.49806      1654.606 6        38.450                                                                    24361626.073 5 101287427.91905      1286.689 5        32.677
E02        19.000    23969821.060 7 125962416.46007       881.961 7        47.644                                                                    23969822.450 8  94062943.94608       658.618 8        50.518    23969821.617 8  96516746.03308       675.763 8        50.846
E10        21.000    25557952.277 7 134308151.56607     -2179.571 7        44.545                                                                    25557953.418 7 100295178.36007     -1627.559 7        46.877    25557953.281 8 102911559.74208     -1670.055 8        48.419
I06        22.000    38842986.276 6 152428371.37606      -402.801 6        38.312
S28        23.000    41064579.296 5 215795788.70005      -482.482 5        34.471
S23        25.000    38306696.915 7 201302968.12507      -486.561 7        45.004
S45        26.000    63564003.446 6 334032746.25606      -545.037 6        36.563
R09        27.000    22118586.351 7 118112166.96407      3287.073 7        46.750                                                                    22118589.622 7  91865115.34207      2556.623 7        44.181
R18        28.000    19249196.059 8 102753791.38808       129.004 8        51.163                                                                    19249197.695 7  79919762.31307       100.344 7        46.929
C38        29.000                                                                                                                                    38981139.332 7 202985116.14707       255.355 7        43.520                                                                    38981138.583 7 164942073.42007       207.464 7        43.388
C44        30.000                                                                                                                                    21459323.343 8 111744532.19208      -575.092 8        51.344                                                                    21459322.986 8  90801666.99208      -467.388 8        50.234
E12        31.000    27572349.677 5 144893842.49105     -3077.578 5        35.229                                                                    27572348.714 6 108200054.11006     -2298.380 6        38.889    27572349.047 6 111022647.81806     -2358.304 6        40.195
G11        32.000    24623426.129 6 129397174.38106     -3706.863 6        40.527                                    24623423.717 3 100829065.95003     -2888.467 3        23.257    24623424.252 6 100829056.96306     -2888.559 6        39.186
I02        33.000    38044713.637 6 149295648.21706      -797.103 6        41.893
R15        34.000    21262618.690 8 113621123.54208     -3834.737 8        50.193                                                                    21262620.427 7  88372053.09607     -2982.560 7        44.689
G29        36.000    20509248.186 8 107777108.49208      -846.172 8        50.207                                    20509245.411 8  83982268.60908      -659.356 8        52.103    20509245.917 7  83982278.61407      -659.400 7        46.879
G31        37.000    21854666.671 7 114847245.35707       200.802 7        46.954                                    21854664.362 7  89491451.32507       156.468 7        44.859    21854664.936 7  89491457.34507       156.274 7        43.160
C10        38.000                                                                                                                                    40974237.409 5 213363626.84705     -1151.662 5        35.109    40974236.036 6 164986297.58406      -890.719 6        38.880    40974234.040 5 173375417.93705      -936.009 5        35.833
E25        39.000    23903369.231 7 125613255.37407     -1650.788 7        47.362                                                                    23903371.172 8  93802232.90708     -1232.725 8        50.387    23903370.608 8  96249232.33108     -1264.875 8        51.108
C12        40.000                                                                                                                                    22207334.783 7 115639600.73807       938.617 7        47.097    22207333.611 8  89419964.34508       725.790 8        52.150    22207332.302 8  93966715.56508       762.654 8        49.892
E07        41.000    28007589.578 6 147180853.46206      -972.163 6        37.546                                                                    28007598.645 6 109907791.93206      -725.988 6        41.211    28007597.027 6 112774948.43306      -744.968 6        41.514
S44        42.000    40749959.885 6 214142633.33506      -405.752 6        38.574
G28        43.000    21618310.195 7 113605167.47507     -1580.066 7        47.535                                    21618308.833 6  88523595.03906     -1231.221 6        37.350    21618308.903 7  88523595.04407     -1231.226 7        46.075
C05        44.000                                                                                                                                    39558150.186 6 205989651.03206      -429.298 6        38.132    39558148.377 7 159284275.50007      -332.039 7        42.889    39558149.651 6 167383557.40906      -348.829 6        40.443
C11        45.000                                                                                                                                    25884161.675 6 134785632.54106      2718.055 6        39.859    25884167.078 7 104224826.90907      2101.657 7        42.614    25884163.695 6 109524379.08806      2208.639 6        40.923
R16        46.000    19259599.014 8 102881509.38108       -85.286 8        51.762                                                                    19259600.470 7  80019062.51707       -66.382 7        47.833
R17        47.000    20694206.887 8 110739113.78208     -3468.507 8        49.909                                                                    20694207.721 7  86130552.41107     -2697.659 7        46.259
C35        48.000                                                                                                                                    23733406.258 7 123586232.86807     -3008.183 7        46.623                                                                    23733406.416 7 100424000.77207     -2444.533 7        46.274
C24        49.000                                                                                                                                    21755912.229 8 113288806.22008     -1511.532 8        51.242                                                                    21755910.138 8  92056455.15908     -1228.263 8        50.106
R19        50.000    21464875.660 6 114822818.24806      3063.714 6        37.887                                                                    21464878.014 7  89306735.80007      2382.907 7        42.398
S48        51.000    77303576.506 6 406234223.13306      -514.337 6        38.069
C08        52.000                                                                                                                                    38657460.078 6 201299612.41906       878.660 6        40.656    38657455.864 7 155657651.31007       679.405 7        44.161    38657454.817 7 163572436.13207       713.962 7        42.275
C34        53.000                                                                                                                                    23647887.717 7 123140978.49407      2191.434 7        46.472                                                                    23647890.407 7 100062236.11907      1780.648 7        46.344
C60        54.000                                                                                                                                    40749960.939 6 212195901.16506      -402.120 6        40.417                                                                    40749947.244 6 172426512.00306      -326.899 6        39.784
C25        55.000                                                                                                                                    23275546.443 7 121202080.66607      1648.571 7        46.950                                                                    23275546.729 7  98486702.94407      1339.561 7        47.169
C26        56.000                                                                                                                                    24916996.341 7 129749411.26507     -3689.911 7        43.681                                                                    24916998.711 7 105432064.18807     -2998.435 7        44.027
C02        57.000                                                                                                                                    40947164.551 5 213222641.12505      -389.974 5        33.599    40947161.968 6 164877254.54006      -301.554 6        39.501    40947164.150 5 173260856.24805      -316.802 5        35.714
I03        58.000    86606014.859 6 264075303.33306      1080.583 6        40.093
E30        59.000    28432665.772 6 149414730.29806      2175.615 6        36.866                                                                    28432676.642 6 111576009.10906      1624.417 6        39.396    28432674.989 6 114486676.19606      1666.885 6        39.868
> 2025 01 02 16 00 10.0000000  0 56
E24         1.000    28133774.377 6 147844097.16006     -3084.833 6        38.153                                                                    28133776.783 6 110403127.36706     -2303.521 6        41.116    28133776.032 6 113283197.85406     -2363.643 6        41.638
E11         2.000    24130949.649 7 126809174.95007      -661.932 7        43.810                                                                    24130947.400 7  94695282.47307      -494.393 7        46.029    24130946.998 7  97165581.07707      -507.275 7        46.634
G16         3.000    25427762.368 5 133623800.23905      3130.561 5        34.514                                    25427771.443 1 104122475.56101      2439.386 1        11.333
G05         4.000    23882006.901 6 125500852.77006      1772.995 6        41.585                                    23882005.425 6  97792887.46806      1381.550 6        36.374    23882005.196 6  97792886.49706      1381.454 6        39.273
S21         5.000    38586345.639 7 202772235.95707      -482.172 7        42.806
G26         6.000    22726572.640 7 119429116.40007      2477.329 7        42.954                                    22726575.780 6  93061764.66806      1930.381 6        40.539    22726576.089 6  93061751.69706      1930.244 6        41.159
G25         7.000    21113365.942 7 110951661.09207     -2830.355 7        47.939                                    21113366.110 7  86455925.21607     -2205.471 7        47.480    21113366.726 7  86455926.22307     -2205.507 7        44.262
G04         8.000    25316993.138 6 133041683.86406        42.120 6        37.013                                    25316993.141 3 103668828.98703        32.824 3        19.493    25316992.374 6 103668837.97806        33.017 6        37.860
E36         9.000    25023127.947 7 131497573.59907      1995.709 7        45.606                                                                    25023131.756 8  98196370.80608      1490.329 8        48.640    25023130.897 8 100758004.02208      1529.238 8        48.743
R08        10.000    24009477.431 6 128569653.51406     -1320.545 6        39.021                                                                    24009476.059 6  99998615.45806     -1027.033 6        38.640
G20        11.000    23741531.439 6 124762694.40006      -506.331 6        40.348                                    23741528.797 3  97217741.61103      -394.535 3        23.943
S27        12.000    39382369.243 6 206955813.31506      -474.631 6        36.586
E08        13.000    28113159.051 6 147735731.12106     -2848.286 6        37.501                                                                    28113168.257 6 110322221.56106     -2127.156 6        39.162    28113166.751 6 113200181.31106     -2182.571 6        40.122
S36        14.000    38357576.199 7 201570882.62507      -482.184 7        44.473
C13        15.000                                                                                                                                    38852411.381 7 202314725.24607       990.019 7        42.802    38852414.979 7 156442604.37207       765.591 7        43.172    38852412.610 6 164397302.23206       804.617 6        41.807
G18        16.000    22819300.746 7 119916409.40007      2778.886 7        45.761                                    22819300.100 5  93441441.39505      2165.361 5        34.057    22819300.390 7  93441449.39407      2165.500 7        44.080
G12        17.000    24542095.174 6 128969756.79906     -3947.167 6        40.284                                    24542094.379 5 100495996.36605     -3075.707 5        33.144    24542095.040 6 100495993.37006     -3075.753 6        37.168
R01        18.000    24360080.593 6 130218588.18506      1651.564 6        38.174                                                                    24360082.905 5 101280999.33805      1284.666 5        33.533
E02        19.000    23968982.535 7 125958009.01907       881.170 7        47.505                                                                    23968983.771 8  94059652.69008       657.990 8        50.573    23968982.885 8  96513368.91508       675.147 8        50.879
E10        21.000    25560026.740 7 134319053.96007     -2181.255 7        44.302                                                                    25560028.039 7 100303319.76307     -1628.926 7        46.901    25560027.974 8 102919913.52508     -1671.335 8        48.386
I06        22.000    38843499.025 6 152430385.01606      -402.471 6        38.862
S28        23.000    41065039.998 5 215798200.72005      -481.884 5        34.381
S23        25.000    38307160.184 7 201305400.73407      -486.307 7        44.960
S45        26.000    63564469.005 6 334033771.02416      -544.784 6        36.681
R09        27.000    22115509.375 7 118095734.43407      3286.056 7        47.016                                                                    22115512.419 7  91852334.49707      2555.890 7        44.497
R18        28.000    19249077.352 8 102753156.38108       125.238 8        51.324                                                                    19249078.855 7  79919268.42807        97.450 7        46.893
C38        29.000                                                                                                                                    38980894.507 7 202983842.03907       254.487 7        43.496                                                                    38980893.891 7 164941038.09807       206.944 7        43.268
C44        30.000                                                                                                                                    21459876.608 8 111747413.05508      -577.090 8        51.381                                                                    21459876.209 8  90804007.93208      -468.820 8        50.193
E12        31.000    27575278.744 5 144909234.34805     -3078.872 5        35.562                                                                    27575277.832 6 108211548.01406     -2299.097 6        38.895    27575277.752 6 111034441.56706     -2359.022 6        40.353
G11        32.000    24626954.219 6 129415712.23406     -3708.081 6        40.131                                    24626951.380 3 100843511.03903     -2889.399 3        23.829    24626951.978 6 100843502.02606     -2889.344 6        39.240
I02        33.000    38045729.263 6 149299633.59506      -796.987 6        41.781
R15        34.000    21266207.829 8 113640302.72408     -3836.777 8        49.839                                                                    21266209.895 7  88386970.23407     -2984.127 7        44.637
G29        36.000    20510054.314 8 107781344.69208      -848.126 8        49.945                                    20510051.529 8  83985569.54708      -660.880 8        52.162    20510052.201 7  83985579.54007      -660.820 7        46.778
G31        37.000    21854476.934 7 114846249.84907       197.543 7        46.636                                    21854474.922 7  89490675.61407       153.928 7        44.910    21854475.204 7  89490681.63207       153.881 7        43.086
C10        38.000                                                                                                                                    40975344.095 5 213369385.96705     -1151.548 5        35.176    40975342.461 6 164990750.91006      -890.601 6        38.946    40975340.166 5 173380097.69005      -935.613 5        35.876
E25        39.000    23904940.544 7 125621512.46007     -1651.912 7        47.305                                                                    23904942.410 8  93808398.91208     -1233.563 8        50.526    23904941.818 8  96255559.18908     -1265.753 8        51.093
C12        40.000                                                                                                                                    22206433.808 7 115634912.80507       936.710 7        46.999    22206432.996 8  89416339.34808       724.302 8        52.134    22206432.043 8  93962906.24708       761.199 8        49.846
E07        41.000    28008515.617 6 147185719.98506      -974.206 6        37.093                                                                    28008524.596 6 109911426.01606      -727.553 6        41.318    28008523.207 6 112778677.32406      -746.448 6        41.559
S44        42.000    40750345.514 6 214144662.31706      -405.710 6        38.513
G28        43.000    21619815.210 7 113613076.05507     -1583.156 7        47.655                                    21619813.784 6  88529757.57206     -1233.628 6        37.372    21619813.990 7  88529757.57607     -1233.601 7        46.017
C05        44.000                                                                                                                                    39558562.657 6 205991797.54606      -429.105 6        38.090    39558560.450 7 159285935.32007      -331.760 7        42.927    39558561.872 6 167385301.63006      -348.507 6        40.324
C11        45.000                                                                                                                                    25881550.999 6 134772043.79406      2717.600 6        39.586    25881558.017 7 104214319.25707      2101.394 7        42.821    25881554.282 6 109513337.14306      2208.321 6        41.094
R16        46.000    19259680.659 8 102881945.04408       -88.801 8        51.837                                                                    19259682.323 8  80019401.37308       -69.022 8        48.029
R17        47.000    20697448.686 8 110756461.76908     -3470.568 8        49.990                                                                    20697449.761 7  86144045.29407     -2699.319 7        46.762
C35        48.000                                                                                                                                    23736295.012 7 123601276.50607     -3009.080 7        46.667                                                                    23736295.361 7 100436224.96507     -2445.124 7        46.316
C24        49.000                                                                                                                                    21757364.898 8 113296369.92008     -1513.796 8        51.450                                                                    21757362.651 8  92062601.29408     -1229.990 8        50.084
R19        50.000    21462012.492 6 114807505.52406      3061.539 6        37.766                                                                    21462015.482 7  89294825.95607      2381.259 7        43.204
S48        51.000    77304044.099 6 406236794.28706      -514.337 6        38.267
C08        52.000                                                                                                                                    38656615.961 6 201295221.77206       877.780 6        40.479    38656612.884 7 155654256.17907       678.863 7        44.167    38656611.561 7 163568868.38307       713.359 7        42.051
C34        53.000                                                                                                                                    23645784.044 7 123130024.39707      2190.371 7        46.595                                                                    23645786.777 7 100053335.04307      1779.949 7        46.371
C60        54.000                                                                                                                                    40750346.898 6 212197911.69506      -401.982 6        40.496                                                                    40750333.190 6 172428145.73506      -326.518 6        39.655
C25        55.000                                                                                                                                    23273964.224 7 121193841.86707      1647.028 7        47.038                                                                    23273964.521 7  98480008.26407      1338.441 7        47.204
C26        56.000                                                                                                                                    24920539.736 7 129767863.23507     -3690.649 7        43.721                                                                    24920542.143 7 105447057.91807     -2998.884 7        43.712
C02        57.000                                                                                                                                    40947539.032 5 213224590.40005      -389.496 5        33.329    40947535.756 6 164878761.88206      -301.426 6        39.745    40947538.617 5 173262440.23205      -316.386 5        35.743
I03        58.000    86604637.833 6 264069900.59206      1080.673 6        40.079
E30        59.000    28430595.819 6 149403852.54406      2175.865 6        36.374                                                                    28430606.572 6 111567886.16006      1624.756 6        39.580    28430604.660 6 114478341.34906      1667.155 6        39.823
> 2025 01 02 16 00 15.0000000  0 56
E24         1.000    28136709.792 6 147859523.06006     -3085.257 6        38.246                                                                    28136712.101 6 110414646.72606     -2304.057 6        41.244    28136711.397 6 113295017.72206     -2364.227 6        41.645
E11         2.000    24131580.896 7 126812491.92207      -664.622 7        44.090                                                                    24131578.623 7  94697759.43707      -496.381 7        46.123    24131578.194 7  97168122.66307      -509.345 7        46.857
G16         3.000    25424784.028 5 133608148.30205      3130.668 5        34.910                                    25424792.945 1 104110279.30401      2439.460 1        11.333
G05         4.000    23880321.020 7 125491994.17607      1770.489 7        42.106                                    23880319.762 6  97785984.68606      1379.593 6        36.548    23880319.734 6  97785983.70106      1379.580 6        39.003
S21         5.000    38586804.678 7 202774647.53207      -482.379 7        42.845
G26         6.000    22724216.166 7 119416734.02707      2475.712 7        43.090                                    22724219.468 6  93052116.09506      1929.122 6        40.460    22724219.895 6  93052103.10606      1929.252 6        41.123
G25         7.000    21116060.078 7 110965818.17807     -2832.450 7        47.707                                    21116060.092 7  86466956.71207     -2207.104 7        47.352    21116060.530 7  86466957.72007     -2207.205 7        43.414
G04         8.000    25316954.431 6 133041480.92106        38.907 6        36.817                                    25316954.470 3 103668670.86003        30.318 3        19.463    25316954.228 6 103668679.85006        30.433 6        38.096
E36         9.000    25021229.929 7 131487599.46907      1993.918 7        46.048                                                                    25021233.775 8  98188922.61908      1488.974 8        48.763    25021232.778 8 100750361.52908      1527.793 8        48.931
R08        10.000    24010711.176 6 128576266.95206     -1324.731 6        38.997                                                                    24010711.272 6 100003759.28106     -1030.420 6        39.946
G20        11.000    23742014.776 6 124765234.30906      -509.670 6        40.396                                    23742012.094 3  97219720.77703      -397.154 3        23.657
S27        12.000    39382819.245 6 206958187.11506      -474.568 6        36.526
E08        13.000    28115869.659 6 147749976.52706     -2849.655 6        37.905                                                                    28115879.058 6 110332859.33906     -2127.967 6        39.432    28115877.422 6 113211096.59006     -2183.447 6        40.379
S36        14.000    38358036.486 7 201573294.01707      -482.263 7        44.436
C13        15.000                                                                                                                                    38851461.365 7 202309777.96507       988.975 7        42.900    38851464.829 7 156438778.84507       764.694 7        43.261    38851462.551 6 164393282.15406       803.643 6        41.805
G18        16.000    22816657.101 7 119902519.28207      2777.185 7        45.848                                    22816656.986 5  93430617.95005      2164.038 5        33.982    22816657.509 7  93430625.96807      2164.046 7        44.378
G12        17.000    24545851.746 6 128989494.99506     -3948.100 6        40.384                                    24545850.524 5 100511376.78205     -3076.440 5        33.287    24545851.707 6 100511373.77206     -3076.247 6        37.085
R01        18.000    24358537.037 6 130210338.73506      1648.206 6        37.762                                                                    24358537.906 5 101274583.11905      1281.674 5        33.443
E02        19.000    23968144.708 7 125953606.72107       879.837 7        47.889                                                                    23968146.003 8  94056365.27008       657.014 8        50.671    23968145.189 8  96509995.73408       674.135 8        51.019
E10        21.000    25562103.030 7 134329965.70207     -2183.375 7        44.414                                                                    25562104.533 7 100311468.15207     -1630.442 7        46.983    25562104.403 8 102928274.48708     -1673.049 8        48.579
I06        22.000    38844011.657 6 152432398.29406      -402.718 6        39.321
S28        23.000    41065498.577 5 215800612.58105      -482.468 5        34.310
S23        25.000    38307622.809 7 201307833.25107      -486.613 7        44.843
S45        26.000    63564931.836 6 334036495.59806      -544.964 6        36.336
R09        27.000    22112433.379 7 118079307.58707      3284.621 7        46.341                                                                    22112436.409 7  91839558.08207      2554.799 7        44.307
R18        28.000    19248962.476 8 102752540.92108       121.035 8        51.311                                                                    19248963.683 7  79918789.74107        94.097 7        47.188
C38        29.000                                                                                                                                    38980650.805 7 202982572.93207       253.268 7        43.274                                                                    38980650.145 7 164940006.82607       205.888 7        43.264
C44        30.000                                                                                                                                    21460432.030 8 111750304.79808      -579.518 8        51.298                                                                    21460431.573 8  90806357.69408      -470.887 8        50.083
E12        31.000    27578208.925 5 144924631.67205     -3080.055 5        35.667                                                                    27578207.925 6 108223046.05606     -2300.152 6        39.015    27578207.438 6 111046239.54206     -2360.079 6        40.157
G11        32.000    24630482.538 6 129434256.73406     -3709.631 6        40.081                                    24630480.259 3 100857961.30703     -2890.630 3        23.600    24630480.997 6 100857952.30406     -2890.543 6        39.195
I02        33.000    38046745.074 6 149303619.51306      -797.149 6        41.569
R15        34.000    21269798.893 8 113659493.28908     -3839.307 8        49.817                                                                    21269801.422 7  88401896.23607     -2986.175 7        45.673
G29        36.000    20510862.336 8 107785591.55708      -850.548 8        49.953                                    20510859.671 8  83988878.79708      -662.764 8        52.051    20510860.037 7  83988888.79207      -662.718 7        46.447
G31        37.000    21854290.449 7 114845271.05907       193.959 7        46.781                                    21854288.657 7  89489912.93107       151.135 7        44.807    21854289.135 7  89489918.93707       151.148 7        42.883
C10        38.000                                                                                                                                    40976449.054 5 213375144.81005     -1151.891 5        35.219    40976448.671 6 164995204.02606      -890.793 6        39.252    40976445.845 5 173384777.22005      -935.989 5        35.890
E25        39.000    23906512.894 7 125629776.01707     -1653.444 7        47.797                                                                    23906515.015 8  93814569.76008     -1234.762 8        50.576    23906514.370 8  96261891.01508     -1266.965 8        51.276
C12        40.000                                                                                                                                    22205535.683 7 115630235.29207       934.372 7        47.160    22205534.743 8  89412722.40908       722.531 8        52.246    22205533.740 8  93959105.36808       759.312 8        49.735
E07        41.000    28009443.565 6 147190597.73706      -976.611 6        37.743                                                                    28009452.901 6 109915068.51706      -729.466 6        41.349    28009451.469 6 112782414.83206      -748.433 6        41.640
S44        42.000    40750732.756 6 214146691.04506      -405.717 6        38.526
G28        43.000    21621323.050 7 113621000.63507     -1586.621 7        47.551                                    21621321.772 6  88535932.57006     -1236.326 6        37.180    21621322.006 7  88535932.57807     -1236.353 7        45.971
C05        44.000                                                                                                                                    39558974.404 6 205993943.70006      -429.304 6        38.150    39558972.747 7 159287594.88407      -331.993 7        42.971    39558974.106 6 167387045.55906      -348.942 6        40.219
C11        45.000                                                                                                                                    25878943.431 6 134758457.94806      2716.674 6        40.210    25878949.028 7 104203813.84807      2100.777 7        43.041    25878945.539 6 109502297.53406      2207.626 6        41.142
R16        46.000    19259765.566 8 102882399.16808       -92.750 8        51.639                                                                    19259767.261 8  80019754.59408       -72.187 8        48.075
R17        47.000    20700692.890 8 110773821.34108     -3473.220 8        49.651                                                                    20700693.803 7  86157547.18907     -2701.353 7        46.611
C35        48.000                                                                                                                                    23739185.176 7 123616325.30307     -3010.342 7        46.727                                                                    23739185.320 7 100448453.31907     -2446.027 7        46.186
C24        49.000                                                                                                                                    21758819.631 8 113303945.77308     -1516.475 8        51.351                                                                    21758817.535 8  92068757.27308     -1232.240 8        49.991
R19        50.000    21459152.452 6 114792204.57106      3059.048 6        38.354                                                                    21459155.383 7  89282925.25007      2379.090 7        42.995
S48        51.000    77304510.252 6 406239364.74306      -514.286 6        38.048
C08        52.000                                                                                                                                    38655773.489 6 201290836.09506       876.675 6        39.883    38655770.531 7 155650864.91107       677.779 7        44.111    38655769.250 6 163565304.65106       712.318 6        41.959
C34        53.000                                                                                                                                    23643682.289 7 123119076.68907      2188.802 7        47.125                                                                    23643684.303 7 100044439.14007      1778.645 7        46.340
C60        54.000                                                                                                                                    40750733.103 6 212199921.99006      -402.143 6        40.367                                                                    40750719.363 6 172429779.25106      -326.737 6        39.568
C25        55.000                                                                                                                                    23272383.571 7 121185611.86307      1645.051 7        46.996                                                                    23272384.001 7  98473320.69807      1336.772 7        47.066
C26        56.000                                                                                                                                    24924084.424 7 129786319.52607     -3691.824 7        44.111                                                                    24924086.340 7 105462055.15407     -2999.875 7        43.454
C02        57.000                                                                                                                                    40947913.342 5 213226539.41905      -389.744 5        33.647    40947910.567 6 164880268.93806      -301.276 6        39.754    40947913.062 5 173264023.93305      -316.868 5        35.700
I03        58.000    86603261.266 6 264064497.49606      1080.557 6        40.126
E30        59.000    28428525.904 6 149392974.23306      2175.721 6        37.119                                                                    28428536.729 6 111559762.82106      1624.415 6        39.817    28428534.741 6 114470006.08306      1666.945 6        40.164
> 2025 01 02 16 00 20.0000000  0 56
E24         1.000    28139645.792 6 147874951.17806     -3085.768 6        38.129                                                                    28139647.847 6 110426167.71106     -2304.220 6        41.125    28139647.298 6 113306839.27006     -2364.440 6        41.862
E11         2.000    24132214.488 7 126815820.87607      -666.833 7        44.309                                                                    24132212.164 7  94700245.36207      -498.038 7        46.039    24132211.780 7  97170673.42707      -510.991 7        46.894
G16         3.000    25421806.357 5 133592496.22405      3130.362 5        34.933                                    25421814.482 2 104098082.98802      2439.271 2        12.606
G05         4.000    23878637.736 7 125483146.65907      1768.471 7        42.726                                    23878636.115 6  97779090.53306      1378.029 6        36.938    23878636.067 6  97779089.55406      1377.989 6        38.973
S21         5.000    38587262.501 7 202777059.03307      -482.267 7        42.717
G26         6.000    22721860.743 7 119404357.42007      2474.838 7        42.474                                    22721864.237 6  93042472.01706      1928.436 6        40.555    22721864.606 6  93042459.03706      1928.518 6        41.304
G25         7.000    21118755.776 7 110979985.11807     -2834.317 7        47.767                                    21118755.926 7  86477995.88807     -2208.558 7        47.414    21118756.457 7  86477996.89407     -2208.584 7        43.562
G04         8.000    25316918.377 6 133041292.79406        36.216 6        36.896                                    25316918.554 3 103668524.28603        28.258 3        19.224    25316918.327 6 103668533.28506        28.233 6        37.837
E36         9.000    25019333.566 7 131477633.21307      1992.550 7        46.295                                                                    25019337.222 8  98181480.30508      1487.926 8        48.656    25019336.257 8 100742725.06608      1526.771 8        48.953
R08        10.000    24011949.204 6 128582900.19706     -1328.587 6        38.517                                                                    24011950.314 6 100008918.49606     -1033.287 6        39.694
