     3.04           OBSERVATION DATA    M                   RINEX VERSION / TYPE
ssrcrin-15.6.1x                         20250102 180000 UTC PGM / RUN BY / DATE 
(00000000023479385599111004) Septentrio proprietary         COMMENT             
rref                                                        MARKER NAME         
01                                                          MARKER NUMBER       
geodetic                                                    MARKER TYPE         
NFB                 CLIMERS@TUW                             OBSERVER / AGENCY   
3297213             SEPT ASTERX SB3 PROB4.14.4              REC # / TYPE / VERS 
Unknown             Unknown                                 ANT # / TYPE        
  4127831.6498  1207193.2175  4695247.6006                  APPROX POSITION XYZ 
        0.0000        0.0000        0.0000                  ANTENNA: DELTA H/E/N
G   23 X1  C1C L1C D1C S1C C1W S1W C2W L2W D2W S2W C2L L2L  SYS / # / OBS TYPES 
       D2L S2L C5Q L5Q D5Q S5Q C1L L1L D1L S1L              SYS / # / OBS TYPES 
E   21 X1  C1C L1C D1C S1C C6C L6C D6C S6C C5Q L5Q D5Q S5Q  SYS / # / OBS TYPES 
       C7Q L7Q D7Q S7Q C8Q L8Q D8Q S8Q                      SYS / # / OBS TYPES 
S    9 X1  C1C L1C D1C S1C C5I L5I D5I S5I                  SYS / # / OBS TYPES 
R   17 X1  C1C L1C D1C S1C C2P L2P D2P S2P C2C L2C D2C S2C  SYS / # / OBS TYPES 
       C3Q L3Q D3Q S3Q                                      SYS / # / OBS TYPES 
C   25 X1  C1P L1P D1P S1P C5P L5P D5P S5P C2I L2I D2I S2I  SYS / # / OBS TYPES 
       C7I L7I D7I S7I C6I L6I D6I S6I C7D L7D D7D S7D      SYS / # / OBS TYPES 
J   17 X1  C1C L1C D1C S1C C2L L2L D2L S2L C5Q L5Q D5Q S5Q  SYS / # / OBS TYPES 
       C1L L1L D1L S1L                                      SYS / # / OBS TYPES 
I    5 X1  C5A L5A D5A S5A                                  SYS / # / OBS TYPES 
SEPTENTRIO RECEIVERS OUTPUT ALIGNED CARRIER PHASES.         COMMENT             
NO FURTHER PHASE SHIFT APPLIED IN THE RINEX ENCODER.        COMMENT             
G L1C                                                       SYS / PHASE SHIFT   
G L2W                                                       SYS / PHASE SHIFT   
G L2L  0.00000                                              SYS / PHASE SHIFT   
G L5Q  0.00000                                              SYS / PHASE SHIFT   
G L1L  0.00000                                              SYS / PHASE SHIFT   
E L1C  0.00000                                              SYS / PHASE SHIFT   
E L6C  0.00000                                              SYS / PHASE SHIFT   
E L5Q  0.00000                                              SYS / PHASE SHIFT   
E L7Q  0.00000                                              SYS / PHASE SHIFT   
E L8Q  0.00000                                              SYS / PHASE SHIFT   
S L1C                                                       SYS / PHASE SHIFT   
S L5I                                                       SYS / PHASE SHIFT   
R L1C                                                       SYS / PHASE SHIFT   
R L2P  0.00000                                              SYS / PHASE SHIFT   
R L2C                                                       SYS / PHASE SHIFT   
R L3Q  0.00000                                              SYS / PHASE SHIFT   
C L1P  0.00000                                              SYS / PHASE SHIFT   
C L5P  0.00000                                              SYS / PHASE SHIFT   
C L2I                                                       SYS / PHASE SHIFT   
C L7I                                                       SYS / PHASE SHIFT   
C L6I                                                       SYS / PHASE SHIFT   
C L7D                                                       SYS / PHASE SHIFT   
J L1C                                                       SYS / PHASE SHIFT   
J L2L  0.00000                                              SYS / PHASE SHIFT   
J L5Q  0.00000                                              SYS / PHASE SHIFT   
J L1L  0.00000                                              SYS / PHASE SHIFT   
I L5A                                                       SYS / PHASE SHIFT   
  2025     1     2    18     0    0.0000000     GPS         TIME OF FIRST OBS   
 C1C    0.000 C2C    0.000 C2P    0.000                     GLONASS COD/PHS/BIS 
DBHZ                                                        SIGNAL STRENGTH UNIT
    18                                                      LEAP SECONDS        
 24 R01  1 R02 -4 R03  5 R04  6 R05  1 R06 -4 R07  5 R08  6 GLONASS SLOT / FRQ #
    R09 -2 R10 -7 R11  0 R12 -1 R13 -2 R14 -7 R15  0 R16 -1 GLONASS SLOT / FRQ #
    R17  4 R18 -3 R19  3 R20  2 R21  4 R22 -3 R23  3 R24  2 GLONASS SLOT / FRQ #
                                                            END OF HEADER       
> 2025 01 02 18 00  0.0000000  0 52
G23         1.000    22652767.627 7 119041168.38007      2676.834 7        44.394                                    22652764.651 5  92759372.10105      2085.839 5        31.675    22652764.974 7  92759370.10407      2085.895 7        43.638
E11         2.000    26058380.695 6 136937911.18706     -3023.489 6        38.685                                                                    26058377.186 6 102258954.47906     -2257.730 6        40.877    26058376.840 6 104926565.64606     -2316.628 6        41.714
G16         3.000    20969773.813 7 110197108.17707      1416.132 7        47.473                                    20969769.454 6  85867960.37006      1103.480 6        36.907
G05         4.000    23539207.601 6 123699470.48706     -2718.749 6        41.793                                    23539204.195 5  96389222.43405     -2118.508 5        35.233    23539204.807 6  96389221.43106     -2118.558 6        38.532
S21         5.000    38332440.981 7 201438016.68807      -458.341 7        42.870
G26         6.000    20424823.593 8 107333411.48308      -925.306 8        50.404                                    20424822.470 8  83636556.86908      -721.019 8        51.187    20424822.732 7  83636543.86607      -720.941 7        45.693
E36         9.000    23324033.421 8 122568815.23608      -892.305 8        48.348                                                                    23324033.851 8  91528804.56108      -666.299 8        51.038    23324033.222 8  93916499.75208      -683.695 8        51.443
G27        10.000    23078819.387 7 121280133.30807      2679.154 7        42.296                                    23078818.751 6  94504062.60806      2087.644 6        37.705    23078819.386 6  94504064.61706      2087.647 6        38.844
S27        12.000    39106705.611 5 205507211.81005      -434.850 5        35.838
C23        13.000                                                                                                                                    24141087.194 7 125709024.36207      1112.215 7        45.500                                                                    24141079.757 7 102148870.49707       903.676 7        46.323
S36        14.000    38103003.319 7 200233161.77507      -457.241 7        44.479
C13        15.000                                                                                                                                    37549911.144 7 195532301.89807      -413.917 7        44.253    37549912.936 7 151198012.95307      -320.068 7        44.895    37549911.442 7 158886034.55307      -336.344 7        43.583
G18        16.000    20425964.990 8 107339403.91608      -874.065 8        50.026                                    20425961.119 7  83641191.83907      -681.092 7        43.319    20425961.459 8  83641199.83608      -681.088 8        50.072
R10        17.000    20865172.863 7 111223143.37307      2136.730 7        45.857
E02        19.000    23301543.303 8 122450625.77508     -1444.355 8        49.089                                                                    23301542.252 8  91440512.51208     -1078.593 8        50.871    23301541.690 8  93825902.20708     -1106.698 8        51.350
E10        21.000    28818611.736 5 151443046.48205     -3395.989 5        31.502                                                                    28818612.548 5 113090720.29205     -2535.881 5        35.090    28818612.185 6 116040898.03106     -2602.139 6        36.650
I06        22.000    38613531.901 6 151528009.61106      -325.509 6        41.905
S28        23.000    40807520.275 5 214444954.22405      -453.348 5        34.538
S23        25.000    38057619.324 7 199994074.10307      -460.483 7        45.345
S45        26.000    63314869.540 6 332722353.09806      -514.590 6        37.747
R09        27.000    19386497.749 8 103523025.84808     -1435.752 8        52.274                                                                    19386497.009 8  80518021.22008     -1116.702 8        49.037
R18        28.000    21247314.256 8 113419899.99908     -3629.340 8        48.188                                                                    21247314.938 7  88215629.48607     -2822.867 7        46.257
C38        29.000                                                                                                                                    38732352.775 7 201689644.05107     -1119.336 7        42.804                                                                    38732350.146 7 163889401.72307      -909.529 7        42.925
C44        30.000                                                                                                                                    23106070.435 7 120319594.93707     -2744.347 7        47.302                                                                    23106068.979 7  97769611.93307     -2230.148 7        46.528
C43        31.000                                                                                                                                    23812746.798 7 123999311.68107      1969.730 7        45.338                                                                    23812746.454 7 100759636.78207      1600.327 7        45.282
R02        32.000    23065979.368 7 123084509.03607      -884.438 7        42.474                                                                    23065980.458 6  95732402.73106      -687.880 6        39.967
I02        33.000    38739247.680 6 152021186.11906      -935.374 6        41.170
R03        34.000    22954639.238 7 122878009.12307      2202.615 7        45.937                                                                    22954639.095 7  95571784.28607      1713.117 7        42.781
E34        35.000    24700134.340 7 129800279.48707      1745.789 7        46.966                                                                    24700134.917 8  96928888.26608      1303.686 8        48.815    24700134.725 8  99457457.06008      1337.698 8        49.830
G29        36.000    22519011.312 7 118338497.58807     -3110.131 7        45.050                                    22519007.002 7  92211926.41307     -2423.479 7        42.040    22519007.166 6  92211936.41906     -2423.575 6        41.049
G31        37.000    23711681.579 7 124605945.27707     -3619.776 7        42.959                                    23711679.229 6  97095637.36106     -2820.601 6        37.376    23711679.314 6  97095643.34106     -2820.434 6        39.177
C22        38.000                                                                                                                                    24948233.153 7 129912017.37407       913.916 7        42.499                                                                    24948227.215 7 105564138.26507       742.625 7        43.200
E25        39.000    26516592.969 6 139345849.34206     -3336.306 6        40.577                                                                    26516594.654 7 104057094.58207     -2491.429 7        44.758    26516594.139 7 106771611.83607     -2556.423 7        45.559
C12        40.000                                                                                                                                    22007733.327 8 114600254.05208     -1740.594 8        48.116    22007729.683 8  88616283.57008     -1345.967 8        51.571    22007729.173 8  93122167.69408     -1414.486 8        49.441
S44        42.000    40407132.934 6 212341091.60106      -407.500 6        37.932
G28        43.000    25104152.151 6 131923348.83106     -3932.930 6        37.951                                    25104153.586 3 102797491.71003     -3064.611 3        20.262    25104153.543 6 102797491.69506     -3064.586 6        36.892
C05        44.000                                                                                                                                    39223639.357 6 204247807.91706      -388.404 6        38.498    39223634.762 7 157937383.24807      -300.349 7        43.081    39223635.987 6 165968176.34106      -315.822 6        39.850
C11        45.000                                                                                                                                    22235987.075 8 115788759.79408      1071.599 8        48.264    22235983.908 8  89535273.33808       828.744 8        51.357    22235982.846 8  94087890.80708       870.821 8        49.086
R16        46.000    22026773.575 7 117663263.50107     -4783.322 7        47.149                                                                    22026773.960 7  91515983.82107     -3720.358 7        43.972
C21        48.000                                                                                                                                    26213092.016 6 136498457.60406      2546.776 6        40.446                                                                    26213087.456 6 110916161.41206      2069.404 6        41.800
C24        49.000                                                                                                                                    24935414.314 7 129845311.01007     -3875.643 7        42.806                                                                    24935412.795 7 105509971.49407     -3149.403 7        43.274
R19        50.000    19335253.646 6 103430839.29006     -1292.421 6        41.135                                                                    19335253.507 7  80446322.21107     -1005.174 7        45.369
S48        51.000    77062253.741 6 404966282.64506      -496.920 6        38.075
C08        52.000                                                                                                                                    37630224.413 7 195950556.39607      -676.742 7        42.423    37630217.619 7 151521429.82707      -523.336 7        45.017    37630217.249 7 159225896.34107      -550.008 7        42.722
C34        53.000                                                                                                                                    21282821.398 8 110825518.25308      -138.173 8        50.825                                                                    21282821.097 8  90054928.41008      -112.407 8        49.289
C60        54.000                                                                                                                                    40407132.736 6 210410737.38506      -403.800 6        40.072                                                                    40407117.109 6 170975927.15806      -328.204 6        40.417
C25        55.000                                                                                                                                    22479599.737 8 117057423.19608     -1982.429 8        49.812                                                                    22479598.052 8  95118838.51108     -1611.029 8        48.466
I09        56.000    39921691.907 6 156661300.50606       462.579 6        40.951
C02        57.000                                                                                                                                    40570749.584 5 211262573.32005      -369.007 5        34.181    40570742.954 6 163361613.56606      -285.142 6        38.526    40570746.129 5 171668146.90005      -299.897 5        34.986
I03        58.000    83692267.315 6 252641174.17906      1112.223 6        40.706
E30        59.000    24871742.597 7 130702103.41407      1355.616 7        45.905                                                                    24871742.748 8  97602338.23108      1012.299 8        48.331    24871742.367 8 100148469.65808      1038.763 8        49.646
R20        60.000    21695604.216 6 116016333.10706      2606.554 6        38.904                                                                    21695607.145 7  90234990.19807      2027.384 7        43.668
> 2025 01 02 18 00  5.0000000  0 52
G23         1.000    22650221.088 7 119027786.37507      2675.559 7        44.169                                    22650218.451 5  92748944.57105      2084.846 5        31.562    22650218.455 7  92748942.57507      2084.848 7        44.021
E11         2.000    26061257.599 6 136953028.98906     -3024.128 6        38.844                                                                    26061253.990 6 102270243.76006     -2258.236 6        41.113    26061253.670 6 104938149.42006     -2316.997 6        41.638
G16         3.000    20968427.535 7 110190032.83207      1413.649 7        47.475                                    20968423.062 6  85862447.11806      1101.546 6        36.949
G05         4.000    23541795.218 6 123713070.03806     -2721.471 6        41.981                                    23541792.044 5  96399819.49005     -2120.622 5        35.171    23541792.831 6  96399818.48306     -2120.553 6        38.255
S21         5.000    38332875.117 7 201440306.79107      -458.118 7        42.601
G26         6.000    20425705.327 8 107338044.69008      -928.302 8        50.140                                    20425704.135 8  83640167.16108      -723.353 8        51.205    20425704.335 7  83640154.17007      -723.367 7        45.666
E36         9.000    23324882.956 8 122573280.04108      -894.041 8        48.207                                                                    23324883.472 8  91532138.67108      -667.597 8        51.167    23324882.855 8  93919920.83708      -685.026 8        51.463
G27        10.000    23076270.573 7 121266738.66107      2678.491 7        42.163                                    23076269.832 6  94493625.24006      2087.133 6        37.705    23076269.948 6  94493627.25406      2087.172 6        38.847
S27        12.000    39107116.249 5 205509385.40505      -434.645 5        35.667
C23        13.000                                                                                                                                    24140020.479 7 125703468.21207      1109.993 7        45.332                                                                    24140012.728 7 102144355.65607       901.934 7        46.428
S36        14.000    38103437.420 7 200235447.52007      -457.354 7        44.290
C13        15.000                                                                                                                                    37550308.694 7 195534372.44907      -414.672 7        44.123    37550310.538 7 151199614.03207      -320.596 7        44.769    37550309.081 7 158887717.04207      -336.927 7        43.680
G18        16.000    20426797.564 8 107343779.62008      -876.604 8        50.169                                    20426793.780 7  83644601.47707      -683.068 7        43.365    20426794.108 8  83644609.47708      -683.052 8        49.989
R10        17.000    20863170.473 7 111212467.17907      2133.487 7        46.010
E02        19.000    23302918.184 8 122457851.41308     -1446.165 8        48.877                                                                    23302917.228 8  91445908.28008     -1079.907 8        51.027    23302916.655 8  93831438.74108     -1108.183 8        51.393
E10        21.000    28821842.553 5 151460024.55805     -3395.731 5        31.291                                                                    28821843.309 5 113103398.75805     -2535.599 5        35.286    28821843.055 6 116053907.21506     -2601.696 6        36.730
I06        22.000    38613946.311 6 151529635.66306      -325.201 6        41.833
S28        23.000    40807949.349 5 214447219.36205      -453.134 5        34.538
S23        25.000    38058058.576 7 199996374.95007      -460.225 7        45.290
S45        26.000    63315307.777 6 332724924.77506      -514.393 6        37.508
R09        27.000    19387844.398 8 103530214.42308     -1440.006 8        52.551                                                                    19387843.209 8  80523612.34608     -1120.040 8        49.005
R18        28.000    21250713.899 8 113438047.64808     -3630.088 8        48.377                                                                    21250714.012 7  88229744.31107     -2823.433 7        45.500
C38        29.000                                                                                                                                    38733427.468 7 201695240.71607     -1119.804 7        42.855                                                                    38733424.821 7 163893949.47707      -909.859 7        43.018
C44        30.000                                                                                                                                    23108705.551 7 120333317.65207     -2745.019 7        47.329                                                                    23108704.227 7  97780762.74907     -2230.545 7        46.538
C43        31.000                                                                                                                                    23810855.996 7 123989464.67407      1968.755 7        45.559                                                                    23810855.399 7 100751635.26907      1599.881 7        45.162
R02        32.000    23066810.085 7 123088940.58907      -888.555 7        44.075                                                                    23066811.396 6  95735849.49906      -691.058 6        39.928
I02        33.000    38740439.652 6 152025862.49206      -935.342 6        41.273
R03        34.000    22952583.306 7 122867001.80307      2199.972 7        46.577                                                                    22952582.181 7  95563223.01607      1711.054 7        42.165
E34        35.000    24698473.757 7 129791553.02707      1744.441 7        46.909                                                                    24698474.268 8  96922371.76108      1302.711 8        48.978    24698474.183 8  99450770.56008      1336.671 8        49.820
G29        36.000    22521970.558 7 118354049.62507     -3110.956 7        45.210                                    22521966.425 7  92224044.87907     -2424.122 7        42.044    22521966.836 6  92224054.88606     -2424.213 6        41.132
G31        37.000    23715126.180 7 124624045.47607     -3620.636 7        43.594                                    23715123.658 6  97109741.40606     -2821.275 6        37.611    23715123.648 6  97109747.40806     -2821.396 6        38.787
C22        38.000                                                                                                                                    24947356.703 7 129907452.58107       911.599 7        42.819                                                                    24947350.483 7 105560429.00507       740.790 7        43.130
E25        39.000    26519767.910 6 139362531.72006     -3336.872 6        40.913                                                                    26519769.279 7 104069552.20307     -2491.867 7        45.025    26519768.507 7 106784394.44307     -2556.912 7        45.220
C12        40.000                                                                                                                                    22009405.276 8 114608959.22308     -1741.775 8        48.098    22009401.566 8  88623014.96508     -1346.860 8        51.639    22009400.946 8  93129241.35308     -1415.297 8        49.512
S44        42.000    40407519.739 6 212343127.74006      -407.381 6        38.063
G28        43.000    25107894.115 6 131943011.41506     -3932.436 6        37.342                                    25107895.261 3 102812813.14903     -3064.222 3        20.024    25107896.194 6 102812813.12906     -3064.266 6        37.316
C05        44.000                                                                                                                                    39224011.633 6 204249749.14206      -388.209 6        38.667    39224007.347 7 157938884.32807      -300.255 7        42.988    39224008.768 6 165969753.73606      -315.586 6        39.811
C11        45.000                                                                                                                                    22234958.602 8 115783403.69308      1070.459 8        48.236    22234955.591 8  89531131.67408       827.699 8        51.433    22234954.188 8  94083538.53808       869.861 8        49.232
R16        46.000    22031251.047 7 117687182.67107     -4784.693 7        47.547                                                                    22031251.632 7  91534587.60007     -3721.399 7        43.136
C21        48.000                                                                                                                                    26210645.916 6 136485723.12606      2546.695 6        40.272                                                                    26210641.870 7 110905813.61207      2069.442 7        42.063
C24        49.000                                                                                                                                    24939136.230 7 129864689.01907     -3875.956 7        43.602                                                                    24939134.049 7 105525717.71107     -3149.420 7        43.230
R19        50.000    19336462.738 6 103437306.56306     -1294.884 6        41.161                                                                    19336462.230 7  80451352.32207     -1007.111 7        45.344
S48        51.000    77062698.024 6 404968765.44906      -496.790 6        38.135
C08        52.000                                                                                                                                    37630874.039 7 195953941.66607      -677.666 7        42.309    37630867.982 7 151524047.53207      -523.977 7        45.025    37630867.292 7 159228647.13307      -550.625 7        42.720
C34        53.000                                                                                                                                    21282954.649 8 110826212.01108      -139.656 8        50.766                                                                    21282954.334 8  90055492.14108      -113.473 8        49.415
C60        54.000                                                                                                                                    40407520.255 6 210412755.00806      -403.556 6        40.129                                                                    40407504.584 6 170977566.62806      -327.796 6        40.486
C25        55.000                                                                                                                                    22481504.501 8 117067340.50808     -1984.801 8        49.891                                                                    22481502.569 8  95126897.13308     -1612.774 8        48.575
I09        56.000    39921102.077 6 156658986.46906       462.862 6        40.934
C02        57.000                                                                                                                                    40571102.627 5 211264416.35705      -368.440 5        33.970    40571097.331 6 163363038.73906      -285.100 6        38.622    40571099.731 5 171669644.49605      -299.433 5        35.095
I03        58.000    83690849.738 6 252635612.28506      1112.365 6        40.727
E30        59.000    24870453.117 7 130695327.82007      1354.397 7        45.857                                                                    24870453.366 8  97597278.54008      1011.322 8        48.462    24870452.945 8 100143277.97208      1037.734 8        49.618
R20        60.000    21693167.715 6 116003303.12506      2605.094 6        38.688                                                                    21693171.003 7  90224855.79207      2026.122 7        43.350
> 2025 01 02 18 00 10.0000000  0 52
G23         1.000    22647676.169 7 119014412.08907      2674.091 7        43.215                                    22647673.646 5  92738523.06405      2083.708 5        31.404    22647673.164 7  92738521.06807      2083.787 7        43.376
E11         2.000    26064135.079 6 136968150.23506     -3024.690 6        39.282                                                                    26064131.357 6 102281535.60206     -2258.686 6        40.946    26064131.008 6 104949735.83906     -2317.559 6        41.783
G16         3.000    20967083.383 7 110182970.77507      1411.100 7        47.491                                    20967079.165 6  85856944.22006      1099.555 6        37.047
G05         4.000    23544385.837 6 123726683.42306     -2724.014 6        41.745                                    23544382.486 5  96410427.32105     -2122.607 5        35.105    23544382.931 6  96410426.31106     -2122.453 6        38.204
S21         5.000    38333311.337 7 201442596.85007      -457.922 7        42.673
G26         6.000    20426589.789 8 107342693.53608      -931.293 8        50.008                                    20426588.783 8  83643789.64108      -725.685 8        51.218    20426588.918 7  83643776.64607      -725.643 7        45.640
E36         9.000    23325734.140 8 122577754.36408      -895.761 8        48.397                                                                    23325734.906 8  91535479.88508      -668.885 8        51.219    23325734.317 8  93923349.21308      -686.308 8        51.620
G27        10.000    23073722.138 7 121253347.79707      2677.830 7        42.569                                    23073721.616 6  94483190.81606      2086.615 6        37.924    23073722.235 6  94483192.81906      2086.617 6        39.348
S27        12.000    39107528.125 5 205511558.70205      -434.693 5        35.586
C23        13.000                                                                                                                                    24138956.068 7 125697924.28007      1107.652 7        45.353                                                                    24138948.070 7 102139850.76707       900.026 7        46.493
S36        14.000    38103873.542 7 200237733.76807      -457.276 7        44.254
C13        15.000                                                                                                                                    37550707.360 7 195536447.68007      -415.366 7        44.153    37550709.108 7 151201218.74007      -321.246 7        44.983    37550707.510 7 158889403.34907      -337.637 7        43.706
G18        16.000    20427632.817 8 107348168.91608      -879.151 8        49.980                                    20427629.030 7  83648021.71307      -685.051 7        43.352    20427629.309 8  83648029.70608      -685.059 8        49.759
R10        17.000    20861170.582 7 111201808.11207      2130.150 7        46.048
E02        19.000    23304295.230 8 122465086.91108     -1448.037 8        48.953                                                                    23304294.095 8  91451311.41208     -1081.314 8        51.058    23304293.540 8  93836982.82208     -1109.526 8        51.486
E10        21.000    28825073.978 5 151477002.14605     -3395.454 5        31.736                                                                    28825074.182 5 113116076.77505     -2535.286 5        35.300    28825073.800 6 116066915.96006     -2601.503 6        36.987
I06        22.000    38614360.365 6 151531261.52806      -325.032 6        41.886
S28        23.000    40808381.710 5 214449484.66105      -453.102 5        34.476
S23        25.000    38058496.384 7 199998675.61407      -460.144 7        45.257
S45        26.000    63315741.895 6 332727496.41306      -514.330 6        37.645
R09        27.000    19389194.823 8 103537425.38708     -1444.363 8        52.563                                                                    19389193.201 8  80529220.87308     -1123.390 8        48.622
R18        28.000    21254114.466 8 113456199.97608     -3630.891 8        48.086                                                                    21254114.529 7  88243862.78207     -2824.104 7        45.217
C38        29.000                                                                                                                                    38734503.081 7 201700841.18507     -1120.319 7        42.694                                                                    38734500.389 7 163898500.32907      -910.490 7        43.016
C44        30.000                                                                                                                                    23111341.705 7 120347044.34607     -2745.726 7        47.408                                                                    23111340.147 7  97791916.82007     -2231.141 7        46.569
C43        31.000                                                                                                                                    23808966.145 7 123979622.34507      1968.030 7        45.625                                                                    23808965.332 7 100743637.59107      1599.263 7        45.496
R02        32.000    23067645.747 7 123093393.38107      -892.787 7        44.766                                                                    23067645.891 6  95739312.79206      -694.378 6        40.203
I02        33.000    38741631.653 6 152030539.56006      -935.363 6        41.490
R03        34.000    22950529.853 7 122856008.55307      2197.302 7        45.658                                                                    22950528.390 7  95554672.72807      1709.009 7        42.051
E34        35.000    24696814.726 7 129782833.74307      1743.261 7        47.047                                                                    24696815.068 8  96915860.61708      1301.789 8        49.010    24696814.885 8  99444089.56108      1335.712 8        50.026
G29        36.000    22524930.785 7 118369606.77107     -3111.854 7        45.038                                    22524926.809 7  92236167.33307     -2424.822 7        42.064    22524927.256 6  92236177.33906     -2424.996 6        41.104
G31        37.000    23718572.003 7 124642150.94707     -3621.643 7        44.233                                    23718569.043 6  97123849.55806     -2822.060 6        37.584    23718568.893 6  97123855.54906     -2821.865 6        38.844
C22        38.000                                                                                                                                    24946482.560 7 129902899.93207       909.333 7        43.073                                                                    24946476.383 7 105556729.61707       738.923 7        43.281
E25        39.000    26522943.184 6 139379217.94706     -3337.625 6        41.535                                                                    26522944.602 7 104082012.68407     -2492.342 7        45.001    26522943.684 7 106797179.98407     -2557.362 7        45.171
C12        40.000                                                                                                                                    22011078.943 8 114617671.10208     -1742.975 8        48.085    22011074.400 8  88629751.53908     -1347.749 8        51.845    22011073.926 8  93136320.48208     -1416.341 8        49.544
S44        42.000    40407904.964 6 212345164.02806      -407.226 6        37.675
G28        43.000    25111635.981 6 131962672.64106     -3931.755 6        37.671                                    25111636.578 3 102828133.54803     -3063.689 3        20.214    25111637.610 6 102828133.54606     -3064.017 6        37.524
C05        44.000                                                                                                                                    39224384.544 6 204251690.39306      -388.406 6        38.354    39224380.146 7 157940385.41907      -300.182 7        43.147    39224381.541 6 165971331.15706      -315.364 6        39.889
C11        45.000                                                                                                                                    22233931.565 8 115778054.77008      1069.143 8        48.215    22233928.316 8  89526995.54808       826.732 8        51.459    22233927.038 8  94079192.10908       868.782 8        49.261
R16        46.000    22035730.344 7 117711109.40007     -4786.120 7        47.346                                                                    22035731.467 7  91553197.29207     -3722.529 7        43.191
C21        48.000                                                                                                                                    26208200.991 6 136472990.65406      2546.480 6        40.031                                                                    26208196.815 7 110895467.47007      2069.085 7        42.148
C24        49.000                                                                                                                                    24942858.523 7 129884069.20107     -3876.166 7        43.867                                                                    24942855.868 7 105541465.70907     -3149.715 7        43.458
R19        50.000    19337674.016 6 103443787.17806     -1297.397 6        40.713                                                                    19337673.984 7  80456392.80307     -1009.068 7        45.493
S48        51.000    77063143.469 6 404969648.40216      -496.383 6        37.913
C08        52.000                                                                                                                                    37631525.222 7 195957331.86007      -678.561 7        42.210    37631519.212 7 151526669.05807      -524.664 7        45.151    37631518.401 7 159231401.96607      -551.254 7        42.777
C34        53.000                                                                                                                                    21283089.622 8 110826914.05508      -141.151 8        50.705                                                                    21283089.135 8  90056062.61308      -114.720 8        49.453
C60        54.000                                                                                                                                    40407907.811 6 210414772.78806      -403.527 6        40.019                                                                    40407892.032 6 170979206.25106      -327.999 6        40.470
C25        55.000                                                                                                                                    22483411.544 8 117077270.38608     -1987.236 8        49.762                                                                    22483409.449 8  95134965.98308     -1614.812 8        48.599
I09        56.000    39920512.947 6 156656672.20506       462.932 6        40.932
C02        57.000                                                                                                                                    40571457.325 5 211266259.46805      -368.813 5        33.934    40571451.179 6 163364463.95006      -285.082 6        38.718    40571454.242 5 171671142.18005      -299.418 5        35.276
I03        58.000    83689432.605 6 252630050.41906      1112.382 6        40.789
E30        59.000    24869165.242 7 130688559.38207      1352.924 7        45.928                                                                    24869165.380 8  97592224.19208      1010.332 8        48.500    24869164.993 8 100138091.76808      1036.747 8        49.753
R20        60.000    21690732.568 6 115990282.02606      2603.420 6        39.063                                                                    21690735.448 7  90214728.29207      2024.859 7        44.017
> 2025 01 02 18 00 15.0000000  0 52
G23         1.000    22645132.280 7 119001045.09707      2672.474 7        43.746                                    22645129.937 5  92728107.23105      2082.443 5        31.117    22645129.057 7  92728105.24807      2082.334 7        42.519
E11         2.000    26067013.073 6 136983274.48506     -3025.365 6        39.243                                                                    26067009.510 6 102292829.68206     -2259.208 6        40.896    26067008.952 6 104961324.54606     -2318.095 6        41.316
G16         3.000    20965742.386 7 110175921.54407      1408.312 7        47.959                                    20965737.745 6  85851451.31606      1097.384 6        36.983
G05         4.000    23546978.580 6 123740310.06906     -2726.749 6        41.440                                    23546975.495 5  96421045.48705     -2124.731 5        34.767    23546976.238 6  96421044.48906     -2124.746 6        37.951
S21         5.000    38333746.145 7 201444886.54407      -458.105 7        42.639
G26         6.000    20427477.460 8 107347357.56308      -934.508 8        50.349                                    20427476.320 8  83647423.94708      -728.189 8        51.117    20427476.605 7  83647410.95307      -728.244 7        45.624
E36         9.000    23326587.303 8 122582237.75908      -897.804 8        48.361                                                                    23326588.085 8  91538827.88108      -670.462 8        51.043    23326587.442 8  93926784.54708      -687.924 8        51.441
G27        10.000    23071174.401 7 121239960.25607      2677.012 7        42.531                                    23071174.034 6  94472758.98406      2085.980 6        38.003    23071174.281 6  94472761.00506      2085.958 6        39.057
S27        12.000    39107942.824 5 205513731.84405      -434.849 5        35.524
C23        13.000                                                                                                                                    24137893.792 7 125692392.13807      1104.996 7        45.413                                                                    24137885.702 7 102135355.43707       898.061 7        46.533
S36        14.000    38104308.416 7 200240019.59207      -457.288 7        44.302
C13        15.000                                                                                                                                    37551106.596 7 195538527.23007      -416.586 7        44.269    37551108.593 7 151202826.78007      -322.042 7        45.159    37551106.998 7 158891093.12507      -338.258 7        43.881
G18        16.000    20428470.470 8 107352571.35308      -882.044 8        49.936                                    20428466.789 7  83651452.18207      -687.306 7        43.257    20428466.984 8  83651460.18108      -687.301 8        49.644
R10        17.000    20859174.199 7 111191165.62907      2126.553 7        46.086
E02        19.000    23305673.760 8 122472331.81408     -1450.079 8        48.906                                                                    23305672.805 8  91456721.57208     -1082.901 8        50.916    23305672.238 8  93842534.11708     -1111.169 8        51.332
E10        21.000    28828304.356 5 151493978.91705     -3395.425 5        32.024                                                                    28828304.717 5 113128754.22105     -2535.779 5        34.843    28828304.479 6 116079924.11606     -2601.687 6        36.215
I06        22.000    38614774.766 6 151532886.88006      -325.174 6        41.771
S28        23.000    40808811.549 5 214451749.40705      -453.070 5        34.367
S23        25.000    38058932.152 7 200000975.99107      -460.274 7        45.187
S45        26.000    63316181.693 6 332730067.59606      -514.624 6        37.531
R09        27.000    19390548.966 8 103544658.20808     -1448.932 8        52.313                                                                    19390547.861 8  80534846.40508     -1126.979 8        48.557
R18        28.000    21257515.702 8 113474356.50808     -3631.995 8        48.281                                                                    21257515.841 7  88257984.52907     -2824.859 7        45.186
C38        29.000                                                                                                                                    38735579.139 7 201706445.01407     -1121.352 7        42.673                                                                    38735576.497 7 163903053.87907      -911.067 7        43.012
C44        30.000                                                                                                                                    23113978.298 7 120360774.58007     -2746.681 7        47.417                                                                    23113976.987 7  97803073.74507     -2231.705 7        46.565
C43        31.000                                                                                                                                    23807076.691 7 123969784.24907      1966.965 7        45.657                                                                    23807076.026 7 100735643.33307      1598.409 7        45.506
R02        32.000    23068483.650 7 123097867.09307      -896.967 7        44.027                                                                    23068484.487 6  95742792.35006      -697.559 6        41.015
I02        33.000    38742823.549 6 152035216.67006      -935.681 6        41.504
R03        34.000    22948478.090 7 122845029.27507      2194.205 7        46.167                                                                    22948478.369 6  95546133.31406      1706.585 6        41.547
E34        35.000    24695156.515 7 129774121.20707      1741.626 7        46.910                                                                    24695157.121 8  96909354.51208      1300.552 8        48.838    24695156.963 8  99437413.73308      1334.485 8        49.836
G29        36.000    22527891.833 7 118385168.58607     -3113.022 7        45.172                                    22527888.092 7  92248293.41707     -2425.732 7        42.000    22527888.566 6  92248303.41606     -2425.716 6        41.056
G31        37.000    23722018.445 7 124660261.18307     -3622.721 7        44.173                                    23722015.233 6  97137961.42806     -2822.900 6        37.622    23722015.211 6  97137967.43506     -2822.941 6        38.529
C22        38.000                                                                                                                                    24945610.551 7 129898358.99707       906.862 7        43.285                                                                    24945604.383 7 105553039.73107       736.899 7        43.295
E25        39.000    26526119.103 7 139395907.53407     -3338.490 7        42.034                                                                    26526120.538 7 104094475.69707     -2493.099 7        44.795    26526119.719 7 106809968.11707     -2558.106 7        44.880
C12        40.000                                                                                                                                    22012753.192 8 114626389.29908     -1744.467 8        48.313    22012748.665 8  88636493.00308     -1348.964 8        52.008    22012748.180 8  93143404.71808     -1417.451 8        49.552
S44        42.000    40408292.328 6 212347200.00306      -407.525 6        37.720
G28        43.000    25115377.263 6 131982332.08806     -3932.053 6        38.027                                    25115377.846 3 102843452.54103     -3063.920 3        19.791    25115378.415 6 102843452.51306     -3063.748 6        37.822
C05        44.000                                                                                                                                    39224757.620 6 204253631.14806      -388.366 6        38.655    39224752.945 7 157941886.14507      -300.252 7        43.244    39224754.326 6 165972908.16006      -315.384 6        39.931
C11        45.000                                                                                                                                    22232905.544 8 115772712.61708      1067.566 8        48.251    22232902.307 8  89522864.66508       825.488 8        51.592    22232901.174 8  94074851.16408       867.589 8        49.305
R16        46.000    22040210.607 7 117735043.43407     -4787.683 7        47.145                                                                    22040212.176 7  91571812.65107     -3723.761 7        44.041
C21        48.000                                                                                                                                    26205756.064 6 136460259.75606      2545.844 6        40.098                                                                    26205752.175 7 110885122.56207      2068.792 7        42.301
C24        49.000                                                                                                                                    24946580.669 7 129903451.11407     -3876.783 7        43.372                                                                    24946578.017 7 105557215.07407     -3150.025 7        43.748
R19        50.000    19338888.183 6 103450280.64606     -1300.185 6        40.875                                                                    19338887.715 7  80461443.27207     -1011.201 7        45.087
S48        51.000    77063587.935 6 404972130.78306      -496.619 6        38.012
C08        52.000                                                                                                                                    37632177.477 7 195960726.57307      -679.616 7        42.127    37632171.278 7 151529294.07507      -525.528 7        45.404    37632170.305 7 159234160.43707      -552.138 7        42.779
C34        53.000                                                                                                                                    21283225.802 8 110827623.92808      -142.975 8        50.693                                                                    21283225.395 8  90056639.43008      -116.071 8        49.483
C60        54.000                                                                                                                                    40408295.018 6 210416790.24406      -403.686 6        39.919                                                                    40408279.454 6 170980845.60306      -327.801 6        40.548
C25        55.000                                                                                                                                    22485320.635 8 117087212.39308     -1989.876 8        49.768                                                                    22485318.706 8  95143044.65808     -1616.841 8        48.662
I09        56.000    39919922.852 6 156654357.36906       462.849 6        41.058
C02        57.000                                                                                                                                    40571811.053 5 211268102.25505      -368.700 5        34.152    40571804.866 6 163365888.91106      -285.228 6        38.727    40571807.500 5 171672639.60605      -299.967 5        35.048
I03        58.000    83688015.078 6 252624488.27106      1112.173 6        40.925
E30        59.000    24867878.533 7 130681797.63007      1351.392 7        45.818                                                                    24867878.610 8  97587174.83508      1009.190 8        48.512    24867878.272 8 100132910.69608      1035.492 8        49.532
R20        60.000    21688299.817 6 115977269.19306      2601.519 6        38.339                                                                    21688302.030 7  90204607.21607      2023.389 7        43.716
> 2025 01 02 18 00 20.0000000  0 52
G23         1.000    22642590.276 7 118987685.72707      2671.279 7        43.822                                    22642587.690 5  92717697.33705      2081.521 5        31.177    22642587.178 7  92717695.34407      2081.462 7        43.321
E11         2.000    26069891.556 6 136998402.02806     -3025.790 6        38.949                                                                    26069888.143 6 102304126.21906     -2259.429 6        40.958    26069887.545 6 104972915.78806     -2318.531 6        41.306
G16         3.000    20964403.483 7 110168885.44807      1406.019 7        47.782                                    20964398.812 6  85845968.64606      1095.598 6        37.006
G05         4.000    23549574.510 6 123753950.35706     -2729.273 6        41.218                                    23549571.115 5  96431674.27805     -2126.708 5        34.814    23549571.331 6  96431673.27906     -2126.710 6        38.474
S21         5.000    38334180.692 7 201447176.24407      -457.812 7        42.580
G26         6.000    20428368.065 8 107352037.07508      -937.267 8        50.522                                    20428366.803 8  83651070.32608      -730.338 8        51.099    20428366.714 7  83651057.32507      -730.349 7        45.734
E36         9.000    23327442.475 8 122586730.52108      -899.410 8        48.437                                                                    23327443.025 8  91542182.86808      -671.574 8        51.065    23327442.401 8  93930227.05408      -689.106 8        51.326
G27        10.000    23068627.395 7 121226576.33807      2676.560 7        42.082                                    23068627.127 6  94462329.97006      2085.626 6        38.015    23068627.144 6  94462331.99206      2085.695 6        39.000
S27        12.000    39108353.609 5 205515904.83405      -434.275 5        35.419
C23        13.000                                                                                                                                    24136833.518 7 125686872.08507      1102.929 7        45.252                                                                    24136825.562 7 102130869.95007       896.184 7        46.294
S36        14.000    38104743.787 7 200242304.67407      -456.894 7        44.280
C13        15.000                                                                                                                                    37551507.217 7 195540611.37307      -417.078 7        44.424    37551508.939 7 151204438.38207      -322.599 7        45.238    37551507.234 7 158892786.68007      -338.988 7        43.431
G18        16.000    20429310.961 8 107356987.21608      -884.342 8        49.733                                    20429307.114 7  83654893.11807      -689.100 7        43.333    20429307.490 8  83654901.11408      -689.112 8        49.735
R10        17.000    20857181.550 7 111180540.17707      2123.540 7        46.349
E02        19.000    23307054.276 8 122479586.42308     -1451.763 8        48.778                                                                    23307053.274 8  91462138.97608     -1084.103 8        50.952    23307052.707 8  93848092.84308     -1112.414 8        51.280
E10        21.000    28831534.271 5 151510955.19705     -3395.120 5        31.796                                                                    28831535.051 5 113141431.32305     -2534.970 5        35.129    28831535.008 6 116092931.93106     -2601.311 6        36.809
I06        22.000    38615189.114 6 151534511.89706      -324.867 6        41.781
S28        23.000    40809244.094 5 214454013.93205      -452.696 5        34.414
S23        25.000    38059371.646 7 200003276.30007      -459.904 7        45.243
S45        26.000    63316617.331 6 332732638.60406      -513.845 6        37.580
R09        27.000    19391907.417 8 103551913.15008     -1453.033 8        52.213                                                                    19391906.597 8  80540489.13408     -1130.153 8        49.093
R18        28.000    21260918.480 8 113492517.54908     -3632.548 8        48.597                                                                    21260918.511 7  88272109.79007     -2825.339 7        44.957
C38        29.000                                                                                                                                    38736655.968 7 201712052.48107     -1121.743 7        42.559                                                                    38736653.437 7 163907610.40707      -911.488 7        42.682
C44        30.000                                                                                                                                    23116615.845 7 120374508.64307     -2747.000 7        47.286                                                                    23116614.523 7  97814233.80507     -2232.318 7        46.220
C43        31.000                                                                                                                                    23805188.094 7 123959950.69207      1966.439 7        45.455                                                                    23805187.648 7 100727652.77607      1597.786 7        45.339
R02        32.000    23069325.650 7 123102361.90807      -900.968 7        42.902                                                                    23069327.125 6  95746288.33106      -700.613 6        40.892
I02        33.000    38744015.507 6 152039894.23306      -935.265 6        41.402
R03        34.000    22946429.752 7 122834063.98007      2191.817 7        46.508                                                                    22946429.440 6  95537604.73106      1704.752 6        40.939
E34        35.000    24693500.022 7 129765415.72207      1740.533 7        46.930                                                                    24693500.460 8  96902853.67208      1299.807 8        48.906    24693500.371 8  99430743.30408      1333.592 8        49.685
G29        36.000    22530854.536 7 118400735.36507     -3113.721 7        44.858                                    22530850.341 7  92260423.37107     -2426.275 7        42.080    22530850.655 6  92260433.37006     -2426.241 6        41.035
G31        37.000    23725464.689 7 124678376.46507     -3623.382 7        44.087                                    23725462.331 6  97152077.22506     -2823.415 6        37.694    23725462.434 6  97152083.24306     -2823.521 6        38.718
C22        38.000                                                                                                                                    24944740.098 7 129893830.07307       904.724 7        42.965                                                                    24944734.694 7 105549359.61007       735.090 7        42.902
