     3.04           OBSERVATION DATA    M                   RINEX VERSION / TYPE
ssrcrin-15.6.1x                         20250102 183000 UTC PGM / RUN BY / DATE 
(00000000023479385599111004) Septentrio proprietary         COMMENT             
rref                                                        MARKER NAME         
01                                                          MARKER NUMBER       
geodetic                                                    MARKER TYPE         
NFB                 CLIMERS@TUW                             OBSERVER / AGENCY   
3297213             SEPT ASTERX SB3 PROB4.14.4              REC # / TYPE / VERS 
Unknown             Unknown                                 ANT # / TYPE        
  4127831.9153  1207193.2007  4695247.6879                  APPROX POSITION XYZ 
        0.0000        0.0000        0.0000                  ANTENNA: DELTA H/E/N
G   23 X1  C1C L1C D1C S1C C1W S1W C2W L2W D2W S2W C2L L2L  SYS / # / OBS TYPES 
       D2L S2L C5Q L5Q D5Q S5Q C1L L1L D1L S1L              SYS / # / OBS TYPES 
E   21 X1  C1C L1C D1C S1C C6C L6C D6C S6C C5Q L5Q D5Q S5Q  SYS / # / OBS TYPES 
       C7Q L7Q D7Q S7Q C8Q L8Q D8Q S8Q                      SYS / # / OBS TYPES 
S    9 X1  C1C L1C D1C S1C C5I L5I D5I S5I                  SYS / # / OBS TYPES 
R   17 X1  C1C L1C D1C S1C C2P L2P D2P S2P C2C L2C D2C S2C  SYS / # / OBS TYPES 
       C3Q L3Q D3Q S3Q                                      SYS / # / OBS TYPES 
C   25 X1  C1P L1P D1P S1P C5P L5P D5P S5P C2I L2I D2I S2I  SYS / # / OBS TYPES 
       C7I L7I D7I S7I C6I L6I D6I S6I C7D L7D D7D S7D      SYS / # / OBS TYPES 
J   17 X1  C1C L1C D1C S1C C2L L2L D2L S2L C5Q L5Q D5Q S5Q  SYS / # / OBS TYPES 
       C1L L1L D1L S1L                                      SYS / # / OBS TYPES 
I    5 X1  C5A L5A D5A S5A                                  SYS / # / OBS TYPES 
SEPTENTRIO RECEIVERS OUTPUT ALIGNED CARRIER PHASES.         COMMENT             
NO FURTHER PHASE SHIFT APPLIED IN THE RINEX ENCODER.        COMMENT             
G L1C                                                       SYS / PHASE SHIFT   
G L2W                                                       SYS / PHASE SHIFT   
G L2L  0.00000                                              SYS / PHASE SHIFT   
G L5Q  0.00000                                              SYS / PHASE SHIFT   
G L1L  0.00000                                              SYS / PHASE SHIFT   
E L1C  0.00000                                              SYS / PHASE SHIFT   
E L6C  0.00000                                              SYS / PHASE SHIFT   
E L5Q  0.00000                                              SYS / PHASE SHIFT   
E L7Q  0.00000                                              SYS / PHASE SHIFT   
E L8Q  0.00000                                              SYS / PHASE SHIFT   
S L1C                                                       SYS / PHASE SHIFT   
S L5I                                                       SYS / PHASE SHIFT   
R L1C                                                       SYS / PHASE SHIFT   
R L2P  0.00000                                              SYS / PHASE SHIFT   
R L2C                                                       SYS / PHASE SHIFT   
R L3Q  0.00000                                              SYS / PHASE SHIFT   
C L1P  0.00000                                              SYS / PHASE SHIFT   
C L5P  0.00000                                              SYS / PHASE SHIFT   
C L2I                                                       SYS / PHASE SHIFT   
C L7I                                                       SYS / PHASE SHIFT   
C L6I                                                       SYS / PHASE SHIFT   
C L7D                                                       SYS / PHASE SHIFT   
J L1C                                                       SYS / PHASE SHIFT   
J L2L  0.00000                                              SYS / PHASE SHIFT   
J L5Q  0.00000                                              SYS / PHASE SHIFT   
J L1L  0.00000                                              SYS / PHASE SHIFT   
I L5A                                                       SYS / PHASE SHIFT   
  2025     1     2    18    30    0.0000000     GPS         TIME OF FIRST OBS   
 C1C    0.000 C2C    0.000 C2P    0.000                     GLONASS COD/PHS/BIS 
DBHZ                                                        SIGNAL STRENGTH UNIT
    18                                                      LEAP SECONDS        
 24 R01  1 R02 -4 R03  5 R04  6 R05  1 R06 -4 R07  5 R08  6 GLONASS SLOT / FRQ #
    R09 -2 R10 -7 R11  0 R12 -1 R13 -2 R14 -7 R15  0 R16 -1 GLONASS SLOT / FRQ #
    R17  4 R18 -3 R19  3 R20  2 R21  4 R22 -3 R23  3 R24  2 GLONASS SLOT / FRQ #
                                                            END OF HEADER       
> 2025 01 02 18 30  0.0000000  0 60
G23         1.000    21850595.254 7 114825730.97607      1952.907 7        47.337                                    21850591.474 5  89474617.68605      1521.744 5        35.995    21850591.807 7  89474615.68507      1521.742 7        44.370
E11         2.000    27127414.483 6 142555720.98106     -3192.023 6        36.102                                                                    27127410.820 6 106454071.90506     -2383.688 6        38.535    27127410.565 6 109231120.95306     -2445.722 6        38.802
G16         3.000    20661366.834 8 108576423.00008       351.870 8        48.481                                    20661362.202 6  84605089.93406       274.187 6        40.133
G05         4.000    24624094.126 6 129400584.35406     -3561.845 6        38.423                                    24624091.047 5 100831647.85705     -2775.458 5        30.136    24624091.398 5 100831646.86005     -2775.543 5        35.814
S21         5.000    38489699.562 7 202264431.01707      -459.081 7        42.466
G26         6.000    20931715.400 8 109997147.10408     -2018.920 8        49.491                                    20931714.385 8  85712195.25608     -1573.187 8        50.278    20931714.771 7  85712182.24907     -1573.196 7        45.351
G10         7.000    24339776.373 6 127906432.02106      3162.120 6        40.238                                    24339776.710 6  99667359.82006      2463.987 6        36.008    24339776.383 6  99667353.83606      2463.912 6        38.655
E15         8.000    28349930.849 6 148979935.03006      2418.504 6        36.582                                                                    28349936.099 6 111251299.19306      1805.886 6        39.946    28349935.223 6 114153497.09306      1852.851 6        39.961
E36         9.000    23740420.985 7 124756948.02607     -1517.030 7        47.849                                                                    23740421.339 8  93162800.00008     -1132.820 8        50.545    23740421.125 8  95593121.13808     -1162.399 8        51.488
G27        10.000    22215212.088 7 116741864.97107      2341.173 7        44.679                                    22215210.670 7  90967754.17007      1824.291 7        43.464    22215211.304 6  90967756.16106      1824.301 6        41.285
G15        11.000    24753448.423 6 130080252.68306      1920.979 6        38.571                                    24753444.892 4 101361224.43504      1496.861 4        29.223    24753445.096 5 101361227.43305      1496.687 5        35.114
E19        12.000    28549121.195 4 150026642.64104     -1047.939 4        29.754                                                                    28549122.792 5 112032879.74505      -782.679 5        33.760    28549122.201 5 114955473.58305      -803.135 5        35.038
C23        13.000                                                                                                                                    23917536.554 7 124544939.82907       161.020 7        46.545                                                                    23917528.212 7 101202957.60307       130.723 7        47.546
S36        14.000    38260002.448 7 201058205.08807      -458.531 7        44.193
C13        15.000                                                                                                                                    37749573.215 7 196571991.82207      -733.321 7        44.880    37749574.267 7 152001967.51207      -567.094 7        45.145    37749572.582 7 159730868.05107      -595.971 7        43.644
G18        16.000    20884849.733 8 109750860.69108     -1777.456 8        48.168                                    20884845.989 6  85520249.19006     -1385.032 6        40.615    20884846.345 8  85520257.18708     -1385.011 8        48.228
R10        17.000    20373464.621 7 108602063.57607       719.043 7        47.380
E27        18.000    28257709.868 6 148495272.77106      2428.284 6        36.915                                                                    28257710.581 6 110889327.34706      1813.383 6        40.331    28257710.338 6 113782090.08706      1860.688 6        41.445
E02        19.000    23916576.926 8 125682648.49108     -2139.236 8        48.559                                                                    23916575.643 8  93854035.93808     -1597.484 8        50.217    23916575.129 8  96302387.12108     -1639.143 8        50.664
S27        20.000    39255464.170 6 206288844.11706      -432.661 6        36.231
R11        21.000    23832616.163 6 127354288.84506      3628.396 6        41.530                                                                    23832615.576 6  99053337.63106      2822.205 6        41.502
I06        22.000    38759732.482 6 152101737.23806      -311.395 6        41.764
S28        23.000    40962908.676 5 215261539.35705      -453.212 5        34.452
E04        24.000    28742683.804 5 151043813.93305      1140.513 5        33.323                                                                    28742683.529 6 112792459.38806       851.676 6        37.240    28742682.854 6 115734867.18306       873.879 6        37.539
S23        25.000    38215516.516 7 200823829.14907      -460.591 7        45.043
S45        26.000    63472380.875 6 333549864.09906      -513.664 6        37.561
R09        27.000    20131532.884 8 107501471.71008     -2942.861 8        51.187                                                                    20131531.934 7  83612367.93507     -2288.899 7        47.724
R18        28.000    22514669.049 7 120185121.87107     -3850.283 7        44.855                                                                    22514669.406 7  93477468.13607     -2994.568 7        42.387
C38        29.000                                                                                                                                    39163173.666 6 203933043.66306     -1362.352 6        41.955                                                                    39163171.551 7 165712347.82707     -1107.173 7        42.626
C44        30.000                                                                                                                                    24098625.854 7 125488089.34807     -2981.853 7        45.756                                                                    24098624.462 7 101969436.53207     -2423.049 7        44.643
C43        31.000                                                                                                                                    23192932.965 7 120771787.15107      1609.893 7        47.219                                                                    23192932.125 7  98137010.66107      1308.089 7        47.432
R02        32.000    23616620.831 7 126022829.17007     -2349.596 7        42.991                                                                    23616622.215 6  98017761.77206     -1827.430 6        40.334
I02        33.000    39175958.408 6 153734932.21506      -966.884 6        41.352
R03        34.000    22411858.025 7 119972469.25007       958.893 7        46.185                                                                    22411857.812 7  93311922.15507       745.724 7        42.999
E34        35.000    24194340.742 8 127142321.77208      1200.273 8        48.313                                                                    24194340.654 8  94944051.54408       896.326 8        50.053    24194340.473 8  97420841.77608       919.696 8        50.617
G29        36.000    23642419.340 7 124242042.89607     -3434.163 7        42.800                                    23642415.628 6  96812090.17406     -2675.966 6        37.282    23642415.828 6  96812100.17706     -2675.962 6        38.090
G31        37.000    24995447.991 6 131352169.95706     -3814.964 6        39.961                                    24995446.348 5 102352432.64105     -2972.695 5        31.834    24995446.873 6 102352438.61606     -2972.603 6        36.499
C22        38.000                                                                                                                                    24793626.188 7 129106946.12907       -43.103 7        43.092                                                                    24793620.479 7 104909953.02807       -35.082 7        44.635
E25        39.000    27699577.455 6 145562468.47506     -3548.018 6        38.610                                                                    27699579.182 6 108699373.71006     -2649.493 6        41.940    27699578.737 7 111534994.07207     -2718.622 7        42.739
C12        40.000                                                                                                                                    22687237.837 7 118138612.41207     -2172.779 7        46.153    22687234.602 8  91352366.65508     -1680.147 8        50.908    22687233.938 8  95997373.65708     -1765.625 8        49.142
R04        41.000    23484574.446 7 125758839.52407      3347.511 7        42.576                                                                    23484572.931 6  97812433.71806      2603.576 6        40.377
S44        42.000    40548510.458 6 213084064.35206      -417.211 6        37.081
G08        43.000    25216310.571 5 132512607.48705      2897.525 5        33.665                                    25216313.373 3 103256595.76203      2257.799 3        21.857    25216314.427 5 103256593.77605      2257.788 5        32.539
C05        44.000                                                                                                                                    39357966.496 6 204947287.56606      -387.983 6        38.568    39357961.164 7 158478266.00607      -299.943 7        42.521    39357963.059 6 166536561.40506      -315.204 6        40.279
C11        45.000                                                                                                                                    21955591.557 8 114328669.98908       551.428 8        48.018    21955588.009 8  88406240.22508       426.377 8        52.060    21955586.855 8  92901448.99108       448.061 8        49.366
R16        46.000    23706993.412 7 126638675.71507     -5114.512 7        44.539                                                                    23706995.087 6  98496855.40606     -3977.943 6        40.777
G07        47.000    25943087.296 6 136331848.64306      1534.367 6        39.432                                    25943084.115 4 106232593.76704      1195.609 4        28.777    25943084.285 5 106232601.78005      1195.302 5        34.819
C21        48.000                                                                                                                                    25375629.089 7 132137575.34307      2247.072 7        44.196                                                                    25375623.778 7 107372589.23907      1825.963 7        44.554
C24        49.000                                                                                                                                    26287816.057 5 136887598.04905     -3906.833 5        33.455                                                                    26287814.895 5 111232402.51205     -3174.723 5        35.971
R19        50.000    19918843.869 6 106552650.51906     -2136.542 6        40.708                                                                    19918842.186 7  82874397.74007     -1661.874 7        45.022
S48        51.000    77222818.573 6 405809567.93506      -497.786 6        37.497
C08        52.000                                                                                                                                    37923000.706 6 197475121.80306     -1007.116 6        41.557    37922994.277 7 152700320.78707      -778.749 7        45.260    37922993.790 7 160464730.83807      -818.456 7        42.337
C34        53.000                                                                                                                                    21431374.838 8 111599075.01608      -713.460 8        50.936                                                                    21431374.199 8  90683506.94108      -579.843 8        49.684
C60        54.000                                                                                                                                    40548515.206 6 211146955.85806      -413.265 6        39.742                                                                    40548499.767 6 171574165.57206      -335.988 6        40.541
C25        55.000                                                                                                                                    23310707.626 7 121385218.03507     -2790.512 7        47.760                                                                    23310705.944 7  98635526.06307     -2267.573 7        47.475
I09        56.000    39707128.721 7 155819315.25907       470.107 7        42.180
C02        57.000                                                                                                                                    40699338.008 5 211932177.22505      -374.449 5        33.000    40699332.430 6 163879394.92006      -289.601 6        38.559    40699336.114 5 172212255.79605      -304.434 5        35.857
I03        58.000    83182988.835 6 250642661.99006      1108.585 6        39.907
E30        59.000    24504835.985 7 128774000.00507       760.955 7        47.546                                                                    24504835.678 8  96162522.13208       568.207 8        49.833    24504835.287 8  98671092.97908       583.034 8        50.624
R20        60.000    20930491.653 6 111924945.92906      1925.680 6        40.102                                                                    20930493.764 7  87052803.37307      1497.791 7        45.341
> 2025 01 02 18 30  5.0000000  0 60
G23         1.000    21848738.845 7 114815973.51007      1950.167 7        46.782                                    21848734.678 5  89467014.46305      1519.610 5        35.767    21848735.065 7  89467012.46707      1519.554 7        44.460
E11         2.000    27130451.657 6 142571682.78806     -3192.278 6        36.129                                                                    27130448.387 6 106465991.45806     -2384.141 6        38.237    27130448.247 6 109243351.45106     -2446.184 6        38.754
G16         3.000    20661033.726 8 108574672.45108       348.368 8        48.641                                    20661029.084 6  84603725.87406       271.456 6        40.043
G05         4.000    24627484.371 6 129418398.71906     -3563.914 6        38.411                                    24627481.119 5 100845529.16505     -2777.070 5        30.083    24627481.974 6 100845528.15206     -2776.934 6        36.253
S21         5.000    38490135.697 7 202266727.10907      -459.207 7        42.375
G26         6.000    20933637.882 8 110007249.55708     -2022.063 8        49.493                                    20933636.812 8  85720067.29608     -1575.636 8        50.137    20933637.049 7  85720054.29607     -1575.652 7        45.365
G10         7.000    24336768.374 6 127890623.15006      3161.548 6        40.560                                    24336768.399 5  99655041.23505      2463.545 5        35.767    24336768.308 6  99655035.24006      2463.455 6        38.592
E15         8.000    28347629.727 6 148967845.23606      2417.725 6        36.745                                                                    28347635.294 6 111242271.16006      1805.408 6        40.079    28347634.312 6 114144233.54206      1852.341 6        39.838
E36         9.000    23741865.294 7 124764537.77007     -1518.901 7        47.874                                                                    23741865.597 8  93168467.66608     -1134.217 8        50.652    23741865.396 8  95598936.65908     -1163.801 8        51.465
G27        10.000    22212984.969 7 116730162.70007      2339.799 7        44.396                                    22212983.798 7  90958635.52207      1823.216 7        43.333    22212984.370 7  90958637.53307      1823.195 7        42.006
G15        11.000    24751621.347 6 130070653.49406      1918.854 6        39.066                                    24751618.310 4 101353744.55404      1495.207 4        29.678    24751619.264 5 101353747.56805      1495.206 5        35.881
E19        12.000    28550119.807 4 150031888.75404     -1050.367 4        28.796                                                                    28550121.354 5 112036797.31505      -784.464 5        32.719    28550120.441 5 114959493.35805      -805.241 5        33.934
C23        13.000                                                                                                                                    23917383.290 7 124544142.71107       157.907 7        46.661                                                                    23917375.149 7 101202309.86507       128.306 7        47.707
S36        14.000    38260437.962 7 201060497.77107      -458.724 7        44.087
C13        15.000                                                                                                                                    37750277.789 7 196575661.17107      -734.457 7        44.948    37750278.901 7 152004804.88607      -567.945 7        45.225    37750277.255 7 159733849.67807      -596.900 7        43.625
G18        16.000    20886542.187 8 109759754.38708     -1779.982 8        48.186                                    20886538.409 6  85527179.33806     -1386.999 6        40.436    20886538.650 8  85527187.34208     -1387.018 8        48.350
R10        17.000    20372792.368 7 108598480.04707       714.438 7        47.340
E27        18.000    28255399.585 6 148483132.14906      2427.971 6        37.002                                                                    28255400.469 6 110880261.31606      1813.003 6        40.622    28255400.012 6 113772787.56406      1860.286 6        41.342
E02        19.000    23918613.301 8 125693350.16108     -2141.406 8        48.540                                                                    23918612.103 8  93862027.44308     -1599.074 8        50.324    23918611.637 8  96310587.10108     -1640.761 8        50.622
S27        20.000    39255877.602 6 206291008.91606      -433.122 6        36.276
R11        21.000    23829221.615 6 127336150.91006      3626.664 6        41.547                                                                    23829221.281 6  99039230.34306      2820.842 6        41.747
I06        22.000    38760129.651 6 152103294.90106      -311.639 6        41.843
S28        23.000    40963343.277 5 215263805.75105      -453.364 5        34.167
E04        24.000    28741600.072 5 151038117.03205      1138.471 5        32.916                                                                    28741599.196 6 112788205.20506       850.080 6        37.577    28741598.817 6 115730502.01306       872.399 6        37.686
S23        25.000    38215955.057 7 200826133.10807      -460.961 7        45.050
S45        26.000    63472818.030 6 333552433.51006      -514.002 6        37.747
R09        27.000    20134290.719 8 107516196.41308     -2946.993 8        51.877                                                                    20134289.633 8  83623820.47408     -2292.017 8        48.295
R18        28.000    22518274.811 7 120204374.88607     -3850.867 7        44.439                                                                    22518276.260 7  93492442.71507     -2995.155 7        42.808
C38        29.000                                                                                                                                    39164482.300 7 203939858.08807     -1363.407 7        42.004                                                                    39164480.076 7 165717885.08607     -1107.903 7        42.686
C44        30.000                                                                                                                                    24101489.590 7 125503000.97207     -2982.714 7        45.853                                                                    24101488.167 7 101981553.44107     -2423.794 7        44.780
C43        31.000                                                                                                                                    23191387.695 7 120763741.14107      1608.609 7        47.319                                                                    23191386.997 7  98130472.62007      1306.986 7        47.635
R02        32.000    23618823.451 6 126034587.23606     -2353.595 6        41.950                                                                    23618825.321 6  98026906.95506     -1830.554 6        40.293
I02        33.000    39177190.343 6 153739767.72706      -967.287 6        41.244
R03        34.000    22410964.548 7 119967685.79507       954.570 7        46.620                                                                    22410963.246 7  93308201.66507       742.568 7        42.936
E34        35.000    24193199.563 8 127136325.15108      1198.407 8        48.370                                                                    24193199.583 8  94939573.55708       894.961 8        50.217    24193199.378 8  97416246.96808       918.290 8        50.606
G29        36.000    23645687.378 7 124259216.70507     -3435.227 7        43.257                                    23645683.566 6  96825472.35506     -2676.801 6        37.323    23645684.253 6  96825482.36206     -2676.760 6        38.420
G31        37.000    24999077.788 6 131371245.16806     -3815.128 6        40.625                                    24999076.237 5 102367296.42805     -2972.825 5        31.992    24999076.499 6 102367302.42006     -2972.970 6        36.363
C22        38.000                                                                                                                                    24793669.711 7 129107169.48607       -46.206 7        43.706                                                                    24793663.271 7 104910134.51807       -37.659 7        44.671
E25        39.000    27702953.898 6 145580210.25706     -3548.685 6        38.670                                                                    27702955.278 7 108712622.42307     -2649.845 7        42.008    27702954.972 7 111548588.41207     -2719.129 7        42.658
C12        40.000                                                                                                                                    22689324.521 7 118149479.67407     -2174.096 7        46.213    22689321.216 8  91360769.91908     -1681.140 8        50.462    22689320.854 8  96006204.19108     -1766.659 8        49.215
R04        41.000    23481448.606 6 125742105.36806      3346.194 6        41.940                                                                    23481448.486 6  97799418.28106      2602.581 6        40.100
S44        42.000    40548909.922 6 213086151.36006      -417.645 6        37.032
G08        43.000    25213553.568 5 132498121.11605      2897.196 5        34.490                                    25213556.747 3 103245307.72103      2257.560 3        22.362    25213557.864 5 103245305.74105      2257.452 5        33.018
C05        44.000                                                                                                                                    39358339.175 6 204949228.14206      -388.282 6        38.495    39358333.529 7 158479766.59607      -300.280 7        42.601    39358335.671 6 166538138.27806      -315.446 6        40.265
C11        45.000                                                                                                                                    21955062.285 7 114325917.31307       549.712 7        47.933    21955059.370 8  88404111.68408       425.087 8        51.970    21955058.219 8  92899212.20508       446.596 8        49.471
R16        46.000    23711780.163 7 126664249.93007     -5115.096 7        44.557                                                                    23711782.783 6  98516746.45806     -3978.528 6        41.001
G07        47.000    25941628.633 6 136324183.54006      1531.698 6        39.189                                    25941625.686 4 106226620.93604      1193.540 4        28.502    25941626.638 5 106226628.92605      1193.380 5        35.490
C21        48.000                                                                                                                                    25373471.245 7 132126343.88607      2245.554 7        43.968                                                                    25373466.703 7 107363462.75807      1824.541 7        44.510
C24        49.000                                                                                                                                    26291567.002 5 136907132.92805     -3906.918 5        33.210                                                                    26291566.643 6 111248276.16206     -3174.897 6        36.325
R19        50.000    19920841.963 6 106563339.69806     -2138.993 6        40.839                                                                    19920840.626 7  82882711.54307     -1663.663 7        45.272
S48        51.000    77223267.086 6 405812058.06606      -498.125 6        38.123
C08        52.000                                                                                                                                    37923968.423 6 197480160.65306     -1008.334 6        41.614    37923961.882 7 152704217.14807      -779.625 7        45.273    37923961.355 7 160468825.31707      -819.351 7        42.406
C34        53.000                                                                                                                                    21432060.748 8 111602647.04808      -715.247 8        51.098                                                                    21432060.159 8  90686409.50208      -581.331 8        49.860
C60        54.000                                                                                                                                    40548912.500 6 211149023.90506      -413.801 6        39.841                                                                    40548896.811 6 171575846.00606      -336.253 6        40.758
C25        55.000                                                                                                                                    23313388.417 8 121399176.23808     -2792.695 8        48.313                                                                    23313386.426 7  98646868.25107     -2269.386 7        47.680
I09        56.000    39706530.000 7 155816965.03807       469.997 7        42.246
C02        57.000                                                                                                                                    40699697.692 5 211934050.33805      -374.695 5        33.485    40699691.733 6 163880843.33306      -289.805 6        38.483    40699695.699 5 172213777.83905      -304.559 5        35.833
I03        58.000    83181576.316 6 250637119.28606      1108.472 6        39.769
E30        59.000    24504113.065 7 128770200.88507       758.814 7        47.589                                                                    24504112.725 8  96159685.13208       566.631 8        49.935    24504112.337 8  98668181.97008       581.435 8        50.634
R20        60.000    20928691.576 6 111915322.96806      1923.369 6        40.193                                                                    20928694.363 7  87045318.86407      1496.041 7        45.711
> 2025 01 02 18 30 10.0000000  0 60
G23         1.000    21846883.776 7 114806228.20607      1948.003 7        46.948                                    21846880.117 5  89459420.72205      1517.919 5        35.638    21846880.553 7  89459418.71707      1517.887 7        44.354
E11         2.000    27133489.302 5 142587645.86505     -3192.470 5        35.810                                                                    27133486.123 6 106477911.91306     -2384.129 6        38.577    27133486.098 6 109255582.88506     -2446.255 6        39.018
G16         3.000    20660703.808 8 108572937.84808       345.551 8        48.761                                    20660698.989 6  84602374.23306       269.262 6        40.005
G05         4.000    24630876.727 6 129436222.50706     -3565.618 6        38.453                                    24630872.988 5 100859417.82205     -2778.401 5        30.385    24630873.333 6 100859416.81606     -2778.354 6        36.476
S21         5.000    38490573.236 7 202269022.95607      -458.994 7        42.510
G26         6.000    20935562.840 8 110017366.31008     -2024.581 8        49.576                                    20935561.939 8  85727950.47608     -1577.593 8        50.104    20935562.031 7  85727937.48107     -1577.634 7        45.368
G10         7.000    24333760.525 6 127874816.14006      3161.378 6        40.894                                    24333760.401 5  99642724.10005      2463.408 5        35.886    24333760.547 6  99642718.10306      2463.368 6        38.835
E15         8.000    28345329.238 6 148955757.47406      2417.577 6        36.684                                                                    28345335.253 6 111233244.64806      1805.157 6        40.184    28345334.071 6 114134971.52906      1852.427 6        39.943
E36         9.000    23743311.113 7 124772135.15007     -1520.003 7        47.582                                                                    23743311.339 8  93174141.04208     -1135.089 8        50.730    23743311.150 8  95604758.03408     -1164.747 8        51.473
G27        10.000    22210759.347 7 116718466.04507      2338.780 7        44.564                                    22210757.972 7  90949521.25107      1822.426 7        43.285    22210758.373 7  90949523.25107      1822.566 7        42.218
G15        11.000    24749796.654 6 130061063.36506      1917.280 6        39.526                                    24749793.494 5 101346271.74805      1493.986 5        30.136    24749794.101 6 101346274.74806      1493.967 6        36.265
E19        12.000    28551120.489 4 150037146.24404     -1052.527 4        28.550                                                                    28551121.492 5 112040723.32905      -786.252 5        32.659    28551120.902 5 114963521.76605      -806.438 5        34.048
C23        13.000                                                                                                                                    23917232.849 7 124543359.43407       155.502 7        46.736                                                                    23917224.716 7 101201673.39807       126.265 7        47.802
S36        14.000    38260874.513 7 201062790.46807      -458.495 7        44.066
C13        15.000                                                                                                                                    37750983.073 7 196579334.49207      -734.880 7        45.034    37750984.242 7 152007645.33607      -568.278 7        45.117    37750982.601 7 159736834.55807      -597.342 7        43.843
G18        16.000    20888236.726 8 109768659.31008     -1781.917 8        48.295                                    20888232.970 6  85534118.24006     -1388.506 6        40.477    20888233.411 8  85534126.24108     -1388.497 8        48.611
R10        17.000    20372123.603 7 108594918.25607       710.328 7        46.750
E27        18.000    28253089.903 6 148470993.36406      2427.951 6        37.331                                                                    28253090.726 6 110871196.63906      1812.871 6        40.725    28253090.065 6 113763486.40506      1860.251 6        41.132
E02        19.000    23920651.531 8 125704061.01408     -2142.932 8        48.332                                                                    23920650.299 8  93870025.81008     -1600.237 8        50.368    23920649.865 8  96318794.12008     -1641.980 8        50.604
S27        20.000    39256289.609 6 206293173.35606      -432.637 6        36.321
R11        21.000    23825828.763 7 127318020.06107      3625.707 7        42.265                                                                    23825828.002 6  99025128.56306      2819.909 6        41.774
I06        22.000    38760526.302 6 152104852.28606      -311.285 6        41.816
S28        23.000    40963775.415 5 215266072.14805      -453.089 5        33.880
E04        24.000    28740517.263 5 151032428.61605      1136.870 5        33.665                                                                    28740516.821 6 112783957.39806       849.055 6        37.448    28740516.386 6 115726143.39006       871.258 6        37.535
S23        25.000    38216394.349 7 200828436.85807      -460.581 7        44.956
S45        26.000    63473251.916 6 333555002.84806      -513.652 6        37.694
R09        27.000    20137051.751 8 107530939.83808     -2950.405 8        51.593                                                                    20137050.303 8  83635287.58408     -2294.750 8        48.351
R18        28.000    22521881.425 7 120223629.40807     -3850.856 7        43.591                                                                    22521883.059 7  93507418.44007     -2995.163 7        42.701
C38        29.000                                                                                                                                    39165791.637 6 203946675.33206     -1363.548 6        41.866                                                                    39165789.368 7 165723424.63907     -1108.099 7        42.944
C44        30.000                                                                                                                                    24104353.670 7 125517915.17207     -2982.949 7        45.539                                                                    24104352.262 7 101993672.43707     -2423.959 7        44.954
C43        31.000                                                                                                                                    23189843.705 7 120755700.33707      1607.800 7        47.411                                                                    23189842.833 7  98123938.79707      1306.394 7        47.823
R02        32.000    23621031.588 7 126046363.97007     -2356.938 7        43.137                                                                    23621032.691 6  98036066.64106     -1833.198 6        40.987
I02        33.000    39178422.581 6 153744603.86306      -967.173 6        41.185
R03        34.000    22410074.620 7 119962921.85007       950.911 7        45.860                                                                    22410073.851 7  93304496.38407       739.615 7        42.747
E34        35.000    24192059.706 8 127130336.27408      1197.176 8        48.262                                                                    24192059.987 8  94935101.34708       894.005 8        50.321    24192059.698 8  97411658.09408       917.303 8        50.623
G29        36.000    23648955.882 7 124276394.29107     -3435.604 7        43.342                                    23648952.336 6  96838857.48906     -2677.094 6        37.550    23648953.258 6  96838867.49406     -2677.111 6        38.646
G31        37.000    25002708.438 6 131390320.48106     -3814.739 6        41.306                                    25002706.099 5 102382160.29605     -2972.523 5        32.371    25002705.318 5 102382166.29805     -2972.647 5        35.771
C22        38.000                                                                                                                                    24793715.473 7 129107406.89107       -48.704 7        44.102                                                                    24793708.969 7 104910327.42707       -39.653 7        44.704
E25        39.000    27706330.355 6 145597953.88506     -3548.814 6        38.432                                                                    27706331.776 7 108725872.55307     -2650.076 7        42.100    27706331.459 7 111562184.17707     -2719.111 7        42.756
C12        40.000                                                                                                                                    22691413.015 7 118160352.12307     -2174.793 7        46.503    22691409.204 8  91369177.18808     -1681.754 8        50.523    22691408.771 8  96015038.94308     -1767.292 8        49.330
R04        41.000    23478324.620 7 125725377.00407      3345.199 7        42.303                                                                    23478324.020 6  97786407.32106      2601.884 6        40.412
S44        42.000    40549305.625 6 213088238.38906      -417.297 6        37.100
G08        43.000    25210796.287 5 132483634.76905      2897.351 5        34.090                                    25210800.198 3 103234019.69903      2257.663 3        22.533    25210800.106 5 103234017.74405      2257.626 5        32.617
C05        44.000                                                                                                                                    39358711.428 6 204951168.59406      -387.892 6        38.544    39358706.190 7 158481267.07807      -299.968 7        42.665    39358708.394 6 166539715.05806      -315.306 6        40.369
C11        45.000                                                                                                                                    21954534.413 7 114323171.75707       548.581 7        47.866    21954532.150 8  88401988.64408       424.219 8        51.908    21954531.001 8  92896981.21408       445.721 8        49.575
R16        46.000    23716568.537 7 126689825.64807     -5115.115 7        44.372                                                                    23716570.439 6  98536638.64706     -3978.361 6        41.349
G07        47.000    25940171.702 6 136316528.84206      1530.178 6        38.742                                    25940169.087 4 106220656.22504      1192.354 4        28.872    25940169.842 5 106220664.22905      1192.220 5        35.557
C21        48.000                                                                                                                                    25371314.810 7 132115118.69807      2244.555 7        43.537                                                                    25371311.125 7 107354341.35407      1823.960 7        44.638
C24        49.000                                                                                                                                    26295318.904 5 136926666.37405     -3906.569 5        32.659                                                                    26295317.796 6 111264148.66106     -3174.223 6        36.026
R19        50.000    19922842.325 6 106574038.76906     -2140.623 6        41.006                                                                    19922841.184 7  82891033.04007     -1664.888 7        44.755
S48        51.000    77223711.167 6 405814547.83106      -497.644 6        37.728
C08        52.000                                                                                                                                    37924936.706 6 197485203.52606     -1008.754 6        41.874    37924930.623 7 152708116.60907      -780.014 7        45.231    37924929.755 7 160472923.03607      -819.687 7        42.677
C34        53.000                                                                                                                                    21432748.017 8 111606226.66308      -716.574 8        51.169                                                                    21432747.589 8  90689318.22108      -582.316 8        49.994
C60        54.000                                                                                                                                    40549309.634 6 211151091.95906      -413.375 6        39.754                                                                    40549293.967 6 171577526.47506      -336.040 6        40.749
C25        55.000                                                                                                                                    23316070.913 7 121413144.02107     -2794.328 7        47.871                                                                    23316068.757 7  98658218.19907     -2270.703 7        47.773
I09        56.000    39705931.014 7 155814614.75707       470.250 7        42.157
C02        57.000                                                                                                                                    40700057.626 5 211935923.43805      -374.380 5        33.509    40700051.820 6 163882291.71206      -289.347 6        38.486    40700055.428 5 172215299.87305      -304.513 5        35.876
I03        58.000    83180163.661 6 250631576.56606      1108.812 6        39.661
E30        59.000    24503391.875 7 128766411.01907       757.174 7        47.276                                                                    24503391.514 8  96156855.04108       565.440 8        50.013    24503391.129 8  98665278.04508       580.207 8        50.658
R20        60.000    20926894.514 6 111905709.93006      1921.774 6        40.269                                                                    20926896.363 7  87037842.04807      1494.751 7        45.682
> 2025 01 02 18 30 15.0000000  0 60
G23         1.000    21845032.028 7 114796495.39907      1945.191 7        47.339                                    21845028.007 5  89451836.72105      1515.735 5        35.829    21845028.453 7  89451834.72407      1515.792 7        44.635
E11         2.000    27136527.204 6 142603610.41506     -3193.222 6        36.015                                                                    27136523.956 6 106489833.50106     -2384.500 6        38.571    27136524.299 6 109267815.45406     -2446.654 6        39.285
G16         3.000    20660376.867 8 108571219.54008       341.886 8        48.741                                    20660372.015 6  84601035.29206       266.404 6        40.105
G05         4.000    24634270.103 6 129454055.82606     -3567.641 6        38.405                                    24634266.649 5 100873313.89605     -2779.976 5        30.604    24634267.193 6 100873312.89706     -2779.972 6        36.420
S21         5.000    38491008.415 7 202271318.85107      -459.317 7        42.337
G26         6.000    20937491.137 8 110027497.69308     -2027.895 8        49.553                                    20937489.848 8  85735845.06208     -1580.181 8        50.198    20937490.041 7  85735832.06207     -1580.191 7        45.324
G10         7.000    24330753.222 6 127859011.36306      3160.642 6        40.815                                    24330752.873 6  99630408.70606      2462.833 6        36.204    24330752.679 6  99630402.69806      2462.985 6        39.207
E15         8.000    28343030.071 6 148943672.07206      2416.765 6        37.304                                                                    28343035.492 6 111224219.89006      1804.640 6        40.274    28343034.253 6 114125711.33706      1851.816 6        39.811
E36         9.000    23744758.290 7 124779740.50307     -1521.955 7        47.743                                                                    23744758.531 8  93179820.36708     -1136.477 8        50.770    23744758.352 8  95610585.51408     -1166.142 8        51.416
G27        10.000    22208534.412 7 116706775.27407      2337.561 7        44.492                                    22208533.281 7  90940411.56707      1821.472 7        43.424    22208533.555 7  90940413.57407      1821.472 7        42.064
G15        11.000    24747973.697 6 130051482.65706      1915.150 6        39.312                                    24747970.374 5 101338806.26305      1492.322 5        30.460    24747970.772 5 101338809.27005      1492.256 5        35.838
E19        12.000    28552122.649 4 150042415.53004     -1055.674 4        28.076                                                                    28552124.107 5 112044658.32505      -788.051 5        33.024    28552123.759 5 114967559.38905      -808.165 5        33.892
C23        13.000                                                                                                                                    23917085.112 7 124542590.34507       152.299 7        46.582                                                                    23917077.031 7 101201048.46607       123.716 7        47.635
S36        14.000    38261310.653 7 201065083.18107      -458.532 7        44.032
C13        15.000                                                                                                                                    37751689.566 7 196583012.25607      -736.074 7        44.993    37751690.446 7 152010489.21207      -569.245 7        45.074    37751688.913 7 159739823.05307      -598.145 7        43.733
G18        16.000    20889933.561 8 109777575.78708     -1784.532 8        48.115                                    20889929.736 6  85541066.14406     -1390.543 6        40.596    20889929.897 8  85541074.14308     -1390.538 8        48.430
R10        17.000    20371459.585 7 108591378.57107       705.583 7        46.868
E27        18.000    28250780.393 6 148458856.68206      2427.005 6        37.013                                                                    28250781.144 6 110862133.54906      1812.422 6        40.934    28250780.397 6 113754186.88006      1859.589 6        41.094
E02        19.000    23922691.599 8 125714781.37908     -2145.154 8        48.254                                                                    23922690.318 8  93878031.27708     -1601.926 8        50.404    23922689.857 8  96327008.41908     -1643.654 8        50.593
S27        20.000    39256700.323 6 206295338.04706      -433.157 6        36.163
R11        21.000    23822437.424 7 127299896.72507      3623.783 7        42.419                                                                    23822436.051 6  99011032.64206      2818.504 6        41.783
I06        22.000    38760923.202 6 152106409.63106      -311.570 6        41.731
S28        23.000    40964203.313 5 215268338.43005      -453.183 5        34.476
E04        24.000    28739436.501 5 151026749.11705      1134.843 5        34.005                                                                    28739435.957 6 112779716.22206       847.429 6        37.285    28739435.610 6 115721791.57706       869.531 6        37.406
S23        25.000    38216831.705 7 200830740.70107      -460.843 7        45.126
S45        26.000    63473691.650 6 333557572.39506      -514.113 6        37.584
R09        27.000    20139816.271 8 107545702.50408     -2954.549 8        51.578                                                                    20139815.143 8  83646769.65908     -2298.043 8        48.261
R18        28.000    22525489.416 7 120242885.82407     -3851.534 7        44.242                                                                    22525490.380 7  93522395.65207     -2995.685 7        42.836
C38        29.000                                                                                                                                    39167101.589 6 203953495.73406     -1364.574 6        41.521                                                                    39167099.212 7 165728966.77607     -1108.642 7        42.783
C44        30.000                                                                                                                                    24107218.047 7 125532832.26307     -2983.831 7        45.216                                                                    24107216.969 7 102005793.79307     -2424.616 7        44.865
C43        31.000                                                                                                                                    23188300.264 7 120747665.04507      1606.376 7        47.117                                                                    23188299.738 7  98117409.48007      1305.354 7        47.726
R02        32.000    23623242.051 7 126058159.81907     -2361.195 7        42.645                                                                    23623243.340 6  98045241.17206     -1836.616 6        40.474
I02        33.000    39179655.424 6 153749440.48106      -967.477 6        41.449
R03        34.000    22409188.684 7 119958178.36207       946.587 7        46.239                                                                    22409187.799 7  93300807.01707       736.268 7        42.540
E34        35.000    24190921.616 8 127124355.47108      1195.289 8        48.296                                                                    24190921.915 8  94930635.16508       892.546 8        50.277    24190921.616 8  97407075.40308       915.845 8        50.616
G29        36.000    23652225.709 7 124293576.02007     -3436.823 7        42.548                                    23652221.946 6  96852245.84006     -2678.042 6        37.633    23652223.220 6  96852255.83006     -2678.054 6        39.192
G31        37.000    25006338.555 6 131409396.22506     -3815.250 6        41.156                                    25006335.947 5 102397024.49005     -2972.922 5        32.335    25006335.757 5 102397030.51505     -2972.908 5        35.343
C22        38.000                                                                                                                                    24793763.409 7 129107658.70307       -51.987 7        44.071                                                                    24793757.387 7 104910532.05807       -42.175 7        44.617
E25        39.000    27709707.159 6 145615699.71006     -3549.344 6        38.231                                                                    27709708.786 7 108739124.29507     -2650.659 7        42.125    27709708.335 7 111575781.62407     -2719.662 7        42.599
C12        40.000                                                                                                                                    22693502.582 7 118171230.09807     -2176.253 7        46.502    22693498.769 8  91377588.72308     -1682.820 8        50.671    22693497.760 8  96023878.19608     -1768.378 8        49.227
R04        41.000    23475201.789 7 125708654.81907      3343.790 7        42.282                                                                    23475201.507 6  97773401.17906      2600.708 6        40.513
S44        42.000    40549705.272 6 213090325.76406      -417.460 6        37.304
G08        43.000    25208039.742 5 132469148.87905      2896.970 5        34.605                                    25208043.760 3 103222732.04403      2257.355 3        22.914    25208045.250 5 103222730.08705      2257.450 5        32.575
C05        44.000                                                                                                                                    39359084.339 6 204953109.24906      -388.151 6        38.336    39359079.002 7 158482767.72307      -300.271 7        42.652    39359081.077 6 166541292.00906      -315.468 6        40.431
C11        45.000                                                                                                                                    21954008.785 7 114320433.65207       546.758 7        47.900    21954006.336 8  88399871.36908       422.831 8        51.971    21954005.147 8  92894756.29208       444.294 8        49.519
R16        46.000    23721356.231 7 126715403.01707     -5115.758 7        44.169                                                                    23721358.722 6  98556532.13106     -3978.826 6        41.588
G07        47.000    25938717.257 6 136308884.87206      1527.503 6        37.966                                    25938714.539 4 106214699.87904      1190.260 4        28.758    25938714.821 5 106214707.85605      1190.423 5        35.429
C21        48.000                                                                                                                                    25369160.265 7 132103900.06307      2242.978 7        42.889                                                                    25369156.959 7 107345225.32307      1822.554 7        44.667
C24        49.000                                                                                                                                    26299069.772 5 136946198.78405     -3906.234 5        32.126                                                                    26299068.719 5 111280020.33305     -3174.453 5        35.938
R19        50.000    19924843.494 6 106584748.17706     -2143.038 6        40.489                                                                    19924842.688 7  82899362.58107     -1666.778 7        44.674
S48        51.000    77224157.904 6 405817037.96606      -498.142 6        37.958
C08        52.000                                                                                                                                    37925906.166 6 197490250.84006     -1009.983 6        41.776    37925899.993 7 152712019.52907      -781.002 7        45.285    37925899.013 7 160477024.41407      -820.742 7        42.415
C34        53.000                                                                                                                                    21433437.063 8 111609814.17108      -718.381 8        51.064                                                                    21433436.512 8  90692233.37908      -583.758 8        49.896
C60        54.000                                                                                                                                    40549706.262 6 211153160.37506      -413.889 6        39.748                                                                    40549691.239 6 171579207.24806      -336.341 6        40.729
C25        55.000                                                                                                                                    23318754.416 7 121427121.67207     -2796.607 7        47.413                                                                    23318752.970 7  98669576.18807     -2272.504 7        47.584
I09        56.000    39705332.072 7 155812264.68007       469.937 7        42.415
