     3.04           OBSERVATION DATA    M                   RINEX VERSION / TYPE
ssrcrin-15.6.1x                         20250102 021500 UTC PGM / RUN BY / DATE 
(00000000023479385599111004) Septentrio proprietary         COMMENT             
rref                                                        MARKER NAME         
01                                                          MARKER NUMBER       
geodetic                                                    MARKER TYPE         
NFB                 CLIMERS@TUW                             OBSERVER / AGENCY   
3297213             SEPT ASTERX SB3 PROB4.14.4              REC # / TYPE / VERS 
Unknown             Unknown                                 ANT # / TYPE        
  4127832.1585  1207193.1867  4695247.8565                  APPROX POSITION XYZ 
        0.0000        0.0000        0.0000                  ANTENNA: DELTA H/E/N
G   23 X1  C1C L1C D1C S1C C1W S1W C2W L2W D2W S2W C2L L2L  SYS / # / OBS TYPES 
       D2L S2L C5Q L5Q D5Q S5Q C1L L1L D1L S1L              SYS / # / OBS TYPES 
E   21 X1  C1C L1C D1C S1C C6C L6C D6C S6C C5Q L5Q D5Q S5Q  SYS / # / OBS TYPES 
       C7Q L7Q D7Q S7Q C8Q L8Q D8Q S8Q                      SYS / # / OBS TYPES 
S    9 X1  C1C L1C D1C S1C C5I L5I D5I S5I                  SYS / # / OBS TYPES 
R   17 X1  C1C L1C D1C S1C C2P L2P D2P S2P C2C L2C D2C S2C  SYS / # / OBS TYPES 
       C3Q L3Q D3Q S3Q                                      SYS / # / OBS TYPES 
C   25 X1  C1P L1P D1P S1P C5P L5P D5P S5P C2I L2I D2I S2I  SYS / # / OBS TYPES 
       C7I L7I D7I S7I C6I L6I D6I S6I C7D L7D D7D S7D      SYS / # / OBS TYPES 
J   17 X1  C1C L1C D1C S1C C2L L2L D2L S2L C5Q L5Q D5Q S5Q  SYS / # / OBS TYPES 
       C1L L1L D1L S1L                                      SYS / # / OBS TYPES 
I    5 X1  C5A L5A D5A S5A                                  SYS / # / OBS TYPES 
SEPTENTRIO RECEIVERS OUTPUT ALIGNED CARRIER PHASES.         COMMENT             
NO FURTHER PHASE SHIFT APPLIED IN THE RINEX ENCODER.        COMMENT             
G L1C                                                       SYS / PHASE SHIFT   
G L2W                                                       SYS / PHASE SHIFT   
G L2L  0.00000                                              SYS / PHASE SHIFT   
G L5Q  0.00000                                              SYS / PHASE SHIFT   
G L1L  0.00000                                              SYS / PHASE SHIFT   
E L1C  0.00000                                              SYS / PHASE SHIFT   
E L6C  0.00000                                              SYS / PHASE SHIFT   
E L5Q  0.00000                                              SYS / PHASE SHIFT   
E L7Q  0.00000                                              SYS / PHASE SHIFT   
E L8Q  0.00000                                              SYS / PHASE SHIFT   
S L1C                                                       SYS / PHASE SHIFT   
S L5I                                                       SYS / PHASE SHIFT   
R L1C                                                       SYS / PHASE SHIFT   
R L2P  0.00000                                              SYS / PHASE SHIFT   
R L2C                                                       SYS / PHASE SHIFT   
R L3Q  0.00000                                              SYS / PHASE SHIFT   
C L1P  0.00000                                              SYS / PHASE SHIFT   
C L5P  0.00000                                              SYS / PHASE SHIFT   
C L2I                                                       SYS / PHASE SHIFT   
C L7I                                                       SYS / PHASE SHIFT   
C L6I                                                       SYS / PHASE SHIFT   
C L7D                                                       SYS / PHASE SHIFT   
J L1C                                                       SYS / PHASE SHIFT   
J L2L  0.00000                                              SYS / PHASE SHIFT   
J L5Q  0.00000                                              SYS / PHASE SHIFT   
J L1L  0.00000                                              SYS / PHASE SHIFT   
I L5A                                                       SYS / PHASE SHIFT   
  2025     1     2     2    15    0.0000000     GPS         TIME OF FIRST OBS   
 C1C    0.000 C2C    0.000 C2P    0.000                     GLONASS COD/PHS/BIS 
DBHZ                                                        SIGNAL STRENGTH UNIT
    18                                                      LEAP SECONDS        
 24 R01  1 R02 -4 R03  5 R04  6 R05  1 R06 -4 R07  5 R08  6 GLONASS SLOT / FRQ #
    R09 -2 R10 -7 R11  0 R12 -1 R13 -2 R14 -7 R15  0 R16 -1 GLONASS SLOT / FRQ #
    R17  4 R18 -3 R19  3 R20  2 R21  4 R22 -3 R23  3 R24  2 GLONASS SLOT / FRQ #
                                                            END OF HEADER       
> 2025 01 02 02 15  0.0000000  0 55
G09         1.000    21493047.769 7 112946759.09507      2171.847 7        46.597                                    21493045.166 7  88010466.67807      1692.347 7        47.698    21493045.331 7  88010466.69007      1692.215 7        43.101
G06         2.000    22869075.775 7 120177821.50507      2473.332 7        42.387                                    22869074.327 6  93645060.03606      1927.272 6        41.275    22869074.716 6  93645068.04706      1927.278 6        41.783
E11         3.000    27460352.072 5 144305130.38105      2384.108 5        35.914                                                                    27460347.765 6 107760313.11206      1780.417 6        38.195    27460347.088 6 110571448.15206      1826.834 6        38.751
R15         4.000    23402322.345 7 125054917.89507     -1881.457 7        44.439                                                                    23402320.885 6  97264922.89106     -1463.433 6        39.360
S21         5.000    38423222.140 6 201915106.36206      -475.992 6        41.569
E10         6.000    25292900.259 7 132915095.41407      1648.151 7        44.480                                                                    25292898.727 7  99254775.47807      1230.709 7        47.608    25292898.647 8 101844029.99608      1262.849 8        48.525
G28         7.000    24062671.941 6 126450208.66606     -2879.085 6        39.955                                    24062668.301 4  98532612.67504     -2243.441 4        24.391    24062667.463 6  98532620.67106     -2243.329 6        39.922
G03         8.000    20225652.668 8 106286620.73008     -1625.116 8        49.852                                    20225650.270 8  82820785.22808     -1266.323 8        51.633    20225650.928 7  82820783.23307     -1266.316 7        45.669
G02         9.000    23167825.783 7 121747792.55407     -3633.728 7        44.339                                    23167818.793 5  94868403.49305     -2831.479 5        31.600
G31        10.000    22297923.119 7 117176388.92807     -1373.025 7        44.831                                    22297918.071 6  91306261.47106     -1069.893 6        41.726    22297918.647 6  91306266.47906     -1069.953 6        41.271
C30        11.000                                                                                                                                    23860740.943 7 124249151.40707     -3398.440 7        46.489                                                                    23860741.235 7 100962615.56107     -2761.296 7        46.051
S27        12.000    39054057.863 6 205230462.22606      -468.144 6        36.628
E02        13.000    28782903.908 5 151255195.27305      -938.904 5        33.665                                                                    28782902.863 6 112950296.88506      -701.120 6        38.634    28782902.631 6 115896824.99106      -719.355 6        40.105
S36        14.000    38190605.227 7 200693493.60107      -476.305 7        44.691
I09        15.000    37283100.298 7 146306895.74607      -563.441 7        42.743
G19        16.000    22335844.545 7 117375676.59707     -1180.249 7        44.361                                    22335838.024 5  91461550.06805      -919.673 5        32.263
S45        17.000    63384781.163 6 333090316.33606      -516.292 6        37.826
E12        19.000    24139056.383 7 126851606.97807       507.108 7        44.939                                                                    24139052.430 7  94726838.37207       378.699 7        47.852    24139052.376 8  97197972.70908       388.607 8        48.507
G17        20.000    23103617.963 7 121410355.21207     -2639.271 7        44.387                                    23103613.223 6  94605461.66106     -2056.575 6        39.538    23103613.169 6  94605460.65406     -2056.529 6        39.523
E26        21.000                                                                                                                                    28216691.665 4 110728810.36204     -2664.116 4        26.635    28216691.176 4 113617363.95804     -2733.852 4        26.826
I06        22.000    38071755.439 7 149401986.18907      -276.041 7        43.130
S28        23.000    40857997.819 5 214710241.02705      -470.512 5        35.124
R08        24.000    21645681.929 8 115911679.99808      2391.639 8        48.897                                                                    21645679.287 7  90153532.59807      1860.181 7        43.695
S23        25.000    38137109.981 7 200411862.90807      -472.048 7        45.053
C25        26.000                                                                                                                                    25409361.218 7 132313208.72307      -919.627 7        42.328                                                                    25409359.175 6 107515316.09406      -747.132 6        41.981
R16        27.000    22625559.661 7 120861691.72707      1474.179 7        45.381                                                                    22625559.439 7  94003539.48107      1146.558 7        42.438
R21        29.000    22787351.198 7 121939717.55907     -5018.188 7        44.048                                                                    22787350.268 6  94842003.82506     -3902.935 6        41.542
E19        30.000    23195120.297 7 121891212.75807       690.382 7        43.943                                                                    23195117.634 7  91022661.30807       515.594 7        45.236    23195117.844 7  93397162.26807       529.051 7        46.789
C23        31.000                                                                                                                                    25320310.460 7 131849505.40007      1522.454 7        42.819                                                                    25320302.134 7 107138489.78507      1237.303 7        44.588
R23        32.000    20631062.288 8 110362286.53208      1922.269 8        48.334
E29        33.000    23870618.162 7 125441029.25707     -1756.790 7        47.296                                                                    23870615.949 8  93673511.13308     -1311.852 8        50.104    23870615.968 8  96117162.41008     -1346.116 8        51.424
E04        34.000    27698573.081 6 145556998.65506      2411.770 6        39.306                                                                    27698572.042 6 108695166.89406      1801.098 6        40.877    27698571.234 6 111530689.14306      1847.972 6        41.161
C16        35.000                                                                                                                                    38754610.484 7 201805458.16007      -741.040 7        43.166    38754609.562 7 156048793.86707      -572.991 7        44.042    38754607.453 6 163983465.73406      -601.920 6        39.799
C32        36.000                                                                                                                                    22205053.206 8 115627598.03308     -1663.269 8        50.412                                                                    22205053.167 8  93956916.23408     -1351.409 8        50.601
I01        37.000   378390638.067 7 181745332.69707     -2679.690 7        42.489
E07        38.000    28035819.370 6 147329235.92106     -3309.635 6        36.904                                                                    28035819.625 6 110018621.37706     -2471.585 6        40.367    28035819.639 6 112888664.96206     -2536.006 6        41.557
C41        39.000                                                                                                                                    26104923.596 6 135935212.13206     -3278.063 6        41.056                                                                    26104929.161 7 110458522.51807     -2663.677 7        43.308
C39        40.000                                                                                                                                    39156710.478 7 203899298.04307     -1151.844 7        42.654                                                                    39156706.556 7 165684877.30107      -935.876 7        42.472
E33        41.000    24218283.649 7 127268026.92007     -2465.886 7        47.562                                                                    24218281.225 8  95037845.46908     -1841.442 8        49.270    24218280.980 8  97517089.51508     -1889.485 8        50.196
S44        42.000    40642198.862 6 213576368.14306      -554.267 6        38.000
R06        43.000    20973369.451 6 111917976.73306     -3308.223 6        39.862
C05        44.000                                                                                                                                    39113321.348 6 203673366.87406      -492.519 6        39.231    39113314.835 7 157493193.14207      -380.804 7        43.477    39113317.021 6 165501399.07006      -399.836 6        40.665
C29        45.000                                                                                                                                    22899031.518 8 119241289.79908      -544.902 8        48.435                                                                    22899029.029 8  96893313.80408      -442.569 8        48.361
G04        46.000    20221872.302 8 106266692.47708       546.780 8        48.614                                    20221868.612 6  82805201.48006       426.063 6        41.128    20221868.944 8  82805203.48308       426.067 8        48.102
R22        48.000    19609618.753 8 104677505.92608     -1977.357 8        52.892                                                                    19609616.317 8  81415836.15008     -1537.913 8        48.385
C20        49.000                                                                                                                                    22858629.742 8 119030909.82108      1231.902 8        50.221                                                                    22858623.824 8  96722348.50208      1001.177 8        49.088
C06        50.000                                                                                                                                    38262247.754 6 199241597.58106      -643.987 6        41.359    38262242.035 7 154066225.30907      -497.902 7        45.076    38262241.795 7 161900099.52007      -523.060 7        42.186
S48        51.000    77172910.181 6 405546365.16806      -469.715 6        38.003
G21        52.000    24942599.830 6 131074310.69106     -3787.786 6        37.055                                    24942595.776 3 102135846.05203     -2951.517 3        19.284
C09        53.000                                                                                                                                    38515802.874 7 200561908.63907      -130.409 7        42.487    38515798.451 7 155087180.37007      -100.782 7        46.848    38515796.587 7 162972958.83807      -105.699 7        42.563
C60        54.000                                                                                                                                    40642193.289 6 211634784.33606      -549.034 6        39.063                                                                    40642178.015 6 171970569.93206      -446.124 6        40.470
R09        55.000    24027820.297 5 128307234.85105      3370.552 5        35.000                                                                    24027820.391 5  99794507.12905      2621.798 5        32.240
C02        57.000                                                                                                                                    40593555.763 5 211381354.70505      -537.397 5        34.562    40593548.172 6 163453469.00206      -415.636 6        40.670    40593552.004 6 171764671.40606      -436.580 6        36.715
I03        58.000   102599542.122 6 326837415.42206       887.969 6        40.272
R07        59.000    19325382.957 8 103450352.96408      -426.917 8        51.929                                                                    19325380.929 7  80461439.22707      -332.076 7        47.229
> 2025 01 02 02 15  5.0000000  0 55
G09         1.000    21490982.044 7 112935904.22507      2169.866 7        46.513                                    21490979.536 7  88002008.34407      1690.807 7        47.573    21490979.735 7  88002008.33607      1690.768 7        43.075
G06         2.000    22866723.449 7 120165458.76607      2471.520 7        42.438                                    22866721.784 6  93635426.73506      1925.859 6        41.132    22866722.585 6  93635434.73306      1925.995 6        41.864
E11         3.000    27458083.447 5 144293209.78905      2383.702 5        35.567                                                                    27458079.364 6 107751411.38406      1780.003 6        38.231    27458078.834 6 110562314.21306      1826.274 6        39.168
R15         4.000    23404083.398 7 125064334.60407     -1885.507 7        43.911                                                                    23404082.901 6  97272247.00506     -1466.472 6        39.219
S21         5.000    38423672.782 6 201917485.93506      -476.081 6        41.635
E10         6.000    25291332.642 7 132906857.36807      1646.755 7        44.677                                                                    25291331.024 7  99248623.69907      1229.646 7        47.484    25291330.999 8 101837717.73008      1261.775 8        48.420
G28         7.000    24065411.737 6 126464609.58406     -2881.566 6        38.556                                    24065408.730 3  98543834.16403     -2245.377 3        23.962    24065408.377 6  98543842.16406     -2245.339 6        40.288
G03         8.000    20227199.698 8 106294750.37708     -1627.042 8        49.702                                    20227197.290 8  82827120.02008     -1267.824 8        51.517    20227197.764 7  82827118.01907     -1267.783 7        45.812
G02         9.000    23171283.824 7 121765964.67007     -3635.287 7        44.364                                    23171276.891 5  94882563.58105     -2832.692 5        31.623
G31        10.000    22299231.178 7 117183262.93107     -1376.679 7        44.718                                    22299226.150 6  91311617.83506     -1072.735 6        41.535    22299226.672 6  91311622.83406     -1072.792 6        40.694
C30        11.000                                                                                                                                    23864004.472 7 124266146.44407     -3399.864 7        46.729                                                                    23864004.912 7 100976425.42607     -2762.509 7        46.186
S27        12.000    39054504.546 6 205232802.72206      -468.337 6        36.352
E02        13.000    28783797.924 5 151259894.94105      -941.181 5        34.200                                                                    28783797.378 6 112953806.40106      -702.901 6        38.213    28783796.994 6 115900426.07606      -721.266 6        39.847
S36        14.000    38191059.387 7 200695873.27507      -476.126 7        44.667
I09        15.000    37283817.973 7 146309712.89407      -563.620 7        42.815
G19        16.000    22336969.142 7 117381586.10707     -1183.802 7        44.141                                    22336962.610 5  91466154.89205      -922.444 5        32.108
S45        17.000    63385226.568 6 333092896.98906      -516.149 6        37.750
E12        19.000    24138574.749 7 126849075.82507       505.066 7        44.837                                                                    24138570.790 7  94724948.21807       377.202 7        47.788    24138570.737 8  97196033.24508       387.041 8        48.481
G17        20.000    23106130.176 7 121423556.07507     -2641.285 7        44.214                                    23106125.260 6  94615748.04906     -2058.143 6        39.396    23106125.304 6  94615747.05906     -2058.189 6        39.444
E26        21.000                                                                                                                                    28220086.032 4 110742131.90904     -2664.726 4        26.287    28220085.610 4 113631032.90004     -2733.791 4        25.850
I06        22.000    38072106.950 7 149403365.73407      -276.125 7        43.037
S28        23.000    40858444.588 5 214712593.43305      -470.899 5        34.876
R08        24.000    21643449.035 8 115899725.33208      2389.908 8        49.109                                                                    21643446.879 7  90144234.51107      1858.844 7        43.657
S23        25.000    38137558.463 7 200414222.98707      -472.210 7        45.087
C25        26.000                                                                                                                                    25410246.111 7 132317813.19707      -922.529 7        42.299                                                                    25410243.268 6 107519057.60506      -749.299 6        41.928
R16        27.000    22624181.632 7 120854329.68807      1470.399 7        46.726                                                                    22624181.935 7  93997813.44407      1143.673 7        42.614
R21        29.000    22792040.980 7 121964810.14207     -5019.265 7        45.019                                                                    22792039.451 6  94861520.25906     -3903.873 6        41.356
E19        30.000    23194464.068 7 121887764.54507       688.615 7        44.158                                                                    23194461.480 7  91020086.34707       514.211 7        45.211    23194461.603 7  93394520.13507       527.559 7        46.796
C23        31.000                                                                                                                                    25318849.341 7 131841897.00607      1520.578 7        42.857                                                                    25318840.825 7 107132307.34507      1235.729 7        44.554
R23        32.000    20629267.213 8 110352683.83508      1918.536 8        48.712
E29        33.000    23872290.422 7 125449816.45607     -1758.422 7        47.313                                                                    23872288.073 8  93680073.00408     -1313.121 8        50.063    23872288.104 8  96123895.45408     -1347.357 8        51.448
E04        34.000    27696278.407 6 145544940.43906      2411.421 6        38.664                                                                    27696277.406 6 108686162.42006      1800.624 6        40.799    27696276.645 6 111521449.76506      1847.495 6        41.232
C16        35.000                                                                                                                                    38755322.042 7 201809164.46607      -741.830 7        43.035    38755321.288 7 156051659.81707      -573.654 7        44.011    38755319.231 6 163986477.42406      -602.632 6        39.979
C32        36.000                                                                                                                                    22206650.917 8 115635917.25008     -1664.681 8        50.545                                                                    22206650.823 8  93963676.28208     -1352.547 8        50.691
I01        37.000   378394052.301 7 181758731.06507     -2679.917 7        42.483
E07        38.000    28038968.170 6 147345783.93506     -3309.637 6        36.794                                                                    28038968.765 6 110030978.65506     -2471.583 6        40.510    28038968.358 6 112901344.60306     -2536.009 6        41.592
C41        39.000                                                                                                                                    26108070.939 6 135951602.48206     -3278.158 6        41.204                                                                    26108076.855 7 110471841.02507     -2663.725 7        43.429
C39        40.000                                                                                                                                    39157817.079 7 203905058.72307     -1152.693 7        42.629                                                                    39157812.860 7 165689558.32707      -936.507 7        42.557
E33        41.000    24220630.571 7 127280360.28607     -2467.658 7        47.596                                                                    24220628.122 8  95047055.45108     -1842.786 8        49.202    24220627.943 8  97526539.75508     -1890.831 8        50.222
S44        42.000    40642722.020 6 213579138.27906      -554.103 6        37.985
R06        43.000    20976468.646 6 111934519.75206     -3309.475 6        39.670
C05        44.000                                                                                                                                    39113793.815 6 203675828.40606      -492.569 6        39.432    39113787.584 7 157495096.55107      -380.815 7        43.545    39113789.757 6 165503399.28506      -400.063 6        40.694
C29        45.000                                                                                                                                    22899556.180 8 119244020.95508      -547.852 8        48.409                                                                    22899553.576 8  96895533.10108      -445.056 8        48.410
G04        46.000    20221353.197 8 106263964.73108       544.083 8        48.775                                    20221349.541 6  82803075.96806       423.962 6        41.018    20221349.648 7  82803077.96307       423.929 7        47.971
R22        48.000    19611472.920 8 104687402.85908     -1981.635 8        52.673                                                                    19611470.414 8  81423533.76208     -1541.311 8        48.315
C20        49.000                                                                                                                                    22857447.378 8 119024753.11008      1230.568 8        50.358                                                                    22857441.500 8  96717345.67708      1000.029 8        49.164
C06        50.000                                                                                                                                    38262866.126 6 199244818.49906      -644.782 6        41.478    38262860.850 7 154068715.92807      -498.605 7        45.186    38262860.287 7 161902716.78307      -523.760 7        42.157
S48        51.000    77173360.326 6 405548714.45006      -470.163 6        38.078
G21        52.000    24946203.480 6 131093249.81706     -3788.075 6        36.972                                    24946199.913 3 102150603.80503     -2951.743 3        19.254
C09        53.000                                                                                                                                    38515928.558 7 200562561.70907      -131.233 7        42.760    38515923.869 7 155087685.37707      -101.489 7        46.769    38515922.080 7 162973489.51107      -106.417 7        42.682
C60        54.000                                                                                                                                    40642720.609 6 211637529.30706      -549.026 6        39.039                                                                    40642705.130 6 171972800.44806      -446.104 6        40.439
R09        55.000    24024665.096 5 128290382.70705      3370.254 5        35.133                                                                    24024664.003 5  99781399.90105      2621.178 5        33.814
C02        57.000                                                                                                                                    40594071.900 5 211384041.57905      -537.328 5        34.643    40594064.363 6 163455546.64706      -415.578 6        40.455    40594067.868 6 171766854.69706      -436.818 6        36.964
I03        58.000   102598410.683 6 326832975.68606       887.822 6        40.322
R07        59.000    19325782.903 8 103452493.46008      -429.578 8        51.546                                                                    19325780.687 7  80463104.06107      -334.104 7        47.339
> 2025 01 02 02 15 10.0000000  0 55
G09         1.000    21488918.499 7 112925059.12007      2168.480 7        46.791                                    21488915.743 7  87993557.61607      1689.724 7        47.595    21488916.205 7  87993557.61207      1689.779 7        43.274
G06         2.000    22864372.535 7 120153104.38307      2470.521 7        42.959                                    22864370.819 6  93625799.94806      1925.085 6        41.185    22864371.518 7  93625807.95407      1925.092 7        42.447
E11         3.000    27455815.516 5 144281291.73005      2383.930 5        35.857                                                                    27455811.333 6 107742511.52006      1780.249 6        38.339    27455811.214 6 110553182.18106      1826.521 6        38.991
R15         4.000    23405849.194 7 125073771.50407     -1889.037 7        44.254                                                                    23405849.682 6  97279586.81606     -1469.300 6        39.709
S21         5.000    38424124.263 6 201919865.94206      -475.573 6        41.445
E10         6.000    25289766.163 7 132898626.19207      1645.968 7        44.376                                                                    25289764.701 7  99242477.04207      1229.108 7        47.499    25289764.702 8 101831410.72808      1261.176 8        48.504
G28         7.000    24068155.143 6 126479023.01306     -2883.418 6        39.471                                    24068151.570 3  98555065.40903     -2246.804 3        23.962    24068151.603 6  98555073.40806     -2246.826 6        40.257
G03         8.000    20228748.443 8 106302890.01708     -1628.547 8        49.855                                    20228746.229 8  82833462.59708     -1268.996 8        51.542    20228746.668 7  82833460.59407     -1268.988 7        45.625
G02         9.000    23174742.720 7 121784143.39207     -3636.067 7        44.117                                    23174736.232 5  94896728.81805     -2833.297 5        31.645
G31        10.000    22300542.961 7 117190154.96307     -1379.789 7        45.269                                    22300537.637 6  91316988.25206     -1075.160 6        41.559    22300538.176 6  91316993.25406     -1075.112 6        40.503
C30        11.000                                                                                                                                    23867269.596 7 124283148.71007     -3400.871 7        46.921                                                                    23867270.039 7 100990241.16907     -2763.463 7        46.222
S27        12.000    39054951.901 6 205235143.73106      -467.853 6        36.427
E02        13.000    28784694.708 5 151264606.47505      -942.968 5        34.129                                                                    28784693.541 6 112957324.79706      -704.278 6        38.183    28784693.295 6 115904036.24606      -722.623 6        39.649
S36        14.000    38191514.299 7 200698253.40607      -475.635 7        44.480
I09        15.000    37284536.281 7 146312530.97807      -563.401 7        42.787
G19        16.000    22338096.541 7 117387513.09807     -1186.696 7        44.631                                    22338090.483 5  91470773.32005      -924.699 5        32.132
S45        17.000    63385674.928 6 333095477.75406      -515.961 6        37.747
E12        19.000    24138095.071 7 126846554.63707       503.592 7        44.987                                                                    24138091.003 7  94723065.52307       376.067 7        47.788    24138090.978 8  97194101.44008       385.871 8        48.540
G17        20.000    23108643.808 7 121436767.12307     -2642.741 7        44.402                                    23108639.193 6  94626042.36606     -2059.278 6        39.465    23108639.486 6  94626041.36206     -2059.350 6        39.733
E26        21.000                                                                                                                                    28223481.296 4 110755454.88404     -2664.677 4        26.204    28223480.747 4 113644703.46104     -2733.927 4        26.695
I06        22.000    38072458.782 7 149404745.68207      -275.720 7        43.090
S28        23.000    40858890.623 5 214714945.90705      -470.343 5        34.614
R08        24.000    21641218.547 8 115887779.22808      2388.794 8        48.690                                                                    21641215.842 7  90134943.11107      1857.858 7        44.268
S23        25.000    38138008.361 7 200416583.50907      -471.651 7        44.996
C25        26.000                                                                                                                                    25411132.889 7 132322431.51307      -924.631 7        42.516                                                                    25411130.076 6 107522810.37706      -751.428 6        41.988
R16        27.000    22622807.332 7 120846986.07107      1467.196 7        46.208                                                                    22622806.379 7  93992101.74607      1141.165 7        42.707
R21        29.000    22796731.535 7 121989908.32207     -5019.743 7        45.202                                                                    22796729.477 6  94881041.06506     -3904.225 6        40.892
E19        30.000    23193809.622 7 121884325.65107       687.238 7        44.315                                                                    23193807.032 7  91017518.34307       513.153 7        45.193    23193807.156 7  93391885.13807       526.509 7        46.837
C23        31.000                                                                                                                                    25317390.131 7 131834297.99607      1519.307 7        43.122                                                                    25317381.471 7 107126132.53807      1234.508 7        44.430
R23        32.000    20627475.907 8 110343100.03308      1915.262 8        48.578
E29        33.000    23873963.923 7 125458611.64707     -1759.387 7        47.493                                                                    23873961.787 8  93686640.84408     -1313.835 8        50.101    23873961.766 8  96130634.63408     -1348.156 8        51.397
E04        34.000    27693984.337 6 145532885.12506      2411.161 6        39.093                                                                    27693983.280 6 108677160.07506      1800.526 6        40.930    27693982.692 6 111512212.57206      1847.517 6        41.273
C16        35.000                                                                                                                                    38756034.495 7 201812874.97907      -742.083 7        42.923    38756033.595 7 156054529.03507      -573.890 7        43.634    38756031.743 6 163989492.52606      -603.004 6        40.074
C32        36.000                                                                                                                                    22208250.085 8 115644243.52808     -1665.533 8        50.702                                                                    22208249.778 8  93970442.08408     -1353.459 8        50.778
I01        37.000   378397466.783 7 181772130.20507     -2679.671 7        42.476
E07        38.000    28042117.453 6 147362332.80806     -3309.484 6        36.836                                                                    28042117.768 6 110043336.56806     -2471.374 6        40.675    28042117.600 6 112914024.89806     -2535.854 6        41.557
C41        39.000                                                                                                                                    26111219.212 6 135967993.55406     -3277.814 6        41.275                                                                    26111224.554 7 110485160.12407     -2663.606 7        43.245
C39        40.000                                                                                                                                    39158923.570 7 203910823.07607     -1152.859 7        42.726                                                                    39158919.943 7 165694242.35207      -936.998 7        42.732
E33        41.000    24222979.349 7 127292702.57607     -2469.018 7        47.664                                                                    24222976.854 8  95056272.09508     -1843.709 8        49.195    24222976.600 8  97535996.83608     -1891.842 8        50.262
S44        42.000    40643251.397 6 213581908.80606      -553.716 6        37.856
R06        43.000    20979569.527 6 111951068.98106     -3309.959 6        38.778
C05        44.000                                                                                                                                    39114266.269 6 203678290.38206      -492.092 6        39.508    39114260.360 7 157497000.31107      -380.547 7        43.175    39114262.555 6 165505399.84306      -399.768 6        40.779
C29        45.000                                                                                                                                    22900083.440 8 119246766.89708      -550.249 8        48.404                                                                    22900080.872 8  96897764.41108      -447.232 8        48.447
G04        46.000    20220836.792 8 106261250.62408       541.849 8        48.680                                    20220833.078 6  82800961.08006       422.220 6        41.094    20220833.236 8  82800963.07608       422.227 8        48.192
R22        48.000    19613330.611 8 104697321.62908     -1985.607 8        52.539                                                                    19613328.362 8  81431248.36008     -1544.363 8        48.198
C20        49.000                                                                                                                                    22856266.438 8 119018603.34208      1229.608 8        50.457                                                                    22856260.533 8  96712348.49108       999.187 8        49.212
C06        50.000                                                                                                                                    38263485.746 6 199248043.83606      -645.117 6        41.497    38263480.081 7 154071209.96907      -498.861 7        44.962    38263479.718 7 161905337.65107      -524.251 7        42.332
S48        51.000    77173803.754 6 405551063.99606      -469.566 6        37.894
G21        52.000    24949807.973 6 131112190.65206     -3787.902 6        36.892                                    24949803.978 3 102165362.89903     -2951.616 3        18.955
C09        53.000                                                                                                                                    38516054.483 7 200563219.22407      -131.507 7        42.783    38516050.191 7 155088193.80407      -101.732 7        46.558    38516048.234 7 162974023.80907      -106.911 7        42.777
C60        54.000                                                                                                                                    40643247.684 6 211640274.64106      -548.622 6        39.045                                                                    40643232.241 6 171975031.25506      -445.857 6        40.453
R09        55.000    24021510.460 5 128273532.82505      3369.977 5        35.667                                                                    24021509.543 5  99768294.41805      2621.275 5        34.181
C02        57.000                                                                                                                                    40594587.223 5 211386728.83105      -537.224 5        34.814    40594580.321 6 163457624.60806      -415.273 6        40.536    40594584.265 6 171769038.34106      -436.525 6        36.896
I03        58.000   102597279.512 6 326828536.34406       888.150 6        40.377
R07        59.000    19326185.229 8 103454647.23108      -431.662 8        51.734                                                                    19326183.239 7  80464779.21807      -335.730 7        47.176
> 2025 01 02 02 15 15.0000000  0 55
G09         1.000    21486856.581 7 112914223.44507      2166.276 7        46.873                                    21486853.757 7  87985114.23307      1688.008 7        47.835    21486854.034 7  87985114.22807      1688.058 7        43.325
G06         2.000    22862022.944 7 120140758.04007      2468.493 7        42.557                                    22862021.389 6  93616179.42206      1923.501 6        41.287    22862022.034 7  93616187.42507      1923.402 7        42.610
E11         3.000    27453547.824 5 144269375.83805      2383.033 5        35.600                                                                    27453543.613 6 107733613.31306      1779.665 6        38.051    27453543.714 6 110544051.83806      1825.877 6        39.222
R15         4.000    23407619.288 7 125083228.14507     -1893.239 7        44.309                                                                    23407619.060 6  97286942.00106     -1472.716 6        39.973
S21         5.000    38424578.478 6 201922246.01906      -476.019 6        41.554
E10         6.000    25288200.716 7 132890401.50207      1644.343 7        44.299                                                                    25288199.567 7  99236335.23107      1227.952 7        47.460    25288199.504 8 101825108.69808      1259.940 8        48.574
G28         7.000    24070900.790 6 126493448.59006     -2886.279 6        39.985                                    24070896.619 4  98566306.11404     -2249.047 4        24.195    24070896.195 6  98566314.11306     -2249.005 6        40.215
G03         8.000    20230299.156 8 106311039.23508     -1630.684 8        49.979                                    20230296.988 8  82839812.63508     -1270.662 8        51.666    20230297.561 7  82839810.64007     -1270.767 7        45.758
G02         9.000    23178203.116 7 121802328.33807     -3637.679 7        44.883                                    23178196.736 5  94910898.89905     -2834.555 5        31.804
G31        10.000    22301857.876 7 117197064.68107     -1383.728 7        45.144                                    22301852.517 6  91322372.44706     -1078.230 6        41.745    22301853.234 6  91322377.44206     -1078.165 6        40.644
C30        11.000                                                                                                                                    23870536.047 7 124300157.78507     -3402.424 7        46.977                                                                    23870536.520 7 101004062.43507     -2764.741 7        46.195
S27        12.000    39055395.732 6 205237484.53306      -468.212 6        36.454
E02        13.000    28785593.465 5 151269329.48105      -945.971 5        33.994                                                                    28785592.732 6 112960851.71106      -706.216 6        38.607    28785592.244 6 115907655.16306      -724.637 6        40.164
S36        14.000    38191967.033 7 200700633.32807      -476.064 7        44.734
I09        15.000    37285254.462 7 146315349.68207      -563.662 7        42.899
G19        16.000    22339228.026 7 117393457.16807     -1190.450 7        44.698                                    22339221.580 5  91475405.06805      -927.625 5        32.335
S45        17.000    63386122.878 6 333096358.50116      -516.132 6        37.747
E12        19.000    24137617.019 7 126844043.03407       501.395 7        44.916                                                                    24137613.081 7  94721189.97607       374.411 7        47.698    24137613.045 8  97192176.95808       384.233 8        48.549
G17        20.000    23111159.928 7 121449987.91507     -2645.117 7        44.072                                    23111154.982 6  94636344.28006     -2061.131 6        39.607    23111155.253 6  94636343.28706     -2061.167 6        38.907
E26        21.000                                                                                                                                                                                                    28226876.033 4 113658375.19604     -2733.676 4        26.563
I06        22.000    38072810.467 7 149406125.71407      -275.954 7        43.067
S28        23.000    40859341.609 5 214717298.38005      -470.430 5        34.748
R08        24.000    21638989.197 8 115875841.28108      2386.772 8        48.084                                                                    21638987.108 7  90125658.05607      1856.379 7        44.149
S23        25.000    38138458.587 7 200418943.89507      -472.013 7        45.065
C25        26.000                                                                                                                                    25412022.549 7 132327063.31907      -927.637 7        43.016                                                                    25412019.549 6 107526574.09006      -753.770 6        41.764
R16        27.000    22621434.949 7 120839660.39407      1463.328 7        45.485                                                                    22621435.264 7  93986404.01007      1138.156 7        42.366
R21        29.000    22801422.297 7 122015011.85007     -5021.091 7        44.807                                                                    22801420.542 6  94900566.04006     -3905.483 6        40.381
E19        30.000    23193157.020 7 121880895.66807       685.118 7        44.203                                                                    23193154.387 7  91014956.98807       511.670 7        45.121    23193154.509 7  93389256.96707       524.981 7        46.852
C23        31.000                                                                                                                                    25315932.697 7 131826708.00607      1517.104 7        43.452                                                                    25315923.757 7 107119965.05607      1232.793 7        44.313
R23        32.000    20625687.373 8 110333534.74408      1911.212 8        48.119
E29        33.000    23875639.270 7 125467414.46307     -1761.303 7        47.430                                                                    23875636.867 8  93693214.37508     -1315.287 8        50.041    23875636.808 8  96137379.64208     -1349.508 8        51.556
E04        34.000    27691690.440 6 145520832.24506      2410.361 6        37.943                                                                    27691689.608 6 108668159.56706      1799.934 6        40.965    27691689.048 6 111502977.27006      1846.897 6        41.535
C16        35.000                                                                                                                                    38756747.818 7 201816589.30407      -743.168 7        42.772    38756746.957 7 156057401.18207      -574.677 7        43.680    38756744.963 6 163992510.71706      -603.919 6        40.069
C32        36.000                                                                                                                                    22209850.106 8 115652576.47308     -1667.250 8        50.793                                                                    22209850.061 8  93977213.27808     -1354.735 8        50.788
I01        37.000   378400881.281 7 181785529.86907     -2679.897 7        42.546
E07        38.000    28045266.508 6 147378882.08906     -3309.739 6        36.526                                                                    28045267.297 6 110055694.82206     -2471.791 6        40.925    28045266.758 6 112926705.52706     -2536.037 6        41.661
C41        39.000                                                                                                                                    26114367.343 6 135984384.97706     -3278.272 6        41.058                                                                    26114372.179 7 110498479.48007     -2663.908 7        43.115
C39        40.000                                                                                                                                    39160031.830 7 203916590.73407     -1153.804 7        42.737                                                                    39160027.584 7 165698929.03507      -937.578 7        42.580
E33        41.000    24225329.682 7 127305053.39607     -2470.955 7        47.484                                                                    24225327.104 8  95065495.10608     -1845.161 8        49.214    24225326.932 8  97545460.45008     -1893.340 8        50.294
S44        42.000    40643777.975 6 213584679.29906      -553.984 6        37.648
R06        43.000    20982671.208 6 111967624.26206     -3311.559 6        38.889
C05        44.000                                                                                                                                    39114739.380 6 203680752.44106      -492.419 6        39.444    39114733.104 7 157498904.13707      -380.773 7        43.490    39114735.339 6 165507400.47706      -400.145 6        40.629
C29        45.000                                                                                                                                    22900613.508 8 119249527.23408      -553.481 8        48.303                                                                    22900610.961 8  96900007.40208      -449.691 8        48.481
G04        46.000    20220322.905 8 106258549.79008       538.864 8        48.546                                    20220319.128 6  82798856.53206       419.892 6        41.209    20220319.464 8  82798858.53208       419.877 8        48.303
R22        48.000    19615192.769 8 104707261.78008     -1990.096 8        52.582                                                                    19615190.694 8  81438979.59908     -1547.913 8        48.248
C20        49.000                                                                                                                                    22855086.819 8 119012460.15808      1227.990 8        50.411                                                                    22855080.739 8  96707356.64608       997.898 8        49.212
C06        50.000                                                                                                                                    38264105.992 6 199251273.21906      -646.387 6        41.390    38264100.075 7 154073707.12807      -499.712 7        45.329    38264099.962 7 161907961.77107      -524.997 7        42.307
S48        51.000    77174250.630 6 405553413.50406      -469.842 6        37.955
G21        52.000    24953412.661 6 131131132.85206     -3788.553 6        36.975                                    24953408.459 3 102180123.04103     -2952.119 3        19.075
C09        53.000                                                                                                                                    38516180.919 7 200563880.79307      -132.770 7        42.828    38516177.380 7 155088705.37307      -102.601 7        46.758    38516175.331 7 162974561.38207      -107.724 7        42.703
C60        54.000                                                                                                                                    40643775.063 6 211643019.94406      -548.967 6        39.048                                                                    40643759.543 6 171977262.04006      -446.038 6        40.467
R09        55.000    24018355.283 6 128256684.87206      3369.377 6        36.374                                                                    24018354.468 5  99755190.43705      2620.837 5        34.624
C02        57.000                                                                                                                                    40595103.244 5 211389416.15305      -537.532 5        34.400    40595096.069 6 163459702.61706      -415.565 6        40.517    40595100.138 6 171771222.00306      -436.663 6        36.824
I03        58.000   102596148.507 6 326824097.15106       887.826 6        40.248
R07        59.000    19326589.901 8 103456813.85208      -434.577 8        52.037                                                                    19326587.898 7  80466464.36507      -337.972 7        46.732
> 2025 01 02 02 15 20.0000000  0 55
G09         1.000    21484796.348 7 112903397.60807      2164.363 7        46.855                                    21484793.645 7  87976678.51607      1686.517 7        47.909    21484793.912 7  87976678.52107      1686.528 7        43.393
G06         2.000    22859674.710 7 120128420.14307      2466.854 7        43.058                                    22859673.563 6  93606565.47506      1922.222 6        41.402    22859673.978 7  93606573.46907      1922.324 7        42.320
E11         3.000    27451280.975 5 144257462.53105      2382.467 5        35.829                                                                    27451276.743 6 107724717.00206      1779.231 6        38.225    27451276.483 6 110534923.44606      1825.715 6        39.204
R15         4.000    23409393.005 7 125092705.19707     -1897.315 7        43.462                                                                    23409392.152 6  97294313.02706     -1475.538 6        39.979
S21         5.000    38425034.212 6 201924626.75106      -476.016 6        41.387
E10         6.000    25286637.027 7 132882183.74607      1643.032 7        44.540                                                                    25286635.804 7  99230198.59107      1226.947 7        47.681    25286635.763 8 101818811.97708      1258.911 8        48.546
G28         7.000    24073647.919 6 126507886.72306     -2888.694 6        40.267                                    24073644.010 4  98577556.59404     -2250.945 4        24.421    24073643.285 6  98577564.59906     -2251.013 6        39.946
G03         8.000    20231851.824 8 106319198.52008     -1632.682 8        50.011                                    20231849.660 8  82846170.51808     -1272.220 8        51.801    20231850.212 7  82846168.52407     -1272.285 7        46.006
G02         9.000    23181665.223 7 121820519.89207     -3638.820 7        45.875                                    23181658.505 5  94925074.14205     -2835.444 5        32.281
G31        10.000    22303176.233 7 117203992.49507     -1387.249 7        45.546                                    22303170.836 6  91327770.74706     -1080.971 6        41.869    22303171.843 6  91327775.75506     -1080.969 6        41.247
C30        11.000                                                                                                                                    23873804.083 7 124317174.11607     -3403.826 7        47.064                                                                    23873804.332 7 101017889.61207     -2765.909 7        46.159
S27        12.000    39055843.954 6 205239826.25206      -468.269 6        36.155
E02        13.000    28786494.712 5 151274064.34305      -948.148 5        34.643                                                                    28786494.252 6 112964387.49006      -707.912 6        39.315    28786493.539 6 115911283.19306      -726.388 6        40.076
S36        14.000    38192418.345 7 200703013.84507      -476.245 7        44.364
I09        15.000    37285973.088 7 146318169.35007      -563.844 7        43.007
G19        16.000    22340362.373 7 117399418.75207     -1193.943 7        44.643                                    22340355.986 5  91480050.45805      -930.347 5        32.455
S45        17.000    63386573.179 6 333098939.63906      -516.082 6        37.490
E12        19.000    24137140.784 7 126841541.43907       499.477 7        45.093                                                                    24137137.074 7  94719321.90307       373.021 7        47.946    24137136.969 8  97190260.15808       382.740 8        48.541
G17        20.000    23113677.243 7 121463218.77507     -2647.052 7        44.024                                    23113672.684 6  94646654.03706     -2062.636 6        39.670    23113673.046 6  94646653.03706     -2062.704 6        39.384
E26        21.000                                                                                                                                    28230271.612 4 110782104.57304     -2664.236 4        26.371
I06        22.000    38073162.315 7 149407506.18407      -276.008 7        43.046
S28        23.000    40859785.587 5 214719651.66705      -470.891 5        34.662
R08        24.000    21636761.354 8 115863911.85408      2385.190 8        48.980                                                                    21636758.758 7  90116379.61207      1855.066 7        43.623
S23        25.000    38138907.453 7 200421304.71507      -472.053 7        44.786
C25        26.000                                                                                                                                    25412914.522 7 132331709.02607      -930.325 7        43.170                                                                    25412911.727 7 107530349.12607      -755.858 7        42.129
R16        27.000    22620067.388 7 120832353.18507      1459.718 7        45.881                                                                    22620066.774 7  93980720.60907      1135.436 7        42.271
R21        29.000    22806114.161 7 122040121.04707     -5022.232 7        44.606                                                                    22806112.365 6  94920095.38606     -3906.124 6        40.448
E19        30.000    23192505.892 7 121877474.95007       683.448 7        44.102                                                                    23192503.444 7  91012402.56807       510.371 7        45.308    23192503.585 7  93386635.90707       523.645 7        46.870
