     3.04           OBSERVATION DATA    M                   RINEX VERSION / TYPE
ssrcrin-15.6.1x                         20250102 173000 UTC PGM / RUN BY / DATE 
(00000000023479385599111004) Septentrio proprietary         COMMENT             
rref                                                        MARKER NAME         
01                                                          MARKER NUMBER       
geodetic                                                    MARKER TYPE         
NFB                 CLIMERS@TUW                             OBSERVER / AGENCY   
3297213             SEPT ASTERX SB3 PROB4.14.4              REC # / TYPE / VERS 
Unknown             Unknown                                 ANT # / TYPE        
  4127831.6628  1207193.0675  4695247.3684                  APPROX POSITION XYZ 
        0.0000        0.0000        0.0000                  ANTENNA: DELTA H/E/N
G   23 X1  C1C L1C D1C S1C C1W S1W C2W L2W D2W S2W C2L L2L  SYS / # / OBS TYPES 
       D2L S2L C5Q L5Q D5Q S5Q C1L L1L D1L S1L              SYS / # / OBS TYPES 
E   21 X1  C1C L1C D1C S1C C6C L6C D6C S6C C5Q L5Q D5Q S5Q  SYS / # / OBS TYPES 
       C7Q L7Q D7Q S7Q C8Q L8Q D8Q S8Q                      SYS / # / OBS TYPES 
S    9 X1  C1C L1C D1C S1C C5I L5I D5I S5I                  SYS / # / OBS TYPES 
R   17 X1  C1C L1C D1C S1C C2P L2P D2P S2P C2C L2C D2C S2C  SYS / # / OBS TYPES 
       C3Q L3Q D3Q S3Q                                      SYS / # / OBS TYPES 
C   25 X1  C1P L1P D1P S1P C5P L5P D5P S5P C2I L2I D2I S2I  SYS / # / OBS TYPES 
       C7I L7I D7I S7I C6I L6I D6I S6I C7D L7D D7D S7D      SYS / # / OBS TYPES 
J   17 X1  C1C L1C D1C S1C C2L L2L D2L S2L C5Q L5Q D5Q S5Q  SYS / # / OBS TYPES 
       C1L L1L D1L S1L                                      SYS / # / OBS TYPES 
I    5 X1  C5A L5A D5A S5A                                  SYS / # / OBS TYPES 
SEPTENTRIO RECEIVERS OUTPUT ALIGNED CARRIER PHASES.         COMMENT             
NO FURTHER PHASE SHIFT APPLIED IN THE RINEX ENCODER.        COMMENT             
G L1C                                                       SYS / PHASE SHIFT   
G L2W                                                       SYS / PHASE SHIFT   
G L2L  0.00000                                              SYS / PHASE SHIFT   
G L5Q  0.00000                                              SYS / PHASE SHIFT   
G L1L  0.00000                                              SYS / PHASE SHIFT   
E L1C  0.00000                                              SYS / PHASE SHIFT   
E L6C  0.00000                                              SYS / PHASE SHIFT   
E L5Q  0.00000                                              SYS / PHASE SHIFT   
E L7Q  0.00000                                              SYS / PHASE SHIFT   
E L8Q  0.00000                                              SYS / PHASE SHIFT   
S L1C                                                       SYS / PHASE SHIFT   
S L5I                                                       SYS / PHASE SHIFT   
R L1C                                                       SYS / PHASE SHIFT   
R L2P  0.00000                                              SYS / PHASE SHIFT   
R L2C                                                       SYS / PHASE SHIFT   
R L3Q  0.00000                                              SYS / PHASE SHIFT   
C L1P  0.00000                                              SYS / PHASE SHIFT   
C L5P  0.00000                                              SYS / PHASE SHIFT   
C L2I                                                       SYS / PHASE SHIFT   
C L7I                                                       SYS / PHASE SHIFT   
C L6I                                                       SYS / PHASE SHIFT   
C L7D                                                       SYS / PHASE SHIFT   
J L1C                                                       SYS / PHASE SHIFT   
J L2L  0.00000                                              SYS / PHASE SHIFT   
J L5Q  0.00000                                              SYS / PHASE SHIFT   
J L1L  0.00000                                              SYS / PHASE SHIFT   
I L5A                                                       SYS / PHASE SHIFT   
  2025     1     2    17    30    0.0000000     GPS         TIME OF FIRST OBS   
 C1C    0.000 C2C    0.000 C2P    0.000                     GLONASS COD/PHS/BIS 
DBHZ                                                        SIGNAL STRENGTH UNIT
    18                                                      LEAP SECONDS        
 24 R01  1 R02 -4 R03  5 R04  6 R05  1 R06 -4 R07  5 R08  6 GLONASS SLOT / FRQ #
    R09 -2 R10 -7 R11  0 R12 -1 R13 -2 R14 -7 R15  0 R16 -1 GLONASS SLOT / FRQ #
    R17  4 R18 -3 R19  3 R20  2 R21  4 R22 -3 R23  3 R24  2 GLONASS SLOT / FRQ #
                                                            END OF HEADER       
> 2025 01 02 17 30  0.0000000  0 56
G23         1.000    23942817.188 6 125820402.36906      3045.562 6        40.508                                    23942815.577 4  98041886.55704      2373.169 4        25.955    23942815.809 6  98041884.55606      2373.208 6        40.548
E11         2.000    25373702.261 6 133339902.20506     -2694.559 6        41.483                                                                    25373699.063 7  99572129.32307     -2012.233 7        43.027    25373698.602 7 102169649.42007     -2064.667 7        43.323
G16         3.000    21901990.617 7 115095931.25007      2231.511 7        44.904                                    21901987.109 5  89685222.54505      1738.831 5        32.222
G05         4.000    23091377.978 7 121346106.91307     -1610.323 7        43.393                                    23091374.830 6  94555431.92406     -1254.797 6        38.796    23091375.056 6  94555430.92106     -1254.742 6        40.470
S21         5.000    38474089.789 7 202182369.39707      -465.041 7        42.544
G26         6.000    20597864.842 8 108242745.65008       176.035 8        50.003                                    20597864.295 8  84345127.83308       137.170 8        51.138    20597864.409 7  84345114.83607       137.225 7        45.940
G25         7.000    24282153.775 6 127603749.45406     -4242.660 6        39.931                                    24282154.266 5  99431577.70405     -3305.970 5        34.371    24282154.834 6  99431578.70906     -3305.954 6        37.758
E36         9.000    23439713.344 8 123176714.29208      -168.918 8        48.530                                                                    23439713.919 8  91982754.22308      -126.125 8        51.028    23439713.412 8  94382291.68008      -129.428 8        51.031
G27        10.000    24334450.979 6 127878486.98906      2883.122 6        39.312                                    24334453.303 5  99645627.17905      2246.578 5        30.853    24334454.441 5  99645629.19305      2246.673 5        35.005
G20        11.000    25251387.184 5 132697050.35105     -3339.632 5        34.800                                    25251384.090 2 103400359.96302     -2602.286 2        14.190
S27        12.000    39255758.425 6 206290535.03806      -445.236 6        36.344
C23        13.000                                                                                                                                    24964749.472 7 129998034.56307      1883.796 7        44.027                                                                    24964742.082 7 105634040.04407      1530.805 7        44.719
S36        14.000    38244878.857 7 200978705.30507      -464.612 7        44.169
C13        15.000                                                                                                                                    37765758.102 7 196656267.21307       -67.315 7        44.959    37765759.835 7 152067133.26307       -52.049 7        45.750    37765757.967 7 159799347.64907       -54.619 7        43.448
G18        16.000    20598235.048 8 108244685.79008       141.418 8        49.766                                    20598231.397 7  84346605.41007       110.196 7        43.064    20598231.850 8  84346613.41308       110.212 8        48.968
R10        17.000    22067733.153 7 117633454.94307      3133.425 7        42.411
R01        18.000    24178609.990 6 129248524.55906     -2528.255 6        38.057                                                                    24178611.753 5 100526505.00405     -1966.478 5        34.067
E02        19.000    23226154.115 8 122054450.17208      -750.247 8        48.683                                                                    23226153.268 8  91144666.27708      -560.255 8        51.288    23226152.674 8  93522338.34108      -574.889 8        51.218
E10        21.000    27956606.084 6 146913179.06306     -3363.240 6        37.686                                                                    27956605.961 6 109708028.77106     -2511.566 6        41.623    27956605.664 6 112569962.15606     -2576.993 6        40.908
I06        22.000    38759465.275 6 152100674.66606      -345.444 6        41.988
S28        23.000    40950695.100 5 215197329.98005      -461.089 5        34.105
E29        24.000    28885753.259 5 151795679.29405     -1198.811 5        34.952                                                                    28885752.455 6 113353919.13906      -895.486 6        36.423    28885752.274 6 116310978.06706      -918.591 6        38.156
S23        25.000    38198439.376 7 200734082.66707      -467.657 7        44.927
S45        26.000    63455936.483 6 333463321.96806      -522.744 6        36.983
R09        27.000    19473826.865 8 103989352.13208       168.483 8        52.365                                                                    19473825.744 8  80880718.51608       131.065 8        48.961
R18        28.000    20394549.936 8 108867783.75508     -3156.920 8        50.254                                                                    20394549.608 7  84675094.58507     -2455.409 7        46.403
C38        29.000                                                                                                                                    38694270.542 7 201491337.11007      -826.973 7        43.509                                                                    38694268.466 7 163728260.41507      -671.909 7        43.901
C44        30.000                                                                                                                                    22512035.346 8 117226298.62608     -2406.762 8        49.190                                                                    22512034.136 8  95256055.12208     -1955.648 8        48.417
C43        31.000                                                                                                                                    24847153.717 7 129385712.35907      2271.395 7        43.774                                                                    24847154.109 7 105136523.47207      1845.808 7        43.111
R02        32.000    23322868.083 7 124455306.62507       613.204 7        44.507                                                                    23322868.451 6  96798577.62006       477.100 6        39.069
I02        33.000    38616917.239 6 151541130.15006      -904.389 6        41.259
R03        34.000    24138040.253 7 129212832.88107      2966.316 7        42.868                                                                    24138040.521 6 100498865.52706      2307.218 6        38.222
E34        35.000    25680254.762 7 134950830.47307      2210.693 7        44.357                                                                    25680256.244 7 100775074.38207      1650.890 7        46.662    25680255.934 7 103403978.99007      1693.982 7        47.348
G29        36.000    21820245.904 7 114666462.74507     -2704.536 7        46.392                                    21820241.563 7  89350600.83507     -2107.432 7        45.061    21820242.268 7  89350610.82607     -2107.380 7        42.440
G31        37.000    22856028.778 7 120109466.35107     -3065.810 7        45.848                                    22856025.870 6  93591889.16006     -2388.944 6        41.464    22856026.166 6  93591895.17106     -2388.919 6        40.799
C22        38.000                                                                                                                                    25700292.890 6 133828178.83406      1661.182 6        41.998                                                                    25700288.496 7 108746337.36707      1349.940 7        42.372
E25        39.000    25726003.540 7 135191273.80307     -3012.549 7        43.729                                                                    25726005.041 7 100954652.18407     -2249.607 7        46.967    25726004.329 7 103588236.12607     -2308.406 7        46.960
C12        40.000                                                                                                                                    21794913.522 8 113492042.57008     -1206.172 8        48.594    21794909.751 8  87759343.63108      -932.642 8        52.070    21794909.132 8  92221654.66808      -980.060 8        49.445
S44        42.000    40567607.699 6 213184371.34906      -406.144 6        37.958
G28        43.000    24058448.770 6 126428176.37606     -3864.508 6        40.951                                    24058447.935 4  98515548.03304     -3011.303 4        25.759    24058448.504 6  98515548.02906     -3011.258 6        41.011
C05        44.000                                                                                                                                    39387567.815 6 205101421.65606      -397.703 6        38.030    39387562.929 7 158597449.92507      -307.478 7        42.550    39387564.427 6 166661806.10106      -323.219 6        39.279
C11        45.000                                                                                                                                    22993608.209 7 119733881.78107      1573.629 7        47.313    22993606.009 8  92585889.60808      1216.817 8        50.742    22993604.259 7  97293623.73607      1278.629 7        47.803
R16        46.000    20831385.915 8 111277722.38008     -4019.735 8        51.092                                                                    20831386.682 7  86549453.24507     -3126.473 7        46.675
R17        47.000    24286023.749 6 129959669.77206     -4349.309 6        40.868                                                                    24286023.855 6 101079877.75506     -3382.743 6        37.875
C35        48.000                                                                                                                                    26584408.044 6 138432156.98106     -3435.835 6        40.334                                                                    26584407.459 6 112487532.28906     -2791.769 6        39.156
C24        49.000                                                                                                                                    23935750.184 7 124639803.31007     -3600.680 7        46.857                                                                    23935747.817 7 101280071.73307     -2925.884 7        46.005
R19        50.000    19371468.855 7 103624562.76507      -243.781 7        42.387                                                                    19371469.254 7  80596995.20907      -189.599 7        45.672
S48        51.000    77200643.618 6 405693340.23906      -502.501 6        38.273
C08        52.000                                                                                                                                    37758779.734 7 196619975.52507      -307.402 7        42.639    37758773.551 7 152039066.28607      -237.756 7        46.011    37758772.874 7 159769853.51807      -249.865 7        42.703
C34        53.000                                                                                                                                    21638211.476 8 112676121.93808       464.288 8        51.251                                                                    21638211.239 8  91558694.56808       377.356 8        49.274
C60        54.000                                                                                                                                    40567604.455 6 211246350.90506      -402.340 6        39.556                                                                    40567590.492 6 171654929.97706      -326.941 6        40.827
C25        55.000                                                                                                                                    22256864.292 8 115897577.64108     -1023.373 8        50.613                                                                    22256862.524 8  94176368.44308      -831.523 8        49.012
C02        57.000                                                                                                                                    40742481.452 5 212156823.56005      -372.374 5        33.898    40742477.014 6 164053103.09006      -287.771 6        39.625    40742478.834 5 172394797.23905      -302.252 5        35.319
I03        58.000    84501232.103 6 255815718.42306      1107.523 6        40.520
E30        59.000    25712686.415 7 135121284.69007      1776.212 7        44.166                                                                    25712687.512 7 100902373.35607      1326.439 7        46.967    25712687.091 7 103534592.98807      1361.046 7        47.751
R20        60.000    22970231.287 6 122832305.74206      3160.361 6        36.783                                                                    22970238.429 6  95536293.03006      2458.111 6        40.977
> 2025 01 02 17 30  5.0000000  0 56
G23         1.000    23939919.757 6 125805176.39306      3044.859 6        40.689                                    23939917.997 4  98030022.18404      2372.599 4        25.684    23939918.484 6  98030020.18506      2372.523 6        40.436
E11         2.000    25376266.691 6 133353378.07906     -2695.904 6        40.844                                                                    25376263.483 7  99582192.45907     -2013.099 7        43.177    25376262.960 7 102179975.07207     -2065.553 7        43.376
G16         3.000    21899868.406 7 115084778.77607      2229.474 7        44.951                                    21899864.908 5  89676532.32205      1737.250 5        32.335
G05         4.000    23092911.716 7 121354166.99407     -1613.766 7        42.851                                    23092908.565 6  94561712.50806     -1257.479 6        38.706    23092908.544 6  94561711.51106     -1257.642 6        39.982
S21         5.000    38474529.305 7 202184694.80607      -465.168 7        42.574
G26         6.000    20597698.927 8 108241872.98608       172.977 8        50.175                                    20597698.232 8  84344447.84008       134.786 8        51.209    20597698.342 7  84344434.84207       134.788 7        45.774
G25         7.000    24286190.699 6 127624964.47506     -4243.262 6        39.559                                    24286191.220 5  99448108.88205     -3306.436 5        34.290    24286192.094 6  99448109.89506     -3306.566 6        37.796
E36         9.000    23439875.120 8 123177564.45708      -171.235 8        48.405                                                                    23439875.662 8  91983389.08908      -127.806 8        51.001    23439875.187 8  94382943.10908      -131.151 8        51.134
G27        10.000    24331708.716 6 127864072.47106      2882.772 6        38.925                                    24331710.222 5  99634395.13305      2246.307 5        30.913    24331710.102 5  99634397.15605      2246.128 5        33.898
G20        11.000    25254565.782 5 132713753.01105     -3341.178 5        34.552                                    25254562.613 2 103413375.05802     -2603.505 2        13.939
S27        12.000    39256185.022 6 206292760.50706      -444.967 6        36.268
C23        13.000                                                                                                                                    24962942.024 7 129988620.25807      1881.947 7        44.566                                                                    24962934.110 7 105626390.15507      1529.191 7        44.662
S36        14.000    38245321.213 7 200981028.03707      -464.624 7        44.172
C13        15.000                                                                                                                                    37765823.339 7 196656606.57107       -68.457 7        45.258    37765824.979 7 152067395.67007       -52.947 7        45.646    37765823.174 7 159799623.39507       -55.664 7        43.390
G18        16.000    20598101.858 8 108243986.07308       138.416 8        49.666                                    20598098.228 7  84346060.17907       107.856 7        43.100    20598098.619 8  84346068.17608       107.866 8        49.108
R10        17.000    22064794.726 7 117617793.00307      3131.198 7        42.544
R01        18.000    24180976.102 6 129261175.18706     -2531.948 6        37.637                                                                    24180977.770 5 100536344.48605     -1969.484 5        34.162
E02        19.000    23226868.924 8 122058206.46808      -752.321 8        48.448                                                                    23226868.025 8  91147471.30208      -561.750 8        51.263    23226867.452 8  93525216.54008      -576.409 8        51.405
E10        21.000    27959806.402 6 146929996.12406     -3363.527 6        38.009                                                                    27959806.166 6 109720586.95106     -2511.788 6        41.716    27959805.994 6 112582847.95106     -2577.162 6        41.108
I06        22.000    38759905.406 6 152102401.63906      -345.400 6        41.976
S28        23.000    40951130.941 5 215199635.56605      -461.139 5        34.443
E29        24.000    28886894.621 5 151801679.77305     -1201.169 5        34.567                                                                    28886894.733 6 113358400.12306      -897.084 6        36.560    28886894.501 6 116315575.94806      -920.394 6        38.264
S23        25.000    38198883.873 7 200736421.27607      -467.779 7        45.026
S45        26.000    63456382.706 6 333465937.07306      -523.111 6        36.987
R09        27.000    19473671.109 8 103988521.04208       163.971 8        52.345                                                                    19473669.934 8  80880072.11908       127.549 8        49.052
R18        28.000    20397507.248 8 108883572.79508     -3158.803 8        50.271                                                                    20397508.279 7  84687374.94307     -2456.866 7        47.363
C38        29.000                                                                                                                                    38695064.956 7 201495474.17307      -827.890 7        43.869                                                                    38695062.895 7 163731622.11207      -672.757 7        43.892
C44        30.000                                                                                                                                    22514346.992 8 117238335.30208     -2407.939 8        49.409                                                                    22514345.628 8  95265835.89508     -1956.651 8        48.370
C43        31.000                                                                                                                                    24844972.819 7 129374357.42207      2270.537 7        44.218                                                                    24844973.564 7 105127296.67007      1844.998 7        43.151
R02        32.000    23322295.470 7 124452250.54507       609.200 7        44.283                                                                    23322295.846 6  96796200.66006       473.674 6        39.772
I02        33.000    38618069.625 6 151545652.27006      -904.369 6        41.249
R03        34.000    24135270.718 7 129198004.69407      2964.803 7        42.790                                                                    24135270.131 6 100487332.48806      2305.971 6        38.258
E34        35.000    25678151.782 7 134939780.06007      2209.395 7        44.206                                                                    25678153.368 7 100766822.47507      1649.971 7        46.703    25678152.979 7 103395511.81507      1692.920 7        47.374
G29        36.000    21822819.633 7 114679988.69207     -2705.891 7        46.573                                    21822815.478 7  89361140.53307     -2108.488 7        45.124    21822816.436 7  89361150.52607     -2108.447 7        43.035
G31        37.000    22858946.979 7 120124800.82307     -3067.939 7        45.710                                    22858943.908 6  93603838.10206     -2390.603 6        41.452    22858944.855 6  93603844.10606     -2390.707 6        41.151
C22        38.000                                                                                                                                    25698698.750 6 133819877.45806      1659.491 6        41.983                                                                    25698694.299 7 108739591.84407      1348.335 7        42.500
E25        39.000    25728870.414 7 135206339.50207     -3013.769 7        43.143                                                                    25728871.919 7 100965902.53807     -2250.496 7        46.950    25728871.310 7 103599779.96807     -2309.284 7        47.308
C12        40.000                                                                                                                                    21796072.497 8 113498077.53208     -1207.885 8        48.814    21796068.851 8  87764010.25208      -934.018 8        52.097    21796068.143 8  92226558.56508      -981.558 8        49.474
S44        42.000    40567992.383 6 213186401.78006      -406.129 6        38.009
G28        43.000    24062126.263 6 126447500.73006     -3865.269 6        41.244                                    24062125.366 4  98530605.95804     -3011.897 4        25.744    24062125.810 6  98530605.94106     -3011.833 6        41.287
C05        44.000                                                                                                                                    39387949.347 6 205103410.11206      -397.969 6        38.435    39387944.690 7 158598987.52907      -307.600 7        42.519    39387946.447 6 166663421.87706      -323.216 6        39.291
C11        45.000                                                                                                                                    22992097.997 7 119726017.36107      1572.118 7        47.419    22992095.714 8  92579808.35308      1215.671 8        50.570    22992093.950 7  97287233.24907      1277.420 7        47.853
R16        46.000    20835149.070 8 111297828.01008     -4022.523 8        50.413                                                                    20835149.605 7  86565090.94807     -3128.538 7        46.029
R17        47.000    24290087.773 6 129981415.86306     -4349.043 6        41.018                                                                    24290087.522 6 101096791.38606     -3382.852 6        37.263
C35        48.000                                                                                                                                    26587707.106 6 138449336.40606     -3435.933 6        40.627                                                                    26587706.856 6 112501491.98206     -2792.128 6        39.348
C24        49.000                                                                                                                                    23939208.174 7 124657810.11607     -3601.964 7        46.922                                                                    23939205.709 7 101294703.72407     -2926.919 7        45.956
R19        50.000    19371698.837 7 103625789.70307      -247.004 7        42.874                                                                    19371698.123 7  80597949.47707      -192.100 7        45.120
S48        51.000    77201095.346 6 405695852.96306      -502.556 6        38.105
C08        52.000                                                                                                                                    37759075.823 7 196621516.01907      -308.709 7        42.770    37759069.396 7 152040257.47607      -238.666 7        45.744    37759068.740 7 159771105.27107      -250.930 7        42.711
C34        53.000                                                                                                                                    21637766.532 8 112673805.00208       462.457 8        51.436                                                                    21637766.243 8  91556811.86208       375.775 8        49.350
C60        54.000                                                                                                                                    40567990.977 6 211248362.87606      -402.342 6        39.688                                                                    40567976.996 6 171656564.87206      -326.998 6        40.844
C25        55.000                                                                                                                                    22257848.244 8 115902701.77308     -1026.238 8        50.803                                                                    22257846.563 8  94180532.21308      -833.958 8        49.066
C02        57.000                                                                                                                                    40742838.382 5 212158684.86405      -372.239 5        34.109    40742834.073 6 164054542.36506      -287.944 6        39.691    40742836.273 5 172396309.69505      -302.558 5        35.229
I03        58.000    84499820.967 6 255810180.66506      1107.465 6        40.422
E30        59.000    25710997.078 7 135112406.14907      1775.267 7        43.932                                                                    25710997.995 7 100895743.30207      1325.554 7        46.923    25710997.537 7 103527789.96807      1360.177 7        47.794
R20        60.000    22967278.483 6 122816507.26106      3159.126 6        36.957                                                                    22967283.174 6  95524005.37006      2457.058 6        41.461
> 2025 01 02 17 30 10.0000000  0 56
G23         1.000    23937022.948 6 125789953.24406      3044.181 6        40.903                                    23937020.935 4  98018160.01604      2372.088 4        25.940    23937021.320 6  98018158.01006      2372.267 6        40.017
E11         2.000    25378832.436 6 133366859.92906     -2697.014 6        41.075                                                                    25378828.913 7  99592260.08807     -2014.081 7        43.213    25378828.525 7 102190305.33707     -2066.591 7        43.268
G16         3.000    21897748.431 7 115073635.88307      2227.540 7        45.076                                    21897744.362 5  89667849.55505      1735.742 5        32.359
G05         4.000    23094448.735 7 121362244.00807     -1617.258 7        42.483                                    23094445.524 6  94568006.28906     -1260.203 6        38.640    23094445.483 6  94568005.29006     -1260.116 6        38.538
S21         5.000    38474971.660 7 202187020.14907      -465.164 7        42.546
G26         6.000    20597535.818 8 108241015.26508       169.934 8        50.134                                    20597535.009 8  84343779.49008       132.417 8        51.287    20597534.997 7  84343766.48807       132.499 7        45.633
G25         7.000    24290227.935 6 127646182.17406     -4243.926 6        39.297                                    24290228.701 5  99464642.15605     -3306.955 5        34.071    24290229.486 6  99464643.14806     -3306.948 6        37.611
E36         9.000    23440038.633 8 123178425.34708      -173.370 8        48.342                                                                    23440039.498 8  91984031.96608      -129.466 8        50.926    23440039.019 8  94383602.75408      -132.793 8        51.148
G27        10.000    24328965.781 6 127849660.23606      2882.115 6        39.231                                    24328967.584 5  99623164.86905      2245.801 5        31.125    24328968.437 5  99623166.87505      2245.982 5        34.138
G20        11.000    25257745.152 5 132730464.14505     -3343.231 5        34.924                                    25257742.630 2 103426396.65402     -2605.117 2        14.190
S27        12.000    39256607.546 6 206294986.01306      -445.437 6        36.302
C23        13.000                                                                                                                                    24961135.454 7 129979215.34407      1879.936 7        44.266                                                                    24961128.034 7 105618747.89707      1527.736 7        44.757
S36        14.000    38245763.469 7 200983350.70907      -464.609 7        44.253
C13        15.000                                                                                                                                    37765889.499 7 196656951.09707       -69.547 7        45.082    37765891.300 7 152067662.07607       -53.691 7        45.585    37765889.432 7 159799903.34507       -56.391 7        43.482
G18        16.000    20597971.542 8 108243300.98808       135.443 8        49.494                                    20597967.867 7  84345526.35407       105.540 7        43.137    20597968.352 8  84345534.35808       105.528 8        49.035
R10        17.000    22061859.165 7 117602141.74207      3128.982 7        42.724
R01        18.000    24183346.353 6 129273843.26206     -2535.435 6        37.240                                                                    24183344.623 5 100546197.44705     -1972.032 5        33.988
E02        19.000    23227585.480 8 122061972.34508      -754.288 8        48.489                                                                    23227584.698 8  91150283.48608      -563.194 8        51.202    23227584.061 8  93528102.08508      -577.909 8        51.359
E10        21.000    27963006.566 6 146946814.88106     -3363.843 6        38.321                                                                    27963006.627 6 109733146.39106     -2512.087 6        41.621    27963006.373 6 112595735.04406     -2577.586 6        41.316
I06        22.000    38760345.481 6 152104128.45906      -345.433 6        41.926
S28        23.000    40951570.456 5 215201941.21905      -461.405 5        34.362
E29        24.000    28888038.395 5 151807691.36105     -1203.508 5        34.543                                                                    28888038.488 6 113362889.42306      -898.633 6        36.741    28888038.385 6 116320182.35206      -922.183 6        39.006
S23        25.000    38199328.473 7 200738759.82107      -467.739 7        45.064
S45        26.000    63456825.795 6 333468552.09406      -522.984 6        37.104
R09        27.000    19473519.537 8 103987711.84908       159.513 8        52.346                                                                    19473518.575 8  80879442.74408       124.036 8        49.297
R18        28.000    20400466.414 8 108899370.73008     -3160.604 8        50.192                                                                    20400467.634 7  84699662.22807     -2458.264 7        47.695
C38        29.000                                                                                                                                    38695860.411 7 201499615.81607      -828.893 7        43.664                                                                    38695858.169 7 163734987.54007      -673.534 7        43.812
C44        30.000                                                                                                                                    22516659.719 8 117250377.71008     -2409.089 8        49.049                                                                    22516658.233 8  95275621.34008     -1957.505 8        48.273
C43        31.000                                                                                                                                    24842793.060 7 129363006.43707      2269.692 7        44.041                                                                    24842793.691 7 105118073.09307      1844.406 7        43.143
R02        32.000    23321726.253 7 124449214.48207       605.153 7        44.202                                                                    23321727.070 6  96793839.29006       470.704 6        39.952
I02        33.000    38619222.342 6 151550174.91706      -904.526 6        41.120
R03        34.000    24132501.666 7 129183183.79507      2963.276 7        42.595                                                                    24132501.671 6 100475805.11106      2304.824 6        38.688
E34        35.000    25676049.968 7 134928735.57407      2208.160 7        44.296                                                                    25676051.655 7 100758574.97907      1649.040 7        46.611    25676051.223 7 103387049.17307      1691.964 7        47.457
G29        36.000    21825394.905 7 114693521.12407     -2707.193 7        46.710                                    21825390.641 7  89371685.28207     -2109.502 7        45.165    21825391.002 7  89371695.27907     -2109.519 7        42.391
G31        37.000    22861867.072 7 120140145.65607     -3070.105 7        45.512                                    22861863.904 6  93615795.11606     -2392.292 6        41.523    22861864.053 6  93615801.11406     -2392.191 6        40.765
C22        38.000                                                                                                                                    25697105.979 6 133811584.84006      1657.458 6        41.683                                                                    25697101.791 7 108732853.41307      1347.026 7        42.645
E25        39.000    25731738.363 7 135221410.56207     -3014.850 7        42.885                                                                    25731739.742 7 100977156.90107     -2251.244 7        46.830    25731739.201 7 103611327.91607     -2310.019 7        47.268
C12        40.000                                                                                                                                    21797232.817 8 113504120.88508     -1209.604 8        48.547    21797229.232 8  87768683.34908      -935.356 8        52.047    21797228.713 8  92231469.27308      -982.801 8        49.406
S44        42.000    40568380.619 6 213188432.40206      -406.215 6        38.240
G28        43.000    24065804.477 6 126466828.66306     -3865.941 6        41.011                                    24065803.490 4  98545666.67304     -3012.424 4        25.895    24065803.307 6  98545666.68406     -3012.475 6        40.112
C05        44.000                                                                                                                                    39388331.268 6 205105398.57806      -397.712 6        38.147    39388326.513 7 158600525.16707      -307.634 7        42.427    39388328.158 6 166665037.69106      -323.168 6        39.369
C11        45.000                                                                                                                                    22990588.965 7 119718159.87107      1570.660 7        47.176    22990586.620 8  92573732.45508      1214.574 8        50.576    22990584.960 7  97280848.39507      1276.494 7        47.802
R16        46.000    20838915.923 8 111317947.23708     -4025.308 8        51.117                                                                    20838916.258 7  86580739.24707     -3130.788 7        46.122
R17        47.000    24294152.783 6 130003160.29606     -4348.749 6        41.473                                                                    24294151.269 6 101113703.69506     -3382.363 6        36.412
C35        48.000                                                                                                                                    26591006.450 6 138466515.40406     -3435.835 6        40.577                                                                    26591005.780 6 112515451.32106     -2791.796 6        39.051
C24        49.000                                                                                                                                    23942667.618 7 124675822.61907     -3603.124 7        46.240                                                                    23942665.105 7 101309340.34907     -2927.760 7        45.898
R19        50.000    19371931.576 7 103627032.64407      -250.382 7        43.035                                                                    19371930.359 7  80598916.21807      -194.628 7        45.222
S48        51.000    77201546.148 6 405698365.52606      -502.438 6        38.559
C08        52.000                                                                                                                                    37759372.282 7 196623061.96207      -309.790 7        42.633    37759366.330 7 152041452.90607      -239.555 7        45.538    37759365.711 7 159772361.48607      -251.725 7        42.696
C34        53.000                                                                                                                                    21637323.075 8 112671496.74908       460.689 8        51.273                                                                    21637322.913 8  91554936.22408       374.430 8        49.264
C60        54.000                                                                                                                                    40568377.174 6 211250375.04106      -402.496 6        39.655                                                                    40568363.407 6 171658199.91706      -327.080 6        40.739
C25        55.000                                                                                                                                    22258835.063 8 115907839.95808     -1029.126 8        50.600                                                                    22258833.283 8  94184707.40608      -836.150 8        48.989
C02        57.000                                                                                                                                    40743195.477 5 212160546.34805      -372.549 5        34.257    40743191.830 6 164055981.78206      -287.784 6        39.547    40743193.828 5 172397822.31305      -302.630 5        35.024
I03        58.000    84498409.515 6 255804642.94906      1107.475 6        40.389
E30        59.000    25709308.463 7 135103532.48907      1774.046 7        43.541                                                                    25709309.342 7 100889116.85907      1324.867 7        46.869    25709308.973 7 103520990.67007      1359.410 7        47.788
R20        60.000    22964324.296 6 122800715.62106      3157.588 6        36.291                                                                    22964329.471 6  95511723.03106      2455.850 6        40.257
> 2025 01 02 17 30 15.0000000  0 56
G23         1.000    23934126.473 6 125774732.71806      3043.522 6        41.070                                    23934124.357 4  98006299.88504      2371.576 4        26.204    23934124.750 6  98006297.90706      2371.592 6        40.441
E11         2.000    25381399.059 6 133380347.57206     -2698.214 6        41.097                                                                    25381395.458 7  99602332.03107     -2014.914 7        42.942    25381395.089 7 102200640.02407     -2067.439 7        43.365
G16         3.000    21895629.733 7 115062502.37607      2225.585 7        45.497                                    21895625.725 5  89659174.10805      1734.219 5        32.305
G05         4.000    23095989.310 7 121370337.64907     -1620.663 7        43.363                                    23095985.569 6  94574313.02606     -1262.853 6        38.604    23095986.159 6  94574312.02206     -1262.682 6        38.889
S21         5.000    38475413.609 7 202189345.22107      -465.224 7        42.599
G26         6.000    20597375.127 8 108240172.24108       167.009 8        50.227                                    20597374.585 8  84343122.59108       130.137 8        51.399    20597374.857 7  84343109.59207       130.149 7        46.014
G25         7.000    24294266.334 6 127667402.26406     -4244.383 6        39.619                                    24294266.688 5  99481177.28905     -3307.311 5        34.010    24294267.715 6  99481178.28806     -3307.376 6        37.713
E36         9.000    23440204.525 8 123179296.73108      -175.501 8        48.418                                                                    23440205.274 8  91984682.68208      -131.057 8        50.831    23440204.822 8  94384270.44508      -134.478 8        51.166
G27        10.000    24326223.801 6 127835250.00906      2881.601 6        39.556                                    24326225.343 5  99611936.16605      2245.393 5        31.140    24326226.242 5  99611938.15805      2245.760 5        33.916
G20        11.000    25260927.021 5 132747183.62605     -3344.961 5        34.481                                    25260924.261 2 103439424.81502     -2606.449 2        14.524
S27        12.000    39257031.505 6 206297211.45606      -445.267 6        36.367
C23        13.000                                                                                                                                    24959330.860 7 129969819.59707      1877.995 7        44.417                                                                    24959323.695 7 105611113.08507      1526.108 7        44.823
S36        14.000    38246204.707 7 200985672.76107      -464.631 7        44.239
C13        15.000                                                                                                                                    37765956.450 7 196657300.53207       -70.580 7        44.858    37765958.209 7 152067932.29407       -54.567 7        45.734    37765956.566 7 159800187.29407       -57.279 7        43.553
G18        16.000    20597843.985 8 108242630.32608       132.535 8        49.695                                    20597840.242 7  84345003.76207       103.278 7        43.278    20597840.580 8  84345011.76708       103.232 8        49.185
R10        17.000    22058924.989 7 117586501.12407      3126.850 7        42.320
R01        18.000    24185718.620 6 129286528.61506     -2538.841 6        36.427                                                                    24185718.905 5 100556063.83305     -1974.695 5        34.129
E02        19.000    23228303.918 8 122065747.56808      -756.161 8        48.573                                                                    23228303.054 8  91153102.65408      -564.673 8        51.127    23228302.482 8  93530994.79608      -579.406 8        51.406
E10        21.000    27966207.507 6 146963635.13206     -3364.362 6        38.366                                                                    27966207.389 6 109745706.96706     -2512.340 6        41.445    27966207.201 6 112608623.28306     -2577.865 6        41.378
I06        22.000    38760785.381 6 152105855.01406      -345.402 6        41.897
S28        23.000    40952009.015 5 215204246.66505      -461.204 5        34.219
E29        24.000    28889184.011 5 151813713.44105     -1205.973 5        33.575                                                                    28889184.000 6 113367386.42806      -900.479 6        36.106    28889184.320 6 116324796.65606      -923.878 6        38.838
S23        25.000    38199774.334 7 200741098.30407      -467.947 7        45.076
S45        26.000    63457272.657 6 333471167.11006      -523.087 6        37.410
R09        27.000    19473371.999 8 103986924.29808       155.170 8        52.211                                                                    19473370.902 8  80878830.21308       120.646 8        48.819
R18        28.000    20403427.482 8 108915177.26308     -3162.380 8        49.997                                                                    20403428.339 7  84711956.20107     -2459.668 7        47.107
C38        29.000                                                                                                                                    38696656.413 7 201503761.81507      -829.835 7        43.710                                                                    38696654.457 7 163738356.49807      -674.234 7        43.924
C44        30.000                                                                                                                                    22518973.240 8 117262425.64108     -2410.326 8        48.776                                                                    22518971.844 8  95285411.26308     -1958.520 8        48.464
C43        31.000                                                                                                                                    24840613.409 7 129351659.20707      2268.927 7        43.687                                                                    24840614.453 7 105108852.54807      1843.757 7        43.289
R02        32.000    23321161.534 7 124446198.26607       601.097 7        43.718                                                                    23321161.233 6  96791493.35106       467.561 6        38.904
I02        33.000    38620375.195 6 151554698.00706      -904.851 6        41.216
R03        34.000    24129734.130 7 129168369.95707      2961.773 7        42.116                                                                    24129735.521 6 100464283.27906      2303.693 6        38.952
E34        35.000    25673949.687 7 134917696.78607      2206.942 7        44.471                                                                    25673951.055 7 100750331.75407      1648.072 7        46.556    25673950.633 7 103378590.89907      1691.068 7        47.421
G29        36.000    21827970.955 7 114707059.78907     -2708.553 7        46.649                                    21827966.997 7  89382234.89307     -2110.562 7        45.242    21827967.271 6  89382244.89406     -2110.578 6        41.874
G31        37.000    22864788.939 7 120155500.60307     -3072.207 7        45.720                                    22864785.854 6  93627760.01006     -2393.932 6        41.588    22864786.314 6  93627766.01706     -2393.931 6        41.182
C22        38.000                                                                                                                                    25695515.039 6 133803300.75906      1655.728 6        41.630                                                                    25695510.848 7 108726121.93307      1345.494 7        42.580
E25        39.000    25734607.426 7 135236486.76507     -3015.928 7        43.081                                                                    25734608.508 7 100988415.11107     -2252.102 7        46.510    25734607.972 7 103622879.81707     -2310.939 7        47.280
C12        40.000                                                                                                                                    21798394.837 8 113510172.42408     -1211.306 8        48.508    21798391.586 8  87773362.78908      -936.672 8        52.152    21798390.823 8  92236386.64608      -984.251 8        49.553
S44        42.000    40568766.833 6 213190462.99506      -406.280 6        38.135
G28        43.000    24069483.075 6 126486159.98106     -3866.680 6        40.834                                    24069482.133 4  98560730.03304     -3012.986 4        25.669    24069481.788 6  98560730.03706     -3013.165 6        39.255
C05        44.000                                                                                                                                    39388713.767 6 205107386.91006      -397.607 6        38.060    39388708.505 7 158602062.67907      -307.621 7        42.614    39388710.222 6 166666653.38306      -323.160 6        39.300
C11        45.000                                                                                                                                    22989081.446 7 119710309.14707      1569.297 7        47.375    22989079.057 8  92567661.79308      1213.452 8        50.573    22989077.353 7  97274469.04807      1275.267 7        47.963
R16        46.000    20842685.349 8 111338079.96708     -4028.061 8        51.230                                                                    20842685.265 7  86596398.03207     -3132.972 7        46.356
R17        47.000    24298215.871 6 130024902.90106     -4348.393 6        41.480                                                                    24298212.913 6 101130614.58806     -3382.321 6        36.095
C35        48.000                                                                                                                                    26594305.114 6 138483693.78706     -3435.803 6        40.291                                                                    26594304.664 6 112529410.16906     -2791.788 6        39.258
C24        49.000                                                                                                                                    23946127.627 7 124693840.62307     -3604.309 7        45.461                                                                    23946125.506 7 101323981.43607     -2928.759 7        46.099
R19        50.000    19372167.057 7 103628291.18307      -253.430 7        42.571                                                                    19372165.577 7  80599895.08107      -197.086 7        45.251
S48        51.000    77201997.804 6 405699278.10116      -502.869 6        38.144
C08        52.000                                                                                                                                    37759670.173 7 196624613.26907      -310.996 7        42.290    37759663.981 7 152042652.47307      -240.483 7        45.592    37759663.584 7 159773622.03807      -252.604 7        42.870
C34        53.000                                                                                                                                    21636881.552 8 112669196.97308       458.925 8        51.280                                                                    21636881.294 8  91553067.46208       373.001 8        49.360
C60        54.000                                                                                                                                    40568763.477 6 211252387.17106      -402.671 6        39.405                                                                    40568749.836 6 171659834.95006      -327.193 6        40.779
C25        55.000                                                                                                                                    22259824.323 8 115912991.98608     -1031.961 8        50.499                                                                    22259822.685 8  94188893.85608      -838.540 8        49.056
C02        57.000                                                                                                                                    40743553.667 5 212162407.69305      -372.404 5        34.043    40743549.153 6 164057421.10406      -288.139 6        39.486    40743551.254 5 172399334.81305      -302.728 5        35.033
I03        58.000    84496998.518 6 255799105.12306      1107.547 6        40.367
E30        59.000    25707620.875 7 135094663.47807      1773.103 7        43.674                                                                    25707621.580 7 100882493.91007      1324.090 7        46.812    25707621.269 7 103514194.94307      1358.575 7        47.879
R20        60.000    22961372.320 6 122784930.51306      3156.388 6        37.384                                                                    22961376.376 6  95499445.80106      2454.815 6        41.638
> 2025 01 02 17 30 20.0000000  0 56
G23         1.000    23931230.925 6 125759514.39406      3043.407 6        40.920                                    23931228.190 4  97994441.48104      2371.469 4        26.443    23931229.023 6  97994439.50206      2371.383 6        40.400
E11         2.000    25383966.717 6 133393840.58206     -2699.241 6        41.144                                                                    25383963.118 7  99612407.97507     -2015.636 7        42.973    25383962.761 7 102210978.82607     -2068.278 7        43.247
G16         3.000    21893512.767 7 115051377.85207      2223.834 7        45.699                                    21893508.765 5  89650505.66005      1732.850 5        32.383
G05         4.000    23097532.528 7 121378447.55707     -1623.799 7        43.043                                    23097528.753 6  94580632.44406     -1265.302 6        38.568    23097529.615 6  94580631.44806     -1265.253 6        39.847
S21         5.000    38475857.923 7 202191669.67607      -464.985 7        42.521
G26         6.000    20597217.547 8 108239343.54308       164.168 8        50.156                                    20597216.893 8  84342476.85708       127.922 8        51.409    20597216.827 7  84342463.86607       127.847 7        45.928
G25         7.000    24298305.165 6 127688624.37706     -4244.654 6        39.664                                    24298305.096 5  99497713.99605     -3307.521 5        34.024    24298306.071 6  99497715.00306     -3307.539 6        37.444
E36         9.000    23440372.403 8 123180178.19908      -177.456 8        48.412                                                                    23440373.069 8  91985340.92108      -132.498 8        50.825    23440372.624 8  94384945.85808      -135.991 8        51.042
G27        10.000    24323481.944 6 127820841.42006      2881.297 6        39.763                                    24323483.407 5  99600708.74105      2245.163 5        31.019    24323483.844 5  99600710.74705      2245.390 5        32.976
G20        11.000    25264110.006 5 132763910.92905     -3346.412 5        34.929                                    25264107.327 2 103452459.06902     -2607.610 2        14.286
S27        12.000    39257452.369 6 206299436.35506      -445.190 6        36.280
C23        13.000                                                                                                                                    24957527.829 7 129960432.61107      1876.364 7        43.964                                                                    24957521.030 7 105603485.41107      1524.737 7        44.996
S36        14.000    38246645.555 7 200987994.11407      -464.282 7        44.152
