     3.04           OBSERVATION DATA    M                   RINEX VERSION / TYPE
ssrcrin-15.6.1x                         20250102 061500 UTC PGM / RUN BY / DATE 
(00000000023479385599111004) Septentrio proprietary         COMMENT             
rref                                                        MARKER NAME         
01                                                          MARKER NUMBER       
geodetic                                                    MARKER TYPE         
NFB                 CLIMERS@TUW                             OBSERVER / AGENCY   
3297213             SEPT ASTERX SB3 PROB4.14.4              REC # / TYPE / VERS 
Unknown             Unknown                                 ANT # / TYPE        
  4127831.4704  1207193.1494  4695247.4379                  APPROX POSITION XYZ 
        0.0000        0.0000        0.0000                  ANTENNA: DELTA H/E/N
G   23 X1  C1C L1C D1C S1C C1W S1W C2W L2W D2W S2W C2L L2L  SYS / # / OBS TYPES 
       D2L S2L C5Q L5Q D5Q S5Q C1L L1L D1L S1L              SYS / # / OBS TYPES 
E   21 X1  C1C L1C D1C S1C C6C L6C D6C S6C C5Q L5Q D5Q S5Q  SYS / # / OBS TYPES 
       C7Q L7Q D7Q S7Q C8Q L8Q D8Q S8Q                      SYS / # / OBS TYPES 
S    9 X1  C1C L1C D1C S1C C5I L5I D5I S5I                  SYS / # / OBS TYPES 
R   17 X1  C1C L1C D1C S1C C2P L2P D2P S2P C2C L2C D2C S2C  SYS / # / OBS TYPES 
       C3Q L3Q D3Q S3Q                                      SYS / # / OBS TYPES 
C   25 X1  C1P L1P D1P S1P C5P L5P D5P S5P C2I L2I D2I S2I  SYS / # / OBS TYPES 
       C7I L7I D7I S7I C6I L6I D6I S6I C7D L7D D7D S7D      SYS / # / OBS TYPES 
J   17 X1  C1C L1C D1C S1C C2L L2L D2L S2L C5Q L5Q D5Q S5Q  SYS / # / OBS TYPES 
       C1L L1L D1L S1L                                      SYS / # / OBS TYPES 
I    5 X1  C5A L5A D5A S5A                                  SYS / # / OBS TYPES 
SEPTENTRIO RECEIVERS OUTPUT ALIGNED CARRIER PHASES.         COMMENT             
NO FURTHER PHASE SHIFT APPLIED IN THE RINEX ENCODER.        COMMENT             
G L1C                                                       SYS / PHASE SHIFT   
G L2W                                                       SYS / PHASE SHIFT   
G L2L  0.00000                                              SYS / PHASE SHIFT   
G L5Q  0.00000                                              SYS / PHASE SHIFT   
G L1L  0.00000                                              SYS / PHASE SHIFT   
E L1C  0.00000                                              SYS / PHASE SHIFT   
E L6C  0.00000                                              SYS / PHASE SHIFT   
E L5Q  0.00000                                              SYS / PHASE SHIFT   
E L7Q  0.00000                                              SYS / PHASE SHIFT   
E L8Q  0.00000                                              SYS / PHASE SHIFT   
S L1C                                                       SYS / PHASE SHIFT   
S L5I                                                       SYS / PHASE SHIFT   
R L1C                                                       SYS / PHASE SHIFT   
R L2P  0.00000                                              SYS / PHASE SHIFT   
R L2C                                                       SYS / PHASE SHIFT   
R L3Q  0.00000                                              SYS / PHASE SHIFT   
C L1P  0.00000                                              SYS / PHASE SHIFT   
C L5P  0.00000                                              SYS / PHASE SHIFT   
C L2I                                                       SYS / PHASE SHIFT   
C L7I                                                       SYS / PHASE SHIFT   
C L6I                                                       SYS / PHASE SHIFT   
C L7D                                                       SYS / PHASE SHIFT   
J L1C                                                       SYS / PHASE SHIFT   
J L2L  0.00000                                              SYS / PHASE SHIFT   
J L5Q  0.00000                                              SYS / PHASE SHIFT   
J L1L  0.00000                                              SYS / PHASE SHIFT   
I L5A                                                       SYS / PHASE SHIFT   
  2025     1     2     6    15    0.0000000     GPS         TIME OF FIRST OBS   
 C1C    0.000 C2C    0.000 C2P    0.000                     GLONASS COD/PHS/BIS 
DBHZ                                                        SIGNAL STRENGTH UNIT
    18                                                      LEAP SECONDS        
 24 R01  1 R02 -4 R03  5 R04  6 R05  1 R06 -4 R07  5 R08  6 GLONASS SLOT / FRQ #
    R09 -2 R10 -7 R11  0 R12 -1 R13 -2 R14 -7 R15  0 R16 -1 GLONASS SLOT / FRQ #
    R17  4 R18 -3 R19  3 R20  2 R21  4 R22 -3 R23  3 R24  2 GLONASS SLOT / FRQ #
                                                            END OF HEADER       
> 2025 01 02 06 15  0.0000000  0 55
G09         1.000    22558337.658 7 118544876.64907     -3251.233 7        44.318                                    22558336.050 7  92372631.73807     -2533.427 7        42.783    22558336.245 6  92372631.74206     -2533.392 6        41.747
G06         2.000    25295539.963 6 132928948.38106     -3973.225 6        37.815                                    25295540.798 5 103580995.44605     -3096.010 5        30.460    25295541.001 6 103581003.41806     -3095.812 6        36.866
E11         3.000    26183244.172 6 137593885.37306     -2981.964 6        39.565                                                                    26183239.949 6 102748669.19006     -2226.899 6        41.256    26183239.547 6 105429065.65306     -2284.823 6        41.578
G16         4.000    25429829.778 5 133634652.34005     -3686.323 5        32.210                                    25429825.804 1 104130876.70001     -2872.486 1         7.875
S21         5.000    38538442.224 7 202520560.24007      -470.689 7        42.360
E10         6.000    27530589.765 6 144674215.55606     -3614.760 6        39.802                                                                    27530590.370 7 108035930.80007     -2699.274 7        42.525    27530589.842 7 110854259.61107     -2769.717 7        42.692
G20         7.000    20775809.811 8 109177623.91008      -148.543 8        48.176                                    20775804.812 6  85073453.55206      -115.746 6        39.417
R02         8.000    22181266.054 7 118363489.79707      2878.030 7        47.195                                                                    22181264.932 7  92060492.80407      2238.408 7        42.485
R10         9.000    21380212.672 7 113968556.93307     -3501.974 7        43.776
R17        10.000    22790487.066 7 121956506.04507     -2390.628 7        46.325                                                                    22790485.001 6  94855054.12806     -1859.394 6        40.632
G30        11.000    20730625.622 8 108940181.12508       611.591 8        50.739                                    20730623.448 8  84888444.48308       476.566 8        51.747    20730623.919 7  84888452.48107       476.530 7        44.928
S27        12.000    39190020.824 6 205944911.17306      -492.978 6        36.000
G13        13.000    23347999.758 6 122694569.02406      2653.906 6        41.614                                    23347994.408 3  95606136.67703      2067.984 3        23.600
S36        14.000    38306675.103 7 201303478.03207      -471.194 7        44.634
I09        15.000    38785393.299 7 152202168.30707      -894.612 7        42.542
E09        16.000    25847787.076 7 135831061.97007      1575.912 7        44.363                                                                    25847786.715 7 101432285.81807      1176.911 7        46.202    25847786.268 7 104078341.66807      1207.505 7        47.215
S45        17.000    63489583.439 6 333641323.55506      -513.340 6        36.945
E36        18.000    26161811.488 7 137481243.10607      -663.318 7        43.115                                                                    26161811.292 7 102664584.96307      -495.264 7        45.275    26161810.942 7 105342789.76707      -508.144 7        45.666
E12        19.000    29140571.249 3                     -3624.265 3        20.357                                                                    29140572.642 4 114353806.73404     -2705.462 4        24.406    29140572.004 4 117336950.83804     -2776.894 4        24.632
E21        20.000    25903154.420 7 136121984.86107      -849.444 7        43.992                                                                    25903154.530 7 101649547.08507      -634.329 7        45.964    25903154.156 7 104301270.99307      -650.951 7        46.781
G11        21.000    23667319.348 7 124372609.51007     -3237.811 7        43.924                                    23667315.795 4  96913701.54104     -2522.966 4        29.469    23667315.437 7  96913714.54807     -2522.992 7        42.292
I06        22.000    38063442.973 7 149369340.09507      -369.858 7        43.073
S28        23.000    40968742.949 5 215292144.87705      -473.619 5        35.157
R08        24.000    21345035.127 7 114301715.95807     -3198.281 7        47.828                                                                    21345033.700 7  88901334.31007     -2487.456 7        44.281
S23        25.000    38242362.675 7 200964934.14807      -468.127 7        45.099
R01        26.000    19399601.164 8 103701992.97508       354.355 8        48.652                                                                    19399600.945 6  80657098.10206       275.555 6        41.914
C44        27.000                                                                                                                                    26704977.971 6 139059826.92806     -2459.093 6        37.308                                                                    26704975.411 6 112997494.92806     -1998.221 6        36.877
R24        29.000    24379565.828 6 130368493.95706     -4351.421 6        41.850                                                                    24379564.923 5 101397702.68705     -3384.547 5        35.533
E19        30.000    25544311.703 6 134236275.76606     -2560.736 6        39.219                                                                    25544310.534 6 100241371.31806     -1912.184 6        41.535    25544310.001 6 102856361.05406     -1962.041 6        41.812
G14        31.000    24111380.114 6 126706154.61306      3080.734 6        40.148                                    24111378.862 4  98732067.27904      2400.575 4        26.072    24111379.230 6  98732053.27906      2400.637 6        41.328
C37        33.000                                                                                                                                    24503369.407 7 127595460.61807     -2910.967 7        45.926                                                                    24503372.788 7 103681772.54407     -2365.375 7        45.956
E04        34.000    23402623.300 8 122981648.56608      -338.807 8        48.714                                                                    23402621.243 8  91836955.78308      -253.005 8        50.934    23402621.068 8  94232698.04308      -259.559 8        51.488
C16        35.000                                                                                                                                    41235656.786 6 214724853.29106     -1422.622 6        37.497    41235659.592 6 166038873.22706     -1100.248 6        38.219    41235656.767 5 174481519.31505     -1156.076 5        33.784
R12        36.000    22759123.467 7 121575143.70607      3965.855 7        46.283                                                                    22759124.849 7  94558447.85507      3084.671 7        43.372
I01        37.000   387659757.438 6 218119293.10206     -3036.331 6        41.051
E27        38.000    28984648.028 4 152315339.73704     -2948.980 4        29.128                                                                    28984648.525 5 113741981.58205     -2202.525 5        32.491    28984647.627 5 116709160.51605     -2259.905 5        32.593
C19        39.000                                                                                                                                    21907414.090 8 114077654.22608      -510.100 8        51.686                                                                    21907409.212 8  92697415.59008      -414.450 8        49.925
E34        40.000    28540988.041 6 149983909.26006      1657.092 6        36.215                                                                    28540987.933 6 112000972.03706      1237.204 6        40.069    28540987.607 6 114922736.09906      1269.536 6        40.870
G05        41.000    22277547.197 7 117069314.05607      2144.427 7        46.004                                    22277542.617 7  91222824.32207      1670.982 7        43.173    22277543.714 6  91222833.33106      1670.930 6        41.881
S44        42.000    40945643.428 6 215170894.39206      -518.010 6        37.546
C36        43.000                                                                                                                                    24136192.126 7 125683482.73807      2657.260 7        46.332                                                                    24136197.352 7 102128144.06107      2159.318 7        46.495
C05        44.000                                                                                                                                    39353587.084 6 204924461.01606      -528.746 6        38.895    39353583.048 6 158460608.82706      -408.863 6        41.907    39353585.498 6 166518007.86106      -429.658 6        40.386
R18        45.000    23314671.058 7 124455314.76607       681.568 7        43.642                                                                    23314670.753 7  96798561.88507       530.214 7        42.167
G04        46.000    25120402.353 6 132008527.67806     -3659.411 6        36.053                                    25120405.750 2 102863745.93402     -2851.504 2        15.952    25120405.320 5 102863747.90505     -2851.449 5        35.914
R11        47.000    19619859.399 8 104842559.20808       692.699 8        51.737                                                                    19619857.176 8  81544216.08408       538.796 8        48.743
C20        49.000                                                                                                                                    23953408.920 8 124731691.10108     -2955.003 8        48.355                                                                    23953403.960 7 101354695.93307     -2401.213 7        46.839
C06        50.000                                                                                                                                    40691454.448 5 211891058.89705     -1475.390 5        35.967    40691451.392 6 163847577.63106     -1140.949 6        39.381    40691450.781 6 172178812.15206     -1198.785 6        36.412
S48        51.000    77265378.788 6 406031957.12006      -455.362 6        37.860
E06        52.000    24074761.571 7 126513751.79107       821.695 7        47.950                                                                    24074761.227 8  94474566.41008       613.554 8        50.098    24074761.092 8  96939118.19108       629.605 8        50.760
C09        53.000                                                                                                                                    39885613.072 6 207694851.18206     -1259.805 6        38.087    39885610.181 7 160602818.73507      -974.190 7        43.719    39885608.230 6 168769054.73206     -1023.698 6        39.766
C60        54.000                                                                                                                                    40945638.624 6 213214814.12006      -513.219 6        39.685                                                                    40945626.749 6 173254455.27106      -416.938 6        38.904
E31        55.000    28117104.698 6 147756367.69506      2728.698 6        37.134                                                                    28117109.244 6 110337573.94006      2037.685 6        38.568    28117108.525 6 113215942.18806      2090.856 6        39.712
G07        56.000    21170930.136 8 111254003.61108     -1646.311 8        48.594                                    21170925.406 8  86691413.83708     -1282.838 8        48.632    21170925.375 7  86691422.84407     -1282.837 7        45.278
C02        57.000                                                                                                                                    40926567.601 5 213115343.95705      -545.372 5        32.737    40926568.386 6 164794273.84406      -421.866 6        40.408    40926569.517 5 173173659.12505      -443.126 5        34.910
I03        58.000    98256864.000 6 309795697.62106       852.656 6        40.112
> 2025 01 02 06 15  5.0000000  0 55
G09         1.000    22561431.412 7 118561134.83007     -3252.095 7        44.084                                    22561429.881 7  92385300.43607     -2534.096 7        42.753    22561429.654 6  92385300.44206     -2534.104 6        41.273
G06         2.000    25299320.955 6 132948812.83606     -3972.729 6        37.561                                    25299320.933 5 103596474.21605     -3095.631 5        30.438    25299321.257 6 103596482.19706     -3095.404 6        36.231
E11         3.000    26186081.624 6 137608798.17706     -2983.267 6        40.083                                                                    26186077.895 6 102759805.34906     -2227.790 6        41.507    26186077.411 6 105440492.33306     -2285.866 6        41.757
G16         4.000    25433338.768 5 133653088.94205     -3688.289 5        31.713                                    25433334.270 1 104145242.88001     -2873.902 1         5.714
S21         5.000    38538887.115 7 202522913.49307      -470.529 7        42.931
E10         6.000    27534029.493 6 144692289.19706     -3614.838 6        40.126                                                                    27534029.645 7 108049427.30507     -2699.393 7        42.646    27534029.050 7 110868108.21307     -2769.743 7        42.705
G20         7.000    20775952.565 8 109178374.33208      -151.674 8        48.195                                    20775947.613 6  85074038.29106      -118.184 6        39.544
R02         8.000    22178569.986 7 118349100.91107      2877.465 7        47.444                                                                    22178569.182 7  92049301.45507      2238.094 7        42.991
R10         9.000    21383498.635 7 113986074.16507     -3504.951 7        43.727
R17        10.000    22792722.693 7 121968468.00107     -2394.217 7        46.672                                                                    22792720.686 6  94864357.83906     -1862.131 6        41.597
G30        11.000    20730044.851 8 108937128.83208       609.306 8        50.448                                    20730042.620 8  84886066.07008       474.784 8        51.842    20730043.267 7  84886074.06507       474.770 7        45.204
S27        12.000    39190487.402 6 205947374.88206      -492.555 6        36.476
G13        13.000    23345475.067 6 122681300.65506      2653.408 6        41.573                                    23345469.600 3  95595797.69003      2067.590 3        23.467
S36        14.000    38307129.451 7 201305833.08507      -470.995 7        45.166
I09        15.000    38786533.010 7 152206641.75707      -894.675 7        42.428
E09        16.000    25846288.338 7 135823182.81407      1575.665 7        44.296                                                                    25846287.390 7 101426402.04207      1176.590 7        46.343    25846287.035 7 104072304.39707      1207.308 7        47.169
S45        17.000    63490028.303 6 333643890.20306      -513.189 6        36.760
E36        18.000    26162443.736 7 137484565.28107      -665.643 7        43.179                                                                    26162443.492 7 102667065.79407      -497.059 7        45.309    26162443.036 7 105345335.31707      -510.047 7        45.675
E12        19.000    29144021.584 3                     -3620.560 3        18.716                                                                                                                                    29144019.548 4 117350831.70804     -2775.387 4        24.526
E21        20.000    25903963.680 7 136126237.77907      -851.738 7        44.235                                                                    25903963.881 7 101652722.95207      -635.974 7        46.006    25903963.507 7 104304529.71307      -652.676 7        46.821
G11        21.000    23670401.111 7 124388802.22507     -3239.248 7        43.302                                    23670397.195 4  96926319.23004     -2524.101 4        29.517    23670397.096 6  96926332.23006     -2524.215 6        41.647
I06        22.000    38063913.842 7 149371188.94007      -369.747 7        42.711
S28        23.000    40969199.283 5 215294513.61505      -473.797 5        34.757
R08        24.000    21348022.035 8 114317711.15108     -3199.886 8        48.072                                                                    21348020.633 7  88913775.00707     -2488.835 7        44.366
S23        25.000    38242812.100 7 200967274.46207      -467.975 7        45.394
R01        26.000    19399270.999 8 103700227.27408       351.911 8        48.598                                                                    19399270.830 7  80655724.75407       273.639 7        42.133
C44        27.000                                                                                                                                    26707339.761 6 139072125.56306     -2460.477 6        36.567                                                                    26707337.273 6 113007488.55106     -1999.283 6        36.752
R24        29.000    24383636.352 7 130390251.31007     -4351.517 7        42.510                                                                    24383634.306 5 101414625.04005     -3384.379 5        35.414
E19        30.000    25546747.987 6 134249079.60906     -2560.967 6        39.369                                                                    25546747.048 6 100250932.61406     -1912.412 6        41.430    25546746.587 6 102866171.78106     -1962.352 6        41.762
G14        31.000    24108448.822 6 126690750.82206      3080.781 6        40.877                                    24108447.593 4  98720064.31104      2400.617 4        26.275    24108447.478 6  98720050.30606      2400.595 6        41.104
C37        33.000                                                                                                                                    24506164.959 7 127610018.74807     -2912.412 7        45.514                                                                    24506168.501 7 103693602.22307     -2366.573 7        45.883
E04        34.000    23402945.864 8 122983344.33508      -339.676 8        48.772                                                                    23402943.966 8  91838222.09108      -253.609 8        50.953    23402943.751 8  94233997.39408      -260.254 8        51.536
C16        35.000                                                                                                                                    41237022.806 6 214731966.92706     -1422.748 6        36.934    41237026.175 6 166044373.87806     -1099.919 6        38.318    41237023.071 5 174487299.69205     -1156.141 5        33.748
R12        36.000    22755411.361 7 121555316.29707      3964.964 7        46.305                                                                    22755412.449 7  94543026.53507      3083.900 7        43.549
I01        37.000   387663626.274 6 218134474.61406     -3036.356 6        41.180
E27        38.000    28987455.022 4 152330090.12904     -2951.090 4        28.815                                                                    28987455.455 5 113752996.46605     -2203.610 5        32.359    28987454.365 5 116720462.73005     -2260.759 5        32.275
C19        39.000                                                                                                                                    21907904.803 8 114080209.15508      -511.949 8        51.642                                                                    21907899.869 8  92699491.69308      -416.033 8        49.975
E34        40.000    28539412.701 6 149975628.37006      1655.333 6        37.047                                                                    28539412.156 6 111994788.24306      1236.178 6        40.122    28539411.771 6 114916390.98806      1268.425 6        41.187
G05        41.000    22275507.868 7 117058597.20207      2142.271 7        45.747                                    22275503.271 7  91214473.52707      1669.302 7        43.238    22275503.856 6  91214482.52506      1669.399 6        41.905
S44        42.000    40946133.487 6 215173483.51906      -517.794 6        37.350
C36        43.000                                                                                                                                    24133641.075 7 125670198.49607      2656.295 7        46.509                                                                    24133646.263 7 102117349.54107      2158.470 7        46.502
C05        44.000                                                                                                                                    39354094.935 6 204927104.63806      -528.698 6        39.189    39354090.747 6 158462653.02906      -408.780 6        41.697    39354093.134 6 166520156.02306      -429.699 6        40.307
R18        45.000    23314034.399 7 124451915.97907       677.723 7        43.342                                                                    23314033.435 7  96795918.38707       527.281 7        42.516
G04        46.000    25123883.870 6 132026824.08306     -3659.579 6        36.178                                    25123887.633 2 102878002.79202     -2851.586 2        15.619    25123886.961 5 102878004.72705     -2851.325 5        35.567
R11        47.000    19619212.841 8 104839105.95808       688.555 8        51.538                                                                    19619211.632 8  81541530.22108       535.504 8        48.862
C20        49.000                                                                                                                                    23956246.953 8 124746468.93608     -2956.235 8        48.111                                                                    23956241.931 7 101366704.12107     -2402.175 7        46.910
C06        50.000                                                                                                                                    40692870.049 5 211898435.03305     -1474.951 5        35.219    40692867.891 6 163853281.29306     -1140.549 6        39.093    40692867.246 6 172184805.86306     -1198.641 6        36.378
S48        51.000    77265815.777 6 406034232.23306      -454.799 6        38.045
E06        52.000    24073980.261 7 126509644.88907       820.950 7        47.790                                                                    24073979.688 8  94471499.54908       613.093 8        50.201    24073979.566 8  96935971.32808       629.144 8        50.835
C09        53.000                                                                                                                                    39886823.027 6 207701149.78906     -1259.611 6        38.249    39886819.949 7 160607689.20907      -974.080 7        43.543    39886817.960 6 168774172.87406     -1023.655 6        39.706
C60        54.000                                                                                                                                    40946131.544 6 213217379.69206      -512.982 6        39.784                                                                    40946119.629 6 173256540.02206      -417.009 6        39.078
E31        55.000    28114508.500 6 147742723.99406      2728.857 6        37.259                                                                    28114512.907 6 110327385.46806      2037.910 6        38.694    28114512.343 6 113205487.92606      2090.962 6        39.733
G07        56.000    21172497.320 8 111262239.45308     -1648.106 8        48.691                                    21172492.647 8  86697831.37008     -1284.237 8        48.719    21172492.896 7  86697840.36907     -1284.261 7        45.410
C02        57.000                                                                                                                                    40927090.325 5 213118070.19105      -544.930 5        33.401    40927091.418 6 164796381.91006      -421.609 6        40.524    40927093.403 5 173175874.38805      -443.013 5        35.238
I03        58.000    98255777.895 6 309791434.32306       852.642 6        39.760
> 2025 01 02 06 15 10.0000000  0 55
G09         1.000    22564525.883 7 118577397.99307     -3253.260 7        43.562                                    22564524.557 7  92397973.01507     -2535.006 7        42.574    22564524.775 6  92397973.00006     -2534.955 6        41.120
G06         2.000    25303099.604 6 132968675.38806     -3972.415 6        37.611                                    25303100.639 5 103611951.50305     -3095.379 5        30.098    25303100.385 6 103611959.47206     -3095.201 6        36.170
E11         3.000    26188921.127 6 137623717.69306     -2984.697 6        39.928                                                                    26188917.023 6 102770946.54306     -2228.823 6        41.492    26188916.530 6 105451924.18106     -2286.907 6        41.492
G16         4.000    25436848.073 5 133671534.35805     -3690.508 5        32.371                                    25436844.204 1 104159615.87501     -2875.738 1         4.571
S21         5.000    38539338.727 7 202525266.41007      -470.468 7        43.162
E10         6.000    27537469.180 6 144710363.99306     -3615.216 6        40.493                                                                    27537469.090 7 108062924.71307     -2699.718 7        42.626    27537468.590 7 110881957.71807     -2770.118 7        42.698
G20         7.000    20776098.605 7 109179140.89207      -155.048 7        47.996                                    20776093.486 6  85074635.60806      -120.815 6        39.523
R02         8.000    22175874.346 7 118334714.44607      2877.003 7        47.573                                                                    22175873.225 7  92038111.98407      2237.518 7        43.132
R10         9.000    21386787.574 7 114003606.37307     -3508.088 7        43.791
R17        10.000    22794961.379 7 121980448.06107     -2397.925 7        47.543                                                                    22794959.755 6  94873675.69906     -1864.975 6        41.547
G30        11.000    20729466.268 8 108934088.34608       606.784 8        50.542                                    20729464.033 8  84883696.85608       472.822 8        51.828    20729464.455 7  84883704.85507       472.790 7        44.977
S27        12.000    39190955.089 6 205949837.45806      -492.734 6        36.087
G13        13.000    23342950.603 6 122668035.19006      2652.687 6        41.919                                    23342945.266 3  95585460.96103      2067.026 3        23.581
S36        14.000    38307576.063 7 201308188.15807      -471.213 7        45.108
I09        15.000    38787673.007 7 152211115.55607      -894.873 7        42.427
E09        16.000    25844789.594 7 135815305.83607      1575.091 7        44.572                                                                    25844788.402 7 101420519.87707      1176.197 7        46.288    25844788.019 7 104066268.78207      1206.864 7        47.046
S45        17.000    63490476.467 6 333644856.46616      -513.078 6        37.002
E36        18.000    26163078.099 7 137487899.99907      -668.370 7        43.638                                                                    26163078.080 7 102669556.01207      -499.045 7        45.321    26163077.720 7 105347890.49907      -512.040 7        45.654
E12        19.000    29147467.425 3                     -3623.301 3        18.836                                                                    29147466.102 3 114380860.48703     -2705.108 3        23.619    29147466.087 4 117364710.34704     -2775.983 4        24.000
E21        20.000    25904775.261 7 136130502.70607      -854.412 7        44.125                                                                    25904775.394 7 101655907.79907      -638.004 7        46.036    25904775.113 7 104307797.63207      -654.623 7        46.868
G11        21.000    23673483.699 7 124405002.87807     -3241.044 7        43.033                                    23673480.092 4  96938943.10804     -2525.487 4        29.526    23673479.897 6  96938956.11106     -2525.518 6        41.955
I06        22.000    38064384.792 7 149373037.76607      -369.787 7        42.830
S28        23.000    40969651.216 5 215296882.30405      -473.983 5        35.133
R08        24.000    21351010.204 7 114333715.53807     -3201.900 7        46.637                                                                    21351009.574 7  88926222.84607     -2490.366 7        44.956
S23        25.000    38243257.568 7 200969614.62307      -468.194 7        45.332
R01        26.000    19398942.679 8 103698474.26208       349.209 8        48.602                                                                    19398942.790 7  80654361.30807       271.576 7        42.317
C44        27.000                                                                                                                                    26709701.967 6 139084431.40206     -2461.987 6        38.120                                                                    26709700.805 6 113017488.07006     -2000.641 6        36.922
R24        29.000    24387705.288 7 130412010.44107     -4352.248 7        44.238                                                                    24387703.651 5 101431548.78305     -3384.919 5        35.924
E19        30.000    25549184.972 6 134261885.89106     -2561.606 6        39.438                                                                    25549183.999 6 100260495.74006     -1912.940 6        41.559    25549183.383 6 102875984.36806     -1962.763 6        41.630
G14        31.000    24105518.382 6 126675348.33906      3080.345 6        41.132                                    24105516.579 4  98708062.36804      2400.270 4        26.754    24105516.407 6  98708048.36106      2400.205 6        41.037
C37        33.000                                                                                                                                    24508962.466 7 127624584.90707     -2914.152 7        45.679                                                                    24508965.679 7 103705438.39507     -2368.007 7        45.836
E04        34.000    23403269.537 8 122985045.23108      -340.754 8        48.944                                                                    23403267.576 8  91839492.25008      -254.518 8        51.103    23403267.432 8  94235300.68308      -261.104 8        51.470
C16        35.000                                                                                                                                    41238388.232 6 214739079.34606     -1422.400 6        37.123    41238391.558 6 166049873.65206     -1100.116 6        38.339    41238388.656 5 174493079.09405     -1155.783 5        33.581
R12        36.000    22751701.622 7 121535494.17507      3963.780 7        46.207                                                                    22751702.553 7  94527609.31607      3082.942 7        43.617
I01        37.000   387667495.382 6 218149656.56606     -3036.595 6        41.607
E27        38.000    28990262.492 4 152344846.51204     -2952.399 4        28.834                                                                    28990263.349 5 113764015.85005     -2204.473 5        32.257    28990262.428 5 116731769.57405     -2262.032 5        32.180
C19        39.000                                                                                                                                    21908397.556 8 114082774.03808      -514.107 8        51.636                                                                    21908392.395 8  92701575.84908      -417.750 8        49.891
E34        40.000    28537838.269 6 149967355.86406      1653.510 6        37.384                                                                    28537837.611 6 111988610.73306      1234.893 6        40.148    28537837.551 6 114910052.33206      1266.894 6        41.197
G05        41.000    22273470.747 7 117047891.32907      2139.948 7        45.910                                    22273466.018 7  91206131.28607      1667.491 7        43.211    22273466.974 7  91206140.29607      1667.469 7        42.059
S44        42.000    40946628.741 6 215176072.22206      -517.825 6        37.951
C36        43.000                                                                                                                                    24131090.519 7 125656919.73707      2655.192 7        46.004                                                                    24131096.213 7 102106559.44907      2157.439 7        46.494
C05        44.000                                                                                                                                    39354602.826 6 204929747.99306      -528.820 6        38.778    39354598.187 6 158464697.01106      -408.972 6        41.700    39354600.860 6 166522303.92606      -429.730 6        40.260
R18        45.000    23313401.256 7 124448537.73107       673.399 7        43.575                                                                    23313401.058 6  96793290.84506       523.794 6        41.988
G04        46.000    25127365.831 5 132045121.52705     -3659.435 5        35.429                                    25127369.623 2 102892260.42202     -2851.477 2        15.762    25127368.981 5 102892262.39305     -2851.632 5        35.562
R11        47.000    19618571.024 8 104835674.50708       684.014 8        52.086                                                                    19618569.215 8  81538861.31208       532.048 8        48.796
C20        49.000                                                                                                                                    23959085.927 8 124761253.07208     -2957.505 8        48.216                                                                    23959081.171 7 101378717.42307     -2403.264 7        46.779
C06        50.000                                                                                                                                    40694286.625 5 211905810.18405     -1474.986 5        35.300    40694284.021 6 163858984.21006     -1140.589 6        38.652    40694283.127 6 172190798.75606     -1198.720 6        36.597
S48        51.000    77266258.494 6 406036508.01106      -455.307 6        38.417
E06        52.000    24073199.606 8 126505542.08508       820.013 8        48.051                                                                    24073198.962 8  94468435.77408       612.357 8        50.127    24073198.821 8  96932827.62308       628.383 8        50.824
C09        53.000                                                                                                                                    39888031.652 6 207707447.90906     -1259.699 6        38.000    39888029.145 7 160612559.31307      -974.185 7        43.522    39888027.500 6 168779290.58306     -1023.702 6        39.520
C60        54.000                                                                                                                                    40946624.241 6 213219944.86806      -513.157 6        39.477                                                                    40946612.393 6 173258624.39306      -417.038 6        39.288
E31        55.000    28111911.863 6 147729078.86706      2729.001 6        37.251                                                                    28111916.151 6 110317195.92306      2038.011 6        38.850    28111915.771 6 113195032.57306      2091.011 6        40.019
G07        56.000    21174066.381 8 111270484.65308     -1650.064 8        48.643                                    21174061.664 8  86704256.19808     -1285.764 8        48.705    21174062.040 7  86704265.19907     -1285.811 7        45.394
C02        57.000                                                                                                                                    40927615.137 5 213120796.07905      -545.160 5        33.593    40927615.260 6 164798489.69906      -421.655 6        40.501    40927616.534 5 173178089.34505      -443.013 5        34.986
I03        58.000    98254691.777 6 309787170.75406       852.610 6        39.640
> 2025 01 02 06 15 15.0000000  0 55
G09         1.000    22567621.639 7 118593665.78607     -3253.883 7        43.532                                    22567620.131 7  92410649.21007     -2535.488 7        42.362    22567620.550 6  92410649.20506     -2535.490 6        41.147
G06         2.000    25306879.197 6 132988535.63906     -3971.662 6        37.410                                    25306879.800 4 103627426.99704     -3094.799 4        29.611    25306880.387 5 103627435.00405     -3094.955 5        35.395
E11         3.000    26191761.097 6 137638643.55006     -2985.704 6        40.062                                                                    26191757.379 6 102782092.46406     -2229.703 6        41.616    26191756.948 6 105463360.85606     -2287.675 6        41.468
G16         4.000    25440359.851 5 133689988.13305     -3691.145 5        32.108                                    25440355.764 1 104173995.41201     -2876.227 1         5.429
S21         5.000    38539790.177 7 202527618.66307      -470.269 7        43.022
E10         6.000    27540908.790 6 144728439.57206     -3615.161 6        40.334                                                                    27540908.704 7 108076422.68307     -2699.549 7        42.609    27540908.430 7 110895807.81307     -2769.865 7        42.669
G20         7.000    20776247.386 8 109179923.21508      -157.846 8        48.135                                    20776242.387 6  85075245.20206      -122.995 6        39.435
R02         8.000    22173178.831 7 118320330.12107      2876.741 7        47.377                                                                    22173178.184 7  92026924.17507      2237.512 7        43.297
R10         9.000    21390079.349 7 114021153.19907     -3510.627 7        43.537
R17        10.000    22797203.693 7 121992445.80707     -2401.092 7        46.681                                                                    22797201.856 6  94883007.25906     -1867.604 6        41.447
G30        11.000    20728889.694 8 108931059.27608       604.865 8        50.690                                    20728887.609 8  84881336.53708       471.322 8        51.710    20728887.985 7  84881344.53707       471.366 7        44.638
S27        12.000    39191423.487 6 205952299.51806      -492.371 6        36.552
G13        13.000    23340426.566 6 122654772.23806      2652.547 6        41.654                                    23340421.348 3  95575126.20603      2066.925 3        23.695
S36        14.000    38308022.036 7 201310542.73307      -470.481 7        45.091
I09        15.000    38788812.845 7 152215589.39707      -894.671 7        42.622
E09        16.000    25843290.719 7 135807430.62507      1575.011 7        44.322                                                                    25843289.822 7 101414639.03107      1176.143 7        46.683    25843289.442 7 104060234.52807      1206.790 7        46.980
S45        17.000    63490920.835 6 333647422.09006      -512.795 6        37.168
E36        18.000    26163714.943 7 137491246.89907      -670.476 7        43.422                                                                    26163715.017 7 102672055.30607      -500.648 7        45.515    26163714.663 7 105350454.99607      -513.755 7        45.452
E12        19.000    29150912.278 3                     -3622.840 3        20.952                                                                    29150912.475 3 114394383.55103     -2704.577 3        23.676    29150912.388 3 117378586.12203     -2774.745 3        23.886
E21        20.000    25905588.983 7 136134779.25607      -856.302 7        44.023                                                                    25905589.221 7 101659101.31107      -639.438 7        46.280    25905588.972 7 104311074.45707      -656.097 7        46.772
G11        21.000    23676568.124 7 124421211.09407     -3242.277 7        42.305                                    23676564.416 4  96951572.87704     -2526.447 4        29.289    23676564.072 6  96951585.85906     -2526.427 6        41.671
I06        22.000    38064856.049 7 149374886.25807      -369.574 7        43.054
S28        23.000    40970097.368 5 215299250.35005      -473.386 5        35.252
R08        24.000    21354000.681 7 114349728.69507     -3203.350 7        46.641                                                                    21353999.849 7  88938677.51907     -2491.498 7        44.861
S23        25.000    38243699.869 7 200971954.19707      -467.691 7        45.251
R01        26.000    19398617.143 8 103696733.63708       347.012 8        48.302                                                                    19398617.610 6  80653007.47206       270.017 6        41.905
C44        27.000                                                                                                                                    26712067.672 6 139096744.13706     -2462.974 6        37.788                                                                    26712065.658 6 113027493.16306     -2001.306 6        36.957
R24        29.000    24391774.002 7 130433770.82507     -4352.067 7        42.800                                                                    24391773.278 6 101448473.52706     -3384.820 6        36.412
E19        30.000    25551622.289 6 134274694.25306     -2561.712 6        39.090                                                                    25551621.395 6 100270060.40206     -1913.002 6        41.690    25551620.532 6 102885798.55306     -1962.984 6        41.380
G14        31.000    24102587.237 6 126659946.78806      3080.367 6        41.554                                    24102585.765 4  98696061.15604      2400.287 4        26.970    24102585.852 6  98696047.13606      2400.462 6        41.077
C37        33.000                                                                                                                                    24511761.148 7 127639158.71407     -2915.391 7        45.236                                                                    24511764.387 7 103717280.78207     -2368.854 7        45.825
E04        34.000    23403594.144 8 122986750.89708      -341.457 8        48.657                                                                    23403592.181 8  91840765.94908      -254.967 8        51.215    23403591.954 8  94236607.60908      -261.617 8        51.356
C16        35.000                                                                                                                                    41239753.195 6 214746190.29706     -1421.892 6        37.149    41239757.913 6 166055372.22406     -1099.453 6        38.069    41239754.603 5 174498857.25905     -1155.041 5        33.245
R12        36.000    22747992.053 7 121515676.93507      3963.095 7        45.433                                                                    22747992.152 7  94512195.90907      3082.486 7        43.433
I01        37.000   387671363.859 6 218164838.68906     -3036.227 6        41.387
E27        38.000    28993071.522 4 152359608.59004     -2953.144 4        28.009                                                                    28993072.285 5 113775039.45105     -2205.069 5        32.461    28993071.976 5 116743080.77405     -2262.519 5        32.347
C19        39.000                                                                                                                                    21908891.863 8 114085348.49508      -515.672 8        51.622                                                                    21908886.812 8  92703667.79608      -418.892 8        49.751
E34        40.000    28536265.049 6 149959091.36206      1652.147 6        37.297                                                                    28536265.055 6 111982439.18406      1233.799 6        40.422    28536264.684 6 114903719.79106      1265.983 6        40.765
G05        41.000    22271435.450 7 117037196.05707      2138.085 7        46.428                                    22271430.785 7  91197797.30707      1666.041 7        43.111    22271431.285 6  91197806.30606      1666.007 6        41.478
S44        42.000    40947119.748 6 215178660.16506      -517.352 6        38.159
C36        43.000                                                                                                                                    24128541.558 7 125643646.11407      2654.409 7        45.911                                                                    24128547.021 7 102095773.52507      2157.007 7        46.356
C05        44.000                                                                                                                                    39355110.217 6 204932390.72006      -528.293 6        39.471    39355106.109 6 158466740.50806      -408.483 6        41.716    39355108.519 6 166524451.33706      -429.251 6        40.186
R18        45.000    23312771.850 7 124445179.57107       669.800 7        43.596                                                                    23312771.333 7  96790678.96907       520.895 7        42.053
G04        46.000    25130847.922 5 132063419.66405     -3659.499 5        35.114                                    25130851.729 2 102906518.61802     -2851.533 2        16.038    25130851.516 5 102906520.58005     -2851.634 5        35.781
R11        47.000    19617932.989 8 104832264.49308       680.066 8        52.005                                                                    19617930.958 8  81536209.08008       528.905 8        48.737
C20        49.000                                                                                                                                    23961926.470 8 124776043.17908     -2958.483 8        48.692                                                                    23961921.365 7 101390735.59107     -2403.822 7        46.629
C06        50.000                                                                                                                                    40695703.395 5 211913183.99905     -1474.444 5        35.162    40695700.256 6 163864686.06006     -1140.032 6        38.616    40695699.351 6 172196790.53406     -1198.105 6        36.476
S48        51.000    77266698.055 6 406038782.47406      -454.858 6        38.655
E06        52.000    24072419.403 7 126501443.00207       819.594 7        47.790                                                                    24072418.922 8  94465374.75608       612.086 8        50.377    24072418.845 8  96929686.75808       628.023 8        50.656
C09        53.000                                                                                                                                    39889240.749 6 207713745.12706     -1259.279 6        38.225    39889238.655 7 160617428.69607      -973.631 7        42.995    39889236.862 6 168784407.57906     -1023.026 6        39.532
C60        54.000                                                                                                                                    40947116.424 6 213222509.25906      -512.642 6        39.991                                                                    40947104.660 6 173260708.15206      -416.431 6        39.042
E31        55.000    28109314.975 6 147715431.97006      2729.713 6        37.221                                                                    28109319.258 6 110307005.05206      2038.478 6        39.297    28109318.961 6 113184575.84506      2091.759 6        39.889
G07        56.000    21175636.944 8 111278738.86508     -1651.590 8        48.528                                    21175632.379 8  86710688.04708     -1286.951 8        48.589    21175632.527 7  86710697.04607     -1286.868 7        45.115
C02        57.000                                                                                                                                    40928138.263 5 213123521.26205      -544.827 5        33.174    40928138.243 6 164800596.95606      -421.258 6        40.269    40928139.986 5 173180303.77505      -442.607 5        34.848
I03        58.000    98253605.130 6 309782906.66006       853.002 6        39.916
> 2025 01 02 06 15 20.0000000  0 55
G09         1.000    22570718.435 7 118609938.59107     -3254.915 7        43.943                                    22570716.743 7  92423329.30407     -2536.297 7        42.576    22570717.027 6  92423329.29506     -2536.329 6        41.490
G06         2.000    25310658.274 6 133008393.97206     -3971.416 6        37.195                                    25310658.553 4 103642901.00304     -3094.592 4        29.346    25310659.016 5 103642908.98505     -3094.389 5        35.795
E11         3.000    26194603.177 6 137653576.12706     -2987.187 6        40.088                                                                    26194599.039 6 102793243.39606     -2230.653 6        41.375    26194598.479 6 105474802.68706     -2288.792 6        41.583
G16         4.000    25443874.095 5 133708450.75805     -3692.987 5        31.555                                    25443869.069 1 104188381.87101     -2877.616 1         6.000
S21         5.000    38540233.038 7 202529970.76207      -470.429 7        43.052
E10         6.000    27544348.905 6 144746516.31806     -3615.244 6        40.880                                                                    27544348.474 7 108089921.54707     -2699.701 7        42.313    27544348.356 7 110909658.81807     -2770.093 7        42.709
G20         7.000    20776399.317 8 109180721.68408      -161.164 8        48.256                                    20776394.328 6  85075867.37906      -125.582 6        39.643
R02         8.000    22170483.439 7 118305948.18707      2876.327 7        47.333                                                                    22170482.592 7  92015738.21507      2237.113 7        42.787
R10         9.000    21393373.781 7 114038714.73607     -3513.680 7        43.147
R17        10.000    22799448.522 7 122004461.66507     -2404.847 7        46.398                                                                    22799446.528 6  94892352.92606     -1870.395 6        40.670
G30        11.000    20728315.657 8 108928042.04208       602.434 8        50.867                                    20728313.444 8  84878985.44408       469.428 8        51.916    20728313.964 7  84878993.45707       469.367 7        44.983
S27        12.000    39191891.881 6 205954761.91106      -492.177 6        36.306
G13        13.000    23337903.193 7 122641512.22107      2651.830 7        42.032                                    23337898.150 3  95564793.71603      2066.355 3        23.829
S36        14.000    38308472.149 7 201312897.49607      -470.745 7        45.004
I09        15.000    38789953.191 7 152220063.57507      -894.805 7        42.419
E09        16.000    25841792.782 7 135799557.59407      1574.479 7        44.474                                                                    25841791.667 7 101408759.81807      1175.790 7        46.477    25841791.311 7 104054201.94507      1206.415 7        47.188
S45        17.000    63491368.721 6 333649987.52906      -513.009 6        37.164
E36        18.000    26164353.829 7 137494606.38107      -673.034 7        43.280                                                                    26164354.254 7 102674564.01807      -502.565 7        45.365    26164353.928 7 105353029.14507      -515.678 7        45.672
E12        19.000    29154359.582 3                     -3624.120 3        20.095                                                                    29154358.388 4 114407904.19104     -2703.560 4        24.180    29154357.373 4 117392459.56104     -2775.565 4        24.511
E21        20.000    25906405.054 7 136139067.85007      -858.750 7        44.206                                                                    25906405.347 7 101662303.82707      -641.250 7        46.045    25906405.028 7 104314360.52007      -657.956 7        46.830
G11        21.000    23679653.975 7 124437427.22307     -3243.876 7        43.731                                    23679650.153 4  96964208.80504     -2527.685 4        29.526    23679649.885 6  96964221.81306     -2527.801 6        41.459
I06        22.000    38065327.271 7 149376734.75307      -369.583 7        42.984
S28        23.000    40970553.746 5 215301618.28905      -473.612 5        35.048
R08        24.000    21356993.522 7 114365751.03007     -3205.168 7        47.452                                                                    21356991.514 7  88951139.31907     -2492.890 7        44.602
S23        25.000    38244144.711 7 200974293.35907      -467.418 7        44.992
R01        26.000    19398293.982 8 103695005.84408       344.411 8        48.726                                                                    19398294.032 7  80651663.65107       267.861 7        42.205
C44        27.000                                                                                                                                    26714433.425 6 139109064.12206     -2464.458 6        37.834                                                                    26714431.384 6 113037504.17306     -2002.678 6        37.376
R24        29.000    24395842.141 7 130455533.03307     -4352.542 7        42.421                                                                    24395843.096 6 101465399.72806     -3385.376 6        36.302
E19        30.000    25554059.863 6 134287505.09406     -2562.154 6        38.411                                                                    25554059.161 6 100279626.90906     -1913.294 6        41.383    25554058.390 6 102895614.63506     -1963.287 6        41.452
G14        31.000    24099657.021 6 126644546.55006      3080.060 6        41.745                                    24099655.247 4  98684060.96304      2400.047 4        27.473    24099655.435 6  98684046.95206      2400.009 6        41.187
