     3.04           OBSERVATION DATA    M                   RINEX VERSION / TYPE
ssrcrin-15.6.1x                         20250102 024500 UTC PGM / RUN BY / DATE 
(00000000023479385599111004) Septentrio proprietary         COMMENT             
rref                                                        MARKER NAME         
01                                                          MARKER NUMBER       
geodetic                                                    MARKER TYPE         
NFB                 CLIMERS@TUW                             OBSERVER / AGENCY   
3297213             SEPT ASTERX SB3 PROB4.14.4              REC # / TYPE / VERS 
Unknown             Unknown                                 ANT # / TYPE        
  4127832.0140  1207193.1577  4695247.3648                  APPROX POSITION XYZ 
        0.0000        0.0000        0.0000                  ANTENNA: DELTA H/E/N
G   23 X1  C1C L1C D1C S1C C1W S1W C2W L2W D2W S2W C2L L2L  SYS / # / OBS TYPES 
       D2L S2L C5Q L5Q D5Q S5Q C1L L1L D1L S1L              SYS / # / OBS TYPES 
E   21 X1  C1C L1C D1C S1C C6C L6C D6C S6C C5Q L5Q D5Q S5Q  SYS / # / OBS TYPES 
       C7Q L7Q D7Q S7Q C8Q L8Q D8Q S8Q                      SYS / # / OBS TYPES 
S    9 X1  C1C L1C D1C S1C C5I L5I D5I S5I                  SYS / # / OBS TYPES 
R   17 X1  C1C L1C D1C S1C C2P L2P D2P S2P C2C L2C D2C S2C  SYS / # / OBS TYPES 
       C3Q L3Q D3Q S3Q                                      SYS / # / OBS TYPES 
C   25 X1  C1P L1P D1P S1P C5P L5P D5P S5P C2I L2I D2I S2I  SYS / # / OBS TYPES 
       C7I L7I D7I S7I C6I L6I D6I S6I C7D L7D D7D S7D      SYS / # / OBS TYPES 
J   17 X1  C1C L1C D1C S1C C2L L2L D2L S2L C5Q L5Q D5Q S5Q  SYS / # / OBS TYPES 
       C1L L1L D1L S1L                                      SYS / # / OBS TYPES 
I    5 X1  C5A L5A D5A S5A                                  SYS / # / OBS TYPES 
SEPTENTRIO RECEIVERS OUTPUT ALIGNED CARRIER PHASES.         COMMENT             
NO FURTHER PHASE SHIFT APPLIED IN THE RINEX ENCODER.        COMMENT             
G L1C                                                       SYS / PHASE SHIFT   
G L2W                                                       SYS / PHASE SHIFT   
G L2L  0.00000                                              SYS / PHASE SHIFT   
G L5Q  0.00000                                              SYS / PHASE SHIFT   
G L1L  0.00000                                              SYS / PHASE SHIFT   
E L1C  0.00000                                              SYS / PHASE SHIFT   
E L6C  0.00000                                              SYS / PHASE SHIFT   
E L5Q  0.00000                                              SYS / PHASE SHIFT   
E L7Q  0.00000                                              SYS / PHASE SHIFT   
E L8Q  0.00000                                              SYS / PHASE SHIFT   
S L1C                                                       SYS / PHASE SHIFT   
S L5I                                                       SYS / PHASE SHIFT   
R L1C                                                       SYS / PHASE SHIFT   
R L2P  0.00000                                              SYS / PHASE SHIFT   
R L2C                                                       SYS / PHASE SHIFT   
R L3Q  0.00000                                              SYS / PHASE SHIFT   
C L1P  0.00000                                              SYS / PHASE SHIFT   
C L5P  0.00000                                              SYS / PHASE SHIFT   
C L2I                                                       SYS / PHASE SHIFT   
C L7I                                                       SYS / PHASE SHIFT   
C L6I                                                       SYS / PHASE SHIFT   
C L7D                                                       SYS / PHASE SHIFT   
J L1C                                                       SYS / PHASE SHIFT   
J L2L  0.00000                                              SYS / PHASE SHIFT   
J L5Q  0.00000                                              SYS / PHASE SHIFT   
J L1L  0.00000                                              SYS / PHASE SHIFT   
I L5A                                                       SYS / PHASE SHIFT   
  2025     1     2     2    45    0.0000000     GPS         TIME OF FIRST OBS   
 C1C    0.000 C2C    0.000 C2P    0.000                     GLONASS COD/PHS/BIS 
DBHZ                                                        SIGNAL STRENGTH UNIT
    18                                                      LEAP SECONDS        
 24 R01  1 R02 -4 R03  5 R04  6 R05  1 R06 -4 R07  5 R08  6 GLONASS SLOT / FRQ #
    R09 -2 R10 -7 R11  0 R12 -1 R13 -2 R14 -7 R15  0 R16 -1 GLONASS SLOT / FRQ #
    R17  4 R18 -3 R19  3 R20  2 R21  4 R22 -3 R23  3 R24  2 GLONASS SLOT / FRQ #
                                                            END OF HEADER       
> 2025 01 02 02 45  0.0000000  0 55
G09         1.000    20872561.705 8 109686086.51708      1432.331 8        49.278                                    20872558.826 8  85469683.66608      1116.103 8        50.818    20872559.482 7  85469683.67207      1116.048 7        44.424
G06         2.000    22137881.302 7 116335369.30407      1746.263 7        45.857                                    22137879.399 7  90650941.79707      1360.728 7        45.422    22137880.148 7  90650949.79207      1360.737 7        43.082
E11         3.000    26680585.415 6 140207435.37306      2137.387 6        37.119                                                                    26680581.011 6 104700347.40406      1596.071 6        40.641    26680580.669 6 107431657.09406      1637.687 6        41.673
R15         4.000    24261457.728 7 129645875.87507     -3165.694 7        42.605                                                                    24261457.222 6 100835667.03406     -2462.157 6        39.258
S21         5.000    38586184.558 7 202771486.33807      -475.393 7        42.377
E10         6.000    24819166.758 7 130425611.41807      1086.839 7        46.258                                                                    24819165.305 8  97395745.62108       811.608 8        48.901    24819165.214 8  99936503.65908       832.769 8        50.463
G28         7.000    25182112.994 6 132332908.18606     -3606.554 6        38.237                                    25182109.164 3 103116533.43503     -2810.304 3        19.552    25182109.712 6 103116541.43406     -2810.117 6        36.828
G03         8.000    20898405.520 8 109821962.27508     -2295.187 8        48.669                                    20898403.227 8  85575596.90508     -1788.455 8        49.541    20898403.729 7  85575594.90607     -1788.515 7        44.150
G02         9.000    24476264.966 6 128623687.97606     -3966.187 6        40.498                                    24476258.407 4 100226243.67704     -3090.517 4        25.218
G31        10.000    22977606.949 7 120748150.65107     -2562.820 7        44.474                                    22977602.121 6  94089452.43506     -1997.001 6        39.327    22977602.205 6  94089457.44306     -1996.953 6        40.305
C30        11.000                                                                                                                                    25105111.151 7 130728912.58707     -3755.018 7        44.050                                                                    25105111.712 7 106227951.75307     -3051.344 7        43.145
S27        12.000    39214967.908 6 206076091.50006      -471.652 6        36.042
G26        13.000    24973617.564 6 131237245.71506      1443.835 6        37.463                                    24973616.692 4 102262794.43704      1125.065 4        28.389    24973616.676 5 102262794.43505      1124.925 5        34.943
S36        14.000    38353589.395 7 201549982.60107      -475.750 7        44.608
I09        15.000    37552000.765 7 147362119.52407      -608.651 7        42.963
G19        16.000    22940032.302 7 120550706.10307     -2308.222 7        43.566                                    22940025.779 5  93935599.47805     -1798.615 5        30.015
S45        17.000    63546090.949 6 333937272.75606      -515.597 6        37.921
E12        19.000    24090950.623 7 126598810.42907      -245.528 7        44.832                                                                    24090946.394 7  94538062.18107      -183.418 7        47.791    24090946.489 8  97004271.86608      -188.195 8        49.200
G17        20.000    24110438.408 7 126701230.46707     -3184.995 7        42.478                                    24110434.134 5  98728220.60105     -2481.812 5        34.648    24110434.394 6  98728219.60206     -2481.864 6        36.654
G11        21.000    25371933.178 6 133330411.98806      3080.164 6        38.913                                    25371929.258 3 103893806.88203      2400.128 3        20.786    25371929.880 6 103893819.89006      2400.031 6        37.047
I06        22.000    38200393.291 7 149906790.09807      -285.371 7        43.500
S28        23.000    41019185.253 5 215557288.51805      -471.021 5        34.938
R08        24.000    20944517.413 8 112156975.63808      1769.327 8        50.402                                                                    20944514.431 7  87233207.46007      1376.139 7        46.160
S23        25.000    38298697.151 7 201261016.03507      -471.639 7        44.906
C25        26.000                                                                                                                                    25891991.319 6 134826389.13606     -1858.420 6        41.147                                                                    25891989.313 6 109557480.83506     -1510.133 6        40.799
R16        27.000    22365729.150 7 119473724.33907        21.878 7        47.401                                                                    22365728.383 7  92924009.99707        16.971 7        42.610
E19        30.000    23068033.091 7 121223365.64307        54.831 7        43.225                                                                    23068030.289 7  90523944.62907        40.923 7        45.397    23068030.383 7  92885435.55107        41.941 7        47.356
C23        31.000                                                                                                                                    24920527.344 7 129767736.35407       752.568 7        44.476                                                                    24920519.075 7 105446882.84307       611.487 7        45.541
R23        32.000    20229656.326 8 108215035.86708       408.987 8        49.677
E29        33.000    24558446.827 7 129055593.08807     -2235.525 7        45.719                                                                    24558444.554 8  96372698.43908     -1669.376 8        48.615    24558444.614 8  98886763.29108     -1713.012 8        50.511
E04        34.000    26908516.156 6 141405233.70106      2186.346 6        40.744                                                                    26908514.338 7 105594826.31107      1632.635 7        42.681    26908513.929 7 108349469.71307      1675.216 7        44.408
C16        35.000                                                                                                                                    39056152.085 7 203375662.22907      -996.440 7        42.332    39056150.840 7 157262975.19107      -770.485 7        43.481    39056148.712 6 165259385.13706      -809.680 6        39.721
C32        36.000                                                                                                                                    22858108.888 8 119028228.09608     -2100.810 8        50.215                                                                    22858108.456 8  96720206.84408     -1707.120 8        50.460
I01        37.000   379628536.397 7 186603112.25307     -2718.010 7        42.514
E27        38.000    29126363.987 5 153060069.37805      1880.676 5        32.006                                                                    29126364.570 6 114298111.58506      1404.190 6        36.938    29126364.397 6 117279798.18606      1440.694 6        39.417
C41        39.000                                                                                                                                    27239192.147 6 141841639.66806     -3276.358 6        38.613                                                                    27239198.020 6 115257977.28306     -2662.101 6        39.300
C39        40.000                                                                                                                                    39593177.601 6 206172095.28906     -1364.286 6        41.235                                                                    39593173.728 6 167531711.12106     -1108.649 6        41.971
E33        41.000    25163070.015 7 132232912.33407     -3032.710 7        45.094                                                                    25163067.991 7  98745389.33107     -2264.713 7        47.913    25163067.608 8 101321351.96308     -2323.758 8        49.063
S44        42.000    40831969.171 6 214573639.42306      -554.257 6        37.603
R06        43.000    22149166.496 6 118192257.05106     -3630.338 6        37.535
C05        44.000                                                                                                                                    39284695.129 6 204565758.17506      -499.232 6        39.069    39284688.661 7 158183247.22507      -386.106 7        43.513    39284690.681 6 166226540.54006      -405.724 6        39.883
C29        45.000                                                                                                                                    23264652.677 8 121145174.79308     -1558.741 8        48.029                                                                    23264649.723 7  98440376.56107     -1266.688 7        47.156
G04        46.000    20197850.517 8 106140455.95508      -401.048 8        49.840                                    20197846.600 7  82706835.54607      -312.507 7        43.154    20197846.736 8  82706837.54908      -312.519 8        49.633
E30        47.000    28935353.560 5 152056327.42105       331.458 5        35.443                                                                    28935353.553 6 113548547.69206       247.464 6        39.168    28935353.479 6 116510682.30806       254.003 6        41.483
R22        48.000    20522840.672 8 109552346.59008     -3388.446 8        51.169                                                                    20522838.325 7  85207378.45507     -2635.428 7        47.319
C20        49.000                                                                                                                                    22515848.532 8 117245959.05508       748.411 8        51.296                                                                    22515842.640 8  95271929.97308       608.136 8        49.386
C06        50.000                                                                                                                                    38533168.908 6 200652353.92306      -916.978 6        40.911    38533162.948 7 155157111.57507      -708.927 7        44.534    38533162.606 6 163046454.62006      -745.021 6        41.313
S48        51.000    77333496.812 6 406389270.78406      -466.931 6        37.905
C09        53.000                                                                                                                                    38610485.584 7 201054948.97907      -413.721 7        42.525    38610481.280 7 155468430.84807      -319.934 7        46.631    38610479.257 7 163373594.84907      -336.172 7        42.512
C60        54.000                                                                                                                                    40831968.235 6 212622989.50506      -549.042 6        40.100                                                                    40831952.532 6 172773567.59806      -446.179 6        40.074
R09        55.000    22943605.414 7 122517590.38807      2974.625 7        44.205                                                                    22943604.538 7  95291451.85007      2313.525 7        43.367
G07        56.000    24975672.345 6 131248045.95606      2958.482 6        39.003                                    24975667.607 5 102271184.14905      2305.312 5        30.453    24975667.875 5 102271193.13805      2305.398 5        35.186
C02        57.000                                                                                                                                    40780253.133 5 212353544.22605      -542.642 5        34.152    40780246.298 6 164205227.61706      -419.674 6        39.970    40780250.501 6 172554655.05106      -441.123 6        36.541
I03        58.000   102194651.837 6 325248539.47906       877.676 6        40.322
R07        59.000    19617366.473 8 105013363.84808     -1286.210 8        51.215                                                                    19617364.937 7  81677114.52407     -1000.319 7        47.751
> 2025 01 02 02 45  5.0000000  0 55
G09         1.000    20871200.210 8 109678930.91108      1430.143 8        49.012                                    20871197.163 8  85464107.86908      1114.397 8        50.790    20871197.323 7  85464107.86607      1114.399 7        44.476
G06         2.000    22136221.064 7 116326644.75307      1743.770 7        45.464                                    22136219.184 7  90644143.44207      1358.781 7        45.442    22136219.952 7  90644151.43907      1358.828 7        43.346
E11         3.000    26678552.537 6 140196751.91206      2136.439 6        37.520                                                                    26678547.898 6 104692369.49506      1595.234 6        40.517    26678547.576 6 107423471.06806      1636.995 6        41.485
R15         4.000    24264420.643 7 129661712.71107     -3168.682 7        42.510                                                                    24264420.308 6 100847984.58306     -2464.691 6        39.174
S21         5.000    38586637.359 7 202773864.08007      -475.415 7        42.282
E10         6.000    24818133.663 7 130420182.32507      1085.023 7        46.104                                                                    24818132.199 8  97391691.42808       810.266 8        48.922    24818132.084 8  99932343.70408       831.401 8        50.378
G28         7.000    25185545.339 6 132350944.07906     -3607.910 6        38.099                                    25185541.421 3 103130587.36603     -2811.366 3        19.672    25185541.284 6 103130595.37906     -2811.424 6        37.323
G03         8.000    20900590.220 8 109833443.11508     -2296.947 8        48.525                                    20900587.972 8  85584543.01508     -1789.827 8        49.546    20900588.919 7  85584541.01407     -1789.842 7        44.501
G02         9.000    24480039.162 6 128643520.80106     -3966.750 6        40.296                                    24480032.470 4 100241697.81804     -3090.979 4        25.113
G31        10.000    22980046.866 7 120760972.68807     -2565.781 7        44.479                                    22980042.013 6  94099443.63306     -1999.310 6        39.276    22980042.317 6  94099448.62906     -1999.325 6        40.303
C30        11.000                                                                                                                                    25108717.264 7 130747689.94307     -3755.759 7        44.054                                                                    25108717.676 7 106243209.88007     -3051.949 7        43.001
S27        12.000    39215418.692 5 206078450.35505      -471.800 5        35.833
G26        13.000    24972244.967 6 131230032.12206      1441.658 6        37.527                                    24972243.908 4 102257173.45804      1123.364 4        28.294    24972244.128 5 102257173.47105      1123.389 5        34.871
S36        14.000    38354042.280 7 201552362.41207      -475.901 7        44.784
I09        15.000    37552776.276 7 147365163.33607      -608.724 7        42.965
G19        16.000    22942230.290 7 120562254.68507     -2311.036 7        43.166                                    22942223.353 4  93944598.38004     -1800.816 4        29.953
S45        17.000    63546537.906 6 333939851.21306      -515.410 6        37.841
E12        19.000    24091185.258 7 126600044.23707      -247.767 7        44.754                                                                    24091181.165 7  94538983.53007      -185.058 7        47.847    24091181.256 8  97005217.24908      -189.887 8        49.099
G17        20.000    24113469.738 7 126717158.40507     -3185.979 7        42.152                                    24113465.045 5  98740631.97805     -2482.580 5        34.567    24113465.435 6  98740630.97606     -2482.558 6        36.590
G11        21.000    25369002.851 6 133315013.59306      3079.514 6        39.108                                    25368998.959 3 103881808.15103      2399.622 3        21.452    25368999.861 6 103881821.15806      2399.551 6        37.490
I06        22.000    38200756.882 7 149908217.05307      -285.375 7        43.479
S28        23.000    41019634.257 5 215559643.75205      -470.901 5        34.719
R08        24.000    20942865.978 8 112148134.25108      1767.486 8        50.374                                                                    20942863.432 7  87226330.82307      1374.736 7        46.472
S23        25.000    38299145.534 7 201263374.61407      -471.596 7        44.810
C25        26.000                                                                                                                                    25893776.420 6 134835688.21106     -1860.840 6        41.120                                                                    25893774.915 6 109565037.08806     -1512.129 6        40.570
R16        27.000    22365710.994 7 119473626.51307        17.451 7        47.170                                                                    22365709.946 7  92923933.90707        13.580 7        43.312
E19        30.000    23067981.724 7 121223096.40807        53.019 7        43.082                                                                    23067979.052 7  90523743.57507        39.673 7        45.467    23067979.118 7  92885229.24707        40.667 7        47.272
C23        31.000                                                                                                                                    24919806.781 7 129763980.24707       750.183 7        44.662                                                                    24919797.815 7 105443830.68907       609.504 7        45.606
R23        32.000    20229276.102 8 108213002.68708       404.400 8        49.515
E29        33.000    24560574.256 7 129066774.15107     -2236.653 7        45.490                                                                    24560572.305 8  96381047.93208     -1670.269 8        48.650    24560572.279 8  98895330.58808     -1713.800 8        50.416
E04        34.000    26906436.324 6 141394304.05206      2185.678 6        40.565                                                                    26906434.368 7 105586664.55607      1632.123 7        42.724    26906434.018 7 108341095.03907      1674.733 7        44.301
C16        35.000                                                                                                                                    39057109.060 7 203380646.03507      -997.090 7        42.366    39057108.060 7 157266828.98407      -770.851 7        43.390    39057105.768 6 165263434.87106      -810.252 6        39.820
C32        36.000                                                                                                                                    22860126.388 8 119038735.40608     -2101.887 8        50.111                                                                    22860126.275 8  96728744.88108     -1708.010 8        50.524
I01        37.000   379631999.869 7 186616702.73907     -2717.985 7        42.489
E27        38.000    29124575.988 5 153050669.44805      1879.790 5        32.228                                                                    29124576.133 6 114291092.14106      1403.919 6        36.726    29124576.077 6 117272595.62006      1440.273 6        38.826
C41        39.000                                                                                                                                    27242338.200 6 141858020.76006     -3276.154 6        38.501                                                                    27242344.003 6 115271288.24906     -2662.073 6        39.438
C39        40.000                                                                                                                                    39594487.921 6 206178918.51906     -1364.782 6        41.473                                                                    39594484.132 7 167537255.55007     -1109.069 7        42.038
E33        41.000    25165956.540 7 132248080.00807     -3034.142 7        45.096                                                                    25165954.263 7  98756715.84107     -2265.795 7        47.940    25165954.010 8 101332973.95508     -2324.868 8        48.946
S44        42.000    40832496.755 6 214576409.89206      -553.899 6        37.629
R06        43.000    22152568.282 6 118210410.34606     -3630.932 6        37.263
C05        44.000                                                                                                                                    39285174.787 6 204568255.42306      -499.290 6        39.213    39285168.108 7 158185178.25007      -386.108 7        43.431    39285170.326 6 166228569.76506      -405.960 6        40.040
C29        45.000                                                                                                                                    23266150.805 8 121152975.76608     -1561.426 8        48.060                                                                    23266147.781 7  98446715.48307     -1268.794 7        47.293
G04        46.000    20198233.328 8 106142468.15108      -403.604 8        49.677                                    20198229.518 7  82708403.49007      -314.496 7        43.194    20198229.597 8  82708405.48908      -314.491 8        49.818
E30        47.000    28935039.067 5 152054675.31305       329.378 5        35.214                                                                    28935039.244 6 113547313.96206       246.184 6        39.120    28935039.139 6 116509416.41406       252.327 6        41.025
R22        48.000    20526016.473 8 109569297.80408     -3391.797 8        51.081                                                                    20526014.342 7  85220562.73107     -2638.148 7        47.407
C20        49.000                                                                                                                                    22515130.768 8 117242220.94208       747.033 8        51.334                                                                    22515124.752 8  95268892.44408       606.952 8        49.508
C06        50.000                                                                                                                                    38534049.140 6 200656940.17706      -917.446 6        41.049    38534043.747 7 155160657.96107      -709.417 7        44.545    38534043.359 6 163050181.32406      -745.659 6        41.571
S48        51.000    77333943.898 6 406391606.06906      -466.813 6        37.996
C09        53.000                                                                                                                                    38610882.752 7 201057019.95107      -414.302 7        42.449    38610878.882 7 155470032.25907      -320.512 7        46.562    38610877.087 7 163375277.67107      -336.736 7        42.591
C60        54.000                                                                                                                                    40832495.457 6 212625734.80306      -548.930 6        40.138                                                                    40832479.727 6 172775798.36206      -446.158 6        40.112
R09        55.000    22940821.538 7 122502722.78007      2972.677 7        44.918                                                                    22940820.490 7  95279888.15307      2312.155 7        44.110
G07        56.000    24972857.340 6 131233253.93206      2958.412 6        38.709                                    24972852.707 5 102259657.90905      2305.256 5        30.325    24972853.866 5 102259666.91405      2305.278 5        35.314
C02        57.000                                                                                                                                    40780774.698 5 212356258.89405      -542.741 5        34.243    40780767.479 6 164207326.75406      -419.742 6        39.913    40780771.954 6 172556860.93206      -441.126 6        36.344
I03        58.000   102193533.729 6 325244152.02806       877.517 6        40.393
R07        59.000    19618569.098 8 105019800.64208     -1288.316 8        51.430                                                                    19618567.475 7  81682120.92007     -1002.036 7        47.906
> 2025 01 02 02 45 10.0000000  0 55
G09         1.000    20869840.504 8 109671786.29208      1427.880 8        49.054                                    20869837.580 8  85458540.63708      1112.635 8        51.006    20869837.913 7  85458540.63407      1112.686 7        44.497
G06         2.000    22134562.973 7 116317932.36007      1741.352 7        45.400                                    22134561.271 7  90637354.56907      1356.896 7        45.627    22134561.879 7  90637362.56807      1356.995 7        43.340
E11         3.000    26676519.986 6 140186073.21406      2135.332 6        36.919                                                                    26676515.963 6 104684395.14906      1594.522 6        40.791    26676515.434 6 107415288.69906      1636.083 6        41.454
R15         4.000    24267387.530 7 129677564.86707     -3171.876 7        42.419                                                                    24267387.654 6 100860314.01606     -2467.082 6        39.622
S21         5.000    38587087.991 7 202776241.92907      -475.438 7        42.197
E10         6.000    24817102.129 7 130414762.32807      1083.130 7        46.316                                                                    24817100.826 8  97387644.03008       808.839 8        49.046    24817100.683 8  99928190.72108       829.931 8        50.327
G28         7.000    25188978.827 6 132368987.90306     -3609.351 6        37.429                                    25188975.091 3 103144647.49503     -2812.476 3        19.821    25188975.017 6 103144655.49806     -2812.575 6        37.119
G03         8.000    20902776.672 8 109844932.89108     -2298.722 8        48.610                                    20902774.412 8  85593496.08708     -1791.211 8        49.756    20902775.105 7  85593494.09307     -1791.239 7        44.474
G02         9.000    24483813.917 6 128663356.53906     -3967.238 6        40.079                                    24483807.128 4 100257154.24104     -3091.358 4        25.323
G31        10.000    22982489.601 7 120773809.67007     -2568.766 7        44.600                                    22982484.757 6  94109446.48006     -2001.638 6        39.541    22982485.037 6  94109451.48806     -2001.615 6        40.303
C30        11.000                                                                                                                                    25112324.082 7 130766470.30307     -3756.251 7        43.894                                                                    25112324.301 7 106258470.45307     -3052.195 7        42.929
S27        12.000    39215868.994 5 206080809.03005      -471.521 5        35.943
G26        13.000    24970874.111 6 131222828.71906      1439.796 6        37.006                                    24970873.029 4 102251560.43004      1121.910 4        28.464    24970873.139 5 102251560.43705      1121.876 5        34.600
S36        14.000    38354495.408 7 201554742.45607      -476.052 7        44.609
I09        15.000    37553552.327 7 147368207.76707      -608.811 7        42.908
G19        16.000    22944430.134 7 120573817.11407     -2313.750 7        43.613                                    22944423.678 5  93953608.06405     -1802.921 5        30.136
S45        17.000    63546983.861 6 333942429.68506      -515.672 6        37.614
E12        19.000    24091422.098 7 126601289.20207      -250.068 7        44.898                                                                    24091418.093 8  94539913.21708      -186.699 8        48.003    24091418.189 8  97006171.18508      -191.595 8        49.063
G17        20.000    24116501.841 7 126733091.60407     -3187.102 7        42.216                                    24116497.020 5  98753047.45505     -2483.456 5        34.724    24116497.297 6  98753046.45206     -2483.349 6        37.093
G11        21.000    25366073.061 6 133299618.66106      3078.659 6        39.405                                    25366069.648 3 103869812.09003      2398.962 3        21.286    25366069.911 6 103869825.09506      2399.062 6        37.395
I06        22.000    38201120.685 7 149909644.16707      -285.321 7        43.367
S28        23.000    41020082.605 5 215561998.61205      -470.724 5        34.567
R08        24.000    20941216.601 8 112139301.89408      1765.681 8        50.032                                                                    20941213.794 7  87219461.21707      1373.264 7        45.985
S23        25.000    38299594.297 7 201265733.21707      -471.645 7        44.634
C25        26.000                                                                                                                                    25895564.971 6 134844999.65106     -1863.375 6        41.151                                                                    25895562.832 6 109572603.37406     -1513.929 6        40.434
R16        27.000    22365696.393 7 119473550.52607        13.167 7        47.322                                                                    22365696.395 7  92923874.82507        10.240 7        44.027
E19        30.000    23067932.150 7 121222835.82607        51.410 7        43.344                                                                    23067929.505 7  90523548.99907        38.302 7        45.552    23067929.544 7  92885029.58907        39.353 7        47.184
C23        31.000                                                                                                                                    24919087.322 7 129760236.33707       747.706 7        44.299                                                                    24919078.868 7 105440788.45907       607.599 7        45.570
R23        32.000    20228900.134 8 108210992.44908       399.859 8        49.236
E29        33.000    24562702.988 7 129077960.86607     -2237.840 7        45.630                                                                    24562701.067 8  96389401.65108     -1671.122 8        48.747    24562701.047 8  98903902.22908     -1714.684 8        50.385
E04        34.000    26904357.258 6 141383378.11806      2185.021 6        40.539                                                                    26904355.346 7 105578505.59607      1631.638 7        42.908    26904354.878 7 108332723.24207      1674.137 7        44.266
C16        35.000                                                                                                                                    39058066.662 7 203385633.07607      -997.600 7        42.398    39058065.686 7 157270685.29307      -771.487 7        43.363    39058063.513 6 165267487.25106      -810.543 6        39.868
C32        36.000                                                                                                                                    22862145.306 8 119049248.21108     -2103.045 8        49.958                                                                    22862145.067 8  96737287.39808     -1708.811 8        50.397
I01        37.000   379635463.116 7 186630293.76707     -2718.161 7        42.449
E27        38.000    29122787.781 5 153041273.65005      1878.890 5        33.054                                                                    29122787.993 6 114284075.81106      1403.095 6        37.535    29122787.920 6 117265396.24606      1439.616 6        39.360
C41        39.000                                                                                                                                    27245483.954 6 141874401.51106     -3276.035 6        38.267                                                                    27245489.819 6 115284598.96206     -2662.002 6        39.504
C39        40.000                                                                                                                                    39595798.668 6 206185744.33506     -1365.331 6        41.330                                                                    39595794.977 7 167542802.07607     -1109.353 7        42.015
E33        41.000    25168844.070 7 132263254.76607     -3035.569 7        45.257                                                                    25168841.909 8  98768047.64208     -2266.804 8        48.013    25168841.802 8 101344601.36308     -2325.958 8        49.041
S44        42.000    40833024.702 6 214579180.38306      -554.126 6        37.369
R06        43.000    22155970.808 6 118228566.83506     -3631.581 6        36.699
C05        44.000                                                                                                                                    39285654.122 6 204570752.77106      -499.382 6        39.072    39285647.622 7 158187109.36207      -386.185 7        43.520    39285649.764 6 166230599.06806      -405.813 6        39.955
C29        45.000                                                                                                                                    23267651.532 7 121160790.18407     -1564.140 7        47.870                                                                    23267648.484 7  98453065.33707     -1270.942 7        47.211
G04        46.000    20198618.501 8 106144493.17808      -406.184 8        49.788                                    20198614.860 7  82709981.43307      -316.508 7        43.410    20198614.798 8  82709983.43908      -316.523 8        49.649
E30        47.000    28934727.122 5 152053034.19205       327.298 5        35.438                                                                    28934727.000 6 113546088.44306       244.375 6        39.363    28934726.672 6 116508158.92706       250.661 6        40.744
R22        48.000    20529195.008 8 109586266.25208     -3395.279 8        51.369                                                                    20529192.766 7  85233760.42007     -2640.807 7        47.021
C20        49.000                                                                                                                                    22514414.466 8 117238489.65408       745.696 8        51.393                                                                    22514408.205 8  95265860.47408       605.973 8        49.441
C06        50.000                                                                                                                                    38534930.464 6 200661529.95706      -918.137 6        40.815    38534925.206 7 155164207.08407      -709.959 7        44.474    38534924.824 6 163053910.90006      -746.053 6        41.499
S48        51.000    77334388.131 6 406393941.49206      -467.059 6        37.924
C09        53.000                                                                                                                                    38611281.089 7 201059094.69607      -415.236 7        42.567    38611277.493 7 155471636.58207      -321.074 7        46.409    38611275.533 7 163376963.56607      -337.262 7        42.491
C60        54.000                                                                                                                                    40833023.032 6 212628480.10406      -548.934 6        40.036                                                                    40833006.914 6 172778029.15006      -445.974 6        40.036
R09        55.000    22938039.499 7 122487864.36507      2970.862 7        45.154                                                                    22938037.825 7  95268331.61007      2310.697 7        44.027
G07        56.000    24970042.191 6 131218462.15006      2958.427 6        38.985                                    24970037.870 5 102248131.85505      2305.268 5        30.558    24970038.216 5 102248140.86405      2305.293 5        35.424
C02        57.000                                                                                                                                    40781295.857 5 212358973.63005      -542.734 5        34.248    40781289.232 6 164209425.97006      -419.625 6        39.832    40781293.323 6 172559066.88806      -441.146 6        36.348
I03        58.000   102192415.692 6 325239764.72206       877.486 6        40.276
R07        59.000    19619773.128 8 105026248.42608     -1290.600 8        51.207                                                                    19619771.582 7  81687135.87007     -1003.829 7        47.426
> 2025 01 02 02 45 15.0000000  0 55
G09         1.000    20868483.287 8 109664652.79208      1425.410 8        48.966                                    20868480.120 8  85452982.06508      1110.708 8        51.109    20868480.378 7  85452982.07407      1110.594 7        44.388
G06         2.000    22132907.607 7 116309232.25807      1738.624 7        45.478                                    22132905.702 7  90630575.27307      1354.773 7        45.770    22132906.659 7  90630583.27407      1354.764 7        43.312
E11         3.000    26674488.448 6 140175399.43806      2134.182 6        37.342                                                                    26674484.671 6 104676424.46806      1593.641 6        40.703    26674484.477 6 107407110.09506      1635.070 6        41.437
R15         4.000    24270357.510 7 129693432.56807     -3175.271 7        42.002                                                                    24270357.292 6 100872655.55806     -2469.637 6        39.228
S21         5.000    38587542.777 7 202778620.17307      -475.913 7        42.245
E10         6.000    24816072.410 7 130409351.54107      1081.008 7        46.312                                                                    24816071.132 8  97383603.50208       807.246 8        49.076    24816071.048 8  99924044.78708       828.342 8        50.325
G28         7.000    25192413.945 6 132387039.78506     -3611.318 6        37.323                                    25192410.187 3 103158713.89103     -2814.014 3        19.343    25192410.079 6 103158721.89206     -2813.937 6        37.626
G03         8.000    20904965.182 8 109856431.75708     -2300.904 8        48.622                                    20904962.569 8  85602456.24408     -1792.911 8        49.804    20904963.286 7  85602454.24407     -1792.942 7        44.521
G02         9.000    24487588.955 6 128683195.32206     -3968.268 6        40.074                                    24487582.461 4 100272613.02904     -3092.153 4        25.353
G31        10.000    22984935.129 7 120786661.75507     -2572.113 7        44.465                                    22984930.413 6  94119461.09006     -2004.244 6        39.721    22984930.330 6  94119466.09206     -2004.261 6        40.069
C30        11.000                                                                                                                                    25115931.321 7 130785253.80007     -3757.271 7        43.490                                                                    25115931.666 7 106273733.58207     -3052.974 7        42.933
S27        12.000    39216317.811 5 206083168.13105      -471.914 5        35.967
G26        13.000    24969505.363 6 131215635.64506      1437.228 6        37.255                                    24969504.199 4 102245955.45804      1119.922 4        28.379    24969504.535 5 102245955.45805      1119.835 5        34.024
S36        14.000    38354947.788 7 201557123.09107      -476.288 7        44.606
I09        15.000    37554328.421 7 147371252.92007      -609.257 7        42.825
G19        16.000    22946632.958 7 120585393.46507     -2316.796 7        42.798                                    22946626.547 5  93962628.59705     -1805.309 5        30.234
S45        17.000    63547433.804 6 333945008.41206      -515.952 6        37.716
E12        19.000    24091661.365 7 126602545.55507      -252.622 7        44.996                                                                    24091657.178 7  94540851.40207      -188.635 7        47.976    24091657.245 8  97007133.85108      -193.552 8        49.040
G17        20.000    24119534.971 6 126749030.20406     -3188.478 6        41.220                                    24119530.108 5  98765467.14405     -2484.526 5        34.762    24119530.631 6  98765466.14306     -2484.436 6        37.206
G11        21.000    25363143.639 6 133284227.29806      3077.759 6        38.928                                    25363140.610 3 103857818.83303      2398.253 3        21.071    25363141.159 6 103857831.81906      2398.241 6        36.805
I06        22.000    38201483.878 7 149911071.52607      -285.564 7        43.238
S28        23.000    41020530.585 5 215564353.44905      -471.142 5        34.938
R08        24.000    20939568.361 8 112130478.72608      1763.495 8        49.773                                                                    20939565.943 7  87212598.74607      1371.581 7        45.950
S23        25.000    38300044.044 7 201268092.11807      -471.944 7        44.790
C25        26.000                                                                                                                                    25897356.172 6 134854323.47306     -1866.148 6        41.313                                                                    25897353.501 6 109580179.76406     -1516.341 6        39.883
R16        27.000    22365686.403 7 119473496.46307         8.451 7        47.175                                                                    22365685.874 7  92923832.77807         6.571 7        43.697
E19        30.000    23067884.163 7 121222584.01307        49.294 7        43.549                                                                    23067881.606 7  90523360.95307        36.751 7        45.630    23067881.654 7  92884836.64207        37.779 7        47.192
C23        31.000                                                                                                                                    24918370.997 7 129756504.73707       744.910 7        44.176                                                                    24918362.186 7 105437756.23707       605.384 7        45.327
R23        32.000    20228528.840 8 108209005.26208       394.910 8        49.340
E29        33.000    24564833.009 7 129089153.35507     -2239.281 7        45.874                                                                    24564830.892 8  96397759.67808     -1672.213 8        48.737    24564830.862 8  98912478.29408     -1715.779 8        50.359
E04        34.000    26902278.529 6 141372456.04506      2183.975 6        40.830                                                                    26902277.034 7 105570349.50007      1630.840 7        43.107    26902276.490 7 108324354.38107      1673.388 7        44.176
C16        35.000                                                                                                                                    39059025.051 7 203390623.46807      -998.591 7        42.404    39059023.943 7 157274544.17107      -772.143 7        43.289    39059021.859 6 165271542.36406      -811.333 6        39.640
C32        36.000                                                                                                                                    22864165.314 8 119059766.63108     -2104.376 8        50.069                                                                    22864165.040 8  96745834.49308     -1709.905 8        50.253
I01        37.000   379638926.631 7 186643885.40507     -2718.546 7        42.260
E27        38.000    29121000.733 5 153031882.09305      1877.515 5        32.892                                                                    29121000.862 6 114277062.63506      1402.267 6        37.686    29121000.734 6 117258200.13406      1438.622 6        39.547
C41        39.000                                                                                                                                    27248629.716 6 141890782.06306     -3276.317 6        38.213                                                                    27248635.426 6 115297909.49006     -2662.051 6        39.532
C39        40.000                                                                                                                                    39597109.816 6 206192572.82906     -1366.120 6        41.728                                                                    39597106.312 6 167548350.79706     -1109.977 6        41.795
E33        41.000    25171732.957 7 132278436.70207     -3037.235 7        45.375                                                                    25171730.892 7  98779384.79707     -2268.093 7        47.976    25171730.882 8 101356234.26808     -2327.269 8        48.998
S44        42.000    40833549.823 6 214581951.01306      -554.440 6        37.645
R06        43.000    22159374.332 6 118246726.65706     -3632.496 6        37.248
C05        44.000                                                                                                                                    39286133.847 6 204573250.37206      -499.707 6        39.264    39286127.481 7 158189040.67007      -386.427 7        43.410    39286129.565 6 166232628.57706      -406.014 6        39.673
C29        45.000                                                                                                                                    23269154.339 7 121168618.14307     -1567.155 7        47.912                                                                    23269151.799 7  98459426.19807     -1273.295 7        47.058
G04        46.000    20199006.433 8 106146531.16008      -409.091 8        49.425                                    20199002.671 7  82711569.47307      -318.773 7        43.462    20199002.721 8  82711571.47508      -318.786 8        49.576
E30        47.000    28934417.346 5 152051404.12305       325.050 5        35.638                                                                    28934417.013 6 113544871.21006       242.538 6        39.529    28934416.520 6 116506909.92306       248.771 6        40.777
R22        48.000    20532377.058 8 109603252.04608     -3399.077 8        50.952                                                                    20532375.113 7  85246971.57107     -2643.716 7        47.242
C20        49.000                                                                                                                                    22513699.428 8 117234765.32808       743.968 8        51.537                                                                    22513692.971 8  95262834.16008       604.677 8        49.369
C06        50.000                                                                                                                                    38535812.728 6 200666123.37806      -919.309 6        40.899    38535807.514 7 155167759.00007      -710.903 7        44.516    38535806.937 6 163057643.43206      -746.913 6        41.304
S48        51.000    77334835.866 6 406396276.88906      -467.147 6        38.024
C09        53.000                                                                                                                                    38611680.445 7 201061173.32907      -416.213 7        42.692    38611676.476 7 155473243.91307      -321.893 7        46.397    38611674.759 7 163378652.64307      -338.231 7        42.351
C60        54.000                                                                                                                                    40833550.098 6 212631225.53506      -549.250 6        40.095                                                                    40833534.055 6 172780260.04006      -446.206 6        39.967
R09        55.000    22935258.172 7 122473015.32007      2968.630 7        44.513                                                                    22935256.691 7  95256782.36307      2308.896 7        43.900
G07        56.000    24967227.167 6 131203670.69606      2958.172 6        38.601                                    24967223.203 5 102236606.07105      2305.066 5        30.513    24967223.961 5 102236615.08305      2305.032 5        35.571
C02        57.000                                                                                                                                    40781817.490 5 212361688.61005      -543.062 5        34.148    40781810.543 6 164211525.36306      -420.009 6        39.658    40781814.643 6 172561273.03806      -441.350 6        36.431
I03        58.000   102191298.030 6 325235377.64906       877.153 6        40.133
R07        59.000    19620980.029 8 105032707.14308     -1293.024 8        51.329                                                                    19620978.457 7  81692159.30707     -1005.706 7        47.732
> 2025 01 02 02 45 20.0000000  0 55
G09         1.000    20867127.943 8 109657530.83008      1423.114 8        48.843                                    20867124.856 8  85447432.48408      1108.917 8        50.997    20867125.231 7  85447432.48607      1108.915 7        44.396
G06         2.000    22131254.216 7 116300544.88307      1736.201 7        45.682                                    22131252.552 7  90623805.89007      1352.883 7        45.667    22131253.228 7  90623813.89907      1352.836 7        43.805
E11         3.000    26672458.268 6 140164731.00506      2133.092 6        37.380                                                                    26672454.520 6 104668457.78006      1592.938 6        40.710    26672454.313 6 107398935.56906      1634.474 6        41.576
R15         4.000    24273328.556 6 129709316.10606     -3178.327 6        41.244                                                                    24273329.209 6 100885009.42606     -2471.997 6        39.495
S21         5.000    38587994.291 7 202780999.19407      -476.005 7        42.375
E10         6.000    24815044.895 7 130403950.38107      1079.170 7        46.251                                                                    24815043.366 8  97379570.17308       805.922 8        49.124    24815043.279 8  99919906.24308       826.932 8        50.486
G28         7.000    25195850.592 6 132405100.08706     -3612.668 6        37.289                                    25195847.067 3 103172786.85703     -2815.045 3        18.925    25195847.015 6 103172794.89706     -2815.333 6        37.195
G03         8.000    20907154.754 8 109867940.10008     -2302.555 8        48.322                                    20907152.529 8  85611423.78308     -1794.201 8        49.726    20907153.180 7  85611421.78807     -1794.244 7        44.501
G02         9.000    24491365.240 6 128703037.52306     -3968.857 6        40.443                                    24491358.388 4 100288074.48704     -3092.624 4        25.669
G31        10.000    22987383.875 7 120799529.33807     -2574.947 7        43.634                                    22987379.060 6  94129487.77506     -2006.452 6        39.574    22987379.303 6  94129492.79006     -2006.608 6        40.505
C30        11.000                                                                                                                                    25119538.893 7 130804040.81207     -3757.807 7        43.308                                                                    25119539.705 7 106288999.54707     -3053.483 7        42.961
S27        12.000    39216767.486 5 206085528.00405      -472.322 5        35.971
G26        13.000    24968138.768 6 131208453.36406      1435.140 6        37.474                                    24968137.420 4 102240358.87404      1118.288 4        28.218    24968137.161 5 102240358.86105      1118.380 5        34.457
S36        14.000    38355401.698 7 201559504.06807      -476.399 7        44.795
I09        15.000    37555104.775 7 147374299.07907      -609.361 7        42.808
G19        16.000    22948838.919 7 120596984.19207     -2319.725 7        42.332                                    22948832.134 5  93971660.33305     -1807.579 5        30.060
S45        17.000    63547881.691 6 333947587.57106      -515.937 6        37.860
E12        19.000    24091902.610 7 126603813.62807      -254.921 7        45.160                                                                    24091898.494 8  94541798.33908      -190.325 8        48.017    24091898.633 8  97008105.48608      -195.263 8        49.066
G17        20.000    24122568.557 6 126764974.62406     -3189.578 6        41.271                                    24122564.332 5  98777891.36005     -2485.383 5        34.595    24122564.728 6  98777890.36606     -2485.382 6        36.491
G11        21.000    25360215.797 6 133268839.94306      3076.966 6        38.793                                    25360212.395 3 103845828.68303      2397.631 3        20.524    25360213.357 6 103845841.67206      2397.657 6        36.836
I06        22.000    38201848.096 7 149912499.41507      -285.604 7        43.443
S28        23.000    41020979.737 5 215566709.31905      -470.930 5        34.752
R08        24.000    20937922.497 8 112121665.12308      1761.725 8        49.877                                                                    20937920.252 7  87205743.74107      1370.204 7        46.048
S23        25.000    38300491.296 7 201270451.53607      -472.054 7        44.737
C25        26.000                                                                                                                                    25899149.041 6 134863660.14506     -1868.782 6        41.161                                                                    25899146.491 6 109587766.54606     -1518.477 6        39.793
R16        27.000    22365680.559 7 119473464.75107         4.046 7        47.250                                                                    22365680.213 7  92923808.10907         3.194 7        43.881
E19        30.000    23067838.052 7 121222341.37107        47.645 7        43.342                                                                    23067835.394 7  90523179.76207        35.481 7        45.609    23067835.465 7  92884650.72107        36.492 7        47.296
