     3.04           OBSERVATION DATA    M                   RINEX VERSION / TYPE
ssrcrin-15.6.1x                         20250102 194500 UTC PGM / RUN BY / DATE 
(00000000023479385599111004) Septentrio proprietary         COMMENT             
rref                                                        MARKER NAME         
01                                                          MARKER NUMBER       
geodetic                                                    MARKER TYPE         
NFB                 CLIMERS@TUW                             OBSERVER / AGENCY   
3297213             SEPT ASTERX SB3 PROB4.14.4              REC # / TYPE / VERS 
Unknown             Unknown                                 ANT # / TYPE        
  4127831.8893  1207193.3350  4695247.4481                  APPROX POSITION XYZ 
        0.0000        0.0000        0.0000                  ANTENNA: DELTA H/E/N
G   23 X1  C1C L1C D1C S1C C1W S1W C2W L2W D2W S2W C2L L2L  SYS / # / OBS TYPES 
       D2L S2L C5Q L5Q D5Q S5Q C1L L1L D1L S1L              SYS / # / OBS TYPES 
E   21 X1  C1C L1C D1C S1C C6C L6C D6C S6C C5Q L5Q D5Q S5Q  SYS / # / OBS TYPES 
       C7Q L7Q D7Q S7Q C8Q L8Q D8Q S8Q                      SYS / # / OBS TYPES 
S    9 X1  C1C L1C D1C S1C C5I L5I D5I S5I                  SYS / # / OBS TYPES 
R   17 X1  C1C L1C D1C S1C C2P L2P D2P S2P C2C L2C D2C S2C  SYS / # / OBS TYPES 
       C3Q L3Q D3Q S3Q                                      SYS / # / OBS TYPES 
C   25 X1  C1P L1P D1P S1P C5P L5P D5P S5P C2I L2I D2I S2I  SYS / # / OBS TYPES 
       C7I L7I D7I S7I C6I L6I D6I S6I C7D L7D D7D S7D      SYS / # / OBS TYPES 
J   17 X1  C1C L1C D1C S1C C2L L2L D2L S2L C5Q L5Q D5Q S5Q  SYS / # / OBS TYPES 
       C1L L1L D1L S1L                                      SYS / # / OBS TYPES 
I    5 X1  C5A L5A D5A S5A                                  SYS / # / OBS TYPES 
SEPTENTRIO RECEIVERS OUTPUT ALIGNED CARRIER PHASES.         COMMENT             
NO FURTHER PHASE SHIFT APPLIED IN THE RINEX ENCODER.        COMMENT             
G L1C                                                       SYS / PHASE SHIFT   
G L2W                                                       SYS / PHASE SHIFT   
G L2L  0.00000                                              SYS / PHASE SHIFT   
G L5Q  0.00000                                              SYS / PHASE SHIFT   
G L1L  0.00000                                              SYS / PHASE SHIFT   
E L1C  0.00000                                              SYS / PHASE SHIFT   
E L6C  0.00000                                              SYS / PHASE SHIFT   
E L5Q  0.00000                                              SYS / PHASE SHIFT   
E L7Q  0.00000                                              SYS / PHASE SHIFT   
E L8Q  0.00000                                              SYS / PHASE SHIFT   
S L1C                                                       SYS / PHASE SHIFT   
S L5I                                                       SYS / PHASE SHIFT   
R L1C                                                       SYS / PHASE SHIFT   
R L2P  0.00000                                              SYS / PHASE SHIFT   
R L2C                                                       SYS / PHASE SHIFT   
R L3Q  0.00000                                              SYS / PHASE SHIFT   
C L1P  0.00000                                              SYS / PHASE SHIFT   
C L5P  0.00000                                              SYS / PHASE SHIFT   
C L2I                                                       SYS / PHASE SHIFT   
C L7I                                                       SYS / PHASE SHIFT   
C L6I                                                       SYS / PHASE SHIFT   
C L7D                                                       SYS / PHASE SHIFT   
J L1C                                                       SYS / PHASE SHIFT   
J L2L  0.00000                                              SYS / PHASE SHIFT   
J L5Q  0.00000                                              SYS / PHASE SHIFT   
J L1L  0.00000                                              SYS / PHASE SHIFT   
I L5A                                                       SYS / PHASE SHIFT   
  2025     1     2    19    45    0.0000000     GPS         TIME OF FIRST OBS   
 C1C    0.000 C2C    0.000 C2P    0.000                     GLONASS COD/PHS/BIS 
DBHZ                                                        SIGNAL STRENGTH UNIT
    18                                                      LEAP SECONDS        
 24 R01  1 R02 -4 R03  5 R04  6 R05  1 R06 -4 R07  5 R08  6 GLONASS SLOT / FRQ #
    R09 -2 R10 -7 R11  0 R12 -1 R13 -2 R14 -7 R15  0 R16 -1 GLONASS SLOT / FRQ #
    R17  4 R18 -3 R19  3 R20  2 R21  4 R22 -3 R23  3 R24  2 GLONASS SLOT / FRQ #
                                                            END OF HEADER       
> 2025 01 02 19 45  0.0000000  0 59
G23         1.000    21014116.986 7 110430012.97607      -825.079 7        47.417                                    21014113.259 6  86049384.03106      -642.920 6        39.030    21014113.434 7  86049382.03107      -642.870 7        47.176
C37         2.000                                                                                                                                    25499853.794 7 132784421.41307       409.109 7        42.172                                                                    25499857.180 7 107898239.39507       332.485 7        43.757
G16         3.000    21334768.378 8 112115173.77708     -2562.541 8        48.304                                    21334763.949 6  87362558.07206     -1996.786 6        38.102
G21         4.000    24513997.604 5 128821949.14605      2714.911 5        34.857                                    24513995.250 2 100380735.00002      2115.476 2        15.143
S21         5.000    38580945.252 7 202743906.23007      -451.725 7        42.265
G26         6.000    23272533.963 7 122298222.30407     -3865.186 7        42.745                                    23272533.221 6  95297446.14606     -3011.833 6        39.456    23272533.740 6  95297433.15106     -3011.879 6        40.150
G10         7.000    21761641.096 8 114358258.81508      1851.591 8        49.646                                    21761639.383 8  89110347.12008      1442.797 8        49.704    21761639.078 7  89110341.12507      1442.786 7        44.009
E15         8.000    26208353.306 7 137725923.73607      1824.783 7        42.715                                                                    26208354.873 7 102847345.17407      1362.639 7        45.472    26208354.503 7 105530307.68207      1398.216 7        46.148
E36         9.000    25211656.607 7 132488340.26007     -2477.725 7        44.829                                                                    25211657.245 7  98936241.21307     -1850.299 7        47.493    25211656.980 8 101517173.97508     -1898.550 8        48.561
G27        10.000    20494839.502 8 107701258.80108       798.968 8        50.041                                    20494837.585 8  83923128.87108       622.569 8        52.790    20494837.940 7  83923130.87607       622.622 7        46.059
G15        11.000    23798976.161 6 125064483.89106      -641.413 6        39.796                                    23798972.929 5  97452836.72405      -499.808 5        33.120    23798973.689 6  97452839.70806      -499.708 6        37.187
G13        12.000    25045452.364 6 131614728.97406     -1218.467 6        36.087                                    25045449.682 2 102556917.72802      -949.453 2        13.818
C23        13.000                                                                                                                                    24551669.551 7 127847036.69707     -2224.371 7        45.398                                                                    24551661.538 7 103886181.54807     -1807.372 7        46.258
S36        14.000    38350511.076 7 201533818.51607      -450.776 7        43.956
C13        15.000                                                                                                                                    38352300.628 7 199710551.88907     -1291.693 7        43.101    38352302.248 7 154428900.94307      -998.823 7        44.426    38352300.304 7 162281204.95107     -1049.805 7        42.133
G18        16.000    22801544.699 7 119823152.57207     -3191.932 7        44.679                                    22801540.777 5  93368786.81105     -2487.222 5        32.353    22801541.064 7  93368794.80907     -2487.157 7        42.595
R10        17.000    21168283.744 7 112838895.26707     -3168.134 7        44.948
E27        18.000    26187452.422 7 137616004.06207      1508.375 7        42.315                                                                    26187452.724 7 102765200.23807      1126.357 7        45.734    26187452.276 7 105446028.98607      1155.730 7        46.608
E02        19.000    26065905.576 7 136977437.36807     -3432.125 7        42.959                                                                    26065904.992 7 102288453.48607     -2562.996 7        46.177    26065904.303 7 104956833.26107     -2629.815 7        46.421
S27        20.000    39321840.877 5 206637688.42905      -420.727 5        35.529
R11        21.000    21437979.434 8 114558082.81108       894.080 8        49.403                                                                    21437978.941 7  89100734.18707       695.291 7        46.186
I06        22.000    38795665.316 6 152242745.33506      -273.276 6        41.387
S28        23.000    41048302.424 5 215710285.13205      -444.013 5        33.653
E04        24.000    28260127.361 6 148507954.34906      -807.466 6        36.737                                                                    28260126.892 6 110898796.28206      -602.964 6        41.287    28260126.163 6 113791804.33306      -618.553 6        40.791
S23        25.000    38307524.237 7 201307348.44107      -451.930 7        44.668
S45        26.000    63562922.574 6 334026030.86506      -501.989 6        37.493
R09        27.000    23352144.769 7 124699332.67507     -4895.581 7        44.646                                                                    23352144.615 6  96988476.01006     -3807.710 6        41.349
C38        29.000                                                                                                                                    40210310.597 6 209385756.96706     -1686.960 6        39.291                                                                    40210307.971 6 170143123.77406     -1370.840 6        39.604
C44        30.000                                                                                                                                    26523397.474 6 138114490.60006     -3265.438 6        39.646                                                                    26523397.255 6 112229417.41406     -2653.484 6        39.586
C43        31.000                                                                                                                                    21950740.923 8 114303372.68408       525.947 8        51.013                                                                    21950739.681 8  92880895.24908       427.372 8        49.324
C42        32.000                                                                                                                                    24731806.609 7 128785018.62507      2595.068 7        44.146                                                                    24731814.876 7 104648416.43507      2108.689 7        45.846
I02        33.000    40011985.343 6 157015675.95206     -1001.405 6        39.778
R03        34.000    22920112.365 7 122693199.63707     -2825.226 7        43.545                                                                    22920112.160 6  95428046.19206     -2197.290 6        41.249
E34        35.000    23468063.163 8 123325710.66008      -174.876 8        48.972                                                                    23468063.147 8  92093985.48908      -130.616 8        50.790    23468063.043 8  94496426.09208      -133.992 8        51.598
G30        36.000    26039218.945 5 136837025.09705       567.250 5        35.800                                    26039220.110 4 106626257.84904       442.014 4        25.519    26039220.675 5 106626250.86305       442.429 5        33.108
R21        37.000    22769060.515 7 121841875.44807      2582.745 7        46.764                                                                    22769061.360 6  94765918.82606      2008.849 6        40.126
C22        38.000                                                                                                                                    25626659.090 6 133444761.81306     -2486.042 6        41.895                                                                    25626652.399 6 108434783.73506     -2020.051 6        41.704
R05        39.000    22636771.134 7 121006523.30807      3555.699 7        45.585                                                                    22636771.104 7  94116190.89407      2765.432 7        43.143
C12        40.000                                                                                                                                    24604491.353 7 128122236.70307     -2888.035 7        42.347    24604487.901 7  99072335.87607     -2233.236 7        47.380    24604486.435 7 104109884.26807     -2346.881 7        44.763
R04        41.000    21280321.387 8 113955178.92708       687.796 8        49.179                                                                    21280318.810 7  88631812.66007       534.973 7        44.861
S44        42.000    40614566.461 6 213431159.22506      -435.168 6        37.652
G08        43.000    22557474.054 7 118540406.16507      2458.026 7        43.909                                    22557473.132 6  92369185.05206      1915.345 6        40.381    22557474.161 6  92369183.06106      1915.225 6        40.529
C05        44.000                                                                                                                                    39391813.781 6 205123542.72306      -382.945 6        38.207    39391809.307 7 158614557.83707      -296.112 7        43.399    39391811.435 6 166679783.25106      -311.111 6        40.374
C11        45.000                                                                                                                                    21730881.666 8 113158553.24508      -715.074 8        48.567    21730878.832 8  87501432.10908      -552.969 8        51.812    21730877.828 8  91950633.57508      -581.122 8        49.075
E09        46.000    27799666.969 6 146088247.97606      1295.174 6        38.721                                                                    27799667.569 6 109091882.58106       967.096 6        41.142    27799667.335 7 111937755.07307       992.276 7        43.183
G07        47.000    25273090.641 6 132810990.85206      -748.122 6        40.131                                    25273088.121 5 103489067.51905      -582.953 5        30.400    25273088.098 5 103489075.54205      -583.036 5        34.429
C21        48.000                                                                                                                                    23878625.588 7 124342298.59107       279.402 7        47.797                                                                    23878620.557 7 101038290.34407       227.030 7        47.564
E06        49.000    27758838.955 6 145873701.69606       323.782 6        38.432                                                                    27758839.719 6 108931664.67606       241.664 6        40.863    27758838.610 6 111773357.54706       248.099 6        41.385
R19        50.000    21995318.968 6 117660383.41606     -3323.631 6        38.096                                                                    21995317.483 6  91513743.92406     -2585.111 6        41.318
S48        51.000    77322065.225 6 406330321.74006      -488.743 6        37.516
C08        52.000                                                                                                                                    38758662.643 6 201826629.27106     -1547.373 6        39.547    38758656.184 7 156065181.96107     -1196.490 7        43.803    38758655.529 6 164000686.74706     -1257.403 6        40.717
C34        53.000                                                                                                                                    22304457.749 8 116145447.03508     -1955.141 8        49.707                                                                    22304457.516 8  94377806.20908     -1588.744 8        48.686
C60        54.000                                                                                                                                    40614565.659 6 211490895.35206      -431.299 6        40.322                                                                    40614549.451 6 171853644.66006      -350.353 6        39.480
C25        55.000                                                                                                                                    25927968.557 7 135013957.07107     -3662.121 7        42.700                                                                    25927967.773 6 109709987.89906     -2975.837 6        41.402
I09        56.000    38893434.546 6 152626209.96406       408.040 6        41.876
C02        57.000                                                                                                                                    40728467.186 5 212083859.35505      -385.777 5        34.100    40728461.616 6 163996685.20306      -298.114 6        39.781    40728464.626 5 172335509.99005      -313.301 5        35.252
I03        58.000    81618860.827 6 244504688.63006      1095.911 6        41.368
E30        59.000    24370802.790 8 128069652.97308     -1217.345 8        48.307                                                                    24370802.311 8  95636549.33608      -909.065 8        50.194    24370801.887 8  98131399.07508      -932.744 8        51.031
R20        60.000    19787527.126 6 105813002.94706        77.694 6        40.901                                                                    19787528.303 7  82299071.32207        60.434 7        47.535
> 2025 01 02 19 45  5.0000000  0 59
G23         1.000    21014903.347 7 110434146.45007      -828.373 7        47.449                                    21014899.826 6  86052604.91806      -645.487 6        38.901    21014899.890 7  86052602.92407      -645.499 7        47.158
C37         2.000                                                                                                                                    25499462.477 7 132782382.27307       406.457 7        42.349                                                                    25499465.654 7 107896582.43407       330.377 7        43.943
G16         3.000    21337208.103 7 112127993.53507     -2565.396 7        47.725                                    21337203.496 6  87372547.49006     -1999.009 6        38.009
G21         4.000    24511414.093 5 128808376.30205      2714.244 5        34.410                                    24511412.338 2 100370158.76902      2114.995 2        14.714
S21         5.000    38581377.045 7 202746164.73907      -451.737 7        42.248
G26         6.000    23276212.219 7 122317551.47707     -3866.384 7        42.453                                    23276211.479 6  95312507.83806     -3012.766 6        39.309    23276212.172 6  95312494.85506     -3012.971 6        40.601
G10         7.000    21759880.668 8 114349006.90608      1849.138 8        49.760                                    21759878.807 8  89103137.84408      1440.886 8        49.594    21759878.658 7  89103131.85807      1440.814 7        44.146
E15         8.000    26206617.342 7 137716801.90807      1823.869 7        42.656                                                                    26206619.035 7 102840533.41307      1362.058 7        45.439    26206618.643 7 105523318.22607      1397.582 7        46.208
E36         9.000    25214014.313 7 132500730.67807     -2478.403 7        44.856                                                                    25214015.061 7  98945493.79107     -1850.787 7        47.590    25214014.758 8 101526667.92008     -1899.087 8        48.607
G27        10.000    20494080.641 8 107697269.62908       796.587 8        50.026                                    20494078.469 8  83920020.43108       620.718 8        52.684    20494078.654 7  83920022.43307       620.754 7        45.967
G15        11.000    23799587.737 6 125067699.28606      -644.759 6        39.928                                    23799584.910 5  97455342.23105      -502.410 5        32.964    23799585.358 6  97455345.23206      -502.458 6        37.074
G13        12.000    25046612.321 6 131620828.44406     -1221.419 6        36.034                                    25046610.417 2 102561670.56202      -951.748 2        13.758
C23        13.000                                                                                                                                    24553806.026 7 127858163.32107     -2226.450 7        45.512                                                                    24553798.302 7 103895222.85907     -1809.129 7        46.249
S36        14.000    38350937.373 7 201536072.68807      -450.794 7        43.882
C13        15.000                                                                                                                                    38353541.486 7 199717011.41307     -1292.162 7        43.124    38353542.639 7 154433895.85907      -999.188 7        44.363    38353540.845 7 162286453.84207     -1049.895 7        42.231
G18        16.000    22804581.859 7 119839114.76007     -3193.036 7        44.956                                    22804578.306 5  93381224.87405     -2488.082 5        32.228    22804578.695 7  93381232.87807     -2487.957 7        42.751
R10        17.000    21171256.593 7 112854744.50707     -3171.640 7        44.655
E27        18.000    26186017.682 7 137608466.46807      1506.583 7        42.472                                                                    26186018.378 7 102759571.51007      1125.064 7        45.825    26186017.898 7 105440253.42107      1154.385 7        46.616
E02        19.000    26069171.469 7 136994600.40207     -3433.082 7        42.906                                                                    26069171.073 7 102301270.02007     -2563.622 7        46.287    26069170.341 7 104969984.14907     -2630.587 7        46.426
S27        20.000    39322237.076 5 206639791.00405      -420.427 5        35.581
R11        21.000    21437145.559 8 114553623.56308       889.625 8        49.507                                                                    21437143.846 7  89097265.86607       691.989 7        45.734
I06        22.000    38796013.279 6 152244111.41106      -273.329 6        41.306
S28        23.000    41048722.779 5 215712505.91305      -444.271 5        33.257
E04        24.000    28260896.537 6 148511996.83006      -809.518 6        37.157                                                                    28260896.079 6 110901814.98506      -604.585 6        41.125    28260895.394 6 113794901.79606      -620.359 6        40.763
S23        25.000    38307954.586 7 201309608.09907      -451.936 7        44.612
S45        26.000    63563353.836 6 334028540.75906      -502.065 6        37.777
R09        27.000    23356728.750 7 124723811.50807     -4896.078 7        44.655                                                                    23356729.040 6  97007515.07806     -3808.152 6        41.592
C38        29.000                                                                                                                                    40211930.153 6 209394192.13706     -1687.013 6        39.276                                                                    40211927.828 6 170149978.03206     -1370.721 6        39.604
C44        30.000                                                                                                                                    26526532.742 6 138130818.22506     -3265.616 6        39.333                                                                    26526532.623 6 112242684.94806     -2653.414 6        39.297
C43        31.000                                                                                                                                    21950236.533 8 114300746.16808       524.558 8        50.887                                                                    21950235.317 8  92878760.99808       426.341 8        49.363
C42        32.000                                                                                                                                    24729315.169 7 128772046.15307      2593.897 7        44.117                                                                    24729323.464 7 104637875.25107      2107.837 7        45.556
I02        33.000    40013261.311 6 157020682.36106     -1001.334 6        39.847
R03        34.000    22922753.341 7 122707334.60107     -2828.832 7        44.104                                                                    22922752.390 6  95439040.04506     -2200.340 6        40.424
E34        35.000    23468230.143 8 123326588.51308      -176.315 8        49.103                                                                    23468230.197 8  92094641.02208      -131.655 8        50.852    23468230.091 8  94497098.72808      -135.106 8        51.721
G30        36.000    26038681.714 5 136834193.92205       564.826 5        35.619                                    26038681.302 4 106624051.77004       440.112 4        25.293    26038682.985 5 106624044.76005       440.267 5        32.311
R21        37.000    22766648.075 7 121828963.52007      2581.967 7        47.302                                                                    22766648.324 6  94755876.22806      2008.219 6        40.176
C22        38.000                                                                                                                                    25629047.351 6 133457197.52506     -2488.374 6        41.831                                                                    25629040.521 6 108444888.76506     -2021.851 6        41.626
R05        39.000    22633445.486 7 120988748.57607      3554.208 7        45.416                                                                    22633445.047 7  94102366.09807      2764.290 7        42.844
C12        40.000                                                                                                                                    24607264.985 6 128136678.55006     -2888.730 6        41.883    24607261.205 7  99083503.22207     -2233.743 7        47.460    24607259.939 7 104121619.45107     -2347.270 7        44.953
R04        41.000    21279680.096 8 113951750.68108       683.417 8        48.801                                                                    21279678.678 7  88629146.26707       531.544 7        44.710
S44        42.000    40614979.661 6 213433334.91406      -435.255 6        37.577
G08        43.000    22555135.970 7 118528118.79807      2456.858 7        43.589                                    22555134.876 6  92359610.48906      1914.436 6        40.315    22555135.627 6  92359608.48806      1914.380 6        40.489
C05        44.000                                                                                                                                    39392181.478 6 205125457.21206      -382.875 6        38.231    39392176.982 7 158616038.23907      -296.131 7        43.289    39392179.271 6 166681338.95206      -311.107 6        40.369
C11        45.000                                                                                                                                    21731569.008 8 113162132.11308      -716.512 8        48.525    21731566.077 8  87504199.51308      -554.050 8        51.811    21731565.111 8  91953541.69808      -582.073 8        49.161
E09        46.000    27798436.020 6 146081776.70606      1293.219 6        39.099                                                                    27798435.945 6 109087050.14206       965.881 6        41.178    27798435.980 7 111932796.57007       991.013 7        43.158
G07        47.000    25273803.595 6 132814737.95606      -750.890 6        40.784                                    25273800.951 5 103491987.33805      -585.111 5        30.204    25273800.769 5 103491995.32405      -584.990 5        34.262
C21        48.000                                                                                                                                    23878358.937 8 124340908.70508       276.435 8        48.066                                                                    23878353.679 7 101037160.95207       224.768 7        47.634
E06        49.000    27758532.001 6 145872088.38606       321.523 6        38.850                                                                    27758532.574 6 108930459.91406       240.104 6        40.880    27758531.498 6 111772121.38106       246.260 6        41.225
R19        50.000    21998425.747 6 117677003.76106     -3324.630 6        38.135                                                                    21998425.221 6  91526670.86406     -2585.904 6        41.254
S48        51.000    77322502.907 6 406332765.83806      -488.966 6        37.384
C08        52.000                                                                                                                                    38760148.590 6 201834366.68706     -1547.700 6        39.324    38760142.237 7 156071165.01107     -1196.712 7        43.888    38760141.616 6 164006974.02706     -1257.587 6        40.675
C34        53.000                                                                                                                                    22306336.026 8 116155225.82808     -1956.411 8        49.687                                                                    22306335.446 8  94385752.28608     -1589.653 8        48.746
C60        54.000                                                                                                                                    40614979.320 6 211493051.25306      -431.207 6        40.112                                                                    40614963.416 6 171855396.51206      -350.334 6        39.426
C25        55.000                                                                                                                                    25931484.978 7 135032267.63107     -3662.241 7        42.203                                                                    25931484.265 6 109724866.72206     -2975.843 6        41.404
I09        56.000    38892914.365 6 152624169.51906       407.974 6        41.962
C02        57.000                                                                                                                                    40728837.414 5 212085787.18005      -385.751 5        34.338    40728832.055 6 163998175.93006      -298.252 6        39.814    40728835.064 5 172337076.51905      -313.184 5        35.395
I03        58.000    81617464.799 6 244499208.94306      1095.925 6        41.311
E30        59.000    24371961.987 8 128075745.40508     -1219.775 8        48.356                                                                    24371961.650 8  95641098.87408      -910.828 8        50.279    24371961.196 8  98136067.29708      -934.547 8        51.128
R20        60.000    19787455.697 6 105812619.56706        75.623 6        40.384                                                                    19787456.214 7  82298773.15507        58.734 7        47.087
> 2025 01 02 19 45 10.0000000  0 59
G23         1.000    21015693.008 7 110438296.16407      -831.500 7        47.576                                    21015689.524 6  86055838.46306      -647.922 6        38.853    21015689.534 7  86055836.46507      -647.924 7        47.146
C37         2.000                                                                                                                                    25499073.196 7 132780356.33707       403.942 7        42.438                                                                    25499076.624 7 107894936.17707       328.232 7        43.831
G16         3.000    21339650.190 7 112140827.19207     -2568.029 7        47.995                                    21339645.691 6  87382547.74206     -2001.060 6        38.012
G21         4.000    24508832.036 5 128794807.60805      2713.232 5        34.195                                    24508830.262 2 100359585.75502      2114.205 2        13.818
S21         5.000    38581803.705 7 202748422.97507      -451.497 7        42.307
G26         6.000    23279891.467 7 122336885.71607     -3867.317 7        42.464                                    23279890.775 6  95327573.47606     -3013.489 6        39.354    23279891.093 6  95327560.46806     -3013.452 6        40.834
G10         7.000    21758122.035 8 114339766.96708      1846.818 8        49.696                                    21758120.498 8  89095937.89508      1439.078 8        49.595    21758120.192 7  89095931.89307      1439.181 7        44.110
E15         8.000    26204882.656 7 137707684.05307      1823.178 7        42.256                                                                    26204884.017 7 102833724.62607      1361.656 7        45.499    26204883.605 7 105516331.82607      1397.022 7        46.204
E36         9.000    25216373.000 7 132513124.09207     -2478.880 7        45.391                                                                    25216373.493 7  98954748.61207     -1851.114 7        47.651    25216373.124 8 101536164.17408     -1899.421 8        48.492
G27        10.000    20493323.634 8 107693291.86508       794.567 8        49.980                                    20493321.526 8  83916920.87308       619.143 8        52.670    20493322.014 7  83916922.87807       619.115 7        45.982
G15        11.000    23800203.208 6 125070931.84306      -648.146 6        39.354                                    23800200.103 5  97457861.10805      -505.048 5        32.838    23800199.829 6  97457864.10206      -505.082 6        36.692
G13        12.000    25047776.566 6 131626943.68006     -1224.583 6        36.197                                    25047774.076 2 102566435.62602      -954.214 2        13.818
C23        13.000                                                                                                                                    24555945.186 7 127869300.60407     -2228.420 7        45.481                                                                    24555937.138 7 103904272.80207     -1810.800 7        46.213
S36        14.000    38351367.311 7 201538326.61007      -450.562 7        44.004
C13        15.000                                                                                                                                    38354782.220 7 199723472.89307     -1292.303 7        43.166    38354783.568 7 154438892.28407      -999.400 7        44.357    38354781.692 7 162291704.31407     -1050.205 7        42.099
G18        16.000    22807620.027 7 119855081.39107     -3193.626 7        44.962                                    22807616.657 5  93393666.40705     -2488.539 5        32.263    22807616.945 7  93393674.40807     -2488.583 7        42.938
R10        17.000    21174233.482 7 112870610.60907     -3174.810 7        44.646
E27        18.000    26184585.031 7 137600937.20507      1505.090 7        42.700                                                                    26184585.666 7 102753949.00607      1123.880 7        45.865    26184585.165 7 105434484.24207      1153.256 7        46.527
E02        19.000    26072438.510 7 137011767.72207     -3433.812 7        42.798                                                                    26072437.882 7 102314089.77507     -2564.184 7        46.325    26072437.117 7 104983138.33607     -2631.126 7        46.445
S27        20.000    39322639.061 5 206641892.79305      -420.303 5        35.514
R11        21.000    21436314.954 8 114549185.97808       885.412 8        49.499                                                                    21436313.883 7  89093814.41907       688.672 7        45.961
I06        22.000    38796361.471 6 152245477.18306      -273.038 6        41.266
S28        23.000    41049144.324 5 215714726.45005      -443.582 5        33.383
E04        24.000    28261668.318 6 148516050.95006      -811.889 6        37.437                                                                    28261667.568 6 110904842.40706      -606.289 6        40.884    28261666.922 6 113798008.20206      -622.056 6        40.236
S23        25.000    38308383.548 7 201311867.43407      -451.677 7        44.697
S45        26.000    63563781.792 6 334031050.40306      -501.617 6        37.962
R09        27.000    23361313.078 7 124748292.23507     -4896.296 7        44.804                                                                    23361313.600 6  97026555.61706     -3808.145 6        41.907
C38        29.000                                                                                                                                    40213550.153 6 209402627.93306     -1687.138 6        39.369                                                                    40213547.927 6 170156832.78506     -1370.861 6        39.592
C44        30.000                                                                                                                                    26529667.974 6 138147146.47106     -3265.647 6        39.285                                                                    26529668.261 6 112255952.96006     -2653.599 6        39.234
C43        31.000                                                                                                                                    21949733.176 8 114298126.38008       523.355 8        50.818                                                                    21949732.165 8  92876632.18608       425.292 8        49.298
C42        32.000                                                                                                                                    24726824.384 7 128759079.31007      2592.876 7        43.831                                                                    24726833.175 7 104627338.61207      2106.920 7        45.321
I02        33.000    40014536.629 6 157025688.70806     -1001.276 6        39.940
R03        34.000    22925397.981 7 122721487.50807     -2832.255 7        44.534                                                                    22925396.321 6  95450047.85106     -2202.945 6        40.810
E34        35.000    23468398.568 8 123327473.19008      -177.529 8        49.243                                                                    23468398.531 8  92095301.66608      -132.605 8        50.902    23468398.427 8  94497776.60208      -136.065 8        51.678
G30        36.000    26038145.559 5 136831375.82505       562.329 5        35.652                                    26038144.989 4 106621855.86704       438.178 4        24.962    26038145.603 5 106621848.89605       438.121 5        32.132
R21        37.000    22764235.952 7 121816055.15207      2581.388 7        46.475                                                                    22764235.861 6  94745836.36506      2007.848 6        39.225
C22        38.000                                                                                                                                    25631437.241 6 133469644.28206     -2490.342 6        41.776                                                                    25631430.778 6 108455002.77206     -2023.700 6        41.459
R05        39.000    22630121.766 7 120970981.33507      3552.723 7        45.415                                                                    22630120.989 7  94088547.13107      2763.353 7        42.510
C12        40.000                                                                                                                                    24610037.701 6 128151123.20506     -2889.110 6        41.685    24610034.985 7  99094672.73607     -2234.052 7        47.519    24610033.925 7 104133356.88607     -2347.666 7        44.912
R04        41.000    21279043.820 8 113948344.27308       679.226 8        48.845                                                                    21279042.603 7  88626496.82907       528.358 7        45.305
S44        42.000    40615394.485 6 213435510.57906      -435.019 6        38.030
G08        43.000    22552798.627 7 118515836.66707      2456.016 7        44.105                                    22552797.644 6  92350039.99906      1913.776 6        40.329    22552798.720 6  92350038.00406      1913.781 6        40.992
C05        44.000                                                                                                                                    39392549.305 6 205127371.56606      -382.733 6        38.532    39392544.473 7 158617518.55707      -295.949 7        43.336    39392546.767 6 166682894.51406      -311.008 6        40.246
C11        45.000                                                                                                                                    21732257.690 8 113165717.77408      -717.718 8        48.569    21732254.765 8  87506972.17908      -555.014 8        51.961    21732253.649 8  91956455.33308      -583.260 8        48.988
E09        46.000    27797205.971 6 146075313.94606      1291.806 6        39.787                                                                    27797206.190 6 109082224.07406       964.641 6        41.089    27797206.148 7 111927844.61307       989.786 7        43.136
G07        47.000    25274518.983 6 132818497.96506      -753.285 6        39.790                                    25274516.201 5 103494917.21505      -586.977 5        30.106    25274516.966 5 103494925.19305      -586.771 5        34.362
C21        48.000                                                                                                                                    23878095.001 7 124339533.02007       273.816 7        47.915                                                                    23878089.433 7 101036043.07207       222.552 7        47.525
E06        49.000    27758226.436 6 145870486.02506       319.458 6        38.712                                                                    27758227.618 6 108929263.34206       238.531 6        40.927    27758226.790 6 111770893.58906       244.749 6        41.142
R19        50.000    22001532.960 6 117693627.94906     -3325.158 6        37.248                                                                    22001532.869 6  91539600.77606     -2586.143 6        41.616
S48        51.000    77322939.637 6 406335209.98406      -488.773 6        37.410
C08        52.000                                                                                                                                    38761634.864 6 201842105.72106     -1547.797 6        39.276    38761628.439 7 156077149.33507     -1196.951 7        43.930    38761627.658 6 164013262.62906     -1257.997 6        40.744
C34        53.000                                                                                                                                    22308214.876 8 116165010.69008     -1957.528 8        49.531                                                                    22308214.542 8  94393703.26408     -1590.645 8        48.621
C60        54.000                                                                                                                                    40615393.696 6 211495207.14206      -431.140 6        40.217                                                                    40615377.407 6 171857148.34506      -350.316 6        39.369
C25        55.000                                                                                                                                    25935001.346 6 135050577.91606     -3661.790 6        41.673                                                                    25935000.655 6 109739745.28806     -2975.458 6        41.561
I09        56.000    38892394.861 6 152622129.64006       408.018 6        41.928
C02        57.000                                                                                                                                    40729208.040 5 212087714.95405      -385.400 5        34.438    40729202.278 6 163999666.62706      -298.092 6        39.919    40729205.234 5 172338642.97905      -313.161 5        35.410
I03        58.000    81616068.513 6 244493729.27006      1096.024 6        41.261
E30        59.000    24373123.541 8 128081849.29608     -1221.803 8        48.694                                                                    24373123.210 8  95645656.98008      -912.415 8        50.305    24373122.737 8  98140744.31508      -936.207 8        51.092
R20        60.000    19787384.469 6 105812246.17806        73.773 6        40.617                                                                    19787386.531 7  82298482.72907        57.374 7        47.007
> 2025 01 02 19 45 15.0000000  0 59
G23         1.000    21016485.860 7 110442462.33007      -835.008 7        47.487                                    21016482.307 6  86059084.82506      -650.656 6        38.820    21016482.489 7  86059082.82807      -650.632 7        46.913
C37         2.000                                                                                                                                    25498686.535 7 132778343.83707       400.955 7        42.533                                                                    25498690.062 7 107893300.86707       325.821 7        43.972
G16         3.000    21342095.367 8 112153674.97508     -2571.162 8        48.294                                    21342090.559 6  87392559.00106     -2003.503 6        37.905
G21         4.000    24506251.289 5 128781243.30705      2712.056 5        34.248                                    24506248.991 2 100349016.21102      2113.261 2        13.394
S21         5.000    38582234.944 7 202750681.17707      -451.813 7        42.349
G26         6.000    23283571.991 7 122356225.22107     -3868.681 7        42.220                                    23283571.041 6  95342643.20906     -3014.554 6        39.369    23283570.964 6  95342630.21006     -3014.453 6        40.391
G10         7.000    21756366.336 8 114330539.22108      1844.112 8        49.636                                    21756364.519 8  89088747.44708      1436.971 8        49.554    21756364.552 7  89088741.45507      1437.031 7        44.063
E15         8.000    26203148.632 7 137698570.39907      1822.149 7        42.535                                                                    26203149.791 7 102826918.99607      1360.761 7        45.380    26203149.248 7 105509348.65007      1396.204 7        46.130
E36         9.000    25218732.008 7 132525520.73607     -2479.801 7        45.427                                                                    25218732.521 7  98964005.84607     -1851.757 7        47.524    25218732.167 8 101545662.89908     -1900.127 8        48.393
G27        10.000    20492568.910 8 107689325.76508       791.870 8        49.874                                    20492566.805 8  83913830.40708       617.041 8        52.615    20492567.229 7  83913832.41207       617.082 7        45.944
G15        11.000    23800821.833 6 125074181.77606      -651.849 6        39.568                                    23800818.501 5  97460393.52505      -507.937 5        32.731    23800817.973 6  97460396.49906      -507.746 6        37.085
G13        12.000    25048943.119 5 131633074.88305     -1227.836 5        35.733                                    25048940.745 2 102571213.22002      -956.760 2        14.619
C23        13.000                                                                                                                                    24558085.805 7 127880448.74307     -2230.856 7        45.773                                                                    24558078.042 7 103913331.58507     -1812.771 7        46.240
S36        14.000    38351797.070 7 201540579.90007      -450.807 7        43.962
C13        15.000                                                                                                                                    38356023.789 7 199729936.43607     -1293.008 7        43.062    38356024.574 7 154443890.30207      -999.885 7        44.254    38356022.967 7 162296956.47107     -1050.709 7        42.172
G18        16.000    22810659.151 7 119871052.69807     -3194.843 7        44.740                                    22810655.952 5  93406111.57305     -2489.490 5        32.204    22810656.201 7  93406119.56907     -2489.461 7        42.804
R10        17.000    21177212.870 7 112886494.00307     -3178.536 7        44.780
E27        18.000    26183154.186 7 137593416.48607      1503.154 7        42.573                                                                    26183154.534 7 102748332.89307      1122.488 7        45.704    26183154.028 7 105428721.62007      1151.723 7        46.540
E02        19.000    26075706.195 7 137028939.57007     -3434.979 7        42.743                                                                    26075705.480 7 102326912.90507     -2565.073 7        45.956    26075704.803 7 104996295.97507     -2632.002 7        46.322
S27        20.000    39323040.743 5 206643995.08005      -420.773 5        35.748
R11        21.000    21435488.416 8 114544770.34408       880.737 8        49.096                                                                    21435487.682 7  89090380.03407       685.075 7        45.655
I06        22.000    38796709.458 6 152246842.81806      -273.216 6        41.275
S28        23.000    41049566.266 5 215716946.60405      -444.082 5        33.575
E04        24.000    28262442.120 6 148520116.90206      -814.534 6        37.395                                                                    28262441.237 6 110907878.66806      -608.187 6        40.887    28262440.577 6 113801123.66706      -624.127 6        40.338
S23        25.000    38308814.286 7 201314126.77407      -452.059 7        44.593
S45        26.000    63564209.020 6 334033560.10406      -502.099 6        37.618
R09        27.000    23365898.202 7 124772775.20007     -4896.955 7        44.927                                                                    23365898.991 7  97045597.90407     -3808.739 7        42.313
C38        29.000                                                                                                                                    40215170.727 6 209411064.51306     -1687.474 6        39.498                                                                    40215168.160 6 170163688.21306     -1371.237 6        39.607
C44        30.000                                                                                                                                    26532803.924 6 138163475.52006     -3266.118 6        39.336                                                                    26532804.108 6 112269221.65506     -2653.819 6        39.225
C43        31.000                                                                                                                                    21949231.618 8 114295513.53908       521.717 8        50.877                                                                    21949230.451 8  92874509.04608       424.012 8        49.324
C42        32.000                                                                                                                                    24724335.894 7 128746118.32507      2591.470 7        43.448                                                                    24724344.148 7 104616806.75807      2105.787 7        45.198
I02        33.000    40015812.449 6 157030695.24806     -1001.515 6        39.961
R03        34.000    22928045.366 7 122735658.69607     -2836.239 7        45.287                                                                    22928043.780 6  95461069.88806     -2205.905 6        40.837
E34        35.000    23468568.296 8 123328364.91808      -179.188 8        49.151                                                                    23468568.237 8  92095967.56308      -133.804 8        50.677    23468568.088 8  94498459.87308      -137.281 8        51.547
G30        36.000    26037611.819 5 136828571.01505       559.523 5        35.800                                    26037611.520 4 106619670.30904       435.996 4        25.023    26037612.439 5 106619663.32705       435.987 5        32.407
R21        37.000    22761824.060 7 121803150.74007      2580.300 7        47.140                                                                    22761823.302 6  94735799.62406      2006.929 6        39.745
C22        38.000                                                                                                                                    25633829.314 6 133482102.34106     -2492.909 6        41.709                                                                    25633823.207 6 108465125.96306     -2025.707 6        41.461
R05        39.000    22626799.437 7 120953221.95007      3550.944 7        45.279                                                                    22626798.929 7  94074734.28307      2761.828 7        42.140
C12        40.000                                                                                                                                    24612811.934 6 128165570.95006     -2890.020 6        41.928    24612809.297 7  99105844.64107     -2234.684 7        47.455    24612808.464 7 104145096.87207     -2348.403 7        45.044
R04        41.000    21278412.671 8 113944959.87408       674.465 8        48.278                                                                    21278410.967 7  88623864.53707       524.553 7        45.311
S44        42.000    40615809.845 6 213437686.43206      -435.360 6        37.800
G08        43.000    22550462.459 7 118503559.99507      2454.607 7        43.871                                    22550461.458 6  92340473.76606      1912.681 6        40.336    22550462.282 6  92340471.77106      1912.720 6        41.051
C05        44.000                                                                                                                                    39392916.926 6 205129286.00406      -382.947 6        38.574    39392912.399 7 158618998.92007      -296.229 7        43.333    39392914.299 6 166684450.16606      -311.242 6        40.391
C11        45.000                                                                                                                                    21732947.724 8 113169310.45108      -719.411 8        48.657    21732944.788 8  87509750.26308      -556.284 8        51.989    21732943.595 8  91959374.67708      -584.515 8        49.087
E09        46.000    27795977.607 6 146068859.97006      1289.710 6        39.682                                                                    27795978.040 6 109077404.53906       963.217 6        40.822    27795977.845 7 111922899.35607       988.230 7        42.753
G07        47.000    25275236.923 6 132822271.11606      -756.024 6        39.658                                    25275233.963 4 103497857.31804      -589.109 4        29.905    25275234.731 5 103497865.31505      -589.198 5        35.057
C21        48.000                                                                                                                                    23877833.049 7 124338171.75507       270.687 7        47.965                                                                    23877828.039 7 101034936.94707       220.007 7        47.611
E06        49.000    27757923.292 6 145868894.81306       317.113 6        38.291                                                                    27757924.633 6 108928075.12006       236.681 6        40.789    27757924.347 6 111769674.37006       242.905 6        41.187
R19        50.000    22004640.826 6 117710256.11106     -3326.185 6        37.085                                                                    22004641.510 6  91552533.79706     -2587.023 6        41.404
S48        51.000    77323376.904 6 406337654.14806      -489.098 6        37.142
C08        52.000                                                                                                                                    38763121.357 6 201849846.71106     -1548.481 6        39.120    38763114.899 7 156083135.15207     -1197.395 7        43.786    38763114.126 6 164019552.80206     -1258.209 6        40.772
C34        53.000                                                                                                                                    22310095.244 8 116174801.83108     -1958.997 8        49.711                                                                    22310094.915 8  94401659.38008     -1591.766 8        48.705
C60        54.000                                                                                                                                    40615807.563 6 211497363.20606      -431.298 6        40.269                                                                    40615791.355 6 171858900.32906      -350.544 6        39.610
C25        55.000                                                                                                                                    25938517.292 6 135068888.20306     -3662.216 6        41.128                                                                    25938517.045 6 109754623.87606     -2975.754 6        41.821
I09        56.000    38891875.078 7 152620090.48307       407.571 7        42.038
C02        57.000                                                                                                                                    40729577.740 5 212089642.92705      -385.900 5        34.548    40729572.131 6 164001157.43506      -298.172 6        39.910    40729575.377 5 172340209.61405      -313.562 5        35.248
I03        58.000    81614671.836 6 244488249.77106      1095.697 6        41.213
E30        59.000    24374287.571 8 128087964.88308     -1224.429 8        48.443                                                                    24374286.909 8  95650223.81208      -914.358 8        50.135    24374286.535 8  98145430.27908      -938.181 8        50.968
R20        60.000    19787317.170 6 105811882.90906        71.395 6        40.734                                                                    19787318.524 7  82298200.18407        55.582 7        46.815
> 2025 01 02 19 45 20.0000000  0 59
G23         1.000    21017281.827 7 110446644.99507      -837.997 7        47.427                                    21017278.233 6  86062344.04306      -652.985 6        38.820    21017278.250 7  86062342.05007      -653.076 7        47.225
