     3.04           OBSERVATION DATA    M                   RINEX VERSION / TYPE
ssrcrin-15.6.1x                         20250102 100000 UTC PGM / RUN BY / DATE 
(00000000023479385599111004) Septentrio proprietary         COMMENT             
rref                                                        MARKER NAME         
01                                                          MARKER NUMBER       
geodetic                                                    MARKER TYPE         
NFB                 CLIMERS@TUW                             OBSERVER / AGENCY   
3297213             SEPT ASTERX SB3 PROB4.14.4              REC # / TYPE / VERS 
Unknown             Unknown                                 ANT # / TYPE        
  4127832.3782  1207193.1061  4695248.3070                  APPROX POSITION XYZ 
        0.0000        0.0000        0.0000                  ANTENNA: DELTA H/E/N
G   23 X1  C1C L1C D1C S1C C1W S1W C2W L2W D2W S2W C2L L2L  SYS / # / OBS TYPES 
       D2L S2L C5Q L5Q D5Q S5Q C1L L1L D1L S1L              SYS / # / OBS TYPES 
E   21 X1  C1C L1C D1C S1C C6C L6C D6C S6C C5Q L5Q D5Q S5Q  SYS / # / OBS TYPES 
       C7Q L7Q D7Q S7Q C8Q L8Q D8Q S8Q                      SYS / # / OBS TYPES 
S    9 X1  C1C L1C D1C S1C C5I L5I D5I S5I                  SYS / # / OBS TYPES 
R   17 X1  C1C L1C D1C S1C C2P L2P D2P S2P C2C L2C D2C S2C  SYS / # / OBS TYPES 
       C3Q L3Q D3Q S3Q                                      SYS / # / OBS TYPES 
C   25 X1  C1P L1P D1P S1P C5P L5P D5P S5P C2I L2I D2I S2I  SYS / # / OBS TYPES 
       C7I L7I D7I S7I C6I L6I D6I S6I C7D L7D D7D S7D      SYS / # / OBS TYPES 
J   17 X1  C1C L1C D1C S1C C2L L2L D2L S2L C5Q L5Q D5Q S5Q  SYS / # / OBS TYPES 
       C1L L1L D1L S1L                                      SYS / # / OBS TYPES 
I    5 X1  C5A L5A D5A S5A                                  SYS / # / OBS TYPES 
SEPTENTRIO RECEIVERS OUTPUT ALIGNED CARRIER PHASES.         COMMENT             
NO FURTHER PHASE SHIFT APPLIED IN THE RINEX ENCODER.        COMMENT             
G L1C                                                       SYS / PHASE SHIFT   
G L2W                                                       SYS / PHASE SHIFT   
G L2L  0.00000                                              SYS / PHASE SHIFT   
G L5Q  0.00000                                              SYS / PHASE SHIFT   
G L1L  0.00000                                              SYS / PHASE SHIFT   
E L1C  0.00000                                              SYS / PHASE SHIFT   
E L6C  0.00000                                              SYS / PHASE SHIFT   
E L5Q  0.00000                                              SYS / PHASE SHIFT   
E L7Q  0.00000                                              SYS / PHASE SHIFT   
E L8Q  0.00000                                              SYS / PHASE SHIFT   
S L1C                                                       SYS / PHASE SHIFT   
S L5I                                                       SYS / PHASE SHIFT   
R L1C                                                       SYS / PHASE SHIFT   
R L2P  0.00000                                              SYS / PHASE SHIFT   
R L2C                                                       SYS / PHASE SHIFT   
R L3Q  0.00000                                              SYS / PHASE SHIFT   
C L1P  0.00000                                              SYS / PHASE SHIFT   
C L5P  0.00000                                              SYS / PHASE SHIFT   
C L2I                                                       SYS / PHASE SHIFT   
C L7I                                                       SYS / PHASE SHIFT   
C L6I                                                       SYS / PHASE SHIFT   
C L7D                                                       SYS / PHASE SHIFT   
J L1C                                                       SYS / PHASE SHIFT   
J L2L  0.00000                                              SYS / PHASE SHIFT   
J L5Q  0.00000                                              SYS / PHASE SHIFT   
J L1L  0.00000                                              SYS / PHASE SHIFT   
I L5A                                                       SYS / PHASE SHIFT   
  2025     1     2    10     0    0.0000000     GPS         TIME OF FIRST OBS   
 C1C    0.000 C2C    0.000 C2P    0.000                     GLONASS COD/PHS/BIS 
DBHZ                                                        SIGNAL STRENGTH UNIT
    18                                                      LEAP SECONDS        
 24 R01  1 R02 -4 R03  5 R04  6 R05  1 R06 -4 R07  5 R08  6 GLONASS SLOT / FRQ #
    R09 -2 R10 -7 R11  0 R12 -1 R13 -2 R14 -7 R15  0 R16 -1 GLONASS SLOT / FRQ #
    R17  4 R18 -3 R19  3 R20  2 R21  4 R22 -3 R23  3 R24  2 GLONASS SLOT / FRQ #
                                                            END OF HEADER       
> 2025 01 02 10 00  0.0000000  0 54
E24         1.000    24889669.140 7 130796212.87507      1500.135 7        47.185                                                                    24889671.700 8  97672565.13208      1120.222 8        49.106    24889670.906 8 100220533.93108      1149.480 8        50.014
G15         2.000    20401659.203 8 107211393.24708     -1148.044 8        49.329                                    20401657.687 8  83541321.07908      -894.576 8        50.001    20401658.182 7  83541316.07107      -894.607 7        45.430
E03         3.000    28633531.908 6 150470211.29806      2415.993 6        36.469                                                                    28633539.002 6 112364127.05406      1804.016 6        39.928    28633537.640 6 115295366.58206      1851.267 6        40.148
G19         4.000    23116387.789 7 121477578.44407      2486.807 7        42.648                                    23116387.854 5  94657880.84605      1937.769 5        31.947
S21         5.000    38611831.987 7 202906185.87507      -493.211 7        42.019
E05         6.000    22987990.000 7 120802666.54907      1023.478 7        46.292                                                                    22987993.498 8  90209758.70308       764.267 8        49.376    22987992.842 8  92563056.15608       784.137 8        50.621
E13         7.000    28785217.535 5 151267327.97505      -279.824 5        34.900                                                                    28785230.391 6 112959417.90506      -208.885 6        39.916    28785228.772 6 115906177.20406      -214.410 6        41.075
R02         8.000    21888571.855 8 116801503.95608     -4633.869 8        49.325                                                                    21888576.153 7  90845588.29707     -3604.071 7        44.387
G24        10.000    21759647.834 7 114347722.62207      2064.385 7        45.228                                    21759649.814 7  89102135.98007      1608.615 7        45.065    21759650.035 7  89102140.98107      1608.654 7        43.977
G30        11.000    24595055.253 6 129247759.75706     -3539.609 6        38.195                                    24595062.427 5 100712496.73805     -2758.129 5        32.204    24595062.902 6 100712504.72006     -2758.167 6        37.282
S27        12.000    39339405.732 6 206729844.22906      -525.446 6        36.922
G13        13.000    20882257.903 8 109736956.15408     -2716.921 8        49.745                                    20882256.477 6  85509281.91006     -2117.079 6        39.273
S36        14.000    38381812.783 7 201698238.54207      -493.981 7        44.339
G02        15.000    25981252.654 5 136532407.47805       329.015 5        33.958                                    25981260.205 1 106388915.46301       256.369 1        11.704
E09        16.000    24055706.991 8 126413562.28508     -1848.330 8        48.963                                                                    24055709.892 8  94399722.02708     -1380.258 8        50.447    24055708.999 8  96862321.47708     -1416.270 8        51.188
G12        17.000    24762560.582 6 130128185.41706      3302.085 6        40.796                                    24762566.168 5 101398637.76705      2573.044 5        33.371    24762566.465 6 101398634.77606      2573.299 6        36.771
R21        18.000    23396232.738 7 125198014.20607     -1139.858 7        44.423                                                                    23396240.779 6  97376284.10506      -886.596 6        41.716
R22        19.000    23439879.908 7 125123723.69007      2156.188 7        43.835                                                                    23439886.771 6  97318442.68006      1676.966 6        41.733
R03        21.000    19602104.963 8 104931560.32908     -1136.344 8        52.518                                                                    19602105.272 7  81613424.89007      -883.821 7        47.142
I06        22.000    38356123.811 7 150517788.18907      -468.426 7        42.819
S28        23.000    41061241.503 5 215778108.54605      -503.502 5        35.324
S23        25.000    38314833.663 7 201345731.68507      -495.048 7        44.117
S45        26.000    63564551.207 6 334034539.36506      -544.873 6        36.219
C07        27.000                                                                                                                                    39031903.696 6 203249326.51406      -768.404 6        40.734    39031902.824 7 157165256.47607      -594.184 7        44.269    39031900.113 6 165156701.81306      -624.405 6        41.402
R04        28.000    21468178.205 8 114961100.33708      2680.343 8        48.602                                                                    21468179.606 7  89414165.36307      2084.643 7        45.202
C40        29.000                                                                                                                                    39092332.983 7 203564002.62907      -924.786 7        42.713                                                                    39092335.419 7 165412423.89607      -751.377 7        42.781
G17        30.000    22295972.952 7 117166260.65807       431.143 7        46.427                                    22295972.503 7  91298446.70407       335.952 7        43.803    22295973.460 7  91298443.70707       335.935 7        42.021
G14        31.000    22049971.883 7 115873355.06107     -3046.112 7        45.604                                    22049972.144 5  90290917.89205     -2373.590 5        34.543    22049972.474 7  90290903.87807     -2373.603 7        44.441
G23        32.000    23236875.734 7 122110538.14407      -457.349 7        42.502                                    23236876.499 4  95151039.67004      -356.377 4        29.820    23236876.276 7  95151034.65107      -356.235 7        42.413
I02        33.000    37226189.352 7 146083563.73307      -125.727 7        43.744
E04        34.000    27278738.127 6 143350617.83206     -3443.082 6        39.438                                                                    27278747.447 7 107047504.78007     -2571.064 7        43.710    27278746.381 7 109840049.20607     -2638.051 7        44.819
R13        35.000    19445227.690 7 103836468.12607      -776.220 7        47.003
R12        36.000    21324744.552 8 113912899.63108     -3542.873 8        50.226                                                                    21324748.189 7  88598913.04807     -2755.624 7        45.801
C42        37.000                                                                                                                                    25352277.182 7 132015949.80807      1899.062 7        42.516                                                                    25352288.848 7 107273816.24407      1543.222 7        44.403
C10        38.000                                                                                                                                    38669951.292 7 201364578.06107      -382.730 7        42.053    38669951.968 7 155707864.78707      -295.917 7        45.357    38669949.359 6 163625202.21206      -311.035 6        41.743
E25        39.000    28841460.566 5 151562908.19705      2479.091 5        35.019                                                                    28841477.179 6 113180163.39206      1851.372 6        37.705    28841475.187 6 116132680.68506      1899.677 6        38.198
C30        40.000                                                                                                                                    25226971.675 7 131363496.63007      1169.923 7        43.604                                                                    25226977.375 7 106743642.11307       950.774 7        42.406
G05        41.000    25569983.148 6 134370925.32506     -4076.061 6        37.047                                    25569994.297 4 104704535.22204     -3176.145 4        28.531    25569994.317 5 104704544.21805     -3176.220 5        35.614
S44        42.000    41048766.002 6 215712728.41306      -466.314 6        37.448
C36        43.000                                                                                                                                    22671194.256 8 118054814.81308     -2306.767 8        48.576                                                                    22671201.595 8  95929218.03108     -1874.320 8        49.805
C05        44.000                                                                                                                                    39582717.518 6 206117527.38906      -536.417 6        37.720    39582720.042 7 159383142.94707      -414.803 7        43.082    39582720.283 6 167487455.57206      -435.794 6        40.210
R14        45.000    22145349.215 8 118047240.15408      2627.614 8        48.687                                                                    22145355.211 7  91814591.91707      2043.734 7        43.892
G10        47.000    25413150.929 6 133546959.18406      1791.844 6        39.766                                    25413156.359 5 104062562.53905      1396.244 5        32.832    25413156.482 6 104062563.53806      1396.289 6        37.229
C45        50.000                                                                                                                                    21963986.024 8 114372267.50508       317.584 8        50.840                                                                    21963980.020 8  92936825.21108       258.134 8        50.339
S48        51.000    77321993.764 6 406329797.36306      -486.199 6        37.629
E06        52.000    25141484.980 7 132119340.93607     -2872.656 7        46.135                                                                    25141490.235 8  98660535.08108     -2145.125 8        48.097    25141489.494 8 101234288.74908     -2201.152 8        48.830
C09        53.000                                                                                                                                    41718954.965 3                     -1145.807 3        22.571    41718961.665 4                      -885.798 4        26.479    41718958.405 4                      -930.665 4        24.737
C60        54.000                                                                                                                                    41048766.340 6 213751721.40006      -462.021 6        39.658                                                                    41048759.397 6 173690714.59306      -375.269 6        39.228
E31        55.000    23676005.655 8 124418250.99108     -1213.832 8        48.495                                                                    23676008.882 8  92909764.63708      -906.401 8        50.862    23676008.080 8  95333493.78508      -930.077 8        51.237
C26        56.000                                                                                                                                    25684300.068 6 133744896.70606      2297.962 6        41.759                                                                    25684305.858 7 108678709.61707      1867.305 7        42.083
C02        57.000                                                                                                                                    41144030.543 5 214247641.09905      -511.040 5        30.679    41144034.874 6 165669816.27906      -395.214 6        36.208    41144034.918 5 174093725.92705      -414.765 5        30.958
I03        58.000    94108867.156 6 293517937.77506       896.656 6        36.836
C21        59.000                                                                                                                                    23048919.528 8 120021718.18108      -814.702 8        50.136                                                                    23048916.284 8  97527442.68808      -661.938 8        49.576
C22        60.000                                                                                                                                    23949585.146 7 124711675.70707     -3545.058 7        47.112                                                                    23949583.119 7 101338407.45307     -2880.579 7        46.879
> 2025 01 02 10 00  5.0000000  0 54
E24         1.000    24888242.449 7 130788714.83007      1499.156 7        47.206                                                                    24888244.841 8  97666965.94808      1119.486 8        49.213    24888243.974 8 100214788.68708      1148.654 8        50.002
G15         2.000    20402753.032 8 107217141.07808     -1151.031 8        49.591                                    20402751.459 8  83545799.90308      -896.907 8        50.090    20402752.142 7  83545794.90107      -896.872 7        45.701
E03         3.000    28631232.873 6 150458131.22306      2416.232 6        36.733                                                                    28631240.049 6 112355106.17506      1804.222 6        39.282    28631238.763 6 115286110.38106      1851.404 6        39.300
G19         4.000    23114022.443 7 121465147.11007      2485.778 7        43.454                                    23114022.187 5  94648194.09605      1936.966 5        31.789
S21         5.000    38612305.684 7 202908650.48507      -492.644 7        42.413
E05         6.000    22987016.664 7 120797552.34307      1022.416 7        46.201                                                                    22987020.268 8  90205939.65308       763.432 8        49.473    22987019.628 8  92559137.47908       783.318 8        50.591
E13         7.000    28785484.480 5 151268731.84405      -281.801 5        34.548                                                                    28785497.469 6 112960466.23306      -210.403 6        40.072    28785495.919 6 115907252.88206      -215.865 6        41.192
R02         8.000    21892913.728 8 116824677.00508     -4635.267 8        48.891                                                                    21892919.488 7  90863611.73707     -3605.061 7        44.566
G24        10.000    21757684.105 7 114337403.20307      2063.349 7        44.795                                    21757686.092 7  89094094.88107      1607.804 7        45.174    21757686.375 7  89094099.87107      1607.953 7        43.710
G30        11.000    24598424.143 6 129265457.44606     -3539.682 6        37.939                                    24598430.221 5 100726287.09905     -2758.186 5        32.329    24598431.161 6 100726295.08506     -2758.086 6        37.225
S27        12.000    39339904.180 6 206732470.80106      -524.969 6        36.779
G13        13.000    20884844.189 8 109750545.97808     -2718.911 8        49.158                                    20884842.550 6  85519871.36906     -2118.629 6        39.378
S36        14.000    38382280.510 7 201700706.50007      -493.198 7        44.444
G02        15.000    25980941.178 5 136530767.11705       327.440 5        33.916                                    25980948.100 1 106387637.37401       255.140 1        11.778
E09        16.000    24057466.377 8 126422807.61808     -1849.666 8        49.155                                                                    24057469.267 8  94406626.00208     -1381.253 8        50.520    24057468.332 8  96869405.55908     -1417.343 8        51.175
G12        17.000    24759418.878 6 130111675.43506      3302.051 6        41.430                                    24759424.343 5 101385772.87805      2573.021 5        33.485    24759424.494 6 101385769.88406      2573.078 6        36.507
R21        18.000    23397299.402 7 125203722.99707     -1143.643 7        44.086                                                                    23397306.990 6  97380724.24806      -889.443 6        40.572
R22        19.000    23437860.666 7 125112948.20607      2153.967 7        43.740                                                                    23437867.604 6  97310061.75706      1675.349 6        41.230
R03        21.000    19603168.083 8 104937252.07608     -1140.328 8        52.362                                                                    19603168.961 7  81617851.80707      -886.881 7        47.308
I06        22.000    38356719.952 7 150520129.33407      -468.116 7        42.669
S28        23.000    41061725.086 5 215780625.04405      -503.151 5        35.229
S23        25.000    38315308.393 7 201348205.88807      -494.479 7        44.230
S45        26.000    63565018.540 6 334037262.99306      -544.531 6        36.132
C07        27.000                                                                                                                                    39032641.900 6 203253169.25506      -768.613 6        41.104    39032640.751 7 157168227.91307      -594.432 7        44.179    39032638.031 6 165159824.34806      -624.777 6        41.456
R04        28.000    21465676.477 8 114947705.24608      2677.929 8        49.088                                                                    21465678.572 7  89403746.96907      2082.773 7        45.207
C40        29.000                                                                                                                                    39093220.978 7 203568627.40007      -925.004 7        42.762                                                                    39093223.667 7 165416181.88907      -751.873 7        42.963
G17        30.000    22295564.204 7 117164111.40807       428.693 7        46.467                                    22295563.461 7  91296771.96807       334.044 7        43.890    22295564.148 7  91296768.98307       334.017 7        42.118
G14        31.000    22052870.641 7 115888588.56807     -3047.141 7        45.865                                    22052871.012 5  90302788.13905     -2374.395 5        34.595    22052871.152 7  90302774.14007     -2374.476 7        44.600
G23        32.000    23237312.154 7 122112832.30007      -460.403 7        42.463                                    23237313.059 4  95152827.31504      -358.750 4        29.829    23237313.194 7  95152822.29107      -358.561 7        42.078
I02        33.000    37226349.359 7 146084192.05207      -125.584 7        43.649
E04        34.000    27282014.375 6 143367832.88706     -3443.049 6        39.363                                                                    27282023.508 7 107060360.13407     -2571.140 7        43.850    27282022.269 7 109853239.92107     -2638.180 7        44.615
R13        35.000    19445955.819 7 103840354.89607      -778.392 7        47.126
R12        36.000    21328060.502 8 113930615.70808     -3543.500 8        49.680                                                                    21328064.090 7  88612692.18707     -2756.034 7        45.520
C42        37.000                                                                                                                                    25350455.187 7 132006458.45007      1897.597 7        42.923                                                                    25350466.199 7 107266103.74907      1541.827 7        44.486
C10        38.000                                                                                                                                    38670318.941 6 201366492.52606      -382.808 6        41.902    38670319.625 7 155709345.16507      -296.112 7        45.303    38670317.057 6 163626757.86006      -311.386 6        41.719
E25        39.000    28839101.249 5 151550511.08905      2479.622 5        35.467                                                                    28839117.885 6 113170905.82506      1851.654 6        38.243    28839116.089 6 116123181.60706      1899.898 6        38.351
C30        40.000                                                                                                                                    25225849.263 7 131357651.25907      1168.223 7        44.355                                                                    25225854.877 7 106738892.31207       949.088 7        42.461
G05        41.000    25573861.016 6 134391303.49506     -4075.055 6        36.949                                    25573872.151 4 104720414.26204     -3175.362 4        28.588    25573871.645 5 104720423.24105     -3175.143 5        35.681
S44        42.000    41049208.903 6 215715059.16006      -465.902 6        37.573
C36        43.000                                                                                                                                    22673409.334 8 118066350.33908     -2307.381 8        48.620                                                                    22673416.887 8  95938591.59108     -1875.103 8        49.791
C05        44.000                                                                                                                                    39583232.774 6 206120208.57506      -535.965 6        37.720    39583234.980 7 159385216.21507      -414.462 7        43.141    39583235.096 6 167489634.25506      -435.597 6        40.098
R14        45.000    22142884.802 7 118034104.63607      2626.697 7        47.481                                                                    22142890.951 7  91804375.46107      2042.985 7        44.378
G10        47.000    25411446.896 6 133538004.93906      1789.964 6        39.664                                    25411452.407 5 104055585.17205      1394.789 5        32.898    25411452.310 6 104055586.16006      1394.743 6        37.955
C45        50.000                                                                                                                                    21963681.730 8 114370682.58308       316.448 8        50.994                                                                    21963675.653 8  92935537.33608       256.976 8        50.353
S48        51.000    77322459.372 6 406332227.50806      -486.080 6        37.611
E06        52.000    25144218.583 7 132133706.55507     -2873.451 7        46.178                                                                    25144223.851 8  98671262.63408     -2145.777 8        48.192    25144223.214 8 101245296.14608     -2201.750 8        48.841
C09        53.000                                                                                                                                    41720063.775 3                     -1146.347 3        21.571    41720063.782 4                      -886.585 4        27.533    41720059.506 4                      -930.443 4        24.632
C60        54.000                                                                                                                                    41049210.108 6 213754030.94906      -461.567 6        39.724                                                                    41049202.920 6 173692591.30606      -375.191 6        39.351
E31        55.000    23677161.152 8 124424323.51908     -1215.137 8        48.386                                                                    23677164.458 8  92914299.31308      -907.434 8        50.895    23677163.646 8  95338146.75908      -931.087 8        51.200
C26        56.000                                                                                                                                    25682093.873 7 133733407.14807      2297.974 7        42.226                                                                    25682099.217 7 108669373.45907      1867.040 7        42.184
C02        57.000                                                                                                                                    41144521.384 5 214250195.74505      -510.651 5        30.453    41144525.482 6 165671791.67406      -394.908 6        36.291    41144525.442 5 174095801.80905      -415.025 5        31.132
I03        58.000    94107724.956 6 293513452.97106       897.020 6        36.665
C21        59.000                                                                                                                                    23049702.840 8 120025797.96508      -817.193 8        50.031                                                                    23049699.787 8  97530757.84808      -664.150 8        49.575
C22        60.000                                                                                                                                    23952989.766 7 124729403.25007     -3545.917 7        47.498                                                                    23952987.526 7 101352812.52307     -2881.504 7        46.788
> 2025 01 02 10 00 10.0000000  0 54
E24         1.000    24886816.931 7 130781224.12207      1497.504 7        47.369                                                                    24886819.394 8  97661372.24108      1118.301 8        49.372    24886818.525 8 100209049.05708      1147.434 8        49.806
G15         2.000    20403850.018 8 107222906.17208     -1154.607 8        49.138                                    20403848.518 8  83550292.18008      -899.694 8        49.941    20403849.058 7  83550287.17707      -899.716 7        45.634
E03         3.000    28628934.642 6 150446051.52906      2416.193 6        36.533                                                                    28628940.905 6 112346085.57206      1804.128 6        39.114    28628939.941 6 115276854.46306      1851.200 6        39.261
G19         4.000    23111658.290 7 121452723.12907      2484.213 7        44.163                                    23111657.812 5  94638513.08105      1935.752 5        31.819
S21         5.000    38612770.706 7 202911114.80907      -492.798 7        42.055
E05         6.000    22986045.257 7 120792445.79007      1020.605 7        46.237                                                                    22986048.510 8  90202126.31008       762.158 8        49.611    22986047.907 8  92555224.65608       782.072 8        50.473
E13         7.000    28785753.918 5 151270147.58205      -284.214 5        34.314                                                                    28785766.986 6 112961523.41706      -212.273 6        39.853    28785765.323 6 115908337.63706      -217.818 6        40.644
R02         8.000    21897258.080 8 116847859.44308     -4637.296 8        48.911                                                                    21897263.610 7  90881642.50107     -3606.823 7        44.432
G24        10.000    21755721.703 7 114327091.01507      2061.821 7        44.939                                    21755723.743 7  89086059.42007      1606.613 7        45.038    21755723.557 7  89086064.41707      1606.718 7        43.164
G30        11.000    24601791.974 6 129283157.36606     -3539.925 6        38.078                                    24601798.457 5 100740079.19405     -2758.372 5        32.210    24601799.121 6 100740087.19206     -2758.573 6        37.304
S27        12.000    39340406.629 6 206735097.03906      -525.005 6        36.367
G13        13.000    20887432.469 8 109764147.82208     -2721.447 8        49.453                                    20887430.918 6  85530470.19906     -2120.606 6        39.204
S36        14.000    38382752.423 7 201703174.01807      -493.310 7        44.232
G02        15.000    25980630.719 5 136529138.79905       324.889 5        33.814                                    25980638.194 2 106386368.63302       253.114 2        12.182
E09        16.000    24059227.303 8 126432062.05908     -1851.703 8        49.133                                                                    24059230.318 8  94413536.77108     -1382.727 8        50.585    24059229.458 8  96876496.60608     -1418.819 8        51.031
G12        17.000    24756277.648 6 130095168.11606      3301.440 6        41.368                                    24756283.064 5 101372910.06105      2572.552 5        33.479    24756283.282 6 101372907.07306      2572.432 6        36.363
R21        18.000    23398370.801 7 125209453.02907     -1148.004 7        44.519                                                                    23398378.297 6  97385180.95006      -892.841 6        40.660
R22        19.000    23435844.988 7 125102186.35107      2151.111 7        44.003                                                                    23435851.038 6  97301691.41306      1673.154 6        41.211
R03        21.000    19604235.767 8 104942966.33008     -1145.012 8        52.635                                                                    19604236.483 7  81622296.22807      -890.553 7        47.627
I06        22.000    38357316.486 7 150522470.35207      -468.168 7        42.607
S28        23.000    41062201.064 5 215783141.14205      -503.043 5        34.757
S23        25.000    38315777.028 7 201350679.79107      -494.679 7        43.901
S45        26.000    63565488.428 5 334039986.30505      -544.588 5        35.752
C07        27.000                                                                                                                                    39033380.584 6 203257014.92306      -769.373 6        41.082    39033379.036 7 157171201.60907      -594.866 7        44.048    39033376.667 6 165162949.24206      -624.984 6        41.406
R04        28.000    21463177.315 8 114934324.08308      2674.960 8        48.978                                                                    21463179.385 7  89393339.40307      2080.489 7        44.802
C40        29.000                                                                                                                                    39094109.856 7 203573255.92207      -925.937 7        42.677                                                                    39094112.637 7 165419942.92807      -752.442 7        42.904
G17        30.000    22295157.724 7 117161976.97107       425.525 7        46.610                                    22295157.255 7  91295108.77207       331.577 7        43.719    22295158.122 7  91295105.77507       331.647 7        42.174
G14        31.000    22055771.278 7 115903829.90807     -3048.895 7        45.628                                    22055771.387 5  90314664.48505     -2375.760 5        34.376    22055771.625 7  90314650.48007     -2375.785 7        44.542
G23        32.000    23237751.678 7 122115142.96907      -463.673 7        42.745                                    23237752.767 4  95154627.81404      -361.304 4        29.716    23237753.114 7  95154622.82707      -361.392 7        42.557
I02        33.000    37226509.938 7 146084821.50707      -125.963 7        43.875
E04        34.000    27285290.916 6 143385050.77906     -3443.888 6        39.868                                                                    27285299.965 7 107073217.58807     -2571.646 7        44.065    27285298.679 7 109866432.79907     -2638.748 7        44.406
R13        35.000    19446686.195 7 103844254.79207      -781.218 7        47.020
R12        36.000    21331376.958 8 113948336.94508     -3544.663 8        49.485                                                                    21331381.795 7  88626475.37007     -2757.046 7        45.433
C42        37.000                                                                                                                                    25348633.865 7 131996976.34707      1895.631 7        42.823                                                                    25348645.287 7 107258398.77207      1540.341 7        44.385
C10        38.000                                                                                                                                    38670686.490 6 201368409.97106      -383.632 6        41.924    38670687.783 7 155710827.84607      -296.687 7        45.106    38670685.330 6 163628315.93506      -311.737 6        41.783
E25        39.000    28836742.306 6 151538114.85406      2479.039 6        36.008                                                                    28836758.654 6 113161648.89806      1851.418 6        38.393    28836757.196 6 116113683.19906      1899.768 6        38.330
C30        40.000                                                                                                                                    25224728.584 7 131351816.16207      1166.096 7        44.477                                                                    25224734.026 7 106734150.84807       947.541 7        42.294
G05        41.000    25577738.363 6 134411678.97706     -4074.715 6        37.096                                    25577749.585 4 104736291.21804     -3175.094 4        28.464    25577750.167 5 104736300.20805     -3175.250 5        35.643
S44        42.000    41049654.089 6 215717389.43206      -465.863 6        37.176
C36        43.000                                                                                                                                    22675625.884 8 118077891.18508     -2308.596 8        48.679                                                                    22675633.225 8  95947969.47708     -1875.893 8        49.839
C05        44.000                                                                                                                                    39583747.811 6 206122889.35306      -536.057 6        37.860    39583749.861 7 159387289.16507      -414.479 7        43.225    39583749.838 6 167491812.62606      -435.664 6        40.026
R14        45.000    22140421.706 8 118020976.44008      2625.092 8        48.707                                                                    22140427.803 7  91794164.67707      2041.712 7        43.683
G10        47.000    25409744.873 6 133529062.04206      1787.587 6        39.012                                    25409750.556 5 104048616.65605      1392.932 5        32.683    25409750.058 6 104048617.63506      1392.921 6        37.395
C45        50.000                                                                                                                                    21963378.823 8 114369105.62408       314.675 8        51.037                                                                    21963372.798 8  92934255.92708       255.737 8        50.367
S48        51.000    77322923.021 6 406334657.49006      -486.119 6        37.316
E06        52.000    25146953.445 7 132148078.50707     -2874.953 7        46.279                                                                    25146958.760 8  98681994.91808     -2146.894 8        48.254    25146958.060 8 101256308.40708     -2202.854 8        48.699
C09        53.000                                                                                                                                    41721159.332 3                     -1148.446 3        21.524    41721164.378 4                      -886.326 4        28.114    41721160.393 4                      -932.090 4        24.105
C60        54.000                                                                                                                                    41049653.456 6 213756340.05006      -461.642 6        39.300                                                                    41049646.590 6 173694467.60406      -375.102 6        39.222
E31        55.000    23678318.434 8 124430404.79508     -1217.028 8        48.423                                                                    23678321.709 8  92918840.51108      -908.816 8        51.019    23678320.840 8  95342806.42008      -932.515 8        51.064
C26        56.000                                                                                                                                    25679887.728 7 133721920.13607      2297.326 7        42.438                                                                    25679893.258 7 108660039.35207      1866.626 7        42.241
C02        57.000                                                                                                                                    41145010.933 5 214252749.96405      -510.890 5        31.208    41145015.715 6 165673766.74306      -394.953 6        36.454    41145016.363 5 174097877.27205      -414.851 5        31.449
I03        58.000    94106582.198 6 293508967.74706       896.987 6        36.760
C21        59.000                                                                                                                                    23050488.744 8 120029892.15308      -820.156 8        50.028                                                                    23050486.030 8  97534084.70008      -666.416 8        49.615
C22        60.000                                                                                                                                    23956395.347 7 124747137.46807     -3547.382 7        47.381                                                                    23956393.305 7 101367223.00907     -2882.530 7        46.931
> 2025 01 02 10 00 15.0000000  0 54
E24         1.000    24885392.828 7 130773740.94107      1495.890 7        47.778                                                                    24885395.432 8  97655784.16208      1117.061 8        49.434    24885394.538 8 100203315.20208      1146.161 8        49.809
G15         2.000    20404950.393 8 107228688.63308     -1158.248 8        49.405                                    20404948.886 8  83554797.98708      -902.529 8        50.042    20404949.457 7  83554792.98407      -902.501 7        45.416
E03         3.000    28626636.098 6 150433972.31106      2415.914 6        36.491                                                                    28626642.489 6 112337065.36806      1803.965 6        39.315    28626641.682 6 115267598.94406      1851.073 6        39.745
G19         4.000    23109295.020 7 121440306.69407      2482.460 7        43.992                                    23109294.850 5  94628837.92905      1934.380 5        32.000
S21         5.000    38613240.249 7 202913579.01507      -492.709 7        42.197
E05         6.000    22985074.926 7 120787347.01207      1019.039 7        46.531                                                                    22985078.234 8  90198318.78708       760.884 8        49.783    22985077.633 8  92551317.80708       780.706 8        50.475
E13         7.000    28786025.640 5 151271575.35105      -286.772 5        35.224                                                                    28786038.641 6 112962589.57706      -214.241 6        40.186    28786036.917 6 115909431.61506      -219.757 6        40.882
R02         8.000    21901604.056 8 116871051.38808     -4639.317 8        49.258                                                                    21901609.770 7  90899680.62407     -3608.295 7        44.658
G24        10.000    21753760.951 7 114316786.19507      2060.216 7        44.847                                    21753762.789 7  89078029.69407      1605.359 7        45.150    21753762.791 7  89078034.71307      1605.274 7        43.293
G30        11.000    24605161.134 6 129300859.66206     -3540.739 6        38.153                                    24605167.150 5 100753873.14505     -2759.006 5        32.485    24605167.583 6 100753881.13006     -2759.083 6        37.267
S27        12.000    39340903.373 6 206737723.02506      -525.279 6        36.306
G13        13.000    20890023.512 8 109777761.84308     -2724.010 8        50.125                                    20890021.570 6  85541078.51506     -2122.603 6        39.294
S36        14.000    38383217.306 7 201705641.47307      -493.494 7        44.015
G02        15.000    25980323.588 5 136527522.65705       322.009 5        34.414                                    25980330.577 1 106385109.37101       250.910 1        11.852
E09        16.000    24060990.066 8 126441325.73508     -1853.619 8        49.033                                                                    24060993.143 8  94420454.44608     -1384.239 8        50.762    24060992.271 8  96883594.74608     -1420.370 8        51.031
G12        17.000    24753136.485 6 130078663.66006      3300.520 6        41.023                                    24753142.487 5 101360049.46905      2571.828 5        33.617    24753143.395 6 101360046.46206      2572.002 6        36.813
R21        18.000    23399445.589 7 125215204.54907     -1152.413 7        44.858                                                                    23399452.702 6  97389654.34306      -896.377 6        40.477
R22        19.000    23433831.181 7 125091438.21907      2148.170 7        43.591                                                                    23433838.171 6  97293331.75706      1670.793 6        41.352
R03        21.000    19605307.555 8 104948703.38408     -1149.718 8        52.489                                                                    19605308.076 7  81626758.36307      -894.176 7        47.662
I06        22.000    38357913.233 7 150524811.31607      -468.214 7        42.753
S28        23.000    41062677.940 5 215785656.96505      -503.019 5        35.076
S23        25.000    38316246.642 7 201353153.47707      -494.601 7        43.778
S45        26.000    63565957.773 5 334042709.25205      -544.502 5        35.833
C07        27.000                                                                                                                                    39034119.202 6 203260863.65006      -769.942 6        40.987    39034118.309 7 157174177.66707      -595.436 7        44.081    39034115.548 6 165166076.62306      -625.804 6        41.349
R04        28.000    21460681.687 8 114920957.05508      2671.909 8        49.024                                                                    21460682.886 7  89382942.83307      2078.119 7        44.828
C40        29.000                                                                                                                                    39094999.663 7 203577888.32707      -926.782 7        42.777                                                                    39095002.145 7 165423707.10507      -753.151 7        42.925
G17        30.000    22294754.224 7 117159857.44607       422.435 7        46.543                                    22294753.923 7  91293457.19607       329.170 7        43.854    22294754.457 7  91293454.19307       329.159 7        42.197
G14        31.000    22058672.871 7 115919079.20307     -3050.645 7        45.005                                    22058673.273 5  90326547.02805     -2377.118 5        34.524    22058673.607 7  90326533.01707     -2377.138 7        44.402
G23        32.000    23238194.617 7 122117470.34107      -467.100 7        43.187                                    23238195.614 4  95156441.33204      -363.971 4        29.991    23238196.111 7  95156436.32907      -363.999 7        42.430
I02        33.000    37226670.784 7 146085451.97107      -126.255 7        43.634
E04        34.000    27288567.878 6 143402271.65506     -3444.565 6        39.901                                                                    27288577.017 7 107086077.28507     -2572.251 7        43.983    27288575.642 7 109879627.96607     -2639.257 7        44.310
R13        35.000    19447418.904 7 103848168.17907      -784.019 7        46.785
R12        36.000    21334695.876 8 113966063.48408     -3545.895 8        49.781                                                                    21334700.376 7  88640262.64307     -2757.901 7        45.509
C42        37.000                                                                                                                                    25346814.338 7 131987503.65007      1893.672 7        43.232                                                                    25346825.973 7 107250701.42207      1538.747 7        44.460
C10        38.000                                                                                                                                    38671055.481 6 201370330.61606      -384.619 6        41.890    38671056.641 7 155712312.98407      -297.258 7        45.123    38671054.282 6 163629876.58406      -312.406 6        41.819
E25        39.000    28834383.971 6 151525719.63306      2478.820 6        36.420                                                                    28834400.096 6 113152392.72606      1851.154 6        38.739    28834398.245 6 116104185.56306      1899.484 6        38.384
C30        40.000                                                                                                                                    25223609.204 7 131345991.54007      1163.887 7        44.536                                                                    25223615.207 6 106729417.86206       945.688 6        41.909
G05        41.000    25581615.212 6 134432051.79906     -4074.251 6        37.376                                    25581626.387 4 104752166.09404     -3174.734 4        28.777    25581626.009 5 104752175.09205     -3174.846 5        35.790
S44        42.000    41050095.997 6 215719719.38506      -465.875 6        37.157
C36        43.000                                                                                                                                    22677843.355 8 118089437.51108     -2309.835 8        48.655                                                                    22677850.507 8  95957351.79708     -1876.902 8        49.844
C05        44.000                                                                                                                                    39584262.285 6 206125569.89506      -536.105 6        37.773    39584264.335 7 159389361.95207      -414.543 7        43.247    39584264.643 6 167493990.79106      -435.639 6        40.081
R14        45.000    22137960.899 8 118007855.52508      2623.441 8        48.558                                                                    22137966.061 7  91783959.57407      2040.477 7        43.888
G10        47.000    25408044.909 6 133520130.69806      1785.129 6        38.228                                    25408050.893 5 104041657.12305      1391.011 5        32.922    25408050.482 6 104041658.09206      1390.917 6        37.168
C45        50.000                                                                                                                                    21963077.326 8 114367536.76908       312.910 8        50.927                                                                    21963071.524 8  92932981.08908       254.300 8        50.359
S48        51.000    77323392.680 6 406337087.43006      -485.926 6        37.115
E06        52.000    25149689.668 7 132162456.94307     -2876.355 7        46.307                                                                    25149694.884 8  98692732.05108     -2147.958 8        48.375    25149694.136 8 101267325.64208     -2204.012 8        48.662
C09        53.000                                                                                                                                                                                                    41722265.515 4                      -886.439 4        28.607    41722259.782 3                      -931.993 3        23.867
C60        54.000                                                                                                                                    41050096.724 6 213758648.84606      -461.797 6        39.393                                                                    41050089.906 6 173696343.67706      -375.177 6        39.486
E31        55.000    23679477.292 8 124436494.95108     -1218.922 8        48.566                                                                    23679480.615 8  92923388.35008      -910.292 8        51.124    23679479.764 8  95347472.90408      -934.062 8        51.043
C26        56.000                                                                                                                                    25677682.386 7 133710435.78307      2296.586 7        42.658                                                                    25677687.712 7 108650707.40807      1866.160 7        42.326
C02        57.000                                                                                                                                    41145501.452 5 214255303.79105      -511.126 5        31.291    41145506.440 6 165675741.50706      -395.131 6        36.699    41145506.668 5 174099952.44405      -415.177 5        30.966
I03        58.000    94105439.056 6 293504482.17706       897.208 6        36.639
C21        59.000                                                                                                                                    23051278.059 8 120034000.88608      -823.230 8        50.036                                                                    23051275.059 8  97537423.36708      -668.967 8        49.583
C22        60.000                                                                                                                                    23959802.316 7 124764878.47307     -3548.882 7        47.195                                                                    23959800.357 7 101381639.00507     -2883.774 7        46.875
> 2025 01 02 10 00 20.0000000  0 54
E24         1.000    24883970.197 7 130766265.36107      1494.390 7        47.918                                                                    24883972.865 8  97650201.75208      1115.954 8        49.502    24883971.933 8 100197587.16308      1145.037 8        49.730
G15         2.000    20406054.184 8 107234488.58108     -1161.690 8        49.592                                    20406052.585 8  83559317.42208      -905.210 8        50.095    20406053.076 7  83559312.41607      -905.168 7        45.541
E03         3.000    28624337.429 6 150421893.70506      2415.701 6        36.824                                                                    28624344.302 6 112328045.59006      1803.822 6        39.426    28624343.585 6 115258343.88706      1850.976 6        40.200
G19         4.000    23106933.437 7 121427897.91307      2480.993 7        43.780                                    23106933.247 5  94619168.74405      1933.249 5        32.036
S21         5.000    38613706.751 6 202916043.23306      -492.803 6        41.914
E05         6.000    22984105.938 7 120782256.15307      1017.458 7        46.592                                                                    22984109.523 8  90194517.16108       759.795 8        49.715    22984108.857 8  92547417.01208       779.570 8        50.482
E13         7.000    28786299.284 5 151273015.25005      -288.990 5        34.843                                                                    28786312.612 6 112963664.81006      -216.094 6        40.272    28786310.934 6 115910534.89006      -221.493 6        40.806
R02         8.000    21905952.076 8 116894252.84708     -4641.167 8        48.992                                                                    21905957.116 7  90917726.17807     -3609.828 7        44.433
G24        10.000    21751801.439 7 114306488.88407      2058.751 7        45.327                                    21751803.261 7  89070005.82507      1604.218 7        45.174    21751803.335 7  89070010.82607      1604.249 7        42.876
G30        11.000    24608529.965 6 129318564.44906     -3541.248 6        38.204                                    24608536.361 5 100767669.03705     -2759.402 5        32.677    24608536.376 6 100767677.01606     -2759.374 6        37.085
S27        12.000    39341402.120 6 206740349.59806      -525.205 6        36.291
G13        13.000    20892616.202 8 109791388.15308     -2726.407 8        49.515                                    20892614.575 6  85551696.40706     -2124.470 6        39.318
S36        14.000    38383691.240 7 201708109.26107      -493.527 7        43.932
G02        15.000    25980018.164 5 136525918.70705       319.589 5        33.796                                    25980025.313 2 106383859.62002       248.969 2        12.121
E09        16.000    24062754.726 8 126450598.77008     -1855.484 8        49.292                                                                    24062757.772 8  94427379.10308     -1385.573 8        50.746    24062756.899 8  96890700.04308     -1421.699 8        50.990
G12        17.000    24749996.246 6 130062162.10806      3300.015 6        40.334                                    24750002.473 5 101347191.14305      2571.434 5        33.317    24750002.760 6 101347188.16706      2571.429 6        37.259
R21        18.000    23400523.923 7 125220977.54807     -1156.637 7        44.346                                                                    23400532.026 6  97394144.45106      -899.725 6        41.180
R22        19.000    23431820.356 7 125080703.94307      2145.508 7        44.077                                                                    23431827.005 6  97284982.88106      1668.660 6        40.987
R03        21.000    19606383.235 8 104954463.10008     -1154.178 8        52.318                                                                    19606384.211 8  81631238.14708      -897.677 8        48.034
I06        22.000    38358509.742 7 150527152.34107      -468.263 7        42.840
S28        23.000    41063160.097 5 215788172.67505      -503.272 5        34.890
S23        25.000    38316717.437 7 201355627.21607      -494.770 7        43.528
S45        26.000    63566433.031 5 334045432.18205      -544.535 5        35.981
C07        27.000                                                                                                                                    39034859.044 6 203264715.56506      -770.650 6        41.018    39034858.322 7 157177156.19107      -595.986 7        44.108    39034855.295 6 165169206.60306      -626.143 6        41.344
R04        28.000    21458187.507 8 114907604.52208      2669.118 8        48.850                                                                    21458189.568 7  89372557.52707      2076.076 7        45.091
C40        29.000                                                                                                                                    39095889.849 7 203582524.74607      -927.597 7        42.544                                                                    39095892.394 7 165427474.55607      -753.657 7        42.912
G17        30.000    22294353.869 7 117157752.97307       419.466 7        46.121                                    22294353.449 7  91291817.34507       326.856 7        43.915    22294353.891 7  91291814.35707       326.820 7        42.184
