     3.04           OBSERVATION DATA    M                   RINEX VERSION / TYPE
ssrcrin-15.6.1x                         20250102 074500 UTC PGM / RUN BY / DATE 
(00000000023479385599111004) Septentrio proprietary         COMMENT             
rref                                                        MARKER NAME         
01                                                          MARKER NUMBER       
geodetic                                                    MARKER TYPE         
NFB                 CLIMERS@TUW                             OBSERVER / AGENCY   
3297213             SEPT ASTERX SB3 PROB4.14.4              REC # / TYPE / VERS 
Unknown             Unknown                                 ANT # / TYPE        
  4127831.9255  1207193.3216  4695247.9987                  APPROX POSITION XYZ 
        0.0000        0.0000        0.0000                  ANTENNA: DELTA H/E/N
G   23 X1  C1C L1C D1C S1C C1W S1W C2W L2W D2W S2W C2L L2L  SYS / # / OBS TYPES 
       D2L S2L C5Q L5Q D5Q S5Q C1L L1L D1L S1L              SYS / # / OBS TYPES 
E   21 X1  C1C L1C D1C S1C C6C L6C D6C S6C C5Q L5Q D5Q S5Q  SYS / # / OBS TYPES 
       C7Q L7Q D7Q S7Q C8Q L8Q D8Q S8Q                      SYS / # / OBS TYPES 
S    9 X1  C1C L1C D1C S1C C5I L5I D5I S5I                  SYS / # / OBS TYPES 
R   17 X1  C1C L1C D1C S1C C2P L2P D2P S2P C2C L2C D2C S2C  SYS / # / OBS TYPES 
       C3Q L3Q D3Q S3Q                                      SYS / # / OBS TYPES 
C   25 X1  C1P L1P D1P S1P C5P L5P D5P S5P C2I L2I D2I S2I  SYS / # / OBS TYPES 
       C7I L7I D7I S7I C6I L6I D6I S6I C7D L7D D7D S7D      SYS / # / OBS TYPES 
J   17 X1  C1C L1C D1C S1C C2L L2L D2L S2L C5Q L5Q D5Q S5Q  SYS / # / OBS TYPES 
       C1L L1L D1L S1L                                      SYS / # / OBS TYPES 
I    5 X1  C5A L5A D5A S5A                                  SYS / # / OBS TYPES 
SEPTENTRIO RECEIVERS OUTPUT ALIGNED CARRIER PHASES.         COMMENT             
NO FURTHER PHASE SHIFT APPLIED IN THE RINEX ENCODER.        COMMENT             
G L1C                                                       SYS / PHASE SHIFT   
G L2W                                                       SYS / PHASE SHIFT   
G L2L  0.00000                                              SYS / PHASE SHIFT   
G L5Q  0.00000                                              SYS / PHASE SHIFT   
G L1L  0.00000                                              SYS / PHASE SHIFT   
E L1C  0.00000                                              SYS / PHASE SHIFT   
E L6C  0.00000                                              SYS / PHASE SHIFT   
E L5Q  0.00000                                              SYS / PHASE SHIFT   
E L7Q  0.00000                                              SYS / PHASE SHIFT   
E L8Q  0.00000                                              SYS / PHASE SHIFT   
S L1C                                                       SYS / PHASE SHIFT   
S L5I                                                       SYS / PHASE SHIFT   
R L1C                                                       SYS / PHASE SHIFT   
R L2P  0.00000                                              SYS / PHASE SHIFT   
R L2C                                                       SYS / PHASE SHIFT   
R L3Q  0.00000                                              SYS / PHASE SHIFT   
C L1P  0.00000                                              SYS / PHASE SHIFT   
C L5P  0.00000                                              SYS / PHASE SHIFT   
C L2I                                                       SYS / PHASE SHIFT   
C L7I                                                       SYS / PHASE SHIFT   
C L6I                                                       SYS / PHASE SHIFT   
C L7D                                                       SYS / PHASE SHIFT   
J L1C                                                       SYS / PHASE SHIFT   
J L2L  0.00000                                              SYS / PHASE SHIFT   
J L5Q  0.00000                                              SYS / PHASE SHIFT   
J L1L  0.00000                                              SYS / PHASE SHIFT   
I L5A                                                       SYS / PHASE SHIFT   
  2025     1     2     7    45    0.0000000     GPS         TIME OF FIRST OBS   
 C1C    0.000 C2C    0.000 C2P    0.000                     GLONASS COD/PHS/BIS 
DBHZ                                                        SIGNAL STRENGTH UNIT
    18                                                      LEAP SECONDS        
 24 R01  1 R02 -4 R03  5 R04  6 R05  1 R06 -4 R07  5 R08  6 GLONASS SLOT / FRQ #
    R09 -2 R10 -7 R11  0 R12 -1 R13 -2 R14 -7 R15  0 R16 -1 GLONASS SLOT / FRQ #
    R17  4 R18 -3 R19  3 R20  2 R21  4 R22 -3 R23  3 R24  2 GLONASS SLOT / FRQ #
                                                            END OF HEADER       
> 2025 01 02 07 45  0.0000000  0 52
G15         2.000    22973744.917 7 120727805.89007      2965.892 7        42.974                                    22973743.029 6  94073593.20106      2311.088 6        37.837    22973743.599 6  94073588.18706      2311.119 6        38.826
G08         4.000    24167467.351 6 127000926.78806      -731.006 6        38.381                                    24167472.208 5  98961786.19405      -569.616 5        30.604    24167472.880 6  98961782.21806      -569.813 6        36.900
S21         5.000    38427762.693 7 201938906.86607      -491.355 7        42.354
E05         6.000    26321694.667 6 138321416.36206      2109.251 6        38.063                                                                    26321696.785 6 103291946.39406      1575.015 6        40.207    26321695.999 6 105986517.80306      1616.022 6        40.870
G20         7.000    22094382.754 7 116106716.42607     -3358.464 7        45.469                                    22094381.247 5  90472732.59905     -2616.983 5        33.060
R02         8.000    19397041.314 8 103506306.95508       947.754 8        52.286                                                                    19397042.419 7  80504899.75507       737.121 7        46.991
G30        11.000    20794856.187 8 109277688.93808     -1793.438 8        49.572                                    20794855.761 8  85151430.98508     -1397.484 8        50.756    20794856.380 7  85151438.98407     -1397.480 7        45.279
S27        12.000    39106101.455 5 205503885.27005      -521.027 5        35.590
G13        13.000    20570246.365 7 108097352.55707      1359.593 7        47.884                                    20570243.242 6  84231675.88306      1059.423 6        38.111
S36        14.000    38196610.925 7 200725038.78407      -491.859 7        44.217
I09        15.000    39495591.733 6 154989054.67006     -1008.602 6        41.449
E09        16.000    23985620.703 7 126045282.68607       767.087 7        47.718                                                                    23985621.441 8  94124715.92008       572.834 8        50.478    23985621.078 8  96580140.38008       587.753 8        51.584
S45        17.000    63378022.390 6 333055214.21706      -538.251 6        36.718
E36        18.000    27517248.357 6 144604055.64506     -2902.183 6        38.664                                                                    27517252.941 6 107983550.97506     -2167.259 6        40.813    27517252.186 6 110800513.44206     -2223.860 6        41.492
R19        19.000    23639896.773 5 126457479.93105     -1152.662 5        34.710                                                                    23639898.904 6  98355812.34206      -896.448 6        40.043
E21        20.000    27388252.132 6 143926157.69106     -2990.222 6        39.426                                                                    27388257.571 7 107477318.23207     -2232.928 7        42.057    27388256.579 7 110281073.30307     -2291.016 7        42.275
R03        21.000    22884961.869 7 122504965.96307      3471.857 7        45.577                                                                    22884962.072 6  95281633.12306      2700.299 6        41.573
I06        22.000    38005189.999 7 149140688.97007      -424.204 7        43.149
S28        23.000    40863284.248 5 214737896.14105      -498.396 5        35.095
S23        25.000    38129840.746 7 200373624.37807      -490.712 7        44.233
R01        26.000    20086583.973 8 107374264.15808     -2992.268 8        48.744                                                                    20086585.231 6  83513299.00906     -2327.447 6        41.387
C07        27.000                                                                                                                                    39349838.380 6 204904913.83606       471.652 6        39.865    39349835.704 7 158445466.67107       364.603 7        43.994    39349833.675 6 166502006.16906       383.088 6        40.789
C40        29.000                                                                                                                                    39410942.317 6 205223107.94806       632.410 6        41.981                                                                    39410943.363 7 166760587.97907       513.825 7        42.227
E19        30.000    27856740.866 5 146388018.61805     -3085.959 5        31.864                                                                    27856751.735 5 109315678.58805     -2304.309 5        35.624    27856749.907 6 112167394.75806     -2364.349 6        36.140
G14        31.000    21018379.007 7 110452329.84707      1310.774 7        47.779                                    21018377.387 6  86066750.67406      1021.383 6        38.826    21018377.296 7  86066736.67507      1021.404 7        46.991
G27        32.000    25375764.472 3                     -2250.250 3        23.905                                                                                                    25375770.076 4 103909532.79204     -1753.168 4        27.629
I02        33.000    37965520.192 7 148984858.56807       274.062 7        42.180
E04        34.000    23796666.044 7 125052324.27807     -1644.668 7        47.840                                                                    23796666.281 8  93383230.09008     -1228.180 8        50.800    23796665.761 8  95819311.06008     -1260.246 8        51.415
R13        35.000    22372923.554 6 119470167.39606      3548.354 6        40.751
R12        36.000    19369750.675 8 103469722.69908      1037.342 8        52.144                                                                    19369752.312 7  80476453.38107       806.827 7        47.773
I01        37.000   391324751.827 6 232501395.25806     -3154.843 6        40.327
C10        38.000                                                                                                                                    39546601.772 6 205929523.92606       759.639 6        40.246    39546601.350 7 159237771.24807       587.403 7        43.496    39546598.883 6 167334595.24306       617.295 6        40.298
C19        39.000                                                                                                                                    23043375.745 8 119992861.22308     -2820.866 8        50.318                                                                    23043372.949 8  97503996.87208     -2292.298 8        49.583
E34        40.000    27443978.745 6 144219057.41406      -839.857 6        39.393                                                                    27443980.386 7 107696042.02807      -627.206 7        42.028    27443979.904 7 110505504.52407      -643.558 7        42.751
G05        41.000    21117631.832 8 110973882.07008     -1301.397 8        48.240                                    21117629.383 7  86473128.10307     -1014.072 7        47.999    21117629.976 7  86473137.10207     -1014.086 7        44.582
S44        42.000    40869862.626 6 214772659.93506      -511.492 6        37.180
C36        43.000                                                                                                                                    21707644.930 8 113037385.95908       659.333 8        52.149                                                                    21707650.630 8  91852151.67208       535.651 8        50.395
C05        44.000                                                                                                                                    39309084.615 6 204692683.69906      -550.765 6        37.304    39309084.751 7 158281371.63907      -425.988 7        42.576    39309086.446 6 166329659.94306      -447.785 6        40.386
R18        45.000    24258749.982 6 129494858.94906     -3403.432 6        40.284                                                                    24258750.976 6 100718203.28106     -2647.299 6        37.183
G18        46.000    24945211.707 6 131087952.55406      -662.165 6        38.471                                    24945208.596 3 102146438.53003      -515.966 3        22.152    24945209.370 6 102146428.52106      -516.096 6        39.192
R11        47.000    20619241.453 8 110182922.63708     -3492.345 8        49.546                                                                    20619241.947 7  85697823.87407     -2716.267 7        46.622
C45        50.000                                                                                                                                    25006555.611 7 130215701.93607      2642.968 7        43.814                                                                    25006550.759 7 105810908.49507      2147.479 7        44.582
S48        51.000    77146575.973 6 405407885.31206      -478.214 6        37.841
E06        52.000    23202009.778 8 121927383.43408      -390.507 8        48.369                                                                    23202010.943 8  91049673.50108      -291.703 8        50.774    23202010.681 8  93424881.11608      -299.289 8        51.330
C09        53.000                                                                                                                                    40546580.198 6 211136580.32706     -1168.972 6        37.701    40546583.078 6 163264156.64406      -904.093 6        40.672    40546580.063 6 171565721.14006      -949.924 6        37.928
C60        54.000                                                                                                                                    40869870.253 6 212820199.36406      -506.868 6        40.791                                                                    40869860.502 6 172933785.20806      -411.959 6        38.709
E31        55.000    24920942.024 7 130960433.22607      1999.713 7        46.188                                                                    24920945.890 8  97795159.43908      1493.272 8        48.179    24920944.832 8 100346333.78308      1532.247 8        48.652
G07        56.000    23089655.171 7 121336911.56507     -3034.655 7        43.907                                    23089653.951 6  94548209.97506     -2364.660 6        39.201    23089654.688 6  94548218.96906     -2364.600 6        39.372
C02        57.000                                                                                                                                    40890642.026 5 212928194.80005      -550.937 5        33.880    40890645.901 6 164649539.61006      -425.983 6        38.279    40890646.790 5 173021570.08905      -447.223 5        33.994
I03        58.000    96481729.128 6 302829587.80206       850.329 6        40.315
C21        59.000                                                                                                                                    25493032.751 7 132748881.59507      2565.112 7        43.128                                                                    25493029.091 7 107869309.93907      2084.236 7        44.114
C22        60.000                                                                                                                                    21780124.577 8 113414795.23708       308.736 8        52.011                                                                    21780119.345 8  92158781.26708       250.750 8        50.247
> 2025 01 02 07 45  5.0000000  0 52
G15         2.000    22970923.665 7 120712979.37507      2964.802 7        43.052                                    22970921.601 6  94062040.06506      2310.236 6        37.890    22970922.420 6  94062035.05106      2310.212 6        39.201
G08         4.000    24168164.690 6 127004591.03706      -734.570 6        38.375                                    24168169.302 5  98964641.45805      -572.389 5        30.702    24168169.810 6  98964637.44806      -572.364 6        36.386
S21         5.000    38428227.514 7 201941364.63907      -491.642 7        42.027
E05         6.000    26319687.734 6 138310870.98506      2109.046 6        38.210                                                                    26319690.138 6 103284071.58006      1574.863 6        40.262    26319689.450 6 105978437.55706      1616.027 6        40.825
G20         7.000    22097579.294 7 116123514.54407     -3360.737 7        45.682                                    22097577.916 5  90485822.02705     -2618.751 5        33.210
R02         8.000    19396155.266 8 103501576.57208       944.380 8        52.364                                                                    19396156.078 7  80501220.54907       734.487 7        47.296
G30        11.000    20796563.703 8 109286661.57308     -1795.472 8        49.311                                    20796563.205 8  85158422.63908     -1399.066 8        50.837    20796563.793 7  85158430.63107     -1399.086 7        45.387
S27        12.000    39106598.435 6 205506491.42306      -520.942 6        36.204
G13        13.000    20568953.879 7 108090559.82207      1357.573 7        47.818                                    20568950.639 6  84226382.83906      1057.850 6        38.168
S36        14.000    38197077.548 7 200727499.86007      -492.051 7        44.152
I09        15.000    39496877.109 6 154994097.80606     -1008.735 6        41.595
E09        16.000    23984891.428 7 126041450.56407       765.833 7        47.692                                                                    23984892.267 8  94121854.26108       571.886 8        50.471    23984891.856 8  96577204.07108       586.783 8        51.670
S45        17.000    63378489.487 6 333056305.67916      -538.282 6        36.669
E36        18.000    27520010.394 6 144618570.64606     -2903.689 6        38.892                                                                    27520015.051 6 107994390.06206     -2168.321 6        40.758    27520014.264 6 110811635.28706     -2224.866 6        41.557
R19        19.000    23640976.686 5 126463253.96005     -1156.900 5        34.762                                                                    23640977.992 6  98360303.27206      -900.111 6        39.652
E21        20.000    27391097.799 6 143941111.81206     -2991.448 6        39.189                                                                    27391103.411 7 107488485.23407     -2233.847 7        42.106    27391102.398 7 110292531.63807     -2292.194 7        42.396
R03        21.000    22881719.704 7 122487608.86707      3471.163 7        46.234                                                                    22881719.280 6  95268133.14006      2699.765 6        41.695
I06        22.000    38005730.840 7 149142811.04207      -424.452 7        43.158
S28        23.000    40863759.805 5 214740389.18505      -498.972 5        34.948
S23        25.000    38130308.599 7 200376078.47907      -490.852 7        44.014
R01        26.000    20089384.124 8 107389233.91808     -2995.530 8        48.923                                                                    20089386.026 7  83524942.13307     -2329.897 7        42.389
C07        27.000                                                                                                                                    39349386.588 6 204902558.57906       470.640 6        40.112    39349383.501 7 158443645.44007       363.946 7        44.113    39349381.459 6 166500092.34606       382.452 6        41.035
C40        29.000                                                                                                                                    39410335.079 6 205219948.58306       631.243 6        41.957                                                                    39410336.660 7 166758020.72207       512.968 7        42.174
E19        30.000    27859676.709 5 146403448.87705     -3086.345 5        31.147                                                                    27859688.253 5 109327201.10405     -2304.756 5        35.567    27859686.322 6 112179217.87306     -2364.654 6        36.113
G14        31.000    21017133.036 7 110445783.51007      1307.820 7        47.962                                    21017131.633 6  86061649.63006      1019.083 6        38.793    21017131.490 7  86061635.62307      1019.084 7        46.855
G27        32.000    25377908.445 3                     -2252.819 3        23.752                                                                                                    25377912.268 4 103918304.28104     -1754.922 4        27.725
I02        33.000    37965171.153 7 148983489.65907       273.796 7        42.315
E04        34.000    23798231.437 7 125060551.27607     -1646.057 7        47.738                                                                    23798231.870 8  93389373.61808     -1229.285 8        50.793    23798231.275 8  95825614.84908     -1261.350 8        51.519
R13        35.000    22369600.241 6 119452429.85806      3546.653 6        40.956
R12        36.000    19368781.590 8 103464546.10908      1033.398 8        52.151                                                                    19368782.773 7  80472427.15007       803.741 7        47.521
I01        37.000   391328771.842 6 232517170.36406     -3155.147 6        40.520
C10        38.000                                                                                                                                    39545872.217 6 205925727.45906       758.910 6        40.079    39545872.529 7 159234835.58907       586.941 7        44.029    39545869.610 6 167331510.31906       616.632 6        40.467
C19        39.000                                                                                                                                    23046085.426 8 120006970.97508     -2822.957 8        50.471                                                                    23046082.580 8  97515462.20508     -2293.998 8        49.582
E34        40.000    27444779.366 6 144223263.51906      -842.540 6        39.270                                                                    27444780.825 7 107699182.92907      -629.086 7        42.155    27444780.370 7 110508727.35907      -645.500 7        42.921
G05        41.000    21118871.916 8 110980398.51408     -1305.089 8        48.064                                    21118869.431 8  86478205.84308     -1016.947 8        48.019    21118869.512 7  86478214.84807     -1016.962 7        44.798
S44        42.000    40870348.329 6 214775217.72506      -511.572 6        36.904
C36        43.000                                                                                                                                    21707012.720 8 113034095.36108       656.940 8        52.069                                                                    21707018.746 8  91849477.79508       533.711 8        50.367
C05        44.000                                                                                                                                    39309613.926 6 204695438.67606      -551.183 6        37.633    39309613.758 7 158283501.94507      -426.087 7        42.739    39309615.582 6 166331898.58806      -447.910 6        40.417
R18        45.000    24261939.923 6 129511883.01206     -3405.978 6        41.004                                                                    24261940.046 6 100731444.19606     -2649.007 6        37.675
G18        46.000    24945843.329 6 131091271.90606      -665.543 6        38.159                                    24945840.392 3 102149025.02503      -518.587 3        21.857    24945840.297 6 102149015.01206      -518.541 6        39.763
R11        47.000    20622510.667 8 110200391.34108     -3495.034 8        50.023                                                                    20622511.212 7  85711410.61507     -2718.336 7        46.373
C45        50.000                                                                                                                                    25004018.342 7 130202490.05507      2641.824 7        43.456                                                                    25004013.628 7 105800172.77107      2146.614 7        44.618
S48        51.000    77147038.200 6 405410277.73606      -478.421 6        37.864
E06        52.000    23202382.309 8 121929340.56208      -392.181 8        48.503                                                                    23202383.390 8  91051134.97508      -292.837 8        50.770    23202383.128 8  93426380.71508      -300.494 8        51.459
C09        53.000                                                                                                                                    40547703.080 6 211142426.08906     -1169.220 6        37.766    40547705.514 6 163268676.91506      -903.997 6        40.927    40547702.490 6 171570471.30106      -950.167 6        37.822
C60        54.000                                                                                                                                    40870356.457 6 212822733.90706      -506.987 6        40.939                                                                    40870347.198 6 172935844.74006      -411.921 6        38.619
E31        55.000    24919040.379 7 130950439.21607      1997.949 7        46.293                                                                    24919044.089 8  97787696.39008      1492.001 8        48.202    24919042.989 8 100338676.05008      1530.901 8        48.721
G07        56.000    23092542.974 7 121352087.00007     -3035.583 7        43.941                                    23092541.685 6  94560034.95906     -2365.381 6        39.309    23092542.326 6  94560043.93506     -2365.222 6        39.988
C02        57.000                                                                                                                                    40891170.581 5 212930948.62105      -550.793 5        34.048    40891174.594 6 164651669.03606      -425.907 6        38.408    40891175.569 5 173023807.82105      -447.922 5        33.934
I03        58.000    96480645.753 6 302825335.88806       850.310 6        40.398
C21        59.000                                                                                                                                    25490570.180 7 132736059.16707      2564.126 7        43.103                                                                    25490566.661 7 107858890.67107      2083.425 7        44.175
C22        60.000                                                                                                                                    21779829.514 8 113413258.38708       306.094 8        52.043                                                                    21779824.193 8  92157532.45408       248.614 8        50.217
> 2025 01 02 07 45 10.0000000  0 52
G15         2.000    22968103.180 7 120698157.54707      2963.950 7        42.770                                    22968101.080 6  94050490.58006      2309.573 6        37.796    22968101.630 6  94050485.57806      2309.639 6        38.796
G08         4.000    24168865.885 6 127008271.38706      -737.748 6        38.297                                    24168869.554 5  98967509.27205      -574.870 5        30.845    24168870.450 6  98967505.25806      -574.684 6        36.669
S21         5.000    38428695.943 7 201943822.39807      -491.419 7        42.269
E05         6.000    26317680.924 6 138300325.50506      2109.190 6        38.216                                                                    26317683.557 6 103276196.68706      1574.940 6        40.181    26317682.581 6 105970357.23406      1616.023 6        40.801
G20         7.000    22100778.197 7 116140322.73207     -3362.602 7        45.345                                    22100776.405 5  90498919.29105     -2620.209 5        33.084
R02         8.000    19395271.788 8 103496862.19508       941.423 8        52.194                                                                    19395272.868 7  80497553.81507       732.176 7        47.199
G30        11.000    20798272.676 8 109295643.12808     -1797.218 8        49.179                                    20798272.344 8  85165421.24308     -1400.427 8        50.711    20798272.792 7  85165429.23707     -1400.456 7        44.977
S27        12.000    39107096.592 5 205509097.17305      -521.178 5        35.924
G13        13.000    20567662.906 7 108083776.22007      1355.820 7        47.851                                    20567659.775 6  84221096.91106      1056.483 6        38.066
S36        14.000    38197544.922 7 200729961.53107      -492.408 7        44.132
I09        15.000    39498162.274 6 154999141.25606     -1008.715 6        41.330
E09        16.000    23984163.058 7 126037623.77607       764.834 7        47.965                                                                    23984164.052 8  94118996.59108       571.188 8        50.315    23984163.598 8  96574271.85408       586.085 8        51.645
S45        17.000    63378956.839 6 333058997.18106      -538.242 6        36.681
E36        18.000    27522773.944 6 144633091.73306     -2904.767 6        38.796                                                                    27522778.300 6 108005233.71606     -2169.207 6        40.462    27522777.578 6 110822761.81706     -2225.819 6        41.554
R19        19.000    23642062.011 5 126469049.20605     -1161.181 5        34.248                                                                    23642061.110 6  98364810.63906      -903.016 6        39.480
E21        20.000    27393944.793 6 143956072.12406     -2992.609 6        39.255                                                                    27393950.174 6 107499656.88306     -2234.749 6        41.850    27393949.186 7 110303994.72007     -2293.124 7        42.510
R03        21.000    22878478.360 7 122470253.82707      3470.881 7        46.019                                                                    22878477.373 6  95254634.75706      2699.581 6        41.516
I06        22.000    38006271.705 7 149144933.29807      -424.422 7        42.997
S28        23.000    40864235.956 5 214742882.72405      -498.736 5        35.176
S23        25.000    38130777.497 7 200378532.52207      -490.759 7        44.218
R01        26.000    20092186.520 8 107404218.63108     -2998.461 8        48.120                                                                    20092188.397 6  83536596.89506     -2332.119 6        41.178
C07        27.000                                                                                                                                    39348934.673 6 204900207.16806       469.989 6        40.007    39348931.854 7 158441827.18907       363.363 7        44.179    39348929.873 6 166498181.65206       381.643 6        40.944
C40        29.000                                                                                                                                    39409729.232 6 205216793.93406       630.547 6        41.793                                                                    39409730.742 7 166755457.32207       512.188 7        42.076
E19        30.000    27862613.437 5 146418880.91305     -3086.433 5        31.396                                                                    27862624.573 5 109338724.95105     -2304.771 5        35.329    27862623.065 6 112191042.33306     -2364.822 6        36.302
G14        31.000    21015890.167 7 110439250.95707      1305.193 7        47.607                                    21015888.527 6  86056559.32406      1017.035 6        38.667    21015888.483 7  86056545.32507      1016.963 7        46.527
G27        32.000    25380055.741 4                     -2255.675 4        24.376
I02        33.000    37964822.625 7 148982121.79407       273.578 7        42.366
E04        34.000    23799798.284 7 125068784.73107     -1647.297 7        47.829                                                                    23799798.612 8  93395521.96208     -1230.106 8        50.640    23799798.060 8  95831923.59008     -1262.207 8        51.439
R13        35.000    22366279.904 6 119434700.01606      3545.180 6        40.663
R12        36.000    19367816.367 8 103459388.54108      1029.673 8        51.912                                                                    19367817.349 7  80468415.70307       800.840 7        47.369
I01        37.000   391332792.201 6 232532945.72106     -3155.064 6        40.405
C10        38.000                                                                                                                                    39545143.018 6 205921934.09506       758.600 6        39.778    39545144.145 7 159231902.36507       586.440 7        44.090    39545141.132 6 167328427.95906       616.193 6        40.396
C19        39.000                                                                                                                                    23048796.956 8 120021090.19908     -2824.731 8        50.281                                                                    23048794.086 8  97526935.22808     -2295.446 8        49.527
E34        40.000    27445580.885 6 144227482.06206      -844.966 6        39.477                                                                    27445583.636 6 107702333.13306      -630.846 6        41.855    27445583.251 7 110511959.74407      -647.328 7        42.842
G05        41.000    21120115.082 8 110986932.42608     -1308.510 8        48.015                                    21120112.806 7  86483297.19107     -1019.617 7        47.831    21120113.603 7  86483306.17907     -1019.556 7        44.907
S44        42.000    40870835.960 6 214777775.40906      -511.414 6        37.172
C36        43.000                                                                                                                                    21706383.040 8 113030815.99108       654.813 8        51.875                                                                    21706388.940 8  91846813.04908       531.980 8        50.288
C05        44.000                                                                                                                                    39310142.776 6 204698193.66506      -550.822 6        37.569    39310142.930 7 158285632.25407      -425.983 7        42.741    39310144.508 6 166334137.25506      -447.815 6        40.338
R18        45.000    24265130.821 6 129528918.91206     -3408.322 6        41.180                                                                    24265131.250 6 100744694.34006     -2651.053 6        37.750
G18        46.000    24946476.874 6 131094606.62906      -668.399 6        38.459                                    24946475.004 3 102151623.50303      -520.830 3        21.667    24946475.139 6 102151613.51906      -520.891 6        39.012
R11        47.000    20625782.258 8 110217872.39108     -3497.364 8        49.775                                                                    20625782.542 7  85725006.98007     -2720.172 7        46.607
C45        50.000                                                                                                                                    25001482.220 7 130189282.50007      2641.081 7        43.536                                                                    25001477.134 7 105789440.57307      2146.061 7        44.495
S48        51.000    77147501.031 6 405412670.07406      -478.354 6        38.006
E06        52.000    23202755.957 8 121931304.54708      -393.482 8        48.536                                                                    23202757.135 8  91052601.58208      -293.835 8        50.599    23202756.909 8  93427885.58108      -301.472 8        51.384
C09        53.000                                                                                                                                    40548824.911 6 211148271.27906     -1168.998 6        37.505    40548827.905 6 163273196.78006      -903.905 6        40.858    40548825.073 6 171575221.00806      -949.964 6        37.418
C60        54.000                                                                                                                                    40870843.725 6 212825268.34006      -506.838 6        40.710                                                                    40870833.992 6 172937904.19606      -411.799 6        38.802
E31        55.000    24917140.003 7 130940452.70307      1996.599 7        46.290                                                                    24917143.542 8  97780238.94408      1490.961 8        48.085    24917142.658 8 100331024.05908      1529.852 8        48.691
G07        56.000    23095431.715 7 121367265.80307     -3036.024 7        44.068                                    23095430.259 6  94571862.56506     -2365.729 6        39.378    23095431.074 6  94571871.55406     -2365.739 6        40.460
C02        57.000                                                                                                                                    40891700.522 5 212933702.40405      -550.816 5        33.976    40891703.820 6 164653798.43606      -425.926 6        38.559    40891704.638 5 173026045.47405      -447.602 5        33.707
I03        58.000    96479562.617 6 302821083.90906       850.441 6        40.086
C21        59.000                                                                                                                                    25488108.617 7 132723240.39107      2563.546 7        43.084                                                                    25488104.983 7 107848474.37407      2082.875 7        44.176
C22        60.000                                                                                                                                    21779536.823 8 113411733.67708       303.791 8        52.061                                                                    21779531.377 8  92156293.51008       246.740 8        50.158
> 2025 01 02 07 45 15.0000000  0 52
G15         2.000    22965283.637 7 120683340.42907      2962.766 7        42.777                                    22965281.476 6  94038944.76906      2308.651 6        37.686    22965281.952 6  94038939.77006      2308.600 6        39.736
G08         4.000    24169568.959 6 127011967.98906      -741.219 6        37.845                                    24169573.007 5  98970389.73805      -577.580 5        30.891    24169574.373 6  98970385.73706      -577.434 6        37.032
S21         5.000    38429163.268 7 201946280.14107      -491.690 7        42.180
E05         6.000    26315674.202 6 138289780.04906      2108.910 6        38.117                                                                    26315676.804 6 103268321.80506      1574.882 6        40.150    26315675.833 6 105962276.93306      1615.875 6        40.658
G20         7.000    22103978.402 7 116157141.10007     -3364.817 7        45.222                                    22103976.821 5  90512024.49205     -2621.929 5        32.832
R02         8.000    19394391.150 8 103492163.72008       937.923 8        52.264                                                                    19394392.195 7  80493899.43207       729.480 7        47.400
G30        11.000    20799983.754 8 109304633.74308     -1799.212 8        49.206                                    20799983.214 8  85172426.90808     -1401.981 8        50.610    20799983.814 7  85172434.90807     -1402.019 7        45.181
S27        12.000    39107592.987 6 205511703.13406      -521.507 6        36.299
G13        13.000    20566373.858 8 108077001.87908      1353.729 8        48.289                                    20566370.651 6  84215818.20406      1054.854 6        37.977
S36        14.000    38198015.529 7 200732423.63807      -492.706 7        44.146
I09        15.000    39499447.153 6 155004185.15806     -1009.003 6        41.266
E09        16.000    23983435.828 8 126033802.44508       763.501 8        48.059                                                                    23983436.858 8  94116143.00108       570.177 8        50.315    23983436.460 8  96571343.81908       585.028 8        51.583
S45        17.000    63379424.799 6 333061688.67306      -538.435 6        36.544
E36        18.000    27525538.070 6 144647619.03606     -2906.285 6        38.673                                                                    27525542.902 6 108016082.00306     -2170.328 6        40.646    27525542.312 6 110833893.09806     -2226.863 6        41.456
R19        19.000    23643147.602 5 126474865.51005     -1165.765 5        33.114                                                                    23643148.504 6  98369334.45406      -906.561 6        39.435
E21        20.000    27396792.816 6 143971038.73306     -2994.124 6        39.249                                                                    27396798.263 6 107510833.22806     -2236.078 6        41.738    27396797.314 7 110315462.61807     -2294.274 7        42.580
R03        21.000    22875235.338 7 122452901.21607      3470.022 7        45.768                                                                    22875235.319 6  95241138.27106      2699.009 6        41.948
I06        22.000    38006812.602 7 149147055.83307      -424.658 7        43.010
S28        23.000    40864707.028 5 214745376.37505      -499.189 5        34.819
S23        25.000    38131242.287 7 200380986.70607      -490.974 7        44.220
R01        26.000    20094992.428 7 107419218.54507     -3001.652 7        47.825                                                                    20094994.806 6  83548263.48906     -2334.746 6        41.740
C07        27.000                                                                                                                                    39348483.807 6 204897859.71906       468.953 6        40.033    39348480.927 7 158440011.98507       362.616 7        44.015    39348479.102 6 166496274.13806       381.376 6        41.039
C40        29.000                                                                                                                                    39409124.707 6 205213644.14506       629.351 6        41.657                                                                    39409125.890 7 166752897.83707       511.553 7        42.013
E19        30.000    27865551.059 5 146434314.92405     -3087.185 5        31.683                                                                    27865561.819 5 109350250.25205     -2305.410 5        35.214    27865560.306 6 112202868.31106     -2365.315 6        36.102
G14        31.000    21014649.597 7 110432732.32107      1302.155 7        47.761                                    21014648.058 6  86051479.86806      1014.664 6        38.646    21014648.123 7  86051465.87607      1014.629 7        47.039
G27        32.000    25382203.962 4                     -2258.619 4        25.639                                                                                                    25382204.446 4 103935880.44804     -1760.377 4        26.635
I02        33.000    37964474.483 7 148980755.12407       273.214 7        42.436
E04        34.000    23801366.537 7 125077024.76907     -1648.851 7        47.816                                                                    23801366.675 8  93401675.22508     -1231.304 8        50.765    23801366.084 8  95838237.37508     -1263.390 8        51.411
R13        35.000    22362960.843 6 119416977.88206      3543.439 6        40.610
R12        36.000    19366854.469 8 103454250.21808      1025.554 8        52.201                                                                    19366855.966 7  80464419.23407       797.614 7        47.889
I01        37.000   391336811.548 6 232548721.40906     -3155.360 6        40.529
C10        38.000                                                                                                                                    39544415.075 6 205918144.06406       757.469 6        39.261    39544416.382 7 159228971.67407       585.768 7        44.203    39544413.375 6 167325348.22106       615.855 6        40.281
C19        39.000                                                                                                                                    23051510.176 8 120035218.99808     -2826.916 8        50.293                                                                    23051507.414 8  97538416.01208     -2296.882 8        49.544
E34        40.000    27446386.364 6 144231713.16906      -847.697 6        39.348                                                                    27446388.824 6 107705492.71506      -632.988 6        41.852    27446388.544 7 110515201.74607      -649.452 7        42.794
G05        41.000    21121362.106 7 110993483.95907     -1312.230 7        47.929                                    21121359.534 7  86488402.27107     -1022.514 7        47.770    21121359.954 7  86488411.27507     -1022.584 7        44.709
S44        42.000    40871322.660 6 214780333.10206      -511.641 6        37.221
C36        43.000                                                                                                                                    21705755.466 8 113027547.96408       652.282 8        51.892                                                                    21705761.366 8  91844157.50408       530.218 8        50.346
C05        44.000                                                                                                                                    39310671.916 6 204700948.75506      -550.968 6        37.319    39310671.976 7 158287762.66007      -426.210 7        42.747    39310673.738 6 166336375.96706      -447.696 6        40.472
R18        45.000    24268324.363 6 129545966.79806     -3410.968 6        40.810                                                                    24268325.309 6 100757953.83406     -2652.904 6        38.045
G18        46.000    24947115.422 6 131097956.88406      -671.690 6        39.234                                    24947112.702 3 102154234.08703      -523.398 3        21.929    24947112.617 6 102154224.09906      -523.569 6        39.006
R11        47.000    20629054.988 8 110235365.89508     -3500.153 8        49.113                                                                    20629056.257 7  85738613.03307     -2722.334 7        47.069
C45        50.000                                                                                                                                    24998947.498 7 130176079.39607      2640.045 7        44.366                                                                    24998941.469 7 105778711.98107      2145.312 7        44.305
S48        51.000    77147956.993 6 405415062.46506      -478.783 6        38.045
E06        52.000    23203130.981 8 121933275.48908      -395.047 8        48.638                                                                    23203132.179 8  91054073.37908      -294.997 8        50.636    23203131.933 8  93429395.77908      -302.723 8        51.341
C09        53.000                                                                                                                                    40549947.073 6 211154115.99706     -1169.108 6        37.732    40549950.793 6 163277716.26706      -903.989 6        40.806    40549947.468 6 171579970.30206      -949.886 6        37.713
C60        54.000                                                                                                                                    40871330.600 6 212827802.77506      -507.096 6        40.832                                                                    40871320.692 6 172939963.64006      -411.899 6        38.640
E31        55.000    24915241.176 7 130930473.82707      1994.841 7        46.481                                                                    24915244.415 8  97772787.20008      1489.673 8        48.088    24915243.756 8 100323377.91908      1528.523 8        48.587
G07        56.000    23098320.946 7 121382448.10907     -3036.992 7        44.125                                    23098319.616 6  94583692.90406     -2366.483 6        39.303    23098320.148 6  94583701.90406     -2366.583 6        40.906
C02        57.000                                                                                                                                    40892229.399 5 212936456.19805      -551.107 5        34.167    40892232.491 6 164655927.82506      -425.904 6        38.471    40892233.331 5 173028283.15005      -447.234 5        33.491
I03        58.000    96478478.713 6 302816831.93906       850.250 6        40.188
C21        59.000                                                                                                                                    25485648.121 7 132710425.40507      2562.387 7        43.520                                                                    25485643.969 7 107838061.12207      2082.523 7        44.084
C22        60.000                                                                                                                                    21779246.646 8 113410221.20508       301.053 8        52.163                                                                    21779240.964 8  92155064.49108       244.812 8        50.109
> 2025 01 02 07 45 20.0000000  0 52
G15         2.000    22962465.176 7 120668528.56507      2961.944 7        42.614                                    22962462.878 6  94027403.05106      2308.004 6        37.732    22962463.602 6  94027398.05906      2308.080 6        40.014
G08         4.000    24170275.303 6 127015681.27206      -744.163 6        37.210                                    24170279.863 5  98973283.20305      -579.868 5        30.717    24170280.681 6  98973279.22706      -580.006 6        36.968
S21         5.000    38429634.099 7 201948738.68207      -491.671 7        42.070
E05         6.000    26313667.345 6 138279235.07706      2109.215 6        37.380                                                                    26313670.048 6 103260447.30006      1574.854 6        40.341    26313669.158 6 105954196.99506      1615.995 6        40.737
G20         7.000    22107180.698 7 116173970.12507     -3366.821 7        45.038                                    22107179.241 5  90525137.99505     -2623.491 5        32.898
R02         8.000    19393513.922 8 103487481.53708       934.888 8        52.383                                                                    19393514.614 7  80490257.72707       727.133 7        47.195
G30        11.000    20801696.154 8 109313633.86608     -1800.818 8        49.223                                    20801695.890 8  85179439.97708     -1403.231 8        50.668    20801696.280 7  85179447.97307     -1403.309 7        44.930
S27        12.000    39108081.941 5 205514309.94105      -521.389 5        35.957
G13        13.000    20565087.034 8 108070237.28008      1352.092 8        48.648                                    20565083.401 6  84210547.08706      1053.580 6        38.081
S36        14.000    38198482.831 7 200734886.43307      -492.572 7        44.116
I09        15.000    39500732.825 6 155009229.76506     -1008.845 6        41.211
E09        16.000    23982709.875 7 126029987.03207       762.580 7        47.810                                                                    23982710.840 8  94113293.81908       569.480 8        50.336    23982710.435 8  96568420.31708       584.349 8        51.656
S45        17.000    63379895.768 6 333064380.88406      -538.323 6        36.832
E36        18.000    27528304.292 6 144662152.99306     -2907.183 6        38.769                                                                    27528308.453 6 108026935.25806     -2171.033 6        40.436    27528307.979 6 110845029.48406     -2227.589 6        41.533
R19        19.000    23644238.550 5 126480703.25905     -1169.603 5        34.733                                                                    23644239.982 6  98373874.90706      -909.675 6        39.691
E21        20.000    27399642.261 6 143986012.06906     -2995.098 6        39.195                                                                    27399647.393 6 107522014.57706     -2236.652 6        41.445    27399646.533 7 110326935.65507     -2294.955 7        42.464
R03        21.000    22871994.694 7 122435551.42507      3469.766 7        46.037                                                                    22871994.646 6  95227643.97506      2698.793 6        41.447
I06        22.000    38007353.549 7 149149178.97807      -424.564 7        42.815
S28        23.000    40865186.677 5 214747870.67305      -498.601 5        34.757
S23        25.000    38131711.508 7 200383441.42807      -490.924 7        44.137
R01        26.000    20097802.264 8 107434234.00308     -3004.552 8        48.668                                                                    20097804.390 6  83559942.16606     -2336.932 6        41.931
C07        27.000                                                                                                                                    39348033.790 6 204895516.67206       468.350 6        39.841    39348031.028 7 158438200.19407       362.130 7        44.182    39348029.023 6 166494370.22706       380.741 6        40.837
C40        29.000                                                                                                                                    39408521.086 6 205210499.64806       628.495 6        41.607                                                                    39408522.137 7 166750342.67607       510.745 7        42.064
E19        30.000    27868488.630 5 146449751.29705     -3087.420 5        31.532                                                                    27868499.241 5 109361777.33805     -2305.565 5        35.076    27868497.697 6 112214696.11406     -2365.683 6        36.098
G14        31.000    21013411.869 7 110426228.07207      1299.507 7        47.745                                    21013410.331 6  86046411.62106      1012.607 6        38.709    21013410.366 7  86046397.60807      1012.693 7        46.819
G27        32.000    25384352.420 4                     -2261.327 4        26.754                                                                                                    25384354.059 4 103944685.55804     -1761.968 4        26.659
I02        33.000    37964126.734 7 148979389.93907       273.042 7        42.485
E04        34.000    23802935.683 7 125085271.84407     -1650.036 7        47.818                                                                    23802936.046 8  93407833.74508     -1232.139 8        50.693    23802935.446 8  95844556.55008     -1264.268 8        51.476
R13        35.000    22359644.048 6 119399264.07606      3542.072 6        41.130
R12        36.000    19365896.249 8 103449131.52408      1021.895 8        52.040                                                                    19365897.326 7  80460438.02407       794.762 7        47.705
I01        37.000   391340832.427 6 232564497.76906     -3155.300 6        40.451
C10        38.000                                                                                                                                    39543687.128 6 205914357.64306       757.008 6        38.372    39543688.772 7 159226043.79307       585.405 7        44.260    39543686.189 6 167322271.47006       615.338 6        40.031
C19        39.000                                                                                                                                    23054225.426 8 120049357.80708     -2828.631 8        50.266                                                                    23054222.657 8  97549904.95108     -2298.436 8        49.324
E34        40.000    27447194.402 6 144235957.26906      -849.983 6        39.147                                                                    27447196.321 6 107708662.00006      -634.702 6        41.971    27447196.116 7 110518453.70607      -651.201 7        42.921
G05        41.000    21122612.048 7 111000053.53607     -1315.599 7        47.989                                    21122609.693 7  86493521.40907     -1025.139 7        47.834    21122610.361 7  86493530.40607     -1025.164 7        44.560
S44        42.000    40871809.825 6 214782891.23406      -511.610 6        37.138
C36        43.000                                                                                                                                    21705130.351 8 113024291.73208       650.175 8        51.805                                                                    21705136.050 8  91841511.55008       528.403 8        50.112
C05        44.000                                                                                                                                    39311200.949 6 204703704.47806      -551.118 6        37.539    39311201.269 7 158289893.52607      -426.073 7        42.781    39311202.950 6 166338615.20406      -447.750 6        40.148
R18        45.000    24271520.133 6 129563027.05806     -3413.187 6        41.023                                                                    24271521.086 6 100771222.92206     -2654.572 6        37.554
G18        46.000    24947755.558 6 131101323.12906      -674.759 6        38.703                                    24947753.343 3 102156857.13403      -525.791 3        22.095    24947753.658 6 102156847.12706      -525.751 6        39.321
R11        47.000    20632331.320 8 110252872.32508     -3502.432 8        49.563                                                                    20632332.125 7  85752229.13607     -2724.114 7        46.748
C45        50.000                                                                                                                                    24996412.356 7 130162881.21407      2639.240 7        44.196                                                                    24996407.048 7 105767987.40307      2144.538 7        44.027
S48        51.000    77148418.603 6 405417455.95406      -478.750 6        38.075
E06        52.000    23203507.499 8 121935253.88408      -396.283 8        48.586                                                                    23203508.686 8  91055550.74508      -295.937 8        50.672    23203508.396 8  93430911.68008      -303.640 8        51.431
