     3.04           OBSERVATION DATA    M                   RINEX VERSION / TYPE
ssrcrin-15.6.1x                         20250102 020000 UTC PGM / RUN BY / DATE 
(00000000023479385599111004) Septentrio proprietary         COMMENT             
rref                                                        MARKER NAME         
01                                                          MARKER NUMBER       
geodetic                                                    MARKER TYPE         
NFB                 CLIMERS@TUW                             OBSERVER / AGENCY   
3297213             SEPT ASTERX SB3 PROB4.14.4              REC # / TYPE / VERS 
Unknown             Unknown                                 ANT # / TYPE        
  4127831.9261  1207193.1724  4695247.7138                  APPROX POSITION XYZ 
        0.0000        0.0000        0.0000                  ANTENNA: DELTA H/E/N
G   23 X1  C1C L1C D1C S1C C1W S1W C2W L2W D2W S2W C2L L2L  SYS / # / OBS TYPES 
       D2L S2L C5Q L5Q D5Q S5Q C1L L1L D1L S1L              SYS / # / OBS TYPES 
E   21 X1  C1C L1C D1C S1C C6C L6C D6C S6C C5Q L5Q D5Q S5Q  SYS / # / OBS TYPES 
       C7Q L7Q D7Q S7Q C8Q L8Q D8Q S8Q                      SYS / # / OBS TYPES 
S    9 X1  C1C L1C D1C S1C C5I L5I D5I S5I                  SYS / # / OBS TYPES 
R   17 X1  C1C L1C D1C S1C C2P L2P D2P S2P C2C L2C D2C S2C  SYS / # / OBS TYPES 
       C3Q L3Q D3Q S3Q                                      SYS / # / OBS TYPES 
C   25 X1  C1P L1P D1P S1P C5P L5P D5P S5P C2I L2I D2I S2I  SYS / # / OBS TYPES 
       C7I L7I D7I S7I C6I L6I D6I S6I C7D L7D D7D S7D      SYS / # / OBS TYPES 
J   17 X1  C1C L1C D1C S1C C2L L2L D2L S2L C5Q L5Q D5Q S5Q  SYS / # / OBS TYPES 
       C1L L1L D1L S1L                                      SYS / # / OBS TYPES 
I    5 X1  C5A L5A D5A S5A                                  SYS / # / OBS TYPES 
SEPTENTRIO RECEIVERS OUTPUT ALIGNED CARRIER PHASES.         COMMENT             
NO FURTHER PHASE SHIFT APPLIED IN THE RINEX ENCODER.        COMMENT             
G L1C                                                       SYS / PHASE SHIFT   
G L2W                                                       SYS / PHASE SHIFT   
G L2L  0.00000                                              SYS / PHASE SHIFT   
G L5Q  0.00000                                              SYS / PHASE SHIFT   
G L1L  0.00000                                              SYS / PHASE SHIFT   
E L1C  0.00000                                              SYS / PHASE SHIFT   
E L6C  0.00000                                              SYS / PHASE SHIFT   
E L5Q  0.00000                                              SYS / PHASE SHIFT   
E L7Q  0.00000                                              SYS / PHASE SHIFT   
E L8Q  0.00000                                              SYS / PHASE SHIFT   
S L1C                                                       SYS / PHASE SHIFT   
S L5I                                                       SYS / PHASE SHIFT   
R L1C                                                       SYS / PHASE SHIFT   
R L2P  0.00000                                              SYS / PHASE SHIFT   
R L2C                                                       SYS / PHASE SHIFT   
R L3Q  0.00000                                              SYS / PHASE SHIFT   
C L1P  0.00000                                              SYS / PHASE SHIFT   
C L5P  0.00000                                              SYS / PHASE SHIFT   
C L2I                                                       SYS / PHASE SHIFT   
C L7I                                                       SYS / PHASE SHIFT   
C L6I                                                       SYS / PHASE SHIFT   
C L7D                                                       SYS / PHASE SHIFT   
J L1C                                                       SYS / PHASE SHIFT   
J L2L  0.00000                                              SYS / PHASE SHIFT   
J L5Q  0.00000                                              SYS / PHASE SHIFT   
J L1L  0.00000                                              SYS / PHASE SHIFT   
I L5A                                                       SYS / PHASE SHIFT   
  2025     1     2     2     0    0.0000000     GPS         TIME OF FIRST OBS   
 C1C    0.000 C2C    0.000 C2P    0.000                     GLONASS COD/PHS/BIS 
DBHZ                                                        SIGNAL STRENGTH UNIT
    18                                                      LEAP SECONDS        
 24 R01  1 R02 -4 R03  5 R04  6 R05  1 R06 -4 R07  5 R08  6 GLONASS SLOT / FRQ #
    R09 -2 R10 -7 R11  0 R12 -1 R13 -2 R14 -7 R15  0 R16 -1 GLONASS SLOT / FRQ #
    R17  4 R18 -3 R19  3 R20  2 R21  4 R22 -3 R23  3 R24  2 GLONASS SLOT / FRQ #
                                                            END OF HEADER       
> 2025 01 02 02 00  0.0000000  0 54
G09         1.000    21892906.851 7 115048030.87807      2491.568 7        45.476                                    21892904.433 7  89647820.82507      1941.481 7        45.682    21892904.695 7  89647820.82307      1941.520 7        42.991
G06         2.000    23315154.135 6 122521978.51906      2724.433 6        41.352                                    23315152.839 6  95471675.58606      2122.938 6        38.405    23315153.312 6  95471683.59406      2122.523 6        40.956
E11         3.000    27874067.297 5 146479219.31705      2440.934 5        35.219                                                                    27874063.864 6 109383820.35506      1822.653 6        37.289    27874063.231 6 112237307.83506      1870.131 6        37.614
R15         4.000    23146872.143 7 123689867.52707     -1145.119 7        46.172                                                                    23146870.945 6  96203217.12606      -890.707 6        40.241
S21         5.000    38341588.297 6 201486123.40306      -476.728 6        41.983
E10         6.000    25593784.900 7 134496255.26107      1858.119 7        43.259                                                                    25593783.609 7 100435511.62707      1387.531 7        46.832    25593783.486 7 103055567.96407      1423.770 7        47.727
G28         7.000    23608990.725 6 124066099.92006     -2407.676 6        40.996                                    23608986.314 4  96674865.91204     -1876.112 4        26.228    23608987.230 6  96674873.91206     -1876.197 6        40.262
G03         8.000    19977188.330 8 104980932.37308     -1274.664 8        50.295                                    19977186.134 8  81803365.69108      -993.244 8        52.255    19977186.702 7  81803363.68807      -993.154 7        46.035
G02         9.000    22566217.464 7 118586322.15107     -3382.285 7        45.369                                    22566211.039 5  92404920.24705     -2635.545 5        34.476
G31        10.000    22117866.605 7 116230184.13707      -726.555 7        45.317                                    22117861.746 7  90568958.95107      -566.150 7        42.573    22117861.737 6  90568963.96106      -566.263 6        41.771
C30        11.000                                                                                                                                    23296596.740 7 121311505.16307     -3118.396 7        47.951                                                                    23296596.888 7  98575537.55607     -2533.959 7        46.778
S27        12.000    38973941.948 6 204809443.29706      -467.200 6        36.121
E02        13.000    28657686.296 5 150597169.49005      -521.737 5        35.433                                                                    28657685.621 6 112458913.44706      -389.692 6        37.535    28657685.005 6 115392622.92306      -399.844 6        39.351
S36        14.000    38108972.368 7 200264506.26207      -476.914 7        44.343
I09        15.000    37156546.718 7 145810272.07207      -539.586 7        43.441
G19        16.000    22187275.668 7 116594942.01107      -550.028 7        44.566                                    22187269.336 5  90853185.24205      -428.596 5        32.371
S45        17.000    63303988.557 6 332665807.38106      -516.677 6        37.433
E12        19.000    24254366.106 7 127457564.09007       833.714 7        44.418                                                                    24254362.454 7  95179338.58307       622.578 7        47.695    24254362.405 8  97662277.29908       638.844 8        48.323
G17        20.000    22683838.667 7 119204401.62607     -2250.592 7        45.530                                    22683833.599 6  92886537.30106     -1753.709 6        41.547    22683834.434 6  92886536.30006     -1753.737 6        40.729
E26        21.000    27611493.732 6 145099718.80106     -3493.672 6        38.775                                                                    27611492.230 6 108353880.52206     -2609.083 6        41.523    27611491.949 7 111180479.35507     -2677.089 7        43.443
I06        22.000    38008878.211 7 149155240.78207      -272.064 7        42.912
S28        23.000    40777340.668 5 214286408.45605      -470.958 5        34.310
R08        24.000    22071551.769 8 118192187.37708      2672.446 8        48.171                                                                    22071548.293 7  91927259.63207      2078.540 7        42.015
S23        25.000    38056157.385 7 199986444.60807      -472.753 7        44.950
C25        26.000                                                                                                                                    25292428.747 7 131704308.90507      -433.245 7        42.427                                                                    25292426.108 7 107020535.16607      -352.164 7        42.169
R16        27.000    22925429.572 7 122463535.57507      2067.863 7        46.466                                                                    22925429.033 6  95249417.10206      1608.421 6        41.409
R21        29.000    21962516.947 7 117525863.49707     -4771.424 7        46.756                                                                    21962516.119 7  91409006.92107     -3711.230 7        42.239
E19        30.000    23340682.589 7 122656146.82107      1009.138 7        43.979                                                                    23340680.045 7  91593878.04907       753.549 7        44.974    23340680.079 7  93983280.33907       773.230 7        46.538
C23        31.000                                                                                                                                    25609518.264 7 133355486.27207      1812.984 7        42.449                                                                    25609510.282 7 108362222.28207      1473.265 7        43.120
R23        32.000    21007399.359 7 112375436.38907      2532.969 7        47.925
E29        33.000    23594246.805 8 123988688.11208     -1464.520 8        48.024                                                                    23594244.636 8  92588970.74308     -1093.642 8        50.829    23594244.610 8  95004329.65008     -1122.154 8        51.889
E04        34.000    28118502.205 6 147763734.14206      2488.366 6        38.571                                                                    28118501.431 6 110343051.80506      1858.117 6        39.922    28118500.896 6 113221562.59606      1906.503 6        40.338
C16        35.000                                                                                                                                    38638739.795 7 201202088.63207      -597.866 7        43.198    38638738.673 7 155582230.18807      -462.301 7        43.862    38638736.625 6 163493178.51306      -485.786 6        39.952
C32        36.000                                                                                                                                    21939063.909 8 114242521.31608     -1410.165 8        51.136                                                                    21939063.694 8  92831427.99608     -1145.883 8        50.297
I01        37.000   377778226.547 7 179342097.95507     -2660.460 7        42.825
E07        38.000    27471373.224 6 144363052.95806     -3275.748 6        37.868                                                                    27471373.515 6 107803615.05406     -2446.119 6        41.826    27471373.000 7 110615875.80907     -2509.939 7        42.127
C41        39.000                                                                                                                                    25539924.139 7 132993111.52907     -3256.329 7        42.199                                                                    25539928.946 7 108067825.25107     -2646.012 7        43.486
C39        40.000                                                                                                                                    38968306.374 7 202918227.65307     -1025.669 7        43.213                                                                    38968302.587 7 164887677.26907      -833.476 7        42.895
E33        41.000    23822812.023 8 125189810.06008     -2149.130 8        48.504                                                                    23822809.610 8  93485930.47408     -1604.834 8        49.999    23822809.266 8  95924689.76408     -1646.791 8        51.014
S44        42.000    40547245.826 6 213077417.80706      -554.337 6        36.968
R06        43.000    20435103.520 6 109045689.77806     -3063.894 6        40.777
C05        44.000                                                                                                                                    39028452.429 6 203231438.98706      -489.303 6        38.643    39028447.486 7 157151466.31307      -378.295 7        43.270    39028449.390 6 165142296.37006      -397.417 6        40.443
C29        45.000                                                                                                                                    22849580.940 8 118983784.35008       -28.101 8        48.531                                                                    22849577.998 7  96684069.36007       -22.841 7        47.900
G04        46.000    20356215.215 8 106972666.92108      1020.803 8        48.028                                    20356211.364 6  83355311.23706       795.431 6        39.691    20356211.497 7  83355313.24007       795.434 7        47.321
R22        48.000    19342311.962 8 103250604.40508     -1188.357 8        52.461                                                                    19342309.389 8  80306023.91608      -924.267 8        48.622
C20        49.000                                                                                                                                    23091807.414 8 120245125.18608      1465.748 8        49.940                                                                    23091801.141 8  97708997.92408      1191.020 8        48.153
C06        50.000                                                                                                                                    38163816.015 6 198729038.06006      -493.228 6        41.235    38163810.346 7 153669881.69907      -381.492 7        45.270    38163810.379 7 161483602.88707      -400.888 7        42.184
S48        51.000    77092358.712 6 405123846.13506      -472.037 6        37.917
G21        52.000    24299423.185 6 127694397.31806     -3714.749 6        38.144                                    24299418.858 3  99502147.73903     -2894.603 3        21.095
C09        53.000                                                                                                                                    38506041.087 7 200511079.33007        18.420 7        42.402    38506037.123 7 155047875.81707        14.298 7        46.684    38506035.399 7 162931655.79307        14.779 7        42.294
C60        54.000                                                                                                                                    40547246.696 6 211140369.93606      -549.157 6        39.306                                                                    40547230.810 6 171568817.80506      -446.229 6        40.441
C02        57.000                                                                                                                                    40500852.052 5 210898624.67305      -534.882 5        35.143    40500844.989 6 163080191.57606      -413.512 6        40.470    40500848.793 6 171372413.77706      -434.465 6        36.620
I03        58.000   102803748.856 6 327638764.09906       893.395 6        41.542
R07        59.000    19293336.658 8 103278807.46308        50.630 8        52.264                                                                    19293334.823 7  80328014.95707        39.343 7        47.764
> 2025 01 02 02 00  5.0000000  0 54
G09         1.000    21890536.735 7 115035576.87507      2490.089 7        45.449                                    21890534.513 7  89638116.40707      1940.326 7        45.555    21890534.467 7  89638116.41607      1940.320 7        43.067
G06         2.000    23312562.583 6 122508360.85206      2723.012 6        41.757                                    23312561.498 6  95461064.42306      2121.827 6        38.441    23312561.606 6  95461072.42406      2121.960 6        41.056
E11         3.000    27871745.381 5 146467016.15805      2440.528 5        35.033                                                                    27871741.587 6 109374707.58806      1822.571 6        37.100    27871741.167 6 112227957.34806      1870.200 6        37.894
R15         4.000    23147944.952 7 123695603.46707     -1149.291 7        45.597                                                                    23147943.838 6  96207678.40906      -894.019 6        40.055
S21         5.000    38342038.550 7 201488506.71207      -476.881 7        42.089
E10         6.000    25592017.371 7 134486966.77707      1857.239 7        43.371                                                                    25592016.048 7 100428575.41407      1386.952 7        46.909    25592015.845 7 103048450.81707      1423.054 7        47.879
G28         7.000    23611283.067 6 124078145.39906     -2410.479 6        40.448                                    23611278.463 4  96684251.99704     -1878.298 4        25.970    23611278.957 6  96684259.98606     -1878.159 6        40.286
G03         8.000    19978402.125 8 104987310.00108     -1276.433 8        50.323                                    19978399.746 8  81808335.27208      -994.623 8        52.185    19978400.267 7  81808333.26407      -994.615 7        45.916
G02         9.000    22569436.067 7 118603237.15707     -3383.695 7        45.944                                    22569429.990 5  92418100.76705     -2636.645 5        34.481
G31        10.000    22118559.792 7 116233825.81507      -730.055 7        45.371                                    22118554.722 7  90571796.62307      -568.875 7        42.423    22118554.766 6  90571801.61806      -568.767 6        41.709
C30        11.000                                                                                                                                    23299591.646 8 121327101.11408     -3120.082 8        48.009                                                                    23299591.866 7  98588210.55807     -2535.123 7        46.776
S27        12.000    38974383.185 6 204811778.11406      -467.028 6        36.219
E02        13.000    28658183.434 5 150599783.97105      -524.049 5        35.643                                                                    28658182.876 6 112460865.81106      -391.415 6        37.682    28658182.504 6 115394626.21906      -401.373 6        39.619
S36        14.000    38109427.888 7 200266890.33307      -476.876 7        44.305
I09        15.000    37157234.517 7 145812970.44107      -539.736 7        43.541
G19        16.000    22187801.030 7 116597701.27107      -553.650 7        44.488                                    22187794.371 5  90855335.31805      -431.416 5        32.234
S45        17.000    63304436.283 6 332668391.90706      -517.067 6        37.206
E12        19.000    24253573.694 7 127453399.68507       832.148 7        44.442                                                                    24253569.926 7  95176228.80707       621.354 7        47.819    24253569.895 8  97659086.39408       637.613 8        48.343
G17        20.000    22685981.169 7 119215660.37507     -2252.940 7        45.670                                    22685976.105 6  92895310.34606     -1755.538 6        41.392    22685976.115 6  92895309.35706     -1755.441 6        40.193
E26        21.000    27614818.259 6 145117188.90406     -3494.210 6        38.655                                                                    27614816.686 6 108366926.37306     -2609.372 6        41.659    27614816.482 7 111193865.53407     -2677.407 7        43.401
I06        22.000    38009224.689 7 149156601.00007      -271.949 7        43.092
S28        23.000    40777792.561 5 214288762.38905      -470.972 5        34.533
R08        24.000    22069056.466 7 118178828.72707      2671.045 7        47.715                                                                    22069053.751 7  91916869.57807      2077.554 7        42.762
S23        25.000    38056606.761 7 199988808.41507      -472.532 7        45.005
C25        26.000                                                                                                                                    25292845.936 7 131706481.89207      -435.959 7        42.417                                                                    25292843.399 7 107022300.89507      -354.028 7        42.106
R16        27.000    22923495.255 7 122453203.65607      2064.884 7        45.341                                                                    22923494.610 6  95241381.17206      1606.026 6        40.722
R21        29.000    21966975.648 7 117549724.71807     -4773.053 7        46.292                                                                    21966975.296 7  91427565.65307     -3712.334 7        43.031
E19        30.000    23339723.183 7 122651105.53807      1007.407 7        44.000                                                                    23339720.629 7  91590113.45107       752.299 7        44.856    23339720.809 7  93979417.53507       772.015 7        46.587
C23        31.000                                                                                                                                    25607778.228 7 133346424.20707      1811.681 7        42.436                                                                    25607770.078 7 108354858.63707      1472.219 7        43.234
R23        32.000    21005032.983 7 112362778.84207      2530.105 7        47.690
E29        33.000    23595641.032 8 123996014.72108     -1466.157 8        48.043                                                                    23595638.852 8  92594441.90808     -1094.818 8        50.890    23595638.850 8  95009943.54208     -1123.376 8        51.997
E04        34.000    28116134.522 6 147751294.17206      2487.865 6        38.288                                                                    28116134.209 6 110333762.22306      1857.863 6        39.757    28116133.806 6 113212030.65906      1906.479 6        40.539
C16        35.000                                                                                                                                    38639314.362 7 201205079.59607      -598.572 7        43.122    38639313.278 7 155584542.98507      -462.877 7        43.941    38639311.066 6 163495608.92206      -486.214 6        39.901
C32        36.000                                                                                                                                    21940418.820 8 114249575.56008     -1411.574 8        51.175                                                                    21940418.407 8  92837160.15908     -1146.887 8        50.283
I01        37.000   377781616.328 7 179355400.12907     -2660.393 7        42.954
E07        38.000    27474490.068 6 144379431.97606     -3275.844 6        37.611                                                                    27474490.256 6 107815846.14006     -2446.316 6        41.962    27474489.657 7 110628425.97207     -2510.145 7        42.372
C41        39.000                                                                                                                                    25543050.527 6 133009393.20306     -3256.375 6        41.533                                                                    25543055.860 7 108081055.44707     -2645.922 7        43.562
C39        40.000                                                                                                                                    38969291.590 7 202923357.48807     -1026.239 7        43.316                                                                    38969287.739 7 164891845.70307      -833.820 7        42.912
E33        41.000    23824857.636 8 125200560.12408     -2150.847 8        48.569                                                                    23824855.226 8  93493958.11608     -1606.168 8        50.104    23824854.965 8  95932926.81908     -1648.015 8        50.996
S44        42.000    40547772.467 6 213080188.34906      -554.287 6        37.074
R06        43.000    20437974.517 6 109061012.68906     -3065.184 6        40.105
C05        44.000                                                                                                                                    39028922.088 6 203233884.88106      -489.293 6        38.541    39028916.899 7 157153357.62907      -378.116 7        43.346    39028919.215 6 165144283.88406      -397.425 6        40.157
C29        45.000                                                                                                                                    22849608.771 8 118983931.75808       -30.891 8        48.417                                                                    22849606.301 7  96684189.14807       -24.932 7        47.793
G04        46.000    20355245.172 8 106967569.21408      1018.250 8        48.302                                    20355241.299 6  83351338.99706       793.441 6        39.568    20355241.501 7  83351340.99107       793.456 7        47.088
R22        48.000    19343426.849 8 103256557.06408     -1192.709 8        52.482                                                                    19343424.447 8  80310653.76708      -927.634 8        48.217
C20        49.000                                                                                                                                    23090400.124 8 120237799.49008      1464.574 8        49.789                                                                    23090394.330 8  97703045.20508      1190.209 8        48.065
C06        50.000                                                                                                                                    38164290.047 6 198731506.47406      -494.244 6        41.147    38164284.329 7 153671790.43607      -382.019 7        45.248    38164284.280 7 161485608.67407      -401.399 7        42.055
S48        51.000    77092806.661 6 405126206.06106      -472.004 6        37.822
G21        52.000    24302958.338 6 127712971.91906     -3715.001 6        38.303                                    24302953.246 3  99516621.44203     -2894.807 3        20.810
C09        53.000                                                                                                                                    38506023.855 7 200510989.42407        17.560 7        42.284    38506020.100 7 155047806.29707        13.641 7        46.667    38506018.189 7 162931582.73507        14.539 7        42.165
C60        54.000                                                                                                                                    40547774.343 6 211143115.26606      -549.046 6        39.255                                                                    40547757.939 6 171571048.62506      -446.004 6        40.365
C02        57.000                                                                                                                                    40501365.465 5 210901298.43205      -534.965 5        35.295    40501358.255 6 163082259.09606      -413.498 6        40.276    40501362.002 6 171374586.45106      -434.417 6        36.628
I03        58.000   102802610.461 6 327634297.61506       893.369 6        41.678
R07        59.000    19293291.042 8 103278561.04708        48.018 8        52.329                                                                    19293288.611 7  80327823.29607        37.333 7        47.732
> 2025 01 02 02 00 10.0000000  0 54
G09         1.000    21888168.509 7 115023131.03407      2488.563 7        45.503                                    21888166.123 7  89628418.34907      1939.139 7        45.422    21888165.943 7  89628418.34207      1939.136 7        42.311
G06         2.000    23309972.576 6 122494748.94306      2721.917 6        41.762                                    23309971.217 6  95450457.74706      2120.971 6        38.336    23309971.292 6  95450465.73906      2121.105 6        40.629
E11         3.000    27869423.004 5 146454813.81705      2440.400 5        35.071                                                                    27869419.491 6 109365595.45906      1822.678 6        37.096    27869419.053 6 112218607.50906      1870.082 6        38.012
R15         4.000    23149021.882 7 123701360.18407     -1153.230 7        44.712                                                                    23149021.139 6  96212155.85206      -897.019 6        39.547
S21         5.000    38342491.185 6 201490889.74906      -476.488 6        41.852
E10         6.000    25590250.776 7 134477683.31807      1856.366 7        43.564                                                                    25590249.365 7 100421642.95707      1386.240 7        47.005    25590249.349 7 103041337.51207      1422.339 7        47.909
G28         7.000    23613578.417 6 124090204.66806     -2413.284 6        40.675                                    23613573.300 4  96693648.83204     -1880.490 4        26.072    23613574.455 6  96693656.82306     -1880.385 6        40.319
G03         8.000    19979617.441 8 104993697.31908     -1278.302 8        50.459                                    19979615.223 8  81813312.40208      -996.079 8        52.058    19979615.597 7  81813310.39607      -996.021 7        45.765
G02         9.000    22572656.700 7 118620159.69707     -3385.164 7        46.068                                    22572650.300 5  92431287.15905     -2637.788 5        34.267
G31        10.000    22119256.192 7 116237485.42407      -733.574 7        45.210                                    22119251.079 7  90574648.26607      -571.615 7        42.241    22119251.255 6  90574653.26306      -571.599 6        41.418
C30        11.000                                                                                                                                    23302588.547 8 121342705.55908     -3121.571 8        48.187                                                                    23302588.563 7  98600890.43807     -2536.461 7        46.736
S27        12.000    38974829.167 6 204814112.63306      -466.639 6        36.000
E02        13.000    28658683.663 5 150602409.93005      -526.169 5        35.762                                                                    28658682.652 6 112462826.74506      -392.961 6        37.887    28658682.175 6 115396638.31906      -403.232 6        39.625
S36        14.000    38109881.797 7 200269273.39807      -476.740 7        44.349
I09        15.000    37157922.384 7 145815669.36607      -539.740 7        43.594
G19        16.000    22188329.511 7 116600478.13107      -556.974 7        44.403                                    22188322.778 5  90857499.10405      -434.006 5        32.162
S45        17.000    63304885.475 6 332670976.28906      -516.621 6        37.346
E12        19.000    24252783.053 7 127449243.68807       830.470 7        44.506                                                                    24252779.098 7  95173125.29207       620.195 7        47.737    24252779.069 8  97655901.92908       636.385 8        48.458
G17        20.000    22688125.734 7 119226930.67507     -2255.003 7        45.988                                    22688120.740 6  92904092.39206     -1757.145 6        41.244    22688120.974 6  92904091.39806     -1757.230 6        40.534
E26        21.000    27618142.987 6 145134661.32506     -3494.610 6        38.501                                                                    27618141.432 6 108379973.95306     -2609.601 6        41.533    27618141.391 7 111207253.48507     -2677.658 7        43.570
I06        22.000    38009571.132 7 149157961.20807      -271.845 7        43.022
S28        23.000    40778243.301 5 214291116.33305      -470.526 5        34.548
R08        24.000    22066563.011 8 118165477.37908      2669.662 8        48.369                                                                    22066561.085 7  91906485.20207      2076.437 7        42.665
S23        25.000    38057057.013 7 199991172.12807      -472.586 7        44.817
C25        26.000                                                                                                                                    25293265.640 7 131708668.13807      -438.466 7        42.292                                                                    25293263.334 6 107024077.40706      -356.316 6        41.986
R16        27.000    22921563.504 7 122442886.36807      2062.093 7        45.199                                                                    22921563.217 6  95233356.61506      1603.896 6        41.137
R21        29.000    21971437.091 7 117573594.18907     -4774.534 7        47.299                                                                    21971435.556 7  91446130.78307     -3713.490 7        43.257
E19        30.000    23338765.465 7 122646072.85007      1005.852 7        44.069                                                                    23338762.875 7  91586355.27307       751.091 7        45.126    23338763.045 7  93975561.32407       770.644 7        46.662
C23        31.000                                                                                                                                    25606039.507 7 133337369.05707      1810.439 7        43.046                                                                    25606031.137 7 108347500.58707      1471.201 7        43.376
R23        32.000    21002670.366 7 112350136.47407      2527.052 7        47.741
E29        33.000    23597036.821 7 124003349.74207     -1467.732 7        47.971                                                                    23597034.646 8  92599919.35008     -1096.024 8        50.946    23597034.583 8  95015563.87808     -1124.623 8        52.056
E04        34.000    28113767.502 6 147738855.77406      2487.537 6        37.917                                                                    28113767.153 6 110324473.82306      1857.662 6        39.913    28113766.900 6 113202499.94806      1906.220 6        40.570
C16        35.000                                                                                                                                    38639889.216 7 201208074.48307      -599.215 7        43.264    38639888.242 7 155586858.83407      -463.407 7        43.877    38639886.217 6 163498042.50806      -486.868 6        39.832
C32        36.000                                                                                                                                    21941774.719 8 114256637.01008     -1412.894 8        51.323                                                                    21941774.492 8  92842898.15708     -1148.073 8        50.257
I01        37.000   377785006.413 7 179368702.69907     -2660.515 7        43.088
E07        38.000    27477607.213 6 144395812.25806     -3275.980 6        37.577                                                                    27477607.266 6 107828078.15306     -2446.377 6        41.821    27477606.637 7 110640977.07707     -2510.171 7        42.364
C41        39.000                                                                                                                                    25546177.207 6 133025675.58606     -3256.337 6        41.757                                                                    25546182.879 7 108094286.20007     -2646.107 7        43.678
C39        40.000                                                                                                                                    38970277.350 7 202928490.85607     -1026.825 7        43.443                                                                    38970273.476 7 164896016.97607      -834.384 7        42.971
E33        41.000    23826904.865 8 125211319.02408     -2152.480 8        48.613                                                                    23826902.547 8  93501992.35208     -1607.378 8        50.109    23826902.266 8  95941170.64708     -1649.316 8        51.184
S44        42.000    40548296.997 6 213082958.69606      -553.937 6        36.896
R06        43.000    20440847.523 6 109076342.99906     -3066.609 6        40.336
C05        44.000                                                                                                                                    39029391.761 6 203236330.68506      -489.104 6        38.784    39029386.705 7 157155248.89307      -378.230 7        43.386    39029388.842 6 165146271.28306      -397.346 6        40.153
C29        45.000                                                                                                                                    22849639.925 8 118984093.21108       -33.577 8        48.676                                                                    22849637.314 7  96684320.33507       -27.239 7        47.803
G04        46.000    20354277.363 8 106962484.32808      1015.787 8        48.208                                    20354273.675 6  83347376.75006       791.521 6        39.432    20354273.766 7  83347378.74907       791.557 7        46.932
R22        48.000    19344546.074 8 103262531.80408     -1197.061 8        52.365                                                                    19344543.977 8  80315300.78308      -931.044 8        48.493
C20        49.000                                                                                                                                    23088994.524 8 120230480.03008      1463.389 8        49.935                                                                    23088988.683 8  97697097.52708      1189.206 8        48.086
C06        50.000                                                                                                                                    38164765.280 6 198733979.00806      -494.748 6        41.495    38164759.259 7 153673702.35507      -382.574 7        45.044    38164759.107 7 161487617.80407      -401.986 7        42.089
S48        51.000    77093252.625 6 405128565.93206      -471.805 6        37.626
G21        52.000    24306493.665 6 127731549.01806     -3715.500 6        38.108                                    24306488.059 3  99531097.11103     -2895.203 3        20.619
C09        53.000                                                                                                                                    38506007.034 7 200510903.49207        16.969 7        42.415    38506003.803 7 155047739.85107        13.083 7        46.782    38506001.617 7 162931512.91407        13.833 7        42.241
C60        54.000                                                                                                                                    40548301.597 6 211145860.44106      -548.868 6        39.258                                                                    40548285.022 6 171573279.31106      -445.951 6        40.417
C02        57.000                                                                                                                                    40501878.593 5 210903972.11505      -534.686 5        35.205    40501871.508 6 163084326.57006      -413.369 6        40.350    40501875.375 6 171376759.03506      -434.519 6        36.473
I03        58.000   102801472.434 6 327629831.15306       893.390 6        41.681
R07        59.000    19293247.983 8 103278328.01208        45.371 8        52.380                                                                    19293245.371 7  80327642.03307        35.302 7        47.472
> 2025 01 02 02 00 15.0000000  0 54
G09         1.000    21885802.177 7 115010693.60607      2486.518 7        45.651                                    21885799.333 7  89618726.85307      1937.547 7        45.464    21885799.483 7  89618726.85707      1937.515 7        42.466
G06         2.000    23307383.192 7 122481143.08107      2720.475 7        42.140                                    23307382.130 6  95439855.77406      2119.852 6        38.450    23307383.119 6  95439863.77506      2119.777 6        40.713
E11         3.000    27867101.130 5 146442612.58505      2440.138 5        34.976                                                                    27867097.682 6 109356484.16406      1822.347 6        37.100    27867097.255 6 112209258.52906      1869.659 6        38.216
R15         4.000    23150102.034 7 123707138.00907     -1157.737 7        44.328                                                                    23150102.784 6  96216649.72606      -900.449 6        40.014
S21         5.000    38342949.687 7 201493272.92507      -476.812 7        42.229
E10         6.000    25588485.089 7 134468405.12407      1855.102 7        43.608                                                                    25588483.776 7 100414714.43507      1385.230 7        46.924    25588483.729 7 103034228.24107      1421.426 7        47.993
G28         7.000    23615875.978 6 124102277.91606     -2416.084 6        40.927                                    23615870.824 4  96703056.55604     -1882.658 4        26.108    23615871.634 6  96703064.55406     -1882.623 6        40.808
G03         8.000    19980834.914 8 105000094.55608     -1280.541 8        50.432                                    19980832.586 8  81818297.26008      -997.823 8        52.138    19980833.269 7  81818295.25607      -997.776 7        45.980
G02         9.000    22575878.793 7 118637090.00507     -3386.999 7        46.360                                    22575872.024 5  92444479.60605     -2639.220 5        34.362
G31        10.000    22119956.283 7 116241163.19807      -737.472 7        45.598                                    22119950.879 7  90577514.06007      -574.652 7        42.271    22119951.277 6  90577519.05606      -574.705 6        41.707
C30        11.000                                                                                                                                    23305586.820 8 121358318.72408     -3123.607 8        48.327                                                                    23305586.943 7  98613577.40907     -2538.195 7        46.660
S27        12.000    38975275.117 6 204816446.94406      -466.931 6        36.223
E02        13.000    28659185.119 5 150605047.64305      -528.807 5        35.829                                                                    28659184.528 6 112464796.45406      -394.765 6        38.153    28659184.064 6 115398659.42706      -405.191 6        40.069
S36        14.000    38110331.732 7 200271657.13807      -476.827 7        44.345
I09        15.000    37158610.181 7 145818369.00807      -540.136 7        43.573
G19        16.000    22188861.182 7 116603272.83007      -560.811 7        44.491                                    22188854.566 5  90859676.78805      -436.998 5        32.257
S45        17.000    63305333.746 6 332671860.59916      -516.883 6        37.463
E12        19.000    24251993.824 7 127445096.29907       828.446 7        44.512                                                                    24251989.887 7  95170028.22207       618.645 7        47.761    24251989.821 8  97652724.05908       634.840 8        48.520
G17        20.000    22690272.597 7 119238212.77407     -2257.598 7        44.932                                    22690267.656 6  92912883.63406     -1759.162 6        41.263    22690268.062 6  92912882.63406     -1759.202 6        40.184
E26        21.000    27621468.668 6 145152136.29806     -3495.368 6        38.114                                                                    27621467.050 6 108393023.45106     -2610.240 6        41.549    27621466.751 7 111220643.40207     -2678.201 7        43.517
I06        22.000    38009917.975 7 149159321.57707      -272.200 7        43.101
S28        23.000    40778691.934 5 214293470.22905      -470.952 5        34.848
R08        24.000    22064071.813 8 118152133.57008      2667.955 8        48.697                                                                    22064069.046 7  91896106.66507      2075.126 7        42.641
S23        25.000    38057505.763 7 199993535.73007      -472.757 7        44.945
C25        26.000                                                                                                                                    25293687.666 7 131710867.91707      -441.404 7        42.174                                                                    25293685.833 6 107025864.88306      -358.777 6        41.943
R16        27.000    22919634.614 7 122432584.18507      2058.862 7        45.148                                                                    22919634.649 6  95225343.81606      1601.288 6        41.654
R21        29.000    21975900.175 7 117597472.06907     -4776.508 7        47.705                                                                    21975897.739 7  91464702.45707     -3714.992 7        43.462
E19        30.000    23337809.566 7 122641048.97507      1003.783 7        43.977                                                                    23337806.955 7  91582603.67807       749.589 7        44.971    23337807.097 7  93971711.85407       769.202 7        46.738
C23        31.000                                                                                                                                    25604302.166 7 133328321.11607      1808.765 7        42.986                                                                    25604293.458 7 108340148.38207      1469.787 7        43.302
R23        32.000    21000309.490 7 112337509.75607      2523.704 7        47.804
E29        33.000    23598434.177 7 124010693.39707     -1469.673 7        47.836                                                                    23598432.094 8  92605403.25208     -1097.479 8        50.920    23598432.107 8  95021190.83608     -1126.133 8        52.080
E04        34.000    28111400.479 6 147726419.18606      2487.047 6        38.153                                                                    28111400.496 6 110315186.76406      1857.309 6        39.649    28111400.138 6 113192970.63306      1905.629 6        40.727
C16        35.000                                                                                                                                    38640464.926 7 201211073.52307      -600.364 7        42.961    38640464.113 7 155589177.88607      -464.166 7        43.945    38640462.157 6 163500479.47506      -487.792 6        39.916
C32        36.000                                                                                                                                    21943132.130 8 114263705.88908     -1414.582 8        51.194                                                                    21943131.993 8  92848642.18908     -1149.544 8        50.187
I01        37.000   377788396.631 7 179382005.86607     -2660.834 7        43.118
E07        38.000    27480724.620 6 144412194.01006     -3276.569 6        37.664                                                                    27480724.637 6 107840311.28006     -2446.743 6        41.795    27480724.002 7 110653529.33207     -2510.702 7        42.250
C41        39.000                                                                                                                                    25549304.062 6 133041958.88706     -3256.825 6        41.950                                                                    25549309.947 7 108107517.70707     -2646.561 7        43.685
C39        40.000                                                                                                                                    38971263.798 7 202933627.97307     -1027.912 7        43.369                                                                    38971260.037 7 164900191.29007      -835.237 7        42.948
E33        41.000    23828953.821 8 125222086.99608     -2154.607 8        48.351                                                                    23828951.643 8  93510033.37708     -1608.956 8        50.104    23828951.392 8  95949421.43208     -1650.924 8        51.194
S44        42.000    40548826.563 6 213085729.12406      -554.095 6        37.263
R06        43.000    20443721.746 6 109091681.10206     -3068.490 6        40.648
C05        44.000                                                                                                                                    39029861.580 6 203238776.64406      -489.276 6        38.631    39029856.601 7 157157140.25907      -378.350 7        43.382    39029858.528 6 165148258.81706      -397.609 6        40.179
C29        45.000                                                                                                                                    22849673.769 8 118984268.95008       -36.728 8        48.538                                                                    22849671.045 7  96684463.12807       -29.852 7        47.788
G04        46.000    20353312.073 8 106957412.50208      1013.018 8        48.061                                    20353308.547 6  83343424.68006       789.366 6        39.510    20353308.851 7  83343426.67607       789.315 7        47.113
R22        48.000    19345669.728 8 103268528.82008     -1201.675 8        52.410                                                                    19345667.765 8  80319965.13708      -934.667 8        48.776
C20        49.000                                                                                                                                    23087590.081 8 120223167.03208      1461.859 8        49.446                                                                    23087584.306 8  97691155.11108      1187.841 8        48.035
C06        50.000                                                                                                                                    38165240.943 6 198736455.89406      -495.934 6        41.361    38165234.845 7 153675617.64707      -383.527 7        45.010    38165234.832 7 161489630.47207      -403.036 7        42.135
S48        51.000    77093700.163 6 405130925.75306      -472.118 6        37.716
G21        52.000    24310029.063 6 127750128.85906     -3716.240 6        37.860                                    24310023.315 3  99545574.92303     -2895.764 3        20.595
C09        53.000                                                                                                                                    38505991.182 7 200510821.82907        15.866 7        42.197    38505988.107 7 155047676.69907        12.303 7        46.886    38505985.990 7 162931446.53407        12.799 7        42.205
C60        54.000                                                                                                                                    40548828.765 6 211148605.70306      -549.334 6        39.264                                                                    40548812.240 6 171575510.03606      -446.335 6        40.315
C02        57.000                                                                                                                                    40502392.262 5 210906645.94205      -534.845 5        34.895    40502385.203 6 163086394.13806      -413.586 6        40.489    40502389.111 6 171378931.71406      -434.669 6        36.582
I03        58.000   102800334.043 6 327625364.91406       893.063 6        41.638
R07        59.000    19293206.692 8 103278108.57508        42.364 8        52.424                                                                    19293204.377 7  80327471.36207        32.967 7        47.726
> 2025 01 02 02 00 20.0000000  0 54
G09         1.000    21883436.972 7 114998264.91107      2484.942 7        45.880                                    21883434.180 7  89609042.15507      1936.316 7        45.487    21883434.706 7  89609042.16207      1936.317 7        42.070
G06         2.000    23304795.535 6 122467543.59406      2719.415 6        41.840                                    23304794.241 6  95429258.77506      2119.025 6        38.393    23304795.004 6  95429266.76906      2119.010 6        40.315
E11         3.000    27864779.861 5 146430412.77905      2440.028 5        35.048                                                                    27864775.818 6 109347373.93506      1821.800 6        37.388    27864775.575 6 112199910.64206      1869.403 6        38.135
R15         4.000    23151187.989 7 123712936.88707     -1161.916 7        44.861                                                                    23151188.048 6  96221159.97006      -903.829 6        40.172
S21         5.000    38343396.322 7 201495656.53607      -476.846 7        42.004
E10         6.000    25586720.709 7 134459132.54407      1853.948 7        43.611                                                                    25586719.285 7 100407790.10307      1384.483 7        46.953    25586719.240 7 103027123.27607      1420.565 7        47.914
G28         7.000    23618175.811 6 124114365.52006     -2418.761 6        40.729                                    23618171.018 4  96712475.46804     -1884.759 4        26.287    23618171.586 6  96712483.47506     -1884.864 6        40.810
G03         8.000    19982054.208 8 105006502.03508     -1282.486 8        50.204                                    19982051.890 8  81823290.09808      -999.339 8        52.171    19982052.470 7  81823288.09707      -999.354 7        45.702
G02         9.000    22579101.816 7 118654028.38707     -3388.424 7        46.133                                    22579095.223 5  92457678.34705     -2640.331 5        34.348
G31        10.000    22120659.741 7 116244859.48107      -741.056 7        45.827                                    22120654.194 7  90580394.28107      -577.445 7        42.292    22120654.416 6  90580399.29406      -577.492 6        41.266
C30        11.000                                                                                                                                    23308587.214 8 121373940.94408     -3125.290 8        48.069                                                                    23308587.089 7  98626271.76607     -2539.636 7        46.665
S27        12.000    38975722.047 6 204818781.72606      -466.932 6        36.038
E02        13.000    28659689.470 6 150607697.42606      -531.158 6        36.132                                                                    28659688.773 6 112466775.23106      -396.713 6        38.042    28659688.414 6 115400689.80506      -406.939 6        39.778
S36        14.000    38110789.452 7 200274040.92907      -476.569 7        44.221
I09        15.000    37159298.499 7 145821069.62507      -540.226 7        43.676
G19        16.000    22189396.148 7 116606085.73407      -564.331 7        44.044                                    22189389.860 5  90861868.66405      -439.734 5        32.341
S45        17.000    63305782.335 6 332674445.28906      -516.902 6        37.766
E12        19.000    24251206.112 7 127440957.87507       826.829 7        44.188                                                                    24251202.311 7  95166937.84907       617.397 7        47.770    24251202.319 8  97649553.06308       633.578 8        48.437
G17        20.000    22692421.413 7 119249506.99407     -2260.031 7        45.466                                    22692416.865 6  92921684.31706     -1761.063 6        41.294    22692417.065 6  92921683.32006     -1761.077 6        40.365
E26        21.000    27624794.211 6 145169614.15606     -3495.884 6        38.111                                                                    27624792.780 6 108406075.10206     -2610.597 6        41.418    27624792.742 7 111234035.53407     -2678.629 7        43.386
I06        22.000    38010264.494 7 149160682.34007      -272.165 7        43.041
S28        23.000    40779139.785 5 214295824.66005      -471.076 5        34.619
R08        24.000    22061581.370 8 118138797.52508      2666.478 8        48.124                                                                    22061578.615 7  91885734.20407      2073.946 7        43.242
S23        25.000    38057955.854 7 199995899.61507      -472.669 7        45.071
C25        26.000                                                                                                                                    25294112.856 7 131713081.51707      -444.042 7        42.737                                                                    25294110.889 6 107027663.65206      -360.857 6        41.993
R16        27.000    22917708.865 7 122422297.44607      2055.856 7        44.835                                                                    22917709.141 7  95217343.02607      1599.023 7        42.072
R21        29.000    21980362.691 7 117621358.68707     -4778.123 7        47.160                                                                    21980361.262 7  91483280.94107     -3716.294 7        43.513
E19        30.000    23336855.280 7 122636034.29207      1002.109 7        43.977                                                                    23336852.642 7  91578858.94607       748.256 7        45.001    23336852.858 7  93967869.44407       767.801 7        46.585
C23        31.000                                                                                                                                    25602566.317 7 133319280.70207      1807.235 7        43.513                                                                    25602557.337 7 108332802.32807      1468.631 7        43.407
R23        32.000    20997951.916 7 112324898.75007      2520.773 7        47.473
E29        33.000    23599833.475 7 124018046.03407     -1471.407 7        47.878                                                                    23599831.284 8  92610893.85608     -1098.751 8        50.908    23599831.243 8  95026824.67508     -1127.413 8        51.978
