     3.04           OBSERVATION DATA    M                   RINEX VERSION / TYPE
ssrcrin-15.6.1x                         20250102 233000 UTC PGM / RUN BY / DATE 
(00000000023479385599111004) Septentrio proprietary         COMMENT             
rref                                                        MARKER NAME         
01                                                          MARKER NUMBER       
geodetic                                                    MARKER TYPE         
NFB                 CLIMERS@TUW                             OBSERVER / AGENCY   
3297213             SEPT ASTERX SB3 PROB4.14.4              REC # / TYPE / VERS 
Unknown             Unknown                                 ANT # / TYPE        
  4127831.9810  1207193.3304  4695247.8836                  APPROX POSITION XYZ 
        0.0000        0.0000        0.0000                  ANTENNA: DELTA H/E/N
G   23 X1  C1C L1C D1C S1C C1W S1W C2W L2W D2W S2W C2L L2L  SYS / # / OBS TYPES 
       D2L S2L C5Q L5Q D5Q S5Q C1L L1L D1L S1L              SYS / # / OBS TYPES 
E   21 X1  C1C L1C D1C S1C C6C L6C D6C S6C C5Q L5Q D5Q S5Q  SYS / # / OBS TYPES 
       C7Q L7Q D7Q S7Q C8Q L8Q D8Q S8Q                      SYS / # / OBS TYPES 
S    9 X1  C1C L1C D1C S1C C5I L5I D5I S5I                  SYS / # / OBS TYPES 
R   17 X1  C1C L1C D1C S1C C2P L2P D2P S2P C2C L2C D2C S2C  SYS / # / OBS TYPES 
       C3Q L3Q D3Q S3Q                                      SYS / # / OBS TYPES 
C   25 X1  C1P L1P D1P S1P C5P L5P D5P S5P C2I L2I D2I S2I  SYS / # / OBS TYPES 
       C7I L7I D7I S7I C6I L6I D6I S6I C7D L7D D7D S7D      SYS / # / OBS TYPES 
J   17 X1  C1C L1C D1C S1C C2L L2L D2L S2L C5Q L5Q D5Q S5Q  SYS / # / OBS TYPES 
       C1L L1L D1L S1L                                      SYS / # / OBS TYPES 
I    5 X1  C5A L5A D5A S5A                                  SYS / # / OBS TYPES 
SEPTENTRIO RECEIVERS OUTPUT ALIGNED CARRIER PHASES.         COMMENT             
NO FURTHER PHASE SHIFT APPLIED IN THE RINEX ENCODER.        COMMENT             
G L1C                                                       SYS / PHASE SHIFT   
G L2W                                                       SYS / PHASE SHIFT   
G L2L  0.00000                                              SYS / PHASE SHIFT   
G L5Q  0.00000                                              SYS / PHASE SHIFT   
G L1L  0.00000                                              SYS / PHASE SHIFT   
E L1C  0.00000                                              SYS / PHASE SHIFT   
E L6C  0.00000                                              SYS / PHASE SHIFT   
E L5Q  0.00000                                              SYS / PHASE SHIFT   
E L7Q  0.00000                                              SYS / PHASE SHIFT   
E L8Q  0.00000                                              SYS / PHASE SHIFT   
S L1C                                                       SYS / PHASE SHIFT   
S L5I                                                       SYS / PHASE SHIFT   
R L1C                                                       SYS / PHASE SHIFT   
R L2P  0.00000                                              SYS / PHASE SHIFT   
R L2C                                                       SYS / PHASE SHIFT   
R L3Q  0.00000                                              SYS / PHASE SHIFT   
C L1P  0.00000                                              SYS / PHASE SHIFT   
C L5P  0.00000                                              SYS / PHASE SHIFT   
C L2I                                                       SYS / PHASE SHIFT   
C L7I                                                       SYS / PHASE SHIFT   
C L6I                                                       SYS / PHASE SHIFT   
C L7D                                                       SYS / PHASE SHIFT   
J L1C                                                       SYS / PHASE SHIFT   
J L2L  0.00000                                              SYS / PHASE SHIFT   
J L5Q  0.00000                                              SYS / PHASE SHIFT   
J L1L  0.00000                                              SYS / PHASE SHIFT   
I L5A                                                       SYS / PHASE SHIFT   
  2025     1     2    23    30    0.0000000     GPS         TIME OF FIRST OBS   
 C1C    0.000 C2C    0.000 C2P    0.000                     GLONASS COD/PHS/BIS 
DBHZ                                                        SIGNAL STRENGTH UNIT
    18                                                      LEAP SECONDS        
 24 R01  1 R02 -4 R03  5 R04  6 R05  1 R06 -4 R07  5 R08  6 GLONASS SLOT / FRQ #
    R09 -2 R10 -7 R11  0 R12 -1 R13 -2 R14 -7 R15  0 R16 -1 GLONASS SLOT / FRQ #
    R17  4 R18 -3 R19  3 R20  2 R21  4 R22 -3 R23  3 R24  2 GLONASS SLOT / FRQ #
                                                            END OF HEADER       
> 2025 01 02 23 30  0.0000000  0 52
G28         1.000    24797893.450 6 130313808.85006      2459.096 6        38.652                                    24797890.492 3 101543215.80103      1916.162 3        22.438    24797889.941 6 101543216.79706      1916.259 6        39.538
E08         2.000    26132703.758 7 137328302.54507      2745.877 7        42.417                                                                    26132701.981 7 102550358.86807      2050.562 7        45.147    26132701.721 7 105225584.73707      2104.055 7        46.252
G21         4.000    20685280.538 7 108701949.65707     -1053.167 7        44.536                                    20685274.971 6  84702824.44106      -820.649 6        37.868
S21         5.000    38372011.522 7 201645920.16307      -293.646 7        42.482
E13         6.000    24840400.231 7 130537231.25807      1656.481 7        44.343                                                                    24840400.394 7  97479128.62307      1236.975 7        47.884    24840399.921 8 100022057.50608      1269.244 8        48.863
G10         7.000    24223588.739 6 127295883.28206     -3369.701 6        40.894                                    24223587.033 5  99191612.93505     -2625.743 5        34.305    24223587.679 6  99191606.94306     -2625.752 6        37.361
E15         8.000    23306428.150 8 122476220.92108      -644.408 8        48.060                                                                    23306428.225 8  91459585.54508      -481.217 8        51.135    23306427.597 8  93845475.43108      -493.762 8        51.569
G27        10.000    25360117.116 4                     -4162.948 4        24.737
G14        11.000    24144159.487 6 126878420.53806     -1724.713 6        38.913                                    24144157.047 3  98866294.22903     -1343.920 3        21.976    24144157.591 6  98866298.25206     -1343.849 6        38.664
G32        12.000    22145914.069 7 116377595.29007     -1831.803 7        47.547                                    22145911.770 7  90683841.64507     -1427.376 7        46.769    22145911.980 7  90683814.64707     -1427.409 7        43.600
G03        13.000    21595233.254 7 113483770.26807      2323.831 7        45.099                                    21595231.341 7  88428927.63207      1810.775 7        45.461    21595231.898 7  88428932.62407      1810.821 7        42.995
S36        14.000    38139699.063 7 200425996.95107      -292.936 7        43.797
C13        15.000                                                                                                                                    40606941.167 6 211451056.93306     -1067.107 6        36.760    40606942.932 6 163507404.18906      -825.245 6        38.538    40606941.315 6 171821327.00406      -867.344 6        37.599
G17        16.000    23814905.547 6 125148180.93606      2524.056 6        41.061                                    23814901.686 6  97518039.08106      1966.796 6        36.957    23814901.713 6  97518041.09906      1966.751 6        38.679
C16        17.000                                                                                                                                    39778785.842 6 207138590.09706      1136.023 6        39.766    39778785.157 6 160172703.80806       878.310 6        41.616    39778782.790 6 168317065.05206       922.963 6        37.297
E27        18.000    28194513.912 6 148163169.66406     -3123.775 6        36.968                                                                    28194515.813 6 110641325.89106     -2332.642 6        39.339    28194514.959 6 113527619.30906     -2393.493 6        40.253
E05        20.000    24415953.749 7 128306730.22107     -2105.220 7        42.074                                                                    24415953.323 7  95813472.95907     -1572.176 7        45.496    24415953.155 7  98312956.85707     -1613.051 7        46.093
C41        21.000                                                                                                                                    23435166.342 7 122033090.59907      2266.576 7        47.331                                                                    23435171.740 8  99161911.97208      1841.732 8        48.305
I06        22.000    38264768.561 7 150159406.82107      -112.294 7        42.565
E03        23.000    24064715.441 7 126460953.31407       645.321 7        46.993                                                                    24064714.894 8  94435157.40808       481.910 8        49.793    24064714.661 8  96898679.73808       494.474 8        50.653
R22        24.000    19483827.150 8 104006038.19708      1375.036 8        52.303                                                                    19483825.044 8  80893601.03008      1069.409 8        48.775
S23        25.000    38095013.732 7 200190634.07107      -290.901 7        44.506
S45        26.000    63342429.235 6 332867383.08006      -334.850 6        37.384
G02        27.000    20744533.836 8 109013315.57508       459.075 8        49.350                                    20744527.342 7  84945431.88507       357.722 7        42.882
S27        28.000    39033567.438 6 205122867.32006      -267.914 6        36.801
C39        29.000                                                                                                                                    39387472.351 7 205100922.01007       783.397 7        42.042                                                                    39387468.565 7 166661294.83307       636.497 7        42.406
E21        30.000    27209174.365 6 142985185.94006     -1848.719 6        39.814                                                                    27209174.331 6 106774658.20106     -1380.546 6        41.836    27209173.659 7 109560080.41907     -1416.452 7        42.827
C43        31.000                                                                                                                                    24874693.165 7 129529157.06707     -3499.919 7        43.137                                                                    24874692.110 7 105253091.53207     -2843.939 7        42.654
C42        32.000                                                                                                                                    24576021.934 7 127973818.16707     -3138.363 7        43.547                                                                    24576029.513 7 103989252.20407     -2550.162 7        45.535
C28        33.000                                                                                                                                    21448132.708 8 111686068.97208      -722.289 8        51.088                                                                    21448131.293 8  90754081.12208      -587.012 8        48.858
R13        34.000    24202901.925 6 129242142.82906     -3022.105 6        37.361
E34        35.000    26172208.109 6 137536082.45506     -2555.683 6        40.944                                                                    26172208.476 7 102705625.09607     -1908.364 7        45.428    26172208.556 7 105384891.28107     -1958.219 7        46.491
C14        36.000                                                                                                                                    22614584.425 7 117760092.53307     -2083.205 7        46.507    22614580.794 8  91059561.36808     -1610.815 8        51.403    22614579.468 8  95689700.02908     -1692.831 8        49.583
R21        37.000    20181444.361 8 107995041.59708     -2703.611 8        50.751                                                                    20181442.915 7  83996165.03107     -2102.941 7        45.604
R06        38.000    19482702.232 6 103963463.06806     -1807.639 6        40.274
R05        39.000    24111570.821 6 128890181.09906     -4610.435 6        40.827                                                                    24111570.071 6 100247926.19006     -3585.857 6        38.988
C27        40.000                                                                                                                                    22892937.548 7 119209573.87507      1876.289 7        47.785                                                                    22892936.181 7  96867559.46307      1524.646 7        47.430
C06        41.000                                                                                                                                    39500001.287 6 205686876.48006      1242.868 6        38.369    39499994.999 7 159050120.37007       961.096 7        43.007    39499994.687 6 167137413.14606      1009.854 6        39.234
S44        42.000    40461401.659 6 212626284.67306      -349.467 6        38.628
G08        43.000    22620289.459 7 118870514.31107     -3648.742 7        44.889                                    22620287.485 7  92626415.04807     -2843.178 7        42.209    22620288.879 6  92626413.05506     -2843.127 6        41.552
C05        44.000                                                                                                                                    39061106.890 6 203401473.94606      -268.843 6        38.144    39061101.790 7 157282947.48107      -207.877 7        43.699    39061103.350 6 165280463.24406      -218.380 6        40.193
C33        47.000                                                                                                                                    21799704.504 8 113516811.94308      -488.272 8        50.847                                                                    21799715.607 8  92241766.66108      -396.800 8        49.518
C09        48.000                                                                                                                                    40533422.283 6 211068171.94706      1477.584 6        38.027    40533419.117 7 163211288.47407      1142.481 7        43.196    40533417.145 6 171510156.89306      1200.598 6        38.081
R07        49.000    19801398.371 8 105998491.58008      2120.810 8        52.353                                                                    19801396.918 7  82443270.49207      1649.507 7        47.759
S48        51.000    77126212.610 6 405302380.42306      -306.907 6        37.263
R14        53.000    23766287.627 7 126687694.47307        88.061 7        43.551                                                                    23766287.181 6  98534812.94106        68.355 6        39.838
C60        54.000                                                                                                                                    40461400.691 6 210693337.92406      -346.180 6        40.698                                                                    40461384.192 6 171205566.61606      -281.307 6        40.195
R08        55.000    23594233.976 6 126346068.35706      4030.068 6        40.310                                                                    23594232.614 6  98269209.60606      3134.621 6        39.513
I09        56.000    37100733.704 7 145591288.34007       -83.304 7        43.185
C02        57.000                                                                                                                                    40460336.252 5 210687646.77605      -309.772 5        33.359    40460330.508 6 162917048.42306      -239.654 6        40.558    40460333.965 6 171200975.60206      -251.676 6        36.272
I03        58.000    76657832.626 6 225036567.19006      1101.879 6        40.679
R23        59.000    22724897.479 7 121562880.03007      3605.387 7        43.784
> 2025 01 02 23 30  5.0000000  0 52
G28         1.000    24795554.030 6 130301514.91106      2458.434 6        38.553                                    24795550.939 3 101533636.10203      1915.667 3        22.438    24795550.748 6 101533637.09606      1915.647 6        39.291
E08         2.000    26130091.643 7 137314574.77707      2745.199 7        42.529                                                                    26130089.485 7 102540107.62707      2049.960 7        45.091    26130089.353 7 105215066.07107      2103.496 7        46.360
G21         4.000    20686283.373 7 108707220.34907     -1054.904 7        44.837                                    20686277.933 6  84706931.47306      -822.000 6        37.781
S21         5.000    38372283.146 7 201647388.07107      -293.412 7        42.047
E13         6.000    24838824.637 7 130528950.44907      1656.112 7        44.536                                                                    24838824.551 7  97472944.90707      1236.639 7        47.878    24838824.159 8 100015712.47908      1268.886 8        48.880
G10         7.000    24226795.041 6 127312732.93406     -3370.082 6        41.187                                    24226793.432 5  99204742.52805     -2626.034 5        34.671    24226793.505 6  99204736.53306     -2626.127 6        37.149
E15         8.000    23307041.966 8 122479446.25008      -645.587 8        48.053                                                                    23307041.952 8  91461994.07108      -482.088 8        50.992    23307041.384 8  93847946.79108      -494.658 8        51.606
G27        10.000    25364080.342 4                     -4161.791 4        25.068
G14        11.000    24145802.110 6 126887050.00206     -1726.980 6        38.757                                    24145799.322 3  98873018.50003     -1345.692 3        21.476    24145799.564 6  98873022.49406     -1345.722 6        38.526
G32        12.000    22147658.458 7 116386760.87907     -1834.274 7        47.829                                    22147655.927 7  90690983.66107     -1429.307 7        46.643    22147656.216 7  90690956.65707     -1429.336 7        43.501
G03        13.000    21593022.952 7 113472154.63307      2322.491 7        45.285                                    21593020.960 7  88419876.49207      1809.732 7        45.348    21593021.647 7  88419881.48907      1809.809 7        43.340
S36        14.000    38139977.176 7 200427461.70107      -292.892 7        43.909
C13        15.000                                                                                                                                    40607966.411 6 211456392.38806     -1066.883 6        37.146    40607967.479 6 163511529.89506      -824.983 6        38.510    40607965.857 6 171825662.46306      -867.089 6        37.490
G17        16.000    23812505.060 7 125135564.58007      2522.752 7        42.108                                    23812500.827 6  97508208.15806      1965.782 6        36.953    23812500.925 6  97508210.17706      1965.542 6        38.805
C16        17.000                                                                                                                                    39777695.729 6 207132912.59606      1135.220 6        39.676    39777694.879 6 160168313.60606       877.900 6        41.540    39777692.546 6 168312451.59006       922.430 6        37.274
E27        18.000    28197486.019 6 148178788.27206     -3123.659 6        37.202                                                                    28197487.798 6 110652989.13806     -2332.593 6        39.360    28197486.852 6 113539586.80706     -2393.275 6        39.988
E05        20.000    24417957.748 6 128317261.33606     -2107.026 6        41.993                                                                    24417957.489 7  95821337.10007     -1573.442 7        45.232    24417957.196 7  98321026.15607     -1614.436 7        46.136
C41        21.000                                                                                                                                    23432991.017 7 122021761.52407      2265.118 7        47.554                                                                    23432996.090 8  99152706.14908      1840.556 8        48.470
I06        22.000    38264911.735 7 150159967.98207      -112.072 7        42.491
E03        23.000    24064102.603 7 126457732.38107       643.205 7        47.009                                                                    24064102.042 8  94432752.17008       480.316 8        49.696    24064101.705 8  96896211.75308       492.854 8        50.736
R22        24.000    19482540.609 8 103999170.22608      1372.463 8        52.495                                                                    19482538.248 8  80888259.27908      1067.350 8        49.080
S23        25.000    38095292.904 7 200192088.41107      -290.736 7        44.868
S45        26.000    63342704.151 6 332869057.27406      -334.794 6        37.599
G02        27.000    20744098.222 8 109011024.97708       457.382 8        49.626                                    20744091.449 7  84943647.00307       356.403 7        42.789
S27        28.000    39033821.069 6 205124207.14106      -267.969 6        36.155
C39        29.000                                                                                                                                    39386720.855 7 205097007.65107       782.557 7        42.144                                                                    39386716.918 7 166658114.08507       635.779 7        42.563
E21        30.000    27210933.730 6 142994433.86806     -1850.391 6        39.363                                                                    27210934.313 6 106781564.11106     -1381.692 6        41.707    27210933.623 7 109567166.49207     -1417.803 7        42.766
C43        31.000                                                                                                                                    24878054.150 7 129546658.15707     -3500.492 7        43.323                                                                    24878052.786 7 105267312.60207     -2844.376 7        42.497
C42        32.000                                                                                                                                    24579035.712 7 127989512.04907     -3139.016 7        43.936                                                                    24579043.480 7 104002004.75207     -2550.717 7        45.791
C28        33.000                                                                                                                                    21448827.543 8 111689686.76308      -724.594 8        51.149                                                                    21448826.061 8  90757020.85508      -588.844 8        48.991
R13        34.000    24205733.928 6 129257260.98006     -3024.497 6        38.114
E34        35.000    26174640.229 6 137548862.47106     -2556.223 6        41.344                                                                    26174640.530 7 102715168.60907     -1908.828 7        45.279    26174640.581 7 105394683.75407     -1958.683 7        46.620
C14        36.000                                                                                                                                    22616586.017 7 117770513.26307     -2084.901 7        46.618    22616581.353 8  91067619.34408     -1612.218 8        51.227    22616580.668 8  95698167.71308     -1694.165 8        49.686
R21        37.000    20183971.952 8 108008566.90208     -2706.380 8        51.104                                                                    20183970.758 7  84006684.68607     -2104.931 7        45.834
R06        38.000    19484397.907 6 103972509.99606     -1811.224 6        40.696
R05        39.000    24115882.971 6 128913233.78906     -4610.406 6        40.667                                                                    24115882.991 6 100265856.04806     -3585.855 6        39.550
C27        40.000                                                                                                                                    22891136.904 7 119200196.54707      1874.886 7        47.884                                                                    22891135.356 7  96859939.60007      1523.390 7        47.509
C06        41.000                                                                                                                                    39498808.379 6 205680663.46106      1242.393 6        38.730    39498801.685 7 159045316.08007       960.650 7        42.768    39498801.698 6 167132364.55306      1009.468 6        39.354
S44        42.000    40461732.147 6 212628031.76506      -349.224 6        38.685
G08        43.000    22623761.539 7 118888760.86107     -3649.787 7        44.575                                    22623759.745 7  92640633.13907     -2843.989 7        42.197    22623760.830 6  92640631.13206     -2843.979 6        41.828
C05        44.000                                                                                                                                    39061365.412 6 203402817.75606      -268.571 6        38.616    39061359.834 7 157283986.60407      -207.740 7        43.501    39061361.367 6 165281555.20006      -218.366 6        40.288
C33        47.000                                                                                                                                    21800174.568 8 113519259.58208      -490.564 8        51.069                                                                    21800185.634 8  92243755.55908      -398.706 8        49.712
C09        48.000                                                                                                                                    40532003.987 6 211060785.39506      1477.224 6        38.207    40532000.930 7 163205576.73507      1142.184 7        43.232    40531998.422 6 171504154.70906      1200.288 6        37.819
R07        49.000    19799419.253 8 105987896.06508      2117.523 8        52.687                                                                    19799417.727 7  82435029.53007      1646.924 7        47.534
S48        51.000    77126496.119 6 405303915.24706      -306.869 6        38.279
R14        53.000    23766207.047 7 126687264.74107        84.176 7        43.522                                                                    23766207.662 6  98534478.74006        65.332 6        40.479
C60        54.000                                                                                                                                    40461732.785 6 210695069.15406      -346.273 6        40.558                                                                    40461716.899 6 171206973.34706      -281.149 6        40.439
R08        55.000    23590470.313 6 126325919.17206      4029.605 6        40.501                                                                    23590469.932 6  98253538.05506      3134.074 6        39.520
I09        56.000    37100840.288 7 145591705.73807       -83.480 7        43.388
C02        57.000                                                                                                                                    40460634.398 5 210689195.48105      -309.541 5        33.467    40460628.041 6 162918245.99306      -239.379 6        40.651    40460631.524 6 171202234.05406      -251.640 6        36.548
I03        58.000    76656428.919 6 225031058.14206      1101.877 6        40.801
R23        59.000    22721526.455 7 121544854.50607      3605.068 7        42.626
> 2025 01 02 23 30 10.0000000  0 52
G28         1.000    24793215.979 6 130289225.81206      2457.259 6        38.517                                    24793212.357 3 101524060.18303      1914.747 3        22.324    24793211.765 6 101524061.17906      1914.694 6        38.826
E08         2.000    26127479.951 7 137300850.92107      2744.201 7        42.392                                                                    26127478.135 7 102529859.29107      2049.278 7        45.192    26127477.684 7 105204550.38807      2102.731 7        46.098
G21         4.000    20687288.246 7 108712499.84507     -1056.815 7        44.728                                    20687282.599 6  84711045.36506      -823.494 6        37.883
S21         5.000    38372563.883 7 201648855.72007      -293.554 7        42.102
E13         6.000    24837249.413 7 130520672.43807      1655.214 7        44.673                                                                    24837249.342 7  97466763.27307      1236.021 7        47.932    24837248.872 8 100009369.58208      1268.252 8        49.011
G10         7.000    24230002.097 6 127329583.62006     -3370.308 6        41.816                                    24229999.934 5  99217872.93005     -2626.209 5        34.952    24230000.566 6  99217866.91106     -2626.151 6        37.119
E15         8.000    23307656.842 8 122482677.75108      -646.997 8        48.041                                                                    23307656.884 8  91464407.20108      -483.115 8        51.073    23307656.279 8  93850422.87108      -495.756 8        51.694
G27        10.000    25368040.858 4                     -4163.519 4        26.156
G14        11.000    24147447.052 6 126895691.37906     -1729.350 6        39.018                                    24147443.793 3  98879752.03803     -1347.547 3        21.881    24147443.782 6  98879756.03506     -1347.745 6        37.569
G32        12.000    22149404.897 7 116395939.99607     -1837.235 7        47.586                                    22149402.645 7  90698136.21907     -1431.612 7        46.745    22149402.942 7  90698109.22207     -1431.673 7        43.594
G03        13.000    21590814.106 7 113460546.88007      2320.699 7        45.529                                    21590812.077 7  88410831.49207      1808.339 7        45.488    21590812.580 7  88410836.49507      1808.360 7        43.319
S36        14.000    38140254.045 7 200428926.21807      -293.008 7        43.790
C13        15.000                                                                                                                                    40608990.362 6 211461726.58506     -1066.678 6        37.735    40608991.814 6 163515654.68006      -824.926 6        38.868    40608990.353 6 171829996.99706      -867.053 6        37.055
G17        16.000    23810105.801 6 125122955.65806      2520.915 6        41.554                                    23810101.350 6  97498383.02206      1964.352 6        37.074    23810101.567 6  97498385.01506      1964.376 6        39.057
C16        17.000                                                                                                                                    39776606.123 6 207127238.56306      1134.443 6        39.670    39776605.443 6 160163926.08006       877.104 6        41.828    39776602.819 6 168307840.99906       921.661 6        37.418
E27        18.000    28200458.399 6 148194406.88206     -3123.847 6        37.440                                                                    28200459.866 6 110664652.37406     -2332.829 6        39.156    28200458.981 6 113551554.29906     -2393.479 6        40.081
E05        20.000    24419963.258 6 128327801.33006     -2108.884 6        41.795                                                                    24419963.214 7  95829207.87307     -1574.880 7        45.341    24419962.871 7  98329102.25307     -1615.960 7        46.170
C41        21.000                                                                                                                                    23430817.386 8 122010440.25308      2263.378 8        48.203                                                                    23430821.917 8  99143506.70608      1839.139 8        48.272
I06        22.000    38265054.571 7 150160528.90707      -112.214 7        42.474
E03        23.000    24063491.808 7 126454522.80007       640.736 7        47.096                                                                    24063491.249 8  94430355.40708       478.457 8        49.765    24063490.983 8  96893752.46908       490.877 8        50.778
R22        24.000    19481256.268 8 103992316.07608      1369.362 8        52.319                                                                    19481254.445 8  80882928.26508      1065.002 8        48.916
S23        25.000    38095573.078 7 200193542.56907      -290.837 7        44.635
S45        26.000    63342978.744 6 332870731.24806      -334.711 6        37.524
G02        27.000    20743664.017 8 109008743.24208       455.365 8        49.848                                    20743657.245 7  84941869.02807       354.829 7        42.882
S27        28.000    39034076.801 6 205125546.87006      -267.875 6        36.412
C39        29.000                                                                                                                                    39385970.171 7 205093097.66307       781.462 7        42.032                                                                    39385965.993 7 166654936.89607       635.014 7        42.239
E21        30.000    27212695.129 6 143003690.93206     -1852.378 6        39.483                                                                    27212695.791 6 106788476.87206     -1383.381 6        41.757    27212695.233 7 109574259.57607     -1419.372 7        42.900
C43        31.000                                                                                                                                    24881416.052 7 129564163.12007     -3501.522 7        42.825                                                                    24881414.428 7 105281536.83007     -2845.355 7        42.485
C42        32.000                                                                                                                                    24582050.596 7 128005210.13007     -3140.104 7        44.427                                                                    24582058.106 7 104014760.75607     -2551.717 7        45.628
C28        33.000                                                                                                                                    21449524.610 8 111693316.57608      -727.261 8        51.154                                                                    21449523.142 8  90759970.38108      -591.034 8        48.941
R13        34.000    24208568.670 6 129272391.25106     -3027.468 6        38.159
E34        35.000    26177072.629 6 137561645.81806     -2557.056 6        41.309                                                                    26177072.922 7 102724714.62607     -1909.566 7        45.210    26177073.134 7 105404478.79307     -1959.323 7        46.705
C14        36.000                                                                                                                                    22618589.512 7 117780943.09107     -2086.960 7        46.544    22618584.513 8  91075684.33208     -1613.743 8        51.525    22618583.599 8  95706642.80208     -1695.823 8        49.572
R21        37.000    20186501.639 8 108022106.42208     -2709.375 8        50.661                                                                    20186500.857 7  84017215.42307     -2107.319 7        45.989
R06        38.000    19486096.095 6 103981575.03806     -1814.772 6        40.412
R05        39.000    24120195.667 6 128936286.95006     -4610.828 6        41.404                                                                    24120195.868 6 100283786.27406     -3586.184 6        38.916
C27        40.000                                                                                                                                    22889337.665 7 119190827.14407      1872.983 7        47.686                                                                    22889336.063 7  96852326.19707      1521.914 7        47.437
C06        41.000                                                                                                                                    39497615.856 6 205674453.76706      1241.582 6        39.438    39497609.308 7 159040514.34907       960.037 7        42.861    39497608.974 6 167127318.67106      1008.766 6        39.159
S44        42.000    40462065.167 6 212629778.64306      -349.386 6        39.048
G08        43.000    22627234.897 7 118907013.50607     -3651.230 7        44.479                                    22627233.167 7  92654855.97507     -2845.115 7        42.237    22627233.835 6  92654853.97506     -2845.060 6        41.442
C05        44.000                                                                                                                                    39061623.179 6 203404161.38106      -268.809 6        38.607    39061617.927 7 157285025.55807      -207.870 7        43.619    39061619.653 6 165282647.00606      -218.612 6        40.462
C33        47.000                                                                                                                                    21800647.027 8 113521719.12708      -493.159 8        51.023                                                                    21800658.040 8  92245754.14308      -400.797 8        49.594
C09        48.000                                                                                                                                    40530586.246 6 211053400.80106      1476.663 6        38.147    40530582.752 7 163199866.50607      1141.959 7        43.340    40530580.131 6 171498154.13806      1199.812 6        37.698
R07        49.000    19797443.547 8 105977317.39008      2113.944 8        52.300                                                                    19797441.458 7  82426801.67907      1644.181 7        47.365
S48        51.000    77126772.953 6 405305449.68706      -306.927 6        37.883
R14        53.000    23766129.412 7 126686855.04307        79.882 7        44.429                                                                    23766130.839 6  98534160.09806        62.192 6        40.319
C60        54.000                                                                                                                                    40462064.732 6 210696800.15306      -346.387 6        40.365                                                                    40462049.481 6 171208379.93206      -281.334 6        40.412
R08        55.000    23586708.979 6 126305773.67306      4028.664 6        40.958                                                                    23586708.473 6  98237869.36006      3133.448 6        38.829
I09        56.000    37100947.140 7 145592124.04707       -83.891 7        43.481
C02        57.000                                                                                                                                    40460931.050 5 210690744.07305      -310.032 5        33.515    40460925.489 6 162919443.43306      -239.577 6        40.725    40460928.950 6 171203492.40506      -251.825 6        36.427
I03        58.000    76655025.239 6 225025549.08706      1101.860 6        40.911
R23        59.000    22718156.625 7 121526830.90207      3604.453 7        43.786
> 2025 01 02 23 30 15.0000000  0 52
G28         1.000    24790878.189 6 130276941.09406      2456.599 6        37.849                                    24790874.740 3 101514487.68703      1914.228 3        21.452    24790874.190 6 101514488.68406      1914.178 6        38.538
E08         2.000    26124868.925 7 137287130.47707      2743.902 7        42.480                                                                    26124867.389 7 102519613.49807      2049.074 7        45.168    26124866.640 7 105194037.31307      2102.481 7        46.185
G21         4.000    20688294.475 7 108717787.70607     -1058.290 7        44.460                                    20688288.844 6  84715165.77506      -824.643 6        37.962
S21         5.000    38372845.837 7 201650322.57507      -293.125 7        42.557
E13         6.000    24835674.085 7 130512396.68707      1655.082 7        44.281                                                                    24835674.532 7  97460583.32107      1236.008 7        47.866    24835674.045 8 100003028.41408      1268.192 8        49.064
G10         7.000    24233208.706 6 127346434.83506     -3370.081 6        41.309                                    24233206.656 5  99231003.73905     -2626.039 5        35.243    24233207.602 6  99230997.74306     -2626.243 6        37.456
E15         8.000    23308272.741 7 122485914.92607      -647.902 7        47.971                                                                    23308272.939 8  91466824.57108      -483.794 8        50.925    23308272.316 8  93852903.30008      -496.401 8        51.820
G27        10.000    25371999.993 4                     -4161.407 4        24.211
G14        11.000    24149093.187 6 126904344.16506     -1731.578 6        39.246                                    24149090.307 3  98886494.46603     -1349.281 3        22.000    24149090.452 6  98886498.46406     -1349.276 6        37.482
G32        12.000    22151153.949 8 116405132.13408     -1839.586 8        48.033                                    22151151.841 7  90705298.92307     -1433.440 7        46.832    22151152.540 7  90705271.92707     -1433.547 7        43.367
G03        13.000    21588606.300 7 113448946.51107      2319.492 7        45.786                                    21588604.593 7  88401792.24707      1807.401 7        45.562    21588605.366 7  88401797.23507      1807.391 7        43.204
S36        14.000    38140535.154 7 200430389.67107      -292.393 7        44.021
C13        15.000                                                                                                                                    40610014.711 6 211467059.15206     -1065.967 6        37.784    40610016.155 6 163519778.13306      -824.447 6        38.387    40610014.391 6 171834330.13406      -866.595 6        37.210
G17        16.000    23807707.821 7 125110353.69907      2519.893 7        42.303                                    23807703.246 6  97488563.31806      1963.555 6        37.202    23807704.053 6  97488565.31506      1963.570 6        39.553
C16        17.000                                                                                                                                    39775516.690 6 207121567.50706      1134.166 6        40.098    39775516.720 7 160159540.87307       876.965 7        42.019    39775514.093 6 168303232.79606       921.438 6        37.319
E27        18.000    28203430.425 6 148210024.95106     -3123.533 6        37.527                                                                    28203432.000 6 110676315.19706     -2332.439 6        39.096    28203431.315 6 113563521.38306     -2393.204 6        40.269
E05        20.000    24421970.806 7 128338349.71907     -2110.361 7        42.047                                                                    24421970.534 7  95837084.91307     -1575.893 7        45.327    24421970.105 7  98337184.78907     -1617.062 7        46.292
C41        21.000                                                                                                                                    23428644.261 8 121999126.30708      2262.130 8        48.210                                                                    23428649.158 8  99134313.20108      1838.114 8        48.387
I06        22.000    38265197.541 7 150161089.25807      -111.906 7        42.209
E03        23.000    24062883.075 7 126451324.10907       638.793 7        46.772                                                                    24062882.538 8  94427966.77308       477.034 8        49.602    24062882.305 8  96891301.51708       489.514 8        50.892
R22        24.000    19479974.744 8 103985475.22708      1367.011 8        52.250                                                                    19479973.005 8  80877607.60908      1063.234 8        49.039
S23        25.000    38095850.019 7 200194995.95307      -290.522 7        44.993
S45        26.000    63343254.500 6 332872404.32706      -334.394 6        38.087
G02        27.000    20743231.113 8 109006469.88608       454.010 8        49.567                                    20743224.629 7  84940097.58007       353.776 7        42.984
S27        28.000    39034327.484 5 205126886.46105      -267.696 5        35.357
C39        29.000                                                                                                                                    39385219.571 6 205089191.55506       781.014 6        41.847                                                                    39385215.803 7 166651762.85207       634.711 7        42.313
E21        30.000    27214459.014 6 143012956.65306     -1853.759 6        39.207                                                                    27214458.987 6 106795396.07506     -1384.339 6        41.712    27214458.540 7 109581359.28007     -1420.470 7        42.984
C43        31.000                                                                                                                                    24884778.296 7 129581671.42507     -3501.852 7        42.533                                                                    24884776.808 7 105295763.76307     -2845.615 7        42.341
C42        32.000                                                                                                                                    24585066.064 7 128020911.95007     -3140.597 7        43.755                                                                    24585073.200 7 104027519.76107     -2552.019 7        45.538
C28        33.000                                                                                                                                    21450223.956 8 111696957.90108      -729.293 8        51.289                                                                    21450222.419 8  90762929.25808      -592.675 8        48.940
R13        34.000    24211402.725 6 129287533.14206     -3029.446 6        38.072
E34        35.000    26179505.964 6 137574432.04006     -2557.279 6        41.948                                                                    26179506.177 7 102734262.76907     -1909.718 7        45.177    26179506.417 7 105414276.02307     -1959.600 7        46.996
C14        36.000                                                                                                                                    22620593.574 7 117791381.49907     -2088.394 7        46.567    22620589.453 8  91083755.97608     -1614.838 8        51.351    22620588.170 8  95715124.86508     -1697.050 8        49.596
R21        37.000    20189034.450 8 108035659.61408     -2711.838 8        50.907                                                                    20189034.008 7  84027756.78607     -2109.165 7        46.151
R06        38.000    19487798.095 6 103990657.44406     -1818.096 6        40.539
R05        39.000    24124507.821 6 128959339.99806     -4610.407 6        40.808                                                                    24124508.451 6 100301716.41606     -3585.954 6        39.249
C27        40.000                                                                                                                                    22887539.920 7 119181465.13807      1871.868 7        47.855                                                                    22887538.195 7  96844718.80807      1520.902 7        47.419
C06        41.000                                                                                                                                    39496423.822 6 205668246.91206      1241.330 6        39.243    39496417.454 7 159035714.82507       959.813 7        42.643    39496416.997 6 167122275.10606      1008.569 6        39.372
S44        42.000    40462395.790 6 212631524.84606      -348.986 6        38.751
G08        43.000    22630709.599 7 118925271.75807     -3652.100 7        43.469                                    22630707.564 7  92669083.18307     -2845.793 7        42.222    22630708.670 6  92669081.18306     -2845.818 6        41.144
C05        44.000                                                                                                                                    39061881.701 6 203405504.31406      -268.340 6        38.501    39061875.859 7 157286064.01507      -207.591 7        43.501    39061877.401 6 165283738.25206      -218.076 6        40.246
C33        47.000                                                                                                                                    21801121.413 8 113524190.06208      -495.165 8        51.017                                                                    21801132.547 8  92247761.98608      -402.442 8        49.641
C09        48.000                                                                                                                                    40529168.530 6 211046017.75106      1476.664 6        38.769    40529164.894 7 163194157.46907      1141.808 7        43.283    40529162.536 6 171492154.78906      1199.766 6        38.108
R07        49.000    19795470.019 8 105966755.08108      2110.987 8        52.915                                                                    19795468.094 7  82418586.54307      1641.867 7        46.944
S48        51.000    77127051.830 6 405306983.33506      -306.529 6        37.716
R14        53.000    23766057.215 7 126686464.76307        76.312 7        43.276                                                                    23766056.926 6  98533856.53006        59.380 6        40.806
C60        54.000                                                                                                                                    40462397.429 6 210698530.44406      -345.766 6        40.632                                                                    40462381.378 6 171209785.95306      -281.118 6        40.393
R08        55.000    23582948.092 6 126285631.43706      4028.365 6        41.602                                                                    23582946.891 6  98222203.17906      3133.164 6        38.715
I09        56.000    37101053.499 7 145592542.88207       -83.766 7        43.342
C02        57.000                                                                                                                                    40461228.091 5 210692291.97905      -309.038 5        33.275    40461222.070 6 162920640.40006      -239.199 6        40.315    40461226.201 6 171204750.21106      -251.486 6        36.442
I03        58.000    76653621.443 6 225020039.69006      1102.059 6        40.508
R23        59.000    22714788.833 7 121508808.72407      3604.498 7        43.672
> 2025 01 02 23 30 20.0000000  0 52
G28         1.000    24788540.737 6 130264660.68606      2455.765 6        38.207                                    24788537.526 3 101504918.52603      1913.585 3        21.286    24788537.241 6 101504919.52606      1913.584 6        38.126
E08         2.000    26122258.860 7 137273413.36107      2743.176 7        42.188                                                                    26122257.113 7 102509370.20707      2048.441 7        45.294    26122256.407 7 105183526.80707      2101.836 7        45.941
G21         4.000    20689302.533 7 108723083.85407     -1060.069 7        44.385                                    20689296.654 6  84719292.64306      -826.029 6        37.875
S21         5.000    38373124.128 7 201651788.58507      -293.180 7        42.275
E13         6.000    24834099.755 7 130504123.14907      1654.608 7        44.664                                                                    24834100.152 7  97454405.04107      1235.524 7        47.772    24834099.610 8  99996688.95608      1267.768 8        48.810
G10         7.000    24236415.380 6 127363286.57006     -3370.464 6        41.628                                    24236413.507 5  99244134.96305     -2626.338 5        35.267    24236414.425 6  99244128.94906     -2626.067 6        37.611
E15         8.000    23308889.904 8 122489157.71708      -649.005 8        48.153                                                                    23308890.004 8  91469246.14008      -484.679 8        50.957    23308889.384 8  93855388.04408      -497.336 8        51.515
G27        10.000    25375961.063 3                     -4161.455 3        23.943
G14        11.000    24150741.330 6 126913008.32106     -1734.049 6        39.411                                    24150738.945 3  98893245.76303     -1351.212 3        22.095    24150739.327 6  98893249.75306     -1350.976 6        37.070
G32        12.000    22152905.873 7 116414337.21707     -1842.348 7        47.886                                    22152903.492 7  90712471.71207     -1435.601 7        46.814    22152904.102 7  90712444.70707     -1435.515 7        43.683
G03        13.000    21586399.943 7 113437353.47507      2317.840 7        45.418                                    21586398.501 7  88392758.72007      1806.105 7        45.547    21586398.956 7  88392763.72907      1806.047 7        43.022
S36        14.000    38140809.922 7 200431852.57507      -292.580 7        43.807
C13        15.000                                                                                                                                    40611038.257 6 211472389.96306     -1065.953 6        37.157    40611039.416 6 163523900.24706      -824.122 6        38.030    40611038.093 6 171838661.86306      -866.253 6        37.301
G17        16.000    23805310.992 6 125097758.67306      2518.346 6        41.859                                    23805306.541 6  97478749.01606      1962.346 6        37.153    23805306.673 6  97478751.02406      1962.241 6        39.766
C16        17.000                                                                                                                                    39774428.865 6 207115899.43406      1133.348 6        40.267    39774428.130 6 160155157.95706       876.431 6        41.552    39774425.538 6 168298627.05406       920.715 6        37.478
E27        18.000    28206402.583 6 148225642.43406     -3123.464 6        37.580                                                                    28206404.028 6 110687977.59406     -2332.330 6        39.153    28206403.412 6 113575488.01306     -2393.151 6        40.045
E05        20.000    24423979.629 7 128348906.42107     -2112.075 7        42.150                                                                    24423979.417 7  95844968.16707     -1577.203 7        45.214    24423978.930 7  98345273.69407     -1618.431 7        46.149
C41        21.000                                                                                                                                    23426472.668 8 121987819.63108      2260.607 8        48.132                                                                    23426477.853 8  99125125.62108      1836.827 8        48.384
I06        22.000    38265339.737 7 150161648.97707      -111.794 7        42.497
E03        23.000    24062276.589 7 126448136.21307       636.515 7        46.931                                                                    24062275.932 8  94425586.20808       475.309 8        49.601    24062275.600 8  96888858.85208       487.730 8        50.654
R22        24.000    19478696.087 8 103978647.65408      1364.226 8        52.366                                                                    19478693.763 8  80872297.27308      1061.089 8        48.992
S23        25.000    38096127.604 7 200196448.46107      -290.336 7        45.083
S45        26.000    63343528.208 6 332872476.62316      -334.366 6        37.637
G02        27.000    20742800.063 8 109004204.86608       452.180 8        49.305                                    20742793.592 7  84938332.63207       352.349 7        42.959
S27        28.000    39034588.819 6 205128224.67306      -267.397 6        36.355
C39        29.000                                                                                                                                    39384470.069 6 205085289.24706       780.267 6        41.728                                                                    39384466.363 7 166648591.94207       633.767 7        42.372
E21        30.000    27216223.537 6 143022230.96406     -1855.691 6        39.396                                                                    27216223.719 6 106802321.69406     -1385.751 6        41.766    27216223.405 7 109588465.57207     -1421.839 7        42.627
C43        31.000                                                                                                                                    24888140.936 7 129599183.00207     -3502.610 7        43.183                                                                    24888139.969 7 105309993.36907     -2846.292 7        42.597
C42        32.000                                                                                                                                    24588081.962 7 128036617.41407     -3141.385 7        43.791                                                                    24588089.126 7 104040281.75307     -2552.764 7        45.449
C28        33.000                                                                                                                                    21450925.505 8 111700610.67908      -731.666 8        51.402                                                                    21450923.873 8  90765897.45908      -594.682 8        48.926
R13        34.000    24214240.132 6 129302686.70406     -3031.718 6        38.066
E34        35.000    26181939.622 6 137587221.05106     -2558.021 6        41.995                                                                    26181939.752 7 102743813.00407     -1910.268 7        45.053    26181940.071 7 105424075.38807     -1960.067 7        46.856
C14        36.000                                                                                                                                    22622599.850 7 117801828.41407     -2090.134 7        46.690    22622595.270 8  91091834.20308     -1616.247 8        51.209    22622594.407 8  95723613.86108     -1698.534 8        49.644
R21        37.000    20191570.026 8 108049226.28908     -2714.608 8        50.728                                                                    20191568.876 7  84038308.66307     -2111.444 7        45.676
R06        38.000    19489504.033 6 103999757.31406     -1821.682 6        40.675
R05        39.000    24128820.775 6 128982393.21806     -4610.558 6        40.868                                                                    24128820.730 6 100319646.66306     -3586.093 6        38.667
