     3.04           OBSERVATION DATA    M                   RINEX VERSION / TYPE
ssrcrin-15.6.1x                         20250102 104500 UTC PGM / RUN BY / DATE 
(00000000023479385599111004) Septentrio proprietary         COMMENT             
rref                                                        MARKER NAME         
01                                                          MARKER NUMBER       
geodetic                                                    MARKER TYPE         
NFB                 CLIMERS@TUW                             OBSERVER / AGENCY   
3297213             SEPT ASTERX SB3 PROB4.14.4              REC # / TYPE / VERS 
Unknown             Unknown                                 ANT # / TYPE        
  4127832.3890  1207193.2567  4695248.0956                  APPROX POSITION XYZ 
        0.0000        0.0000        0.0000                  ANTENNA: DELTA H/E/N
G   23 X1  C1C L1C D1C S1C C1W S1W C2W L2W D2W S2W C2L L2L  SYS / # / OBS TYPES 
       D2L S2L C5Q L5Q D5Q S5Q C1L L1L D1L S1L              SYS / # / OBS TYPES 
E   21 X1  C1C L1C D1C S1C C6C L6C D6C S6C C5Q L5Q D5Q S5Q  SYS / # / OBS TYPES 
       C7Q L7Q D7Q S7Q C8Q L8Q D8Q S8Q                      SYS / # / OBS TYPES 
S    9 X1  C1C L1C D1C S1C C5I L5I D5I S5I                  SYS / # / OBS TYPES 
R   17 X1  C1C L1C D1C S1C C2P L2P D2P S2P C2C L2C D2C S2C  SYS / # / OBS TYPES 
       C3Q L3Q D3Q S3Q                                      SYS / # / OBS TYPES 
C   25 X1  C1P L1P D1P S1P C5P L5P D5P S5P C2I L2I D2I S2I  SYS / # / OBS TYPES 
       C7I L7I D7I S7I C6I L6I D6I S6I C7D L7D D7D S7D      SYS / # / OBS TYPES 
J   17 X1  C1C L1C D1C S1C C2L L2L D2L S2L C5Q L5Q D5Q S5Q  SYS / # / OBS TYPES 
       C1L L1L D1L S1L                                      SYS / # / OBS TYPES 
I    5 X1  C5A L5A D5A S5A                                  SYS / # / OBS TYPES 
SEPTENTRIO RECEIVERS OUTPUT ALIGNED CARRIER PHASES.         COMMENT             
NO FURTHER PHASE SHIFT APPLIED IN THE RINEX ENCODER.        COMMENT             
G L1C                                                       SYS / PHASE SHIFT   
G L2W                                                       SYS / PHASE SHIFT   
G L2L  0.00000                                              SYS / PHASE SHIFT   
G L5Q  0.00000                                              SYS / PHASE SHIFT   
G L1L  0.00000                                              SYS / PHASE SHIFT   
E L1C  0.00000                                              SYS / PHASE SHIFT   
E L6C  0.00000                                              SYS / PHASE SHIFT   
E L5Q  0.00000                                              SYS / PHASE SHIFT   
E L7Q  0.00000                                              SYS / PHASE SHIFT   
E L8Q  0.00000                                              SYS / PHASE SHIFT   
S L1C                                                       SYS / PHASE SHIFT   
S L5I                                                       SYS / PHASE SHIFT   
R L1C                                                       SYS / PHASE SHIFT   
R L2P  0.00000                                              SYS / PHASE SHIFT   
R L2C                                                       SYS / PHASE SHIFT   
R L3Q  0.00000                                              SYS / PHASE SHIFT   
C L1P  0.00000                                              SYS / PHASE SHIFT   
C L5P  0.00000                                              SYS / PHASE SHIFT   
C L2I                                                       SYS / PHASE SHIFT   
C L7I                                                       SYS / PHASE SHIFT   
C L6I                                                       SYS / PHASE SHIFT   
C L7D                                                       SYS / PHASE SHIFT   
J L1C                                                       SYS / PHASE SHIFT   
J L2L  0.00000                                              SYS / PHASE SHIFT   
J L5Q  0.00000                                              SYS / PHASE SHIFT   
J L1L  0.00000                                              SYS / PHASE SHIFT   
I L5A                                                       SYS / PHASE SHIFT   
  2025     1     2    10    45    0.0000000     GPS         TIME OF FIRST OBS   
 C1C    0.000 C2C    0.000 C2P    0.000                     GLONASS COD/PHS/BIS 
DBHZ                                                        SIGNAL STRENGTH UNIT
    18                                                      LEAP SECONDS        
 24 R01  1 R02 -4 R03  5 R04  6 R05  1 R06 -4 R07  5 R08  6 GLONASS SLOT / FRQ #
    R09 -2 R10 -7 R11  0 R12 -1 R13 -2 R14 -7 R15  0 R16 -1 GLONASS SLOT / FRQ #
    R17  4 R18 -3 R19  3 R20  2 R21  4 R22 -3 R23  3 R24  2 GLONASS SLOT / FRQ #
                                                            END OF HEADER       
> 2025 01 02 10 45  0.0000000  0 55
E24         1.000    24039741.514 8 126329820.28608       624.431 8        48.701                                                                    24039743.525 8  94337274.07008       466.271 8        50.491    24039742.785 8  96798235.03808       478.393 8        51.359
G15         2.000    21154756.656 8 111168930.32008     -2889.271 8        48.795                                    21154756.186 7  86625112.14807     -2251.378 7        47.662    21154756.481 7  86625107.15407     -2251.465 7        44.122
E03         3.000    27139523.659 6 142619135.62006      2163.341 6        38.958                                                                    27139531.834 7 106501307.44807      1615.461 7        43.204    27139530.542 7 109279604.24507      1657.643 7        44.045
G19         4.000    21815690.989 7 114642400.32907      1284.402 7        47.325                                    21815688.997 6  89331775.06306      1000.830 6        37.304
S21         5.000    38564195.618 7 202655824.56207      -494.262 7        42.552
E05         6.000    22410462.727 7 117767735.22607         1.354 7        47.380                                                                    22410466.203 8  87943412.64408         0.968 8        50.533    22410465.802 8  90237588.17308         0.992 8        51.764
E13         7.000    28964421.939 5 152209048.16805     -1572.652 5        32.102                                                                    28964436.276 6 113662647.91606     -1174.414 6        37.285    28964434.335 6 116627752.64306     -1204.923 6        38.126
R02         8.000    24111563.863 6 128663640.28306     -5175.768 6        37.440                                                                    24111581.780 4 100071648.11204     -4025.454 4        28.019
R05         9.000    23572349.365 7 126007719.61107      3501.516 7        44.253                                                                    23572357.754 7  98006043.40707      2723.415 7        42.468
G24        10.000    20638895.690 8 108458135.83908      1063.321 8        48.488                                    20638897.151 8  84512848.95408       828.564 8        50.631    20638897.464 7  84512853.96107       828.555 7        45.743
C14        11.000                                                                                                                                    25997205.450 6 135374277.32506      1850.628 6        38.150    25997211.258 7 104680002.54907      1431.132 7        45.371    25997208.198 7 110002698.33707      1503.881 7        42.554
S27        12.000    39308147.401 6 206565588.57606      -525.278 6        36.756
G13        13.000    22284500.798 7 117105757.85907     -3834.493 7        46.082                                    22284501.856 5  91251196.47205     -2987.911 5        31.774
S36        14.000    38334567.076 7 201449941.06207      -495.001 7        44.500
G02        15.000    25873487.130 6 135966098.57706     -1103.960 6        36.722                                    25873493.461 3 105947636.88803      -860.226 3        18.955
E09        16.000    24954882.613 7 131138740.85907     -2795.066 7        46.740                                                                    24954886.811 8  97928258.44208     -2087.206 8        48.903    24954885.962 8 100482907.36608     -2141.675 8        49.690
G12        17.000    22886823.914 7 120271206.48907      2753.485 7        45.710                                    22886825.473 6  93717895.24006      2145.571 6        41.838    22886826.245 6  93717892.23806      2145.716 6        41.249
R21        18.000    24222555.288 6 129619790.54106     -3225.534 6        41.216                                                                    24222565.599 6 100815432.41106     -2508.793 6        40.160
R22        19.000    22508777.671 7 120153456.80507       200.066 7        45.297                                                                    22508784.133 7  93452683.21107       155.624 7        43.748
R03        21.000    20467636.237 8 109564792.65708     -3397.410 8        51.803                                                                    20467637.962 7  85217044.40307     -2642.376 7        46.130
I06        22.000    38380305.762 6 150612680.06706      -477.135 6        41.700
S28        23.000    41019071.030 5 215556501.03505      -505.024 5        35.048
S23        25.000    38268565.467 7 201102537.42307      -497.510 7        44.704
S45        26.000    63518917.351 6 333795244.75206      -549.234 6        36.034
C07        27.000                                                                                                                                    39212325.638 6 204188804.01506     -1074.380 6        39.844    39212326.116 7 157891713.16907      -830.964 7        43.515    39212323.508 6 165920098.66906      -873.189 6        40.949
R04        28.000    20289814.698 8 108651024.27808       651.596 8        50.896                                                                    20289816.139 7  84506329.73707       506.822 7        46.635
C40        29.000                                                                                                                                    39374705.438 7 205034366.07907     -1306.483 7        42.385                                                                    39374708.957 7 166607209.96707     -1061.581 7        42.214
G17        30.000    22208689.893 7 116707574.33107     -1272.534 7        46.240                                    22208689.994 7  90941026.30907      -991.583 7        44.030    22208690.234 7  90941023.30507      -991.631 7        42.419
G14        31.000    23493511.892 7 123459145.95707     -3659.514 7        42.127                                    23493515.186 4  96201907.92104     -2851.563 4        26.599    23493516.750 6  96201893.89806     -2851.601 6        40.448
G23        32.000    23618092.959 6 124113804.06306     -2135.207 6        41.838                                    23618096.126 4  96712014.92104     -1663.791 4        27.198    23618096.888 6  96712009.92106     -1663.960 6        40.739
I02        33.000    37057201.189 7 145420415.17107      -256.767 7        43.545
R13        35.000    19874834.247 7 106130525.62707     -2046.429 7        46.803
R12        36.000    22921033.690 7 122439925.32607     -3890.154 7        44.816                                                                    22921042.713 7  95231026.49107     -3025.687 7        42.241
C42        37.000                                                                                                                                    24378362.029 7 126944524.15907       620.646 7        45.320                                                                    24378373.840 7 103152868.38807       504.290 7        46.275
C10        38.000                                                                                                                                    38655348.052 6 201288516.28606      -711.473 6        41.962    38655350.124 7 155649044.45507      -550.313 7        44.904    38655346.861 6 163563392.11906      -578.228 6        41.521
E25        39.000    27318876.272 6 143561754.45306      2239.022 6        39.474                                                                    27318886.523 6 107205299.97906      1671.976 6        41.824    27318884.912 7 110001948.47007      1715.616 7        42.889
C30        40.000                                                                                                                                    24654978.694 7 128384982.54407      -185.499 7        44.470                                                                    24654984.250 7 104323356.00607      -150.793 7        43.443
R23        41.000    23011233.437 7 123094621.03007      2966.856 7        43.001
S44        42.000    40983652.537 6 215370546.07106      -453.166 6        37.750
C36        43.000                                                                                                                                    23703737.808 7 123431508.04307     -2801.260 7        46.274                                                                    23703746.699 7 100298214.90407     -2276.285 7        46.979
C05        44.000                                                                                                                                    39557516.437 6 205986258.86406      -528.047 6        38.177    39557520.177 7 159281628.38507      -408.347 7        42.578    39557519.618 6 167380781.59906      -429.207 6        39.018
R14        45.000    20739587.808 8 110553770.73508      1702.742 8        51.403                                                                    20739591.698 7  85986345.74107      1324.331 7        47.161
E26        46.000    28462934.611 5 149573752.55705       609.370 5        35.962                                                                    28462947.182 6 111694747.01406       455.287 6        38.486    28462945.520 6 114608512.93006       467.015 6        39.526
G10        47.000    24559943.662 6 129063318.35206       288.308 6        40.281                                    24559948.983 5 100568815.46105       224.658 5        35.390    24559948.742 6 100568816.47706       224.399 6        38.598
C45        50.000                                                                                                                                    21725891.068 8 113132440.31008      -551.482 8        50.799                                                                    21725885.378 8  91929362.90208      -448.134 8        49.974
S48        51.000    77272657.614 6 406069126.40406      -490.964 6        37.947
E06        52.000    26479461.805 6 139150405.35906     -3460.520 6        40.546                                                                    26479471.343 7 103910989.67207     -2584.099 7        45.500    26479469.906 7 106621713.53807     -2651.590 7        45.153
E33        53.000    28955632.338 4 152162897.73204      2064.944 4        28.076                                                                    28955647.672 5 113628188.13005      1541.895 5        33.934    28955645.802 5 116592393.18805      1582.270 5        35.729
C60        54.000                                                                                                                                    40983649.754 6 213412649.88606      -449.000 6        40.253                                                                    40983642.919 6 173415192.60206      -364.990 6        39.532
E31        55.000    24225420.010 7 127305426.81307     -2046.676 7        46.282                                                                    24225424.640 8  95065767.42108     -1528.364 8        49.320    24225423.922 8  97545740.72008     -1568.278 8        50.467
C26        56.000                                                                                                                                    24281767.593 7 126441593.24907      1930.324 7        45.341                                                                    24281771.849 7 102744187.02107      1568.558 7        45.747
C02        57.000                                                                                                                                    41103812.765 5 214038191.89705      -495.387 5        30.491    41103819.202 5 165507850.12805      -383.422 5        35.848    41103818.790 5                      -403.025 5        30.687
I03        58.000    93183568.528 5 289886825.46805       917.670 5        33.210
C21        59.000                                                                                                                                    23568498.965 8 122727283.03708     -2306.347 8        48.751                                                                    23568497.001 8  99725931.00408     -1874.140 8        48.598
C22        60.000                                                                                                                                    25629010.851 6 133456808.23906     -3990.655 6        41.225                                                                    25629012.865 7 108444527.57907     -3242.553 7        42.366
> 2025 01 02 10 45  5.0000000  0 55
E24         1.000    24039148.384 8 126326703.18408       622.552 8        48.820                                                                    24039150.369 8  94334946.36708       464.895 8        50.528    24039149.654 8  96795846.61108       477.007 8        51.299
G15         2.000    21157506.933 8 111183384.21808     -2892.259 8        48.341                                    21157506.686 7  86636374.91207     -2253.706 7        47.780    21157506.793 7  86636369.90507     -2253.725 7        43.894
E03         3.000    27137465.793 6 142608321.40906      2162.247 6        38.805                                                                    27137473.904 7 106493231.92107      1614.680 7        43.166    27137472.728 7 109271318.05707      1656.794 7        44.078
G19         4.000    21814470.430 7 114635985.87307      1281.407 7        47.486                                    21814468.356 6  89326776.80006       998.497 6        37.372
S21         5.000    38564666.314 7 202658296.49807      -494.361 7        42.470
E05         6.000    22410462.754 7 117767734.59807        -1.006 7        47.933                                                                    22410466.194 8  87943412.17008        -0.790 8        50.625    22410465.636 8  90237587.68408        -0.748 8        51.686
E13         7.000    28965919.966 5 152216917.43905     -1574.595 5        32.892                                                                    28965933.613 6 113668524.28606     -1176.057 6        37.335    28965931.890 6 116633782.32206     -1207.068 6        37.766
R02         8.000    24116415.186 6 128689519.34106     -5175.756 6        37.406                                                                    24116430.750 4 100091776.06904     -4024.987 4        27.042
R05         9.000    23569074.699 7 125990216.99007      3499.528 7        43.871                                                                    23569082.943 7  97992430.28007      2721.911 7        42.011
G24        10.000    20637885.088 8 108452825.07608      1060.972 8        48.558                                    20637886.533 8  84508710.69908       826.732 8        50.758    20637886.846 7  84508715.70207       826.792 7        45.765
C14        11.000                                                                                                                                    25995430.225 6 135365029.17306      1848.669 6        38.616    25995435.616 7 104672851.28207      1429.434 7        45.615    25995432.188 7 109995183.45807      1502.055 7        42.427
S27        12.000    39308649.693 6 206568215.96006      -525.595 6        36.556
G13        13.000    22288150.341 7 117124934.99407     -3836.338 7        46.221                                    22288151.058 5  91266139.67105     -2989.351 5        31.857
S36        14.000    38335037.943 7 201452416.75007      -495.349 7        44.495
G02        15.000    25874539.142 6 135971625.41006     -1106.907 6        36.586                                    25874545.329 3 105951943.49303      -862.522 3        18.776
E09        16.000    24957542.758 7 131152720.46107     -2796.825 7        47.335                                                                    24957547.065 8  97938697.75108     -2088.541 8        48.971    24957546.242 8 100493619.00508     -2143.013 8        49.625
G12        17.000    22884204.858 7 120257442.85507      2751.925 7        45.163                                    22884206.399 7  93707170.35207      2144.354 7        42.057    22884206.924 6  93707167.36406      2144.443 6        41.588
R21        18.000    24225571.118 6 129635926.59706     -3228.946 6        41.883                                                                    24225581.229 6 100827982.63906     -2511.428 6        40.069
R22        19.000    22508593.118 7 120152467.97007       195.575 7        45.910                                                                    22508598.922 7  93451914.14707       152.068 7        42.859
R03        21.000    20470810.987 8 109581789.24608     -3401.149 8        51.638                                                                    20470812.946 7  85230263.95707     -2645.242 7        45.625
I06        22.000    38380913.795 6 150615065.51806      -477.276 6        41.547
S28        23.000    41019549.686 5 215559026.68505      -505.359 5        34.776
S23        25.000    38269039.678 7 201105025.60007      -497.736 7        44.570
S45        26.000    63519394.768 6 333797991.44506      -549.412 6        36.098
C07        27.000                                                                                                                                    39213357.714 6 204194178.56606     -1075.318 6        39.976    39213358.316 7 157895869.09807      -831.380 7        43.592    39213355.484 6 165924465.93506      -873.756 6        40.820
R04        28.000    20289208.171 8 108647777.81608       646.904 8        50.564                                                                    20289209.693 7  84503804.71407       503.226 7        46.444
C40        29.000                                                                                                                                    39375960.287 7 205040900.46007     -1307.297 7        42.252                                                                    39375963.780 6 166612519.70406     -1062.527 6        41.962
G17        30.000    22209902.114 7 116713945.24807     -1275.862 7        45.699                                    22209902.363 7  90945990.65207      -994.175 7        44.084    22209902.035 7  90945987.64607      -994.204 7        42.523
G14        31.000    23496994.191 6 123477445.87306     -3660.336 6        41.914                                    23496997.735 4  96216167.54904     -2852.208 4        27.269    23496999.168 6  96216153.53106     -2852.290 6        41.211
G23        32.000    23620125.624 6 124124487.31606     -2137.976 6        41.838                                    23620129.046 4  96720339.50804     -1665.948 4        27.174    23620129.666 6  96720334.49806     -1666.033 6        40.467
I02        33.000    37057529.021 7 145421700.23307      -257.264 7        43.289
R13        35.000    19876751.046 7 106140763.22207     -2048.581 7        46.851
R12        36.000    22924675.275 7 122459377.05007     -3890.587 7        44.740                                                                    22924684.056 7  95246155.55007     -3025.987 7        42.237
C42        37.000                                                                                                                                    24377767.517 7 126941428.29907       617.727 7        45.500                                                                    24377779.313 7 103150352.76707       501.788 7        46.120
C10        38.000                                                                                                                                    38656031.110 6 201292076.23706      -712.226 6        41.971    38656033.788 7 155651797.21007      -550.844 7        44.849    38656030.349 6 163566284.88206      -578.916 6        41.333
E25        39.000    27316746.169 6 143550561.44406      2238.257 6        39.808                                                                    27316756.400 6 107196941.59006      1671.477 6        41.962    27316754.847 7 109993372.03807      1714.907 7        42.639
C30        40.000                                                                                                                                    24655157.740 7 128385917.52507      -188.464 7        45.058                                                                    24655163.884 7 104324115.76807      -153.329 7        43.221
R23        41.000    23008460.000 7 123079792.48207      2964.627 7        42.030
S44        42.000    40984080.386 6 215372812.14706      -453.281 6        37.588
C36        43.000                                                                                                                                    23706428.213 7 123445516.89807     -2802.187 7        46.452                                                                    23706437.010 7 100309598.24507     -2277.159 7        46.710
C05        44.000                                                                                                                                    39558023.242 6 205988899.92106      -528.274 6        38.402    39558027.532 7 159283670.63007      -408.489 7        42.411    39558026.865 6 167382927.69206      -429.425 6        38.871
R14        45.000    20737991.264 8 110545262.14708      1700.668 8        51.580                                                                    20737995.503 7  85979727.95307      1322.780 7        47.124
E26        46.000    28462355.931 6 149570711.24306       607.074 6        36.412                                                                    28462368.599 6 111692475.93706       453.407 6        38.727    28462366.931 6 114606182.59506       465.242 6        39.297
G10        47.000    24559670.645 6 129061886.13606       284.929 6        39.955                                    24559676.442 5 100567699.43905       222.022 5        35.405    24559676.263 6 100567700.43906       222.030 6        38.285
C45        50.000                                                                                                                                    21726421.566 8 113135202.23108      -553.261 8        50.924                                                                    21726415.886 8  91931607.20008      -449.676 8        49.897
S48        51.000    77273123.253 6 406071582.30506      -491.172 6        37.584
E06        52.000    26482755.175 6 139167710.37206     -3461.548 6        41.347                                                                    26482764.447 7 103923912.21407     -2584.866 7        45.672    26482762.972 7 106634973.19007     -2652.262 7        45.120
E33        53.000    28953668.498 4 152152574.99604      2064.306 4        28.464                                                                    28953683.421 5 113620479.71505      1541.187 5        33.784    28953681.337 5 116584483.67905      1581.443 5        35.043
C60        54.000                                                                                                                                    40984081.140 6 213414895.35706      -449.117 6        39.952                                                                    40984074.153 6 173417017.26206      -365.078 6        39.321
E31        55.000    24227368.075 7 127315663.88607     -2048.159 7        46.557                                                                    24227372.750 8  95073411.98608     -1529.473 8        49.373    24227371.880 8  97553584.70308     -1569.298 8        50.376
C26        56.000                                                                                                                                    24279915.015 7 126431944.26407      1929.338 7        45.374                                                                    24279918.875 7 102736346.45707      1567.707 7        45.598
C02        57.000                                                                                                                                    41104287.669 5 214040670.58105      -495.915 5        30.408    41104294.647 6 165509766.80606      -383.265 6        36.049    41104295.143 5                      -402.785 5        30.498
I03        58.000    93182398.892 5 289882238.09605       917.437 5        33.198
C21        59.000                                                                                                                                    23570714.766 8 122738821.61408     -2309.025 8        48.805                                                                    23570712.869 8  99735307.04608     -1876.363 8        48.426
C22        60.000                                                                                                                                    25632842.313 6 133476761.69806     -3990.933 6        41.311                                                                    25632844.953 7 108460741.37207     -3243.036 7        42.290
> 2025 01 02 10 45 10.0000000  0 55
E24         1.000    24038556.914 8 126323594.81608       620.803 8        48.940                                                                    24038558.880 8  94332625.18308       463.563 8        50.662    24038558.111 8  96793464.87208       475.674 8        51.245
G15         2.000    21160259.998 7 111197852.39807     -2895.101 7        47.741                                    21160259.909 7  86647648.80407     -2255.919 7        47.660    21160260.325 7  86647643.79707     -2255.876 7        44.402
E03         3.000    27135409.056 6 142597511.80106      2161.410 6        38.745                                                                    27135416.620 7 106485159.81407      1614.044 7        43.329    27135415.650 7 109263035.37507      1656.169 7        43.911
G19         4.000    21813252.713 7 114629586.02507      1278.499 7        46.948                                    21813250.483 6  89321789.90906       996.233 6        37.369
S21         5.000    38565134.726 7 202660768.76407      -494.460 7        42.459
E05         6.000    22410464.788 8 117767745.12408        -3.268 8        48.072                                                                    22410468.108 8  87943420.02108        -2.437 8        50.730    22410467.644 8  90237595.74308        -2.508 8        51.642
E13         7.000    28967419.439 5 152224798.36505     -1577.121 5        33.677                                                                    28967433.466 6 113674409.34506     -1177.883 6        38.868    28967431.493 6 116639820.90806     -1208.578 6        39.078
R02         8.000    24121264.782 6 128715399.13606     -5176.262 6        36.941                                                                    24121281.183 4 100111904.67604     -4025.858 4        27.533
R05         9.000    23565802.610 7 125972723.30807      3497.770 7        44.453                                                                    23565810.229 6  97978824.09906      2720.580 6        41.630
G24        10.000    20636876.843 8 108447525.68808      1058.751 8        48.611                                    20636878.084 8  84504581.31108       825.002 8        50.678    20636878.601 7  84504586.31307       825.030 7        45.932
C14        11.000                                                                                                                                    25993658.913 6 135355791.31706      1846.476 6        39.246    25993661.858 7 104665707.98707      1427.924 7        45.603    25993658.174 7 109987676.93807      1500.506 7        42.470
S27        12.000    39309149.947 6 206570843.87206      -525.507 6        36.454
G13        13.000    22291801.220 7 117144120.48107     -3837.918 7        46.239                                    22291801.883 5  91281089.38205     -2990.583 5        31.706
S36        14.000    38335509.404 7 201454893.56907      -495.492 7        44.402
G02        15.000    25875593.906 6 135977166.08206     -1109.647 6        36.265                                    25875599.537 3 105956260.86203      -864.631 3        18.866
E09        16.000    24960204.592 7 131166708.25607     -2798.407 7        47.194                                                                    24960208.928 8  97949143.17108     -2089.724 8        49.126    24960207.995 8 100504336.91408     -2144.250 8        49.708
G12        17.000    22881587.155 7 120243686.66907      2750.507 7        45.275                                    22881588.738 7  93696451.26307      2143.247 7        42.087    22881588.987 6  93696448.28306      2143.179 6        41.328
R21        18.000    24228589.638 6 129652078.86906     -3231.990 6        41.237                                                                    24228599.830 6 100840545.50406     -2513.858 6        40.145
R22        19.000    22508412.542 7 120151500.81107       191.217 7        46.056                                                                    22508418.330 7  93451161.88307       148.777 7        43.323
R03        21.000    20473989.568 8 109598803.86008     -3404.769 8        51.593                                                                    20473991.838 7  85243497.53607     -2648.193 7        46.122
I06        22.000    38381521.870 6 150617451.30006      -477.167 6        41.788
S28        23.000    41020033.547 5 215561552.96405      -505.456 5        34.824
S23        25.000    38269512.633 7 201107514.14007      -497.843 7        44.593
S45        26.000    63519870.964 6 333800738.52706      -549.389 6        36.136
C07        27.000                                                                                                                                    39214390.075 6 204199555.90906     -1075.796 6        39.631    39214390.890 7 157900027.20207      -831.839 7        43.378    39214388.262 6 165928835.45806      -874.040 6        40.970
R04        28.000    20288606.316 8 108644554.24308       642.419 8        51.029                                                                    20288607.903 7  84501297.47607       499.667 7        46.860
C40        29.000                                                                                                                                    39377215.585 7 205047438.19207     -1307.806 7        42.201                                                                    39377219.376 7 166617832.12707     -1062.682 7        42.171
G17        30.000    22211117.437 7 116720332.11907     -1278.991 7        45.785                                    22211117.772 7  90950967.42207      -996.614 7        44.033    22211117.730 7  90950964.42207      -996.653 7        42.428
G14        31.000    23500477.047 6 123495749.58206     -3661.125 6        41.471                                    23500481.169 4  96230430.12504     -2852.818 4        27.269    23500482.064 6  96230416.09506     -2852.765 6        41.802
G23        32.000    23622161.482 6 124135184.28806     -2140.802 6        41.635                                    23622164.618 4  96728674.78704     -1668.150 4        26.898    23622164.666 6  96728669.77406     -1668.056 6        40.715
I02        33.000    37057856.651 7 145422986.64507      -257.346 7        43.424
R13        35.000    19878670.297 7 106151011.14907     -2050.661 7        46.623
R12        36.000    22928316.718 7 122478830.61907     -3890.863 7        44.495                                                                    22928325.741 7  95261286.08307     -3026.275 7        42.758
C42        37.000                                                                                                                                    24377176.118 7 126938346.53007       614.939 7        45.524                                                                    24377187.494 7 103147848.56607       499.759 7        46.250
C10        38.000                                                                                                                                    38656715.467 7 201295639.29207      -712.951 7        42.066    38656717.819 7 155654552.37107      -551.271 7        44.849    38656714.747 6 163569180.12406      -579.155 6        41.516
E25        39.000    27314616.905 6 143539372.01206      2237.504 6        40.393                                                                    27314627.223 7 107188585.86907      1670.922 7        42.197    27314625.681 7 109984798.31507      1714.494 7        42.610
C30        40.000                                                                                                                                    24655340.362 7 128386866.78907      -191.311 7        45.627                                                                    24655346.210 7 104324887.12107      -155.411 7        43.289
R23        41.000    23005689.429 7 123064974.92207      2962.325 7        42.269
S44        42.000    40984513.892 6 215375078.50906      -453.306 6        37.527
C36        43.000                                                                                                                                    23709119.382 7 123459529.77107     -2803.021 7        46.610                                                                    23709128.100 7 100320984.82207     -2277.525 7        46.935
C05        44.000                                                                                                                                    39558530.592 6 205991541.33006      -528.124 6        38.486    39558534.583 7 159285713.13807      -408.645 7        42.396    39558533.996 6 167385074.03806      -429.181 6        39.093
R14        45.000    20736396.747 8 110536763.36608      1698.839 8        50.949                                                                    20736401.005 7  85973117.80807      1321.346 7        47.235
E26        46.000    28461779.404 6 149567681.18706       604.704 6        36.495                                                                    28461791.839 6 111690213.25306       451.605 6        38.712    28461790.291 6 114603860.87906       463.654 6        39.150
G10        47.000    24559401.337 6 129060469.79506       281.679 6        40.167                                    24559406.964 5 100566595.79605       219.490 5        35.286    24559406.950 6 100566596.80106       219.521 6        38.688
C45        50.000                                                                                                                                    21726953.636 8 113137972.29608      -554.812 8        50.901                                                                    21726947.774 8  91933858.08808      -450.742 8        49.965
S48        51.000    77273591.267 6 406074038.74006      -491.168 6        37.429
E06        52.000    26486049.221 6 139185019.78506     -3462.363 6        41.776                                                                    26486058.304 7 103936838.04307     -2585.587 7        45.615    26486056.933 7 106648236.22107     -2652.985 7        45.213
E33        53.000    28951704.221 4 152142256.11204      2063.535 4        28.654                                                                    28951719.641 5 113612774.15605      1540.760 5        33.090    28951717.757 5 116576577.08805      1580.994 5        34.462
C60        54.000                                                                                                                                    40984512.097 6 213417141.12906      -449.233 6        39.973                                                                    40984505.419 6 173418842.16006      -365.092 6        39.751
E31        55.000    24229317.409 7 127325907.61807     -2049.471 7        46.601                                                                    24229322.046 8  95081061.50908     -1530.415 8        49.508    24229321.241 8  97561433.78508     -1570.319 8        50.330
C26        56.000                                                                                                                                    24278063.082 7 126422299.61307      1928.454 7        45.311                                                                    24278066.588 7 102728509.38307      1567.194 7        45.764
C02        57.000                                                                                                                                    41104764.098 4 214043149.56504      -495.738 4        29.858    41104770.875 6 165511683.71506      -383.396 6        36.174    41104770.969 5                      -402.973 5        30.936
I03        58.000    93181229.889 5 289877650.79605       917.536 5        33.228
C21        59.000                                                                                                                                    23572933.128 8 122750372.82608     -2311.515 8        48.695                                                                    23572931.188 8  99744693.32108     -1878.212 8        48.563
C22        60.000                                                                                                                                    25636674.233 7 133496716.76407     -3991.186 7        42.076                                                                    25636677.312 7 108476956.45107     -3243.069 7        42.809
> 2025 01 02 10 45 15.0000000  0 55
E24         1.000    24037967.122 8 126320495.09308       618.934 8        49.248                                                                    24037969.028 8  94330310.44608       462.214 8        50.538    24037968.234 8  96791089.75308       474.296 8        51.483
G15         2.000    21163016.119 8 111212334.84308     -2898.020 8        48.456                                    21163015.841 7  86658933.81007     -2258.195 7        47.554    21163016.377 7  86658928.81407     -2258.166 7        44.161
E03         3.000    27133353.176 6 142586706.76906      2160.555 6        39.162                                                                    27133360.672 7 106477091.12007      1613.358 7        43.289    27133359.305 7 109254756.19807      1655.454 7        44.199
G19         4.000    21812037.107 7 114623200.80607      1275.449 7        46.897                                    21812035.368 6  89316814.42206       993.856 6        37.274
S21         5.000    38565606.522 7 202663241.38107      -494.722 7        42.455
E05         6.000    22410468.647 8 117767766.77708        -5.507 8        48.176                                                                    22410472.347 8  87943436.18708        -4.130 8        50.600    22410471.771 8  90237612.33308        -4.209 8        51.848
E13         7.000    28968921.263 5 152232690.85205     -1579.844 5        33.305                                                                    28968935.522 6 113680303.05206     -1179.661 6        38.177    28968933.388 6 116645868.37806     -1210.516 6        38.520
R02         8.000    24126114.166 6 128741279.49306     -5176.438 6        36.420                                                                    24126131.827 4 100132033.66704     -4026.051 4        26.886
R05         9.000    23562532.698 7 125955238.73707      3495.991 7        44.400                                                                    23562538.812 6  97965224.99106      2719.056 6        41.256
G24        10.000    20635870.235 8 108442237.68908      1056.387 8        48.639                                    20635871.808 8  84500460.79208       823.159 8        50.616    20635872.108 7  84500465.79307       823.170 7        45.655
C14        11.000                                                                                                                                    25991886.831 6 135346563.74406      1844.472 6        39.357    25991889.745 7 104658572.66107      1426.205 7        45.201    25991886.042 7 109980178.80807      1498.641 7        42.470
S27        12.000    39309649.168 6 206573471.84506      -525.539 6        36.510
G13        13.000    22295453.610 7 117163314.32707     -3839.752 7        46.010                                    22295454.371 5  91296045.60605     -2992.012 5        31.743
S36        14.000    38335979.528 7 201457370.21807      -495.383 7        44.489
G02        15.000    25876650.693 6 135982720.66606     -1112.439 6        36.306                                    25876656.736 3 105960589.06603      -866.836 3        18.507
E09        16.000    24962867.908 7 131180704.21907     -2800.170 7        47.414                                                                    24962872.240 8  97959594.68808     -2090.987 8        48.983    24962871.303 8 100515061.08108     -2145.557 8        49.852
G12        17.000    22878971.103 7 120229937.93007      2748.900 7        45.306                                    22878972.445 7  93685737.98507      2141.998 7        42.042    22878972.686 6  93685734.99506      2142.000 6        40.601
R21        18.000    24231611.246 6 129668247.38306     -3235.378 6        41.361                                                                    24231621.148 6 100853121.00506     -2516.522 6        40.060
R22        19.000    22508234.686 7 120150555.29307       186.832 7        45.378                                                                    22508240.780 7  93450426.46907       145.341 7        43.249
R03        21.000    20477171.444 8 109615836.74008     -3408.438 8        51.458                                                                    20477173.950 7  85256745.30707     -2651.036 7        46.155
I06        22.000    38382130.085 6 150619837.45306      -477.319 6        41.607
S28        23.000    41020512.699 5 215564079.70205      -505.735 5        34.952
S23        25.000    38269986.781 7 201110003.16107      -498.001 7        44.664
S45        26.000    63520346.065 6 333801785.96616      -549.489 6        36.117
C07        27.000                                                                                                                                    39215423.222 6 204204936.03606     -1076.477 6        39.775    39215424.371 7 157904187.43407      -832.361 7        43.524    39215421.398 6 165933207.24406      -874.599 6        40.913
R04        28.000    20288009.155 8 108641353.38408       637.792 8        51.488                                                                    20288010.368 7  84498807.92207       496.110 7        46.724
C40        29.000                                                                                                                                    39378472.004 7 205053979.27307     -1308.623 7        42.099                                                                    39378475.439 7 166623147.28607     -1063.358 7        42.047
G17        30.000    22212336.080 7 116726734.97107     -1282.275 7        45.896                                    22212336.227 7  90955956.64607      -999.175 7        43.960    22212336.159 7  90955953.64507      -999.054 7        42.009
G14        31.000    23503961.012 6 123514057.04406     -3662.013 6        40.586                                    23503965.404 4  96244695.62504     -2853.496 4        26.862    23503965.584 6  96244681.58606     -2853.389 6        41.600
G23        32.000    23624199.467 6 124145894.97206     -2143.525 6        41.418                                    23624202.882 4  96737020.74304     -1670.277 4        27.042    23624203.229 6  96737015.73206     -1670.402 6        41.004
I02        33.000    37058184.851 7 145424274.53407      -257.812 7        43.401
R13        35.000    19880591.543 7 106161269.25007     -2052.807 7        46.669
R12        36.000    22931958.380 7 122498285.91507     -3891.278 7        43.843                                                                    22931967.364 7  95276417.93507     -3026.671 7        42.404
C42        37.000                                                                                                                                    24376586.814 7 126935278.85507       611.957 7        45.469                                                                    24376598.365 7 103145355.82907       497.461 7        46.249
C10        38.000                                                                                                                                    38657400.609 7 201299205.48807      -713.719 7        42.082    38657402.711 7 155657309.96107      -551.860 7        44.799    38657399.628 6 163572077.94206      -579.839 6        41.476
E25        39.000    27312488.379 6 143528186.10506      2236.712 6        40.648                                                                    27312498.875 7 107180232.78407      1670.199 7        42.104    27312497.164 7 109976227.32807      1713.892 7        42.648
C30        40.000                                                                                                                                    24655525.239 7 128387830.36407      -194.208 7        45.732                                                                    24655531.259 7 104325670.10307      -157.779 7        43.283
R23        41.000    23002922.930 6 123050168.30006      2960.128 6        41.962
S44        42.000    40984942.936 6 215377345.14006      -453.445 6        37.505
C36        43.000                                                                                                                                    23711811.337 7 123473546.65007     -2803.941 7        46.464                                                                    23711819.915 7 100332374.66907     -2278.292 7        46.980
C05        44.000                                                                                                                                    39559038.251 6 205994183.00206      -528.369 6        38.553    39559041.897 7 159287755.85207      -408.666 7        42.430    39559041.244 6 167387220.62406      -429.284 6        39.105
R14        45.000    20734804.248 8 110528274.14108      1696.756 8        51.147                                                                    20734808.675 7  85966515.08607      1319.688 7        47.133
E26        46.000    28461205.025 6 149564662.39406       602.301 6        36.994                                                                    28461217.540 6 111687958.99406       449.850 6        38.829    28461215.813 6 114601547.81706       461.789 6        39.270
G10        47.000    24559134.905 6 129059069.31306       278.294 6        40.577                                    24559140.460 5 100565504.51605       216.848 5        35.238    24559140.160 6 100565505.50606       216.964 6        38.625
C45        50.000                                                                                                                                    21727486.981 8 113140750.49608      -556.610 8        50.859                                                                    21727481.307 8  91936115.60308      -452.146 8        49.978
S48        51.000    77274061.145 6 406076495.51506      -491.703 6        37.660
E06        52.000    26489343.881 6 139202333.62006     -3463.293 6        41.664                                                                    26489352.836 7 103949767.16307     -2586.299 7        45.381    26489351.940 7 106661502.63207     -2653.676 7        45.711
E33        53.000    28949742.000 4 152131941.03804      2062.614 4        28.464                                                                    28949756.808 5 113605071.42305      1539.984 5        34.281    28949754.881 5 116568673.39305      1580.451 5        34.133
C60        54.000                                                                                                                                    40984943.502 6 213419387.16206      -449.425 6        39.982                                                                    40984936.783 6 173420667.25706      -364.957 6        39.390
E31        55.000    24231268.046 7 127336157.99907     -2050.798 7        46.956                                                                    24231272.625 8  95088716.00508     -1531.467 8        49.469    24231271.831 8  97569287.96208     -1571.423 8        50.527
C26        56.000                                                                                                                                    24276211.674 7 126412659.29507      1927.510 7        45.083                                                                    24276215.318 7 102720675.85307      1566.360 7        45.666
C02        57.000                                                                                                                                    41105240.483 5 214045628.75805      -496.395 5        30.234    41105247.326 5 165513600.75405      -383.373 5        35.971    41105246.928 5                      -403.269 5        30.687
I03        58.000    93180060.922 5 289873063.58405       917.466 5        33.407
C21        59.000                                                                                                                                    23575153.738 8 122761936.64108     -2314.219 8        48.654                                                                    23575151.908 8  99754089.85708     -1880.312 8        48.474
C22        60.000                                                                                                                                    25640507.164 7 133516673.42107     -3991.616 7        42.521                                                                    25640509.926 7 108493172.82707     -3243.422 7        42.944
> 2025 01 02 10 45 20.0000000  0 55
E24         1.000    24037378.911 8 126317403.96708       617.451 8        49.160                                                                    24037380.763 8  94328002.14608       461.103 8        50.435    24037380.010 8  96788721.23408       473.130 8        51.577
G15         2.000    21165774.997 8 111226831.42008     -2900.635 8        48.109                                    21165774.461 7  86670229.82907     -2260.230 7        47.533    21165774.679 7  86670224.82607     -2260.278 7        44.242
E03         3.000    27131297.736 6 142575906.20106      2159.775 6        39.712                                                                    27131305.407 7 106469025.77807      1612.810 7        43.149    27131303.943 7 109246480.44607      1654.941 7        44.190
G19         4.000    21810825.132 7 114616830.10107      1272.819 7        46.901                                    21810823.009 6  89311850.24206       991.804 6        37.263
S21         5.000    38566076.311 7 202665714.28607      -494.511 7        42.353
E05         6.000    22410474.970 8 117767799.48508        -7.589 8        48.172                                                                    22410478.527 8  87943460.60408        -5.681 8        50.468    22410478.032 8  90237637.38808        -5.821 8        51.970
E13         7.000    28970425.453 5 152240594.80705     -1581.865 5        34.148                                                                    28970439.205 6 113686205.33806     -1181.405 6        38.468    28970437.706 6 116651924.62606     -1212.143 6        38.952
R02         8.000    24130964.345 6 128767160.61506     -5176.049 6        36.340                                                                    24130982.984 4 100152163.28704     -4025.890 4        25.970
R05         9.000    23559262.414 7 125937763.13907      3494.251 7        44.697                                                                    23559270.294 6  97951632.85306      2717.729 6        41.812
G24        10.000    20634866.191 8 108436960.93308      1054.335 8        48.730                                    20634867.678 8  84496349.03808       821.559 8        50.607    20634868.044 7  84496354.04107       821.653 7        45.902
C14        11.000                                                                                                                                    25990115.039 6 135337346.35106      1842.555 6        38.964    25990119.309 7 104651445.18707      1424.767 7        45.135    25990115.915 7 109972688.91007      1497.184 7        42.466
S27        12.000    39310149.968 6 206576100.15206      -525.608 6        36.749
G13        13.000    22299107.410 7 117182516.41407     -3841.115 7        45.508                                    22299108.599 5  91311008.25305     -2993.075 5        31.796
S36        14.000    38336453.046 7 201459846.88607      -495.355 7        44.542
G02        15.000    25877709.939 6 135988288.92906     -1114.692 6        36.919                                    25877716.380 3 105964927.96103      -868.581 3        18.507
E09        16.000    24965532.709 7 131194708.23907     -2801.540 7        47.233                                                                    24965537.178 8  97970052.23008     -2092.006 8        48.886    24965536.102 8 100525791.43208     -2146.649 8        49.954
G12        17.000    22876356.093 7 120216196.53707      2747.653 7        45.324                                    22876357.472 6  93675030.42706      2141.022 6        41.895    22876357.895 6  93675027.43206      2141.053 6        41.228
R21        18.000    24234634.953 6 129684432.04506     -3238.345 6        41.783                                                                    24234646.081 6 100865709.06206     -2518.891 6        39.228
R22        19.000    22508062.137 7 120149631.33307       182.710 7        46.265                                                                    22508067.896 7  93449707.84107       142.229 7        42.861
R03        21.000    20480356.456 8 109632887.44708     -3411.801 8        51.571                                                                    20480358.946 7  85270006.96507     -2653.626 7        46.614
I06        22.000    38382737.876 6 150622223.86006      -477.250 6        41.638
S28        23.000    41020993.273 5 215566606.64705      -505.490 5        34.748
S23        25.000    38270460.764 7 201112492.47407      -497.835 7        44.635
S45        26.000    63520822.221 6 333804533.72006      -549.552 6        36.355
C07        27.000                                                                                                                                    39216457.139 6 204210318.81306     -1076.511 6        39.820    39216458.081 7 157908349.74607      -832.696 7        43.539    39216455.043 6 165937581.19006      -874.902 6        40.799
R04        28.000    20287415.661 8 108638175.14308       633.441 8        50.902                                                                    20287416.655 7  84496335.93907       492.719 7        46.807
