     3.04           OBSERVATION DATA    M                   RINEX VERSION / TYPE
ssrcrin-15.6.1x                         20250102 114500 UTC PGM / RUN BY / DATE 
(00000000023479385599111004) Septentrio proprietary         COMMENT             
rref                                                        MARKER NAME         
01                                                          MARKER NUMBER       
geodetic                                                    MARKER TYPE         
NFB                 CLIMERS@TUW                             OBSERVER / AGENCY   
3297213             SEPT ASTERX SB3 PROB4.14.4              REC # / TYPE / VERS 
Unknown             Unknown                                 ANT # / TYPE        
  4127831.5571  1207192.8670  4695247.9596                  APPROX POSITION XYZ 
        0.0000        0.0000        0.0000                  ANTENNA: DELTA H/E/N
G   23 X1  C1C L1C D1C S1C C1W S1W C2W L2W D2W S2W C2L L2L  SYS / # / OBS TYPES 
       D2L S2L C5Q L5Q D5Q S5Q C1L L1L D1L S1L              SYS / # / OBS TYPES 
E   21 X1  C1C L1C D1C S1C C6C L6C D6C S6C C5Q L5Q D5Q S5Q  SYS / # / OBS TYPES 
       C7Q L7Q D7Q S7Q C8Q L8Q D8Q S8Q                      SYS / # / OBS TYPES 
S    9 X1  C1C L1C D1C S1C C5I L5I D5I S5I                  SYS / # / OBS TYPES 
R   17 X1  C1C L1C D1C S1C C2P L2P D2P S2P C2C L2C D2C S2C  SYS / # / OBS TYPES 
       C3Q L3Q D3Q S3Q                                      SYS / # / OBS TYPES 
C   25 X1  C1P L1P D1P S1P C5P L5P D5P S5P C2I L2I D2I S2I  SYS / # / OBS TYPES 
       C7I L7I D7I S7I C6I L6I D6I S6I C7D L7D D7D S7D      SYS / # / OBS TYPES 
J   17 X1  C1C L1C D1C S1C C2L L2L D2L S2L C5Q L5Q D5Q S5Q  SYS / # / OBS TYPES 
       C1L L1L D1L S1L                                      SYS / # / OBS TYPES 
I    5 X1  C5A L5A D5A S5A                                  SYS / # / OBS TYPES 
SEPTENTRIO RECEIVERS OUTPUT ALIGNED CARRIER PHASES.         COMMENT             
NO FURTHER PHASE SHIFT APPLIED IN THE RINEX ENCODER.        COMMENT             
G L1C                                                       SYS / PHASE SHIFT   
G L2W                                                       SYS / PHASE SHIFT   
G L2L  0.00000                                              SYS / PHASE SHIFT   
G L5Q  0.00000                                              SYS / PHASE SHIFT   
G L1L  0.00000                                              SYS / PHASE SHIFT   
E L1C  0.00000                                              SYS / PHASE SHIFT   
E L6C  0.00000                                              SYS / PHASE SHIFT   
E L5Q  0.00000                                              SYS / PHASE SHIFT   
E L7Q  0.00000                                              SYS / PHASE SHIFT   
E L8Q  0.00000                                              SYS / PHASE SHIFT   
S L1C                                                       SYS / PHASE SHIFT   
S L5I                                                       SYS / PHASE SHIFT   
R L1C                                                       SYS / PHASE SHIFT   
R L2P  0.00000                                              SYS / PHASE SHIFT   
R L2C                                                       SYS / PHASE SHIFT   
R L3Q  0.00000                                              SYS / PHASE SHIFT   
C L1P  0.00000                                              SYS / PHASE SHIFT   
C L5P  0.00000                                              SYS / PHASE SHIFT   
C L2I                                                       SYS / PHASE SHIFT   
C L7I                                                       SYS / PHASE SHIFT   
C L6I                                                       SYS / PHASE SHIFT   
C L7D                                                       SYS / PHASE SHIFT   
J L1C                                                       SYS / PHASE SHIFT   
J L2L  0.00000                                              SYS / PHASE SHIFT   
J L5Q  0.00000                                              SYS / PHASE SHIFT   
J L1L  0.00000                                              SYS / PHASE SHIFT   
I L5A                                                       SYS / PHASE SHIFT   
  2025     1     2    11    45    0.0000000     GPS         TIME OF FIRST OBS   
 C1C    0.000 C2C    0.000 C2P    0.000                     GLONASS COD/PHS/BIS 
DBHZ                                                        SIGNAL STRENGTH UNIT
    18                                                      LEAP SECONDS        
 24 R01  1 R02 -4 R03  5 R04  6 R05  1 R06 -4 R07  5 R08  6 GLONASS SLOT / FRQ #
    R09 -2 R10 -7 R11  0 R12 -1 R13 -2 R14 -7 R15  0 R16 -1 GLONASS SLOT / FRQ #
    R17  4 R18 -3 R19  3 R20  2 R21  4 R22 -3 R23  3 R24  2 GLONASS SLOT / FRQ #
                                                            END OF HEADER       
> 2025 01 02 11 45  0.0000000  0 54
E24         1.000    23714921.174 8 124622876.72508      -520.441 8        49.119                                                                    23714923.131 8  93062608.35208      -388.638 8        50.790    23714922.164 8  95490317.17908      -398.796 8        51.062
G15         2.000    23378645.895 7 122855471.36907     -4246.801 7        44.513                                    23378650.331 6  95731488.73806     -3309.187 6        39.504    23378650.539 6  95731483.72206     -3309.069 6        40.026
E03         3.000    25656955.928 7 134828216.31807      1164.891 7        44.008                                                                    25656961.990 7 100683421.05907       869.875 7        46.681    25656961.017 7 103309945.99007       892.539 7        47.463
G19         4.000    21421438.362 7 112570583.76507     -1065.938 7        46.856                                    21421436.740 6  87717371.15906      -830.598 6        37.860
S21         5.000    38608852.550 7 202890479.35807      -508.480 7        42.785
E05         6.000    22671928.874 8 119141740.59408     -1649.141 8        48.094                                                                    22671933.206 8  88969453.08708     -1231.503 8        50.129    22671932.380 8  91290395.18408     -1263.655 8        50.791
G25         7.000    23791492.497 6 125025195.88006      2909.741 6        40.026                                    23791498.906 5  97422287.65105      2267.323 5        33.180    23791500.112 6  97422288.69306      2267.147 6        37.115
C29         8.000                                                                                                                                    23438772.317 7 122051859.52507       862.945 7        47.605                                                                    23438774.490 7  99177149.53207       701.298 7        46.886
R05         9.000    21556294.473 8 115230810.32808      1293.446 8        49.476                                                                    21556299.292 7  89624017.55707      1006.014 7        45.320
G24        10.000    20219682.224 8 106255154.76408      -784.490 8        50.893                                    20219683.596 8  82796240.68508      -611.289 8        53.257    20219683.967 7  82796245.69007      -611.282 7        46.754
C14        11.000                                                                                                                                    25010683.821 7 130237211.23107        29.929 7        42.423    25010685.636 7 100707703.46607        23.115 7        47.757    25010682.706 7 105828416.40707        24.304 7        44.385
S27        12.000    39372773.195 6 206905153.58006      -535.244 6        36.764
G13        13.000    24888338.183 6 130788897.34506     -4457.679 6        39.354                                    24888345.849 3 101913353.74203     -3473.501 3        19.433
S36        14.000    38379572.554 7 201686448.69707      -509.208 7        44.643
G06        15.000    24771115.920 6 130173098.31206      2283.210 6        37.032                                    24771126.620 5 101433628.51005      1779.118 5        31.600    24771127.538 6 101433630.51806      1779.089 6        37.720
E09        16.000    26893802.034 6 141327760.22706     -3629.740 6        41.595                                                                    26893812.037 7 105536920.20207     -2710.434 7        44.841    26893810.877 7 108290058.47807     -2781.232 7        45.914
G12        17.000    21123737.358 8 111006158.81008      1433.575 8        49.191                                    21123736.134 8  86498387.02208      1117.074 8        48.936    21123736.583 7  86498384.02607      1117.121 7        44.722
G32        18.000    24992668.295 6 131337346.33006      2607.630 6        41.657                                    24992675.868 5 102340826.99005      2031.910 5        34.567    24992676.832 6 102340831.01006      2031.897 6        37.966
R22        19.000    23124752.769 7 123441541.64607     -2837.103 7        44.813                                                                    23124760.470 6  96010075.03506     -2206.729 6        41.719
R03        21.000    23103016.482 7 123672086.24507     -4990.630 7        44.811                                                                    23103025.793 6  96189355.93706     -3881.564 6        40.980
I06        22.000    38526155.598 6 151184997.47806      -491.184 6        40.863
S28        23.000    41070928.280 5 215828979.15305      -518.834 5        35.367
S23        25.000    38315752.443 7 201350475.47007      -512.671 7        45.136
S45        26.000    63567318.824 5 334049466.26505      -568.309 5        35.981
C07        27.000                                                                                                                                    39760279.049 6 207042117.54206     -1346.226 6        39.066    39760280.885 7 160098069.79207     -1041.157 7        42.154    39760277.751 6 168238644.49306     -1093.906 6        39.057
R04        28.000    20678332.935 8 110731507.83308     -2646.579 8        51.040                                                                    20678335.018 7  86124480.25507     -2058.488 7        46.610
C40        29.000                                                                                                                                    40103558.793 6 208829657.39406     -1627.286 6        40.617                                                                    40103564.433 6 169691186.64706     -1322.319 6        40.238
G17        30.000    23476944.349 7 123372261.30907     -3154.954 7        43.628                                    23476946.633 6  96134279.78706     -2458.399 6        38.207    23476947.054 6  96134276.78206     -2458.426 6        40.040
G23        32.000    25292537.313 6 132912999.41406     -3383.942 6        38.171                                    25292544.955 2 103568512.89802     -2636.842 2        17.660    25292545.631 6 103568507.88606     -2636.618 6        36.106
I02        33.000    37070017.256 7 145470691.59807      -417.651 7        42.965
R15        34.000    22784551.719 7 121753788.94907      2572.457 7        45.521                                                                    22784559.026 7  94697438.44707      2000.714 7        42.112
R13        35.000    21360147.266 7 114061979.95307     -3144.086 7        43.941
C42        37.000                                                                                                                                    24366366.836 7 126882048.27807     -1448.835 7        46.005                                                                    24366379.117 7 103102098.93907     -1177.291 7        46.525
C10        38.000                                                                                                                                    38970490.379 6 202929531.68006     -1038.916 6        41.373    38970493.174 7 156917978.15807      -803.415 7        44.424    38970489.775 6 164896848.76406      -844.211 6        40.949
E25        39.000    25675955.970 7 134928200.75807      1650.097 7        44.451                                                                    25675962.301 7 100758180.80407      1232.145 7        46.317    25675961.214 7 103386641.81507      1264.340 7        46.942
C30        40.000                                                                                                                                    25180723.931 7 131122652.85607     -2157.062 7        43.926                                                                    25180730.585 7 106547932.85807     -1752.673 7        42.349
R23        41.000    21464493.768 7 114820653.13707       446.704 7        47.364
S44        42.000    40994033.078 6 215425082.75006      -450.139 6        38.471
C36        43.000                                                                                                                                    25494271.826 6 132755214.74506     -3203.098 6        41.588                                                                    25494284.073 7 107874475.10007     -2602.888 7        42.777
C05        44.000                                                                                                                                    39623432.965 6 206329500.11806      -526.696 6        38.886    39623437.260 7 159547043.56107      -407.331 7        43.081    39623436.884 6 167659692.65406      -427.953 6        39.700
R14        45.000    19764910.217 8 105358203.30408       279.733 8        52.525                                                                    19764913.579 8  81945351.64608       217.508 8        48.482
E26        46.000    28329550.583 6 148872813.50306     -1122.538 6        36.567                                                                    28329563.381 6 111171318.53906      -838.184 6        40.849    28329561.618 6 114071429.81706      -860.049 6        41.178
G10        47.000    24825130.016 6 130456846.79906     -1869.952 6        40.203                                    24825136.879 5 101654673.01205     -1457.102 5        32.162    24825137.027 5 101654674.00505     -1456.777 5        35.838
C35        48.000                                                                                                                                    25663195.622 7 133635000.12707      2876.879 7        43.001                                                                    25663203.914 7 108589414.89407      2337.703 7        42.434
C45        50.000                                                                                                                                    22182894.785 8 115512167.19408     -1613.241 8        50.383                                                                    22182889.624 8  93863083.60308     -1310.839 8        50.138
S48        51.000    77316132.165 6 406300483.55106      -510.991 6        37.943
E33        53.000    27527786.811 6 144659572.14506      1072.762 6        39.823                                                                    27527797.280 7 108025072.21507       801.118 7        42.127    27527795.521 7 110843107.04807       822.043 7        43.037
C60        54.000                                                                                                                                    40994032.075 6 213466690.59906      -446.150 6        40.396                                                                    40994025.583 6 173459101.00106      -362.470 6        38.913
E31        55.000    25580079.045 7 134424175.35507     -2696.052 7        44.027                                                                    25580086.098 7 100381706.34207     -2013.213 7        46.665    25580085.311 7 103000357.43407     -2065.810 7        47.413
C26        56.000                                                                                                                                    22873075.177 8 119106183.36008      1242.241 8        48.814                                                                    22873077.183 8  96783571.04008      1009.435 8        48.843
C02        57.000                                                                                                                                    41144454.569 5 214249819.42905      -486.430 5        31.291    41144461.229 6 165671493.38106      -376.030 6        36.401    41144460.491 5                      -395.312 5        30.641
I03        58.000    92033365.160 5 285373181.52105       938.778 5        33.012
C21        59.000                                                                                                                                    25362969.765 7 132071492.85707     -3563.845 7        44.176                                                                    25362971.568 7 107318851.91907     -2895.867 7        44.482
R24        60.000    22947693.997 7 122711674.34007      3572.509 7        44.865                                                                    22947702.883 7  95442456.38207      2778.755 7        43.045
> 2025 01 02 11 45  5.0000000  0 54
E24         1.000    23715417.049 8 124625482.81208      -521.982 8        49.077                                                                    23715418.997 8  93064554.45708      -389.783 8        50.901    23715418.034 8  95492314.05108      -399.970 8        51.114
G15         2.000    23382686.915 7 122876708.11107     -4247.820 7        43.991                                    23382691.645 6  95748036.80806     -3309.979 6        39.258    23382691.123 6  95748031.79406     -3310.070 6        39.631
E03         3.000    25655848.562 7 134822397.01207      1162.791 7        44.214                                                                    25655854.620 7 100679075.47707       868.397 7        46.736    25655853.646 7 103305487.04207       891.021 7        47.485
G19         4.000    21422454.393 7 112575922.43807     -1069.487 7        46.854                                    21422452.661 6  87721531.15506      -833.365 6        37.747
S21         5.000    38609337.614 7 202893022.06007      -508.671 7        42.557
E05         6.000    22673498.798 8 119149992.21508     -1651.487 8        48.269                                                                    22673503.415 8  88975615.00208     -1233.230 8        50.163    22673502.622 8  91296717.83908     -1265.349 8        50.839
G25         7.000    23788724.008 6 125010649.69206      2908.693 6        39.631                                    23788730.793 5  97410953.01905      2266.500 5        33.257    23788731.917 6  97410954.03706      2266.611 6        37.301
C29         8.000                                                                                                                                    23437945.001 7 122047551.44607       860.241 7        47.615                                                                    23437947.113 7  99173648.86807       699.142 7        46.789
R05         9.000    21555086.884 8 115224354.15908      1289.067 8        49.834                                                                    21555091.522 7  89618996.10707      1002.552 7        44.873
G24        10.000    20220429.771 8 106259084.63608      -787.394 8        50.706                                    20220431.430 8  82799302.92208      -613.553 8        53.142    20220431.514 7  82799307.92507      -613.566 7        46.679
C14        11.000                                                                                                                                    25010656.812 7 130237069.48507        26.824 7        42.516    25010658.356 7 100707593.85307        20.831 7        47.743    25010655.439 7 105828301.20907        21.956 7        44.360
S27        12.000    39373281.386 6 206907831.08006      -535.529 6        36.628
G13        13.000    24892579.463 6 130811185.17206     -4457.735 6        39.078                                    24892587.138 3 101930720.80103     -3473.538 3        18.597
S36        14.000    38380056.164 7 201688994.15407      -509.295 7        44.668
G06        15.000    24768943.845 6 130161685.04006      2282.027 6        36.537                                    24768954.713 5 101424735.04205      1778.203 5        31.230    24768956.288 6 101424737.03306      1778.292 6        38.270
E09        16.000    26897256.119 6 141345910.80106     -3630.522 6        40.894                                                                    26897266.065 7 105550474.14907     -2711.059 7        44.739    26897264.558 7 108303966.00507     -2781.810 7        45.600
G12        17.000    21122374.339 8 110998996.65108      1431.351 8        48.991                                    21122373.224 8  86492806.12308      1115.337 8        48.820    21122373.520 7  86492803.13207      1115.292 7        44.516
G32        18.000    24990187.794 6 131324312.35806      2606.000 6        41.971                                    24990195.459 5 102330670.68705      2030.643 5        34.586    24990196.139 6 102330674.70206      2030.576 6        37.822
R22        19.000    23127412.420 7 123455736.74207     -2840.933 7        44.621                                                                    23127420.188 6  96021115.61306     -2209.534 6        41.859
R03        21.000    23107678.031 7 123697041.62107     -4991.438 7        43.947                                                                    23107687.729 6  96208765.62206     -3882.182 6        40.532
I06        22.000    38526781.761 6 151187453.58306      -491.308 6        40.903
S28        23.000    41071420.852 5 215831572.99605      -518.748 5        35.414
S23        25.000    38316239.045 7 201353039.48507      -512.852 7        45.017
S45        26.000    63567806.946 6 334052307.88506      -568.211 6        36.110
C07        27.000                                                                                                                                    39761571.534 6 207048849.32006     -1346.545 6        38.832    39761573.594 6 160103275.19906     -1041.161 6        41.859    39761570.551 6 168244114.61206     -1094.136 6        38.853
R04        28.000    20680806.147 8 110744751.27008     -2650.826 8        51.154                                                                    20680808.175 7  86134780.68407     -2061.708 7        46.504
C40        29.000                                                                                                                                    40105121.668 6 208837794.71906     -1627.713 6        40.765                                                                    40105127.062 6 169697798.86506     -1322.452 6        40.067
G17        30.000    23479947.277 7 123388041.25807     -3156.969 7        43.039                                    23479949.613 6  96146575.82806     -2459.972 6        38.210    23479949.664 6  96146572.80906     -2459.985 6        39.760
G23        32.000    25295757.135 6 132929921.14506     -3384.721 6        38.387                                    25295764.868 2 103581698.63402     -2637.457 2        17.962    25295765.622 6 103581693.60206     -2637.338 6        36.178
I02        33.000    37070549.634 7 145472780.59007      -417.830 7        43.043
R15        34.000    22782144.917 7 121740929.09907      2571.584 7        46.226                                                                    22782152.234 6  94687436.32406      2000.056 6        40.923
R13        35.000    21363092.027 7 114077703.89907     -3145.356 7        44.272
C42        37.000                                                                                                                                    24367759.204 7 126889299.82207     -1451.666 7        46.098                                                                    24367771.693 7 103107991.40407     -1179.529 7        46.396
C10        38.000                                                                                                                                    38971487.906 6 202934727.59106     -1039.440 6        41.461    38971490.876 7 156921995.94607      -803.650 7        44.381    38971487.650 6 164901070.84506      -844.508 6        41.108
E25        39.000    25674386.476 7 134919953.38307      1648.998 7        44.664                                                                    25674392.918 7 100752022.05807      1231.360 7        46.411    25674391.771 7 103380322.39707      1263.513 7        47.066
C30        40.000                                                                                                                                    25182795.725 7 131133444.54107     -2159.644 7        43.742                                                                    25182803.149 7 106556701.97407     -1754.673 7        42.356
R23        41.000    21464077.992 7 114818431.31207       442.007 7        47.105
S44        42.000    40994456.970 6 215427334.17406      -450.340 6        38.321
C36        43.000                                                                                                                                    25497347.854 6 132771232.37706     -3203.808 6        41.602                                                                    25497360.445 7 107887490.70007     -2603.212 7        43.050
C05        44.000                                                                                                                                    39623938.920 6 206332133.86906      -526.867 6        38.733    39623943.192 7 159549080.12407      -407.369 7        43.035    39623942.593 6 167661832.76906      -427.686 6        39.474
R14        45.000    19764648.673 8 105356810.30008       277.567 8        52.722                                                                    19764652.270 8  81944268.19408       215.897 8        48.089
E26        46.000    28330619.363 6 148878431.82606     -1125.019 6        36.461                                                                    28330632.439 6 111175514.03006      -839.952 6        40.665    28330630.597 6 114075734.75006      -861.974 6        41.342
G10        47.000    24826910.438 6 130466203.28906     -1872.529 6        40.272                                    24826917.444 5 101661963.75705     -1459.116 5        32.120    24826917.072 5 101661964.75905     -1459.054 5        35.676
C35        48.000                                                                                                                                    25660433.498 7 133620616.57707      2876.492 7        42.758                                                                    25660441.802 7 108577727.08807      2337.675 7        42.358
C45        50.000                                                                                                                                    22184444.488 8 115520237.18608     -1614.758 8        50.293                                                                    22184439.392 8  93869641.12308     -1311.941 8        50.031
S48        51.000    77316617.997 6 406303039.45806      -511.326 6        38.030
E33        53.000    27526767.097 6 144654213.61306      1070.715 6        39.961                                                                    27526777.485 7 108021070.73307       799.449 7        42.036    27526775.811 7 110839001.17607       820.357 7        43.120
C60        54.000                                                                                                                                    40994460.675 6 213468921.56606      -446.359 6        40.458                                                                    40994454.135 6 173460913.82906      -362.368 6        38.985
E31        55.000    25582644.642 7 134437657.35307     -2696.652 7        43.873                                                                    25582651.690 7 100391774.05007     -2013.775 7        46.656    25582650.801 7 103010687.77507     -2066.314 7        47.430
C26        56.000                                                                                                                                    22871883.036 8 119099975.36408      1241.051 8        48.906                                                                    22871884.966 8  96778526.53608      1008.576 8        48.800
C02        57.000                                                                                                                                    41144921.934 5 214252251.84405      -486.611 5        31.215    41144928.250 6 165673374.26606      -376.345 6        36.420    41144927.096 4                      -394.999 4        29.905
I03        58.000    92032168.559 5 285368486.93005       938.818 5        32.796
C21        59.000                                                                                                                                    25366392.587 7 132089314.75907     -3564.902 7        44.644                                                                    25366394.339 7 107333333.64107     -2896.560 7        44.447
R24        60.000    22944354.683 7 122693815.33007      3571.177 7        45.431                                                                    22944363.199 7  95428566.06207      2777.627 7        43.232
> 2025 01 02 11 45 10.0000000  0 54
E24         1.000    23715914.143 8 124628095.94208      -522.890 8        49.123                                                                    23715916.253 8  93066505.82308      -390.481 8        51.029    23715915.318 8  95494316.32208      -400.671 8        51.119
G15         2.000    23386729.170 7 122897949.17507     -4248.283 7        43.731                                    23386733.705 6  95764588.24206     -3310.345 6        39.132    23386733.891 6  95764583.23406     -3310.299 6        39.811
E03         3.000    25654742.872 7 134816587.00207      1161.482 7        44.141                                                                    25654748.920 7 100674736.84007       867.336 7        46.869    25654748.025 7 103301035.22107       889.976 7        47.523
G19         4.000    21423473.767 7 112581277.65707     -1072.316 7        46.532                                    21423471.730 6  87725704.04206      -835.572 6        37.724
S21         5.000    38609822.172 7 202895564.72007      -508.146 7        42.804
E05         6.000    22675071.204 8 119158254.92708     -1653.265 8        48.310                                                                    22675075.751 8  88981785.20508     -1234.604 8        50.329    22675074.968 8  91303049.00408     -1266.809 8        50.774
G25         7.000    23785956.409 6 124996107.39206      2908.398 6        40.300                                    23785963.342 5  97399621.42305      2266.277 5        33.347    23785964.450 6  97399622.45906      2266.353 6        36.934
C29         8.000                                                                                                                                    23437120.217 7 122043256.03007       858.176 7        47.793                                                                    23437122.319 7  99170158.52307       697.204 7        46.783
R05         9.000    21553883.686 8 115217918.89408      1285.380 8        49.604                                                                    21553886.771 7  89613990.89307       999.767 7        44.764
G24        10.000    20221180.177 8 106263028.30708      -789.672 8        50.598                                    20221181.885 8  82802375.91208      -615.330 8        53.088    20221182.208 7  82802380.91807      -615.313 7        46.580
C14        11.000                                                                                                                                    25010631.650 7 130236941.88707        24.627 7        42.417    25010634.524 7 100707495.19807        18.983 7        47.779    25010630.926 7 105828197.54707        19.864 7        44.175
S27        12.000    39373789.626 6 206910508.49406      -535.060 6        36.469
G13        13.000    24896821.253 6 130833473.27706     -4457.310 6        38.721                                    24896828.606 3 101948088.09303     -3473.208 3        18.567
S36        14.000    38380540.280 7 201691538.99307      -508.545 7        44.530
G06        15.000    24766773.247 6 130150277.49906      2281.206 6        36.998                                    24766784.004 5 101415846.04905      1777.568 5        31.275    24766785.243 6 101415848.04806      1777.631 6        38.574
E09        16.000    26900710.865 6 141364064.56006     -3630.631 6        40.963                                                                    26900720.658 7 105564030.48007     -2711.232 7        44.913    26900719.020 7 108317875.98407     -2781.998 7        45.467
G12        17.000    21121013.286 8 110991845.02408      1429.668 8        49.254                                    21121012.312 8  86487233.42908      1114.024 8        48.775    21121012.983 7  86487230.43407      1114.067 7        44.387
G32        18.000    24987708.967 6 131311285.53006      2605.134 6        41.740                                    24987716.374 5 102320519.93705      2029.971 5        34.348    24987717.224 6 102320523.95306      2029.711 6        37.977
R22        19.000    23130074.713 7 123469949.88307     -2844.014 7        44.396                                                                    23130082.788 7  96032170.25407     -2212.079 7        42.159
R03        21.000    23112340.814 7 123722000.55807     -4991.728 7        43.786                                                                    23112350.779 6  96228178.07506     -3882.374 6        40.520
I06        22.000    38527407.911 6 151189909.58906      -490.853 6        41.166
S28        23.000    41071908.541 5 215834166.65405      -518.296 5        35.105
S23        25.000    38316726.586 7 201355603.35107      -512.342 7        44.986
S45        26.000    63568296.839 6 334055149.44406      -567.977 6        36.336
C07        27.000                                                                                                                                    39762865.087 6 207055582.19706     -1346.258 6        39.069    39762866.749 6 160108481.49106     -1041.004 6        41.866    39762863.432 6 168249585.64406     -1094.143 6        38.880
R04        28.000    20683283.192 8 110758014.92108     -2654.300 8        51.363                                                                    20683284.828 7  86145096.84907     -2064.502 7        46.591
C40        29.000                                                                                                                                    40106684.414 6 208845933.24506     -1627.518 6        40.777                                                                    40106690.097 6 169704412.09206     -1322.542 6        40.043
G17        30.000    23482951.783 7 123403830.56907     -3158.353 7        42.737                                    23482954.365 6  96158879.15506     -2461.048 6        38.153    23482954.902 6  96158876.14106     -2461.064 6        39.640
G23        32.000    25298977.911 6 132946846.12006     -3385.034 6        37.180                                    25298985.576 2 103594886.90202     -2637.707 2        17.698    25298985.863 5 103594881.90305     -2637.549 5        34.486
I02        33.000    37071081.911 7 145474870.27407      -417.648 7        43.261
R15        34.000    22779739.090 7 121728072.72707      2571.322 7        46.356                                                                    22779746.936 6  94677436.94506      1999.885 6        41.948
R13        35.000    21366037.205 7 114093433.24307     -3146.007 7        44.736
C42        37.000                                                                                                                                    24369154.774 7 126896564.83107     -1453.951 7        46.225                                                                    24369166.852 7 103113894.83807     -1181.590 7        46.438
C10        38.000                                                                                                                                    38972486.123 6 202939925.00206     -1039.265 6        41.635    38972488.925 7 156926014.90807      -803.596 7        44.564    38972485.736 6 164905294.18106      -844.713 6        41.063
E25        39.000    25672817.654 7 134911710.48507      1648.499 7        44.372                                                                    25672824.300 7 100745866.65507      1231.019 7        46.518    25672823.214 7 103374006.42107      1263.132 7        46.966
C30        40.000                                                                                                                                    25184870.337 7 131144248.25807     -2161.614 7        43.943                                                                    25184877.887 7 106565480.87807     -1756.502 7        42.449
R23        41.000    21463667.379 7 114816231.87307       438.068 7        47.609
S44        42.000    40994888.374 6 215429585.38206      -449.896 6        38.541
C36        43.000                                                                                                                                    25500424.107 6 132787251.81606     -3203.622 6        41.089                                                                    25500437.080 7 107900507.79907     -2603.401 7        43.410
C05        44.000                                                                                                                                    39624445.063 6 206334767.37306      -526.183 6        38.916    39624448.647 7 159551116.51107      -406.951 7        43.081    39624448.351 6 167663972.72906      -427.746 6        39.598
R14        45.000    19764389.542 8 105355427.29308       275.975 8        52.536                                                                    19764392.513 7  81943192.51307       214.630 7        47.743
E26        46.000    28331690.625 6 148884062.08906     -1126.925 6        36.870                                                                    28331703.803 6 111179718.43906      -841.477 6        40.741    28331702.018 6 114080048.84106      -863.443 6        41.285
G10        47.000    24828693.016 6 130475572.45006     -1874.679 6        41.166                                    24828700.400 5 101669264.38805     -1460.786 5        32.168    24828701.080 5 101669265.39405     -1460.939 5        35.638
C35        48.000                                                                                                                                    25657671.023 7 133606234.03007      2876.728 7        42.550                                                                    25657679.720 7 108566040.10807      2337.514 7        42.296
C45        50.000                                                                                                                                    22185995.488 8 115528313.88208     -1615.643 8        50.392                                                                    22185990.426 8  93876204.11708     -1312.946 8        50.016
S48        51.000    77317100.861 6 406305595.34506      -511.085 6        37.966
E33        53.000    27525749.300 6 144648864.84806      1069.306 6        39.574                                                                    27525759.604 6 108017076.54606       798.394 6        41.983    27525758.101 7 110834902.79207       819.332 7        43.130
C60        54.000                                                                                                                                    40994888.806 6 213471152.29806      -445.716 6        40.319                                                                    40994882.521 6 173462726.50306      -362.353 6        39.000
E31        55.000    25585210.822 7 134451141.98807     -2696.833 7        43.975                                                                    25585217.733 7 100401843.71607     -2013.780 7        46.794    25585216.798 7 103021020.13807     -2066.366 7        47.421
C26        56.000                                                                                                                                    22870691.733 8 119093772.76408      1240.380 8        48.956                                                                    22870693.896 8  96773486.44108      1007.791 8        48.730
C02        57.000                                                                                                                                    41145389.004 5 214254683.99305      -486.036 5        30.996    41145394.886 6 165675254.93106      -375.738 6        36.514    41145394.671 5                      -395.524 5        30.045
I03        58.000    92030971.850 5 285363791.96605       939.726 5        33.377
C21        59.000                                                                                                                                    25369816.206 7 132107141.12607     -3565.365 7        44.373                                                                    25369817.687 7 107347819.02007     -2897.276 7        44.315
R24        60.000    22941016.129 7 122675962.45007      3570.376 7        45.643                                                                    22941025.035 7  95414680.50307      2776.992 7        43.202
> 2025 01 02 11 45 15.0000000  0 54
E24         1.000    23716412.767 8 124630715.97408      -524.855 8        48.989                                                                    23716414.828 8  93068462.34408      -391.919 8        51.133    23716413.908 8  95496323.88108      -402.123 8        51.163
G15         2.000    23390771.989 7 122919194.43007     -4249.527 7        43.860                                    23390776.499 6  95781142.93806     -3311.310 6        38.940    23390776.442 6  95781137.93706     -3311.468 6        40.174
E03         3.000    25653639.297 7 134810786.18907      1159.138 7        43.947                                                                    25653645.139 7 100670405.08407       865.606 7        46.971    25653644.212 7 103296590.46507       888.222 7        47.529
G19         4.000    21424495.633 7 112586649.31307     -1076.090 7        46.479                                    21424493.912 6  87729889.74106      -838.508 6        37.773
S21         5.000    38610306.547 7 202898107.32807      -508.612 7        42.762
E05         6.000    22676645.800 8 119166528.60808     -1655.933 8        48.123                                                                    22676650.196 8  88987963.59708     -1236.562 8        50.432    22676649.382 8  91309388.57308     -1268.803 8        50.693
G25         7.000    23783189.975 6 124981568.90306      2907.088 6        40.725                                    23783196.673 5  97388292.79405      2265.252 5        33.383    23783197.635 6  97388293.81106      2265.610 6        37.365
C29         8.000                                                                                                                                    23436297.655 7 122038973.18407       855.219 7        47.191                                                                    23436299.826 7  99166678.35807       694.892 7        46.762
R05         9.000    21552683.570 8 115211504.48808      1280.669 8        49.071                                                                    21552687.347 7  89609001.94007       996.047 7        45.202
G24        10.000    20221933.476 8 106266985.67508      -792.967 8        50.653                                    20221934.955 8  82805459.57608      -617.897 8        53.103    20221935.075 7  82805464.58707      -617.979 7        46.757
C14        11.000                                                                                                                                    25010610.666 7 130236828.36807        21.238 7        42.610    25010612.667 7 100707407.41607        16.402 7        47.525    25010609.033 7 105828105.30107        17.367 7        44.265
S27        12.000    39374301.814 6 206913185.46106      -535.503 6        36.435
G13        13.000    24901062.421 6 130855761.55106     -4457.821 6        38.694                                    24901070.195 3 101965455.50603     -3473.583 3        18.328
S36        14.000    38381024.378 7 201694083.39807      -508.821 7        44.450
G06        15.000    24764603.612 6 130138875.59206      2279.772 6        37.762                                    24764614.489 5 101406961.44605      1776.445 5        31.774    24764615.399 6 101406963.46106      1776.530 6        38.907
E09        16.000    26904166.182 6 141382221.37206     -3631.787 6        41.812                                                                    26904175.944 7 105577589.09107     -2712.128 7        45.357    26904174.303 7 108331788.29407     -2782.811 7        45.535
G12        17.000    21119654.522 8 110984703.84308      1427.070 8        49.597                                    21119653.391 8  86481668.87808      1111.999 8        48.783    21119654.076 7  86481665.88107      1111.963 7        44.695
G32        18.000    24985230.858 6 131298265.73006      2603.227 6        41.623                                    24985238.782 5 102310374.67305      2028.481 5        34.405    24985239.372 6 102310378.69006      2028.403 6        38.462
R22        19.000    23132740.837 7 123484180.94707     -2848.256 7        44.563                                                                    23132748.664 6  96043238.82506     -2215.179 6        41.843
R03        21.000    23117005.401 7 123746963.07907     -4993.001 7        44.033                                                                    23117014.069 6  96247593.33106     -3883.510 6        40.629
I06        22.000    38528033.217 6 151192365.44906      -491.206 6        41.251
S28        23.000    41072408.499 5 215836760.27805      -518.552 5        35.290
S23        25.000    38317213.416 7 201358166.88707      -512.841 7        44.880
S45        26.000    63568785.614 6 334056290.88016      -568.489 6        36.253
C07        27.000                                                                                                                                    39764158.041 6 207062315.98106     -1346.909 6        38.991    39764159.810 6 160113688.48606     -1041.522 6        41.642    39764156.601 6 168255057.38806     -1094.474 6        38.814
R04        28.000    20685763.582 8 110771298.66608     -2658.832 8        51.224                                                                    20685765.495 7  86155428.63807     -2068.000 7        46.366
C40        29.000                                                                                                                                    40108247.387 6 208854072.83706     -1628.367 6        40.660                                                                    40108253.206 6 169711026.16306     -1323.040 6        40.055
G17        30.000    23485958.049 7 123419629.13107     -3160.732 7        42.639                                    23485960.838 6  96171189.69806     -2462.902 6        38.084    23485960.555 6  96171186.69006     -2462.975 6        39.880
G23        32.000    25302198.935 6 132963774.25206     -3386.173 6        37.096                                    25302207.036 2 103608077.62102     -2638.562 2        16.604    25302207.759 5 103608072.59805     -2638.427 5        35.100
I02        33.000    37071614.712 7 145476960.89107      -418.333 7        43.369
R15        34.000    22777333.514 7 121715219.79907      2570.111 7        46.072                                                                    22777341.272 7  94667440.22807      1998.839 7        42.000
R13        35.000    21368983.636 7 114109167.97707     -3147.605 7        44.379
C42        37.000                                                                                                                                    24370552.504 7 126903843.20707     -1457.078 7        46.312                                                                    24370564.606 7 103119809.10407     -1183.959 7        46.359
C10        38.000                                                                                                                                    38973484.679 6 202945123.82306     -1040.033 6        41.318    38973487.278 7 156930034.96907      -804.221 7        44.534    38973484.279 6 164909518.63806      -845.057 6        40.896
E25        39.000    25671249.874 7 134903471.96607      1647.039 7        44.059                                                                    25671256.523 7 100739714.52107      1230.085 7        46.661    25671255.416 7 103367693.79507      1262.122 7        47.025
C30        40.000                                                                                                                                    25186947.543 7 131155063.86607     -2164.478 7        43.723                                                                    25186954.753 7 106574269.42607     -1758.797 7        42.235
R23        41.000    21463260.757 7 114814054.80807       433.032 7        47.719
S44        42.000    40995317.104 6 215431836.24606      -450.333 6        38.547
C36        43.000                                                                                                                                    25503500.699 6 132803272.97106     -3204.608 6        40.968                                                                    25503513.851 7 107913526.25507     -2603.926 7        43.721
C05        44.000                                                                                                                                    39624950.347 6 206337400.55606      -526.737 6        38.871    39624954.311 7 159553152.64107      -407.309 7        43.064    39624954.051 6 167666112.39206      -427.959 6        39.541
R14        45.000    19764131.504 8 105354054.06108       273.526 8        52.390                                                                    19764135.352 8  81942124.43608       212.732 8        48.216
E26        46.000    28332764.535 6 148889704.20606     -1129.766 6        36.839                                                                    28332777.406 6 111183931.71506      -843.619 6        40.713    28332775.456 6 114084372.02906      -865.673 6        41.302
G10        47.000    24830478.329 6 130484954.16606     -1877.829 6        41.075                                    24830485.772 5 101676574.79105     -1463.240 5        32.204    24830485.620 5 101676575.79105     -1463.309 5        35.971
C35        48.000                                                                                                                                    25654909.443 7 133591852.33607      2876.084 7        42.457                                                                    25654917.950 7 108554353.82307      2337.034 7        42.070
C45        50.000                                                                                                                                    22187547.749 8 115536397.17908     -1617.480 8        50.324                                                                    22187542.744 8  93882772.44908     -1314.310 8        49.946
S48        51.000    77317586.050 6 406308150.93206      -511.493 6        38.024
E33        53.000    27524732.839 6 144643525.78306      1066.723 6        38.622                                                                    27524743.431 6 108013089.61306       796.607 6        41.838    27524741.983 7 110830811.85007       817.402 7        42.976
C60        54.000                                                                                                                                    40995317.264 6 213473382.69006      -446.193 6        40.436                                                                    40995310.804 6 173464538.87406      -362.559 6        38.832
E31        55.000    25587777.418 7 134464629.13807     -2697.882 7        43.998                                                                    25587784.210 7 100411915.27707     -2014.647 7        46.987    25587783.174 7 103031354.43107     -2067.165 7        47.327
C26        56.000                                                                                                                                    22869501.674 8 119087575.46608      1238.818 8        48.972                                                                    22869503.726 8  96768450.62808      1006.643 8        48.667
C02        57.000                                                                                                                                    41145855.300 5 214257115.72705      -486.574 5        30.755    41145862.117 6 165677135.27506      -375.923 6        36.314    41145861.509 5                      -395.410 5        30.083
I03        58.000    92029775.059 5 285359096.67005       938.892 5        33.263
C21        59.000                                                                                                                                    25373240.262 7 132124971.84407     -3566.718 7        43.729                                                                    25373241.676 7 107362307.88307     -2898.181 7        44.217
R24        60.000    22937678.286 7 122658115.49707      3568.672 7        45.837                                                                    22937687.194 7  95400799.55207      2775.688 7        42.925
> 2025 01 02 11 45 20.0000000  0 54
E24         1.000    23716912.868 8 124633343.50908      -526.187 8        48.776                                                                    23716914.844 8  93070424.46908      -392.919 8        50.984    23716913.925 8  95498337.19008      -403.169 8        50.916
G15         2.000    23394816.005 7 122940444.48807     -4250.378 7        44.271                                    23394820.174 6  95797701.38006     -3311.973 6        38.736    23394820.215 6  95797696.36906     -3312.061 6        40.081
E03         3.000    25652537.161 7 134804995.20607      1157.307 7        43.754                                                                    25652543.070 7 100666080.66107       864.230 7        47.009    25652542.181 7 103292153.22907       886.731 7        47.307
G19         4.000    21425521.215 7 112592038.01507     -1079.401 7        46.504                                    21425519.376 6  87734088.72706      -841.090 6        37.664
S21         5.000    38610787.922 7 202900650.48307      -508.712 7        42.745
E05         6.000    22678222.527 7 119174813.89107     -1658.132 7        47.998                                                                    22678226.785 8  88994150.65108     -1238.234 8        50.322    22678226.033 8  91315737.03208     -1270.514 8        50.663
G25         7.000    23780423.617 6 124967034.79706      2906.483 6        40.236                                    23780430.880 5  97376967.57405      2264.780 5        33.335    23780431.540 6  97376968.62406      2264.425 6        37.032
C29         8.000                                                                                                                                    23435478.014 7 122034703.52807       852.778 7        47.534                                                                    23435479.904 7  99163208.92807       692.875 7        46.648
R05         9.000    21551487.515 8 115205111.55908      1276.474 8        49.614                                                                    21551491.638 7  89604029.66707       992.893 7        44.829
G24        10.000    20222689.415 8 106270957.33508      -795.709 8        50.440                                    20222690.731 8  82808554.37808      -620.033 8        53.014    20222691.146 7  82808559.38107      -619.976 7        46.726
C14        11.000                                                                                                                                    25010591.290 7 130236729.55107        18.394 7        42.578    25010592.926 7 100707331.00707        14.219 7        47.376    25010590.091 7 105828025.02607        14.869 7        44.117
S27        12.000    39374813.538 6 206915862.98806      -535.496 6        36.639
G13        13.000    24905303.578 6 130878050.57006     -4457.767 6        38.387                                    24905311.721 2 101982823.50602     -3473.553 2        17.736
S36        14.000    38381508.212 7 201696627.71207      -508.735 7        44.689
G06        15.000    24762435.735 6 130127479.97206      2278.722 6        37.769                                    24762446.119 5 101398081.74305      1775.626 5        32.162    24762446.407 6 101398083.76006      1775.453 6        38.703
E09        16.000    26907622.054 6 141400381.84006     -3632.326 6        41.990                                                                    26907631.837 7 105591150.42307     -2712.535 7        45.111    26907630.183 7 108345703.41007     -2783.236 7        45.245
G12        17.000    21118297.641 8 110977573.71408      1425.042 8        49.343                                    21118296.589 8  86476112.94208      1110.422 8        48.707    21118297.262 7  86476109.94507      1110.430 7        44.835
G32        18.000    24982754.813 6 131285253.61006      2601.719 6        41.032                                    24982762.692 5 102300235.39705      2027.311 5        34.429    24982763.058 6 102300239.40606      2027.400 6        38.162
R22        19.000    23135410.183 7 123498430.53407     -2851.679 7        43.945                                                                    23135418.577 7  96054321.82207     -2218.017 7        42.174
R03        21.000    23121669.994 7 123771929.76407     -4993.623 7        44.220                                                                    23121677.941 6  96267011.80006     -3883.765 6        40.477
I06        22.000    38528659.434 6 151194821.58706      -491.258 6        41.290
S28        23.000    41072901.192 5 215839353.80205      -518.869 5        35.152
S23        25.000    38317703.152 7 201360730.89507      -512.754 7        44.895
S45        26.000    63569278.101 6 334059132.84906      -568.266 6        36.382
C07        27.000                                                                                                                                    39765451.760 6 207069051.38606     -1347.351 6        38.868    39765453.563 6 160118896.70506     -1041.773 6        41.583    39765450.086 6 168260530.45506     -1094.652 6        38.456
R04        28.000    20688247.933 8 110784603.07208     -2662.894 8        50.751                                                                    20688250.058 7  86165776.49107     -2071.130 7        46.049
