     3.04           OBSERVATION DATA    M                   RINEX VERSION / TYPE
ssrcrin-15.6.1x                         20250102 150000 UTC PGM / RUN BY / DATE 
(00000000023479385599111004) Septentrio proprietary         COMMENT             
rref                                                        MARKER NAME         
01                                                          MARKER NUMBER       
geodetic                                                    MARKER TYPE         
NFB                 CLIMERS@TUW                             OBSERVER / AGENCY   
3297213             SEPT ASTERX SB3 PROB4.14.4              REC # / TYPE / VERS 
Unknown             Unknown                                 ANT # / TYPE        
  4127831.8364  1207193.1222  4695247.6976                  APPROX POSITION XYZ 
        0.0000        0.0000        0.0000                  ANTENNA: DELTA H/E/N
G   23 X1  C1C L1C D1C S1C C1W S1W C2W L2W D2W S2W C2L L2L  SYS / # / OBS TYPES 
       D2L S2L C5Q L5Q D5Q S5Q C1L L1L D1L S1L              SYS / # / OBS TYPES 
E   21 X1  C1C L1C D1C S1C C6C L6C D6C S6C C5Q L5Q D5Q S5Q  SYS / # / OBS TYPES 
       C7Q L7Q D7Q S7Q C8Q L8Q D8Q S8Q                      SYS / # / OBS TYPES 
S    9 X1  C1C L1C D1C S1C C5I L5I D5I S5I                  SYS / # / OBS TYPES 
R   17 X1  C1C L1C D1C S1C C2P L2P D2P S2P C2C L2C D2C S2C  SYS / # / OBS TYPES 
       C3Q L3Q D3Q S3Q                                      SYS / # / OBS TYPES 
C   25 X1  C1P L1P D1P S1P C5P L5P D5P S5P C2I L2I D2I S2I  SYS / # / OBS TYPES 
       C7I L7I D7I S7I C6I L6I D6I S6I C7D L7D D7D S7D      SYS / # / OBS TYPES 
J   17 X1  C1C L1C D1C S1C C2L L2L D2L S2L C5Q L5Q D5Q S5Q  SYS / # / OBS TYPES 
       C1L L1L D1L S1L                                      SYS / # / OBS TYPES 
I    5 X1  C5A L5A D5A S5A                                  SYS / # / OBS TYPES 
SEPTENTRIO RECEIVERS OUTPUT ALIGNED CARRIER PHASES.         COMMENT             
NO FURTHER PHASE SHIFT APPLIED IN THE RINEX ENCODER.        COMMENT             
G L1C                                                       SYS / PHASE SHIFT   
G L2W                                                       SYS / PHASE SHIFT   
G L2L  0.00000                                              SYS / PHASE SHIFT   
G L5Q  0.00000                                              SYS / PHASE SHIFT   
G L1L  0.00000                                              SYS / PHASE SHIFT   
E L1C  0.00000                                              SYS / PHASE SHIFT   
E L6C  0.00000                                              SYS / PHASE SHIFT   
E L5Q  0.00000                                              SYS / PHASE SHIFT   
E L7Q  0.00000                                              SYS / PHASE SHIFT   
E L8Q  0.00000                                              SYS / PHASE SHIFT   
S L1C                                                       SYS / PHASE SHIFT   
S L5I                                                       SYS / PHASE SHIFT   
R L1C                                                       SYS / PHASE SHIFT   
R L2P  0.00000                                              SYS / PHASE SHIFT   
R L2C                                                       SYS / PHASE SHIFT   
R L3Q  0.00000                                              SYS / PHASE SHIFT   
C L1P  0.00000                                              SYS / PHASE SHIFT   
C L5P  0.00000                                              SYS / PHASE SHIFT   
C L2I                                                       SYS / PHASE SHIFT   
C L7I                                                       SYS / PHASE SHIFT   
C L6I                                                       SYS / PHASE SHIFT   
C L7D                                                       SYS / PHASE SHIFT   
J L1C                                                       SYS / PHASE SHIFT   
J L2L  0.00000                                              SYS / PHASE SHIFT   
J L5Q  0.00000                                              SYS / PHASE SHIFT   
J L1L  0.00000                                              SYS / PHASE SHIFT   
I L5A                                                       SYS / PHASE SHIFT   
  2025     1     2    15     0    0.0000000     GPS         TIME OF FIRST OBS   
 C1C    0.000 C2C    0.000 C2P    0.000                     GLONASS COD/PHS/BIS 
DBHZ                                                        SIGNAL STRENGTH UNIT
    18                                                      LEAP SECONDS        
 24 R01  1 R02 -4 R03  5 R04  6 R05  1 R06 -4 R07  5 R08  6 GLONASS SLOT / FRQ #
    R09 -2 R10 -7 R11  0 R12 -1 R13 -2 R14 -7 R15  0 R16 -1 GLONASS SLOT / FRQ #
    R17  4 R18 -3 R19  3 R20  2 R21  4 R22 -3 R23  3 R24  2 GLONASS SLOT / FRQ #
                                                            END OF HEADER       
> 2025 01 02 15 00  0.0000000  0 55
E24         1.000    26445629.199 7 138972826.60607     -2686.510 7        42.701                                                                    26445632.287 7 103778474.88007     -2006.170 7        45.276    26445631.311 7 106485728.63907     -2058.463 7        46.220
E11         2.000    24582149.881 7 129180225.42707      1074.171 7        44.050                                                                    24582149.890 7  96465865.07807       802.064 7        45.670    24582149.062 7  98982353.61107       823.110 7        46.341
E03         3.000    27535235.107 6 144698563.28506     -3302.191 6        39.165                                                                    27535246.951 6 108054112.00806     -2465.969 6        40.970    27535245.394 7 110872918.48007     -2530.400 7        42.565
S21         5.000    38550728.057 7 202585035.10107      -497.895 7        42.990
G26         6.000    24924182.894 6 130977508.49006      2919.752 6        36.393                                    24924193.414 4 102060479.64804      2275.112 4        27.665    24924194.195 5 102060466.66305      2275.425 5        33.437
G25         7.000    20007489.326 8 105140234.72008     -1221.455 8        49.360                                    20007490.266 8  81927539.19808      -951.783 8        50.179    20007490.898 7  81927540.20207      -951.836 7        45.180
C29         8.000                                                                                                                                    26736878.490 6 139226009.92506     -3741.027 6        38.979                                                                    26736878.474 6 113132563.10406     -3040.037 6        38.730
E36         9.000    27003073.300 6 141902183.31306      2756.097 6        40.424                                                                    27003082.751 7 105966025.17407      2058.138 7        44.451    27003081.126 7 108730347.56507      2111.825 7        44.546
G20        11.000    24402197.352 6 128234470.18706      1422.716 6        39.622                                    24402197.239 3  99923010.23103      1108.606 3        22.324
S27        12.000    39348855.796 6 206779608.33306      -499.630 6        36.556
E08        13.000    26811743.330 6 140896785.84206     -1677.298 6        41.654                                                                    26811750.285 7 105215228.22007     -1252.558 7        43.395    26811748.856 7 107959960.74307     -1285.165 7        43.956
S36        14.000    38322038.824 7 201384091.21607      -497.858 7        44.764
G06        15.000    25241443.083 5 132644827.29005     -3810.325 5        35.795                                    25241444.109 4 103359687.78104     -2969.107 4        28.133    25241444.922 5 103359689.78805     -2969.128 5        35.614
G18        16.000    25283300.257 6 132864678.13406      3317.523 6        39.012                                    25283309.178 3 103530966.84203      2585.055 3        21.738    25283309.004 6 103530974.88606      2584.857 6        39.159
G12        17.000    22349820.648 7 117449270.89207     -3231.982 7        45.825                                    22349819.532 7  91518993.90707     -2518.429 7        43.609    22349819.928 6  91518990.90506     -2518.402 6        41.626
G32        18.000    24689727.907 6 129745369.65106     -3244.350 6        40.360                                    24689736.844 5 101100321.63205     -2528.059 5        31.879    24689737.087 5 101100325.59305     -2527.938 5        35.167
E02        19.000    25092476.566 7 131861978.13607      1452.700 7        44.516                                                                    25092480.762 7  98468450.71507      1084.779 7        47.506    25092479.536 8 101037180.23708      1113.093 8        48.192
E10        21.000    24905718.095 7 130880622.61707      -522.823 7        46.183                                                                    24905720.849 8  97735655.08608      -390.476 8        48.504    24905720.288 8 100285266.86108      -400.650 8        49.790
I06        22.000    38756370.314 7 152088442.60407      -440.751 7        42.076
S28        23.000    41028443.846 5 215605856.47705      -501.040 5        34.957
S23        25.000    38268506.947 7 201102256.29307      -502.698 7        45.198
S45        26.000    63524872.434 6 333825675.88906      -562.157 6        36.212
R18        28.000    20570642.075 8 109807725.83808      2775.389 8        51.062                                                                    20570645.993 7  85406147.48207      2158.642 7        46.538
C38        29.000                                                                                                                                    39708219.956 6 206771175.93406       954.263 6        40.946                                                                    39708220.534 6 168018549.18206       775.424 6        41.654
C44        30.000                                                                                                                                    21937236.195 8 114233130.78708      1091.411 8        50.511                                                                    21937236.923 8  92823853.00208       886.801 8        49.091
E12        31.000    26140459.109 6 137369181.60806     -1844.055 6        40.067                                                                    26140459.933 7 102580982.26107     -1377.191 7        42.969    26140459.315 7 105256992.30507     -1413.089 7        43.680
G11        32.000    22860857.412 7 120134789.73907     -2116.819 7        44.402                                    22860857.373 5  93611616.90205     -1649.469 5        32.527    22860857.361 7  93611607.90907     -1649.512 7        43.572
I02        33.000    37645303.598 7 147728256.10307      -728.322 7        42.356
R15        34.000    19626903.636 8 104880359.54108     -1817.785 8        52.781                                                                    19626905.283 7  81573681.81507     -1413.862 7        47.591
R07        35.000    23469274.700 7 125632807.34207     -1310.498 7        45.323                                                                    23469280.379 7  97714395.60607     -1019.267 7        42.008
G29        36.000    20798993.260 8 109299710.69408       839.478 8        49.541                                    20798991.645 8  85168707.35108       654.138 8        50.696    20798992.261 7  85168717.35307       654.116 7        45.831
G31        37.000    23050999.805 7 121133974.95207      2255.540 7        43.509                                    23051000.807 6  94390189.95606      1757.560 6        38.910    23051001.069 6  94390195.97106      1757.623 6        40.191
C10        38.000                                                                                                                                    40466940.661 6 210721967.32806     -1189.962 6        36.117    40466941.719 6 162943590.08006      -920.056 6        40.031    40466939.326 6 171228846.10406      -966.989 6        37.539
E25        39.000    23391581.597 8 122923782.31708      -738.623 8        48.457                                                                    23391584.568 8  91793856.87108      -551.563 8        50.957    23391583.515 8  94188464.26008      -565.976 8        51.172
C12        40.000                                                                                                                                    23653824.828 7 123171810.07907      2299.177 7        44.719    23653825.625 8  95244336.14508      1777.787 8        50.226    23653823.679 7 100087244.39007      1868.213 7        47.424
E07        41.000    28218823.178 6 148290882.61706       694.525 6        36.715                                                                    28218833.195 6 110736706.23806       518.360 6        41.068    28218831.671 6 113625486.99706       532.020 6        41.738
S44        42.000    40769443.831 6 214244976.75006      -416.316 6        38.051
G28        43.000    21661413.332 7 113831660.98107       805.979 7        45.938                                    21661412.870 6  88700079.66306       628.037 6        36.272    21661413.125 7  88700079.67207       627.931 7        46.447
C05        44.000                                                                                                                                    39551920.822 6 205957178.54306      -458.991 6        37.490    39551922.103 7 159259156.27507      -355.102 7        43.528    39551922.125 6 167357163.22906      -373.078 6        39.754
R14        45.000    23210340.980 7 123724239.26107     -4227.675 7        44.360                                                                    23210346.940 7  96230033.93407     -3288.316 7        42.349
R16        46.000    20288573.602 8 108378079.15508      2033.469 8        52.162                                                                    20288576.514 7  84294165.57107      1581.515 7        47.626
R17        47.000    19412585.654 8 103880887.72108      -990.846 8        52.000                                                                    19412586.687 7  80796374.28207      -770.650 7        47.365
C35        48.000                                                                                                                                    22313491.664 8 116192354.82908     -1826.982 8        49.801                                                                    22313492.559 8  94415866.93708     -1484.640 8        49.353
C24        49.000                                                                                                                                    21621339.191 8 112588038.89708       216.551 8        51.048                                                                    21621338.217 8  91487021.71908       175.922 8        50.216
R19        50.000    24250623.288 5 129724531.35305      4070.288 5        30.189                                                                    24250639.047 5 100896913.62905      3166.084 5        35.057
S48        51.000    77263757.279 6 406025270.95206      -524.150 6        37.732
C08        52.000                                                                                                                                    39798485.780 6 207241190.57606      1508.409 6        37.259    39798483.689 6 160252045.54706      1166.255 6        41.554    39798482.511 6 168400446.29306      1225.612 6        39.742
C34        53.000                                                                                                                                    25733226.298 6 133999779.86106      2864.625 6        40.660                                                                    25733233.862 6 108885880.17406      2327.708 6        41.173
C60        54.000                                                                                                                                    40769445.100 6 212297313.79506      -412.448 6        39.574                                                                    40769433.310 6 172508908.77406      -335.328 6        39.895
C25        55.000                                                                                                                                    25061404.406 7 130501443.07807      2494.580 7        42.311                                                                    25061408.430 7 106043181.94607      2027.060 7        43.192
C26        56.000                                                                                                                                    22967620.147 8 119598517.02808     -2711.047 8        48.839                                                                    22967621.932 7  97183634.84307     -2202.930 7        47.973
C02        57.000                                                                                                                                    40970410.004 5 213343637.53005      -413.893 5        32.497    40970410.010 6 164970804.11206      -320.034 6        39.501    40970412.018 6 173359165.67306      -336.368 6        36.008
I03        58.000    87885544.004 6 269096379.29706      1048.060 6        38.477
R06        59.000    24382832.502 5 130111434.16605     -3736.545 5        31.426
R24        60.000    22575438.288 7 120721141.98407     -4401.412 7        46.308                                                                    22575441.313 6  93894287.15406     -3423.277 6        41.595
> 2025 01 02 15 00  5.0000000  0 55
E24         1.000    26448185.784 7 138986261.10107     -2687.127 7        43.088                                                                    26448188.727 7 103788507.14307     -2006.621 7        45.437    26448187.766 7 106496022.60907     -2058.889 7        46.010
E11         2.000    24581129.195 7 129174861.49207      1071.828 7        43.746                                                                    24581129.058 7  96461859.56707       800.317 7        45.985    24581128.339 7  98978243.61007       821.271 7        46.122
E03         3.000    27538377.322 6 144715076.83106     -3302.810 6        38.868                                                                    27538389.424 6 108066443.50706     -2466.306 6        41.418    27538387.991 7 110885571.68307     -2530.785 7        42.366
S21         5.000    38551202.563 7 202587525.49007      -497.949 7        42.938
G26         6.000    24921404.888 6 130962910.14506      2919.620 6        36.877                                    24921415.320 4 102049104.39304      2275.016 4        27.569    24921416.147 5 102049091.39905      2275.203 5        34.433
G25         7.000    20008652.993 8 105146348.88408     -1223.854 8        49.257                                    20008653.756 8  81932303.48408      -953.652 8        50.232    20008654.201 7  81932304.49007      -953.690 7        45.153
C29         8.000                                                                                                                                    26740470.644 6 139244716.38606     -3741.146 6        38.715                                                                    26740470.889 6 113147763.68706     -3040.077 6        38.556
E36         9.000    27000451.172 6 141888404.88906      2755.510 6        40.827                                                                    27000460.706 7 105955736.14407      2057.739 7        44.698    27000459.068 7 108719790.11207      2111.375 7        44.453
G20        11.000    24400845.215 6 128227362.43106      1420.729 6        39.423                                    24400844.828 3  99917471.74603      1107.073 3        22.571
S27        12.000    39349328.375 6 206782107.04206      -499.627 6        36.469
E08        13.000    26813340.319 6 140905178.82606     -1679.529 6        41.514                                                                    26813347.273 7 105221495.70007     -1254.290 7        43.554    26813345.968 7 107966391.72807     -1286.940 7        43.807
S36        14.000    38322509.726 7 201386581.99207      -498.067 7        44.665
G06        15.000    25245068.695 5 132663882.87505     -3811.666 5        35.890                                    25245070.201 4 103374536.35004     -2970.146 4        28.095    25245071.430 5 103374538.40105     -2970.391 5        35.686
G18        16.000    25280143.629 6 132848091.30406      3317.694 6        38.793                                    25280152.718 3 103518042.15103      2585.197 3        21.857    25280152.653 6 103518050.18306      2585.174 6        39.225
G12        17.000    22352896.677 7 117465435.12407     -3233.440 7        45.902                                    22352895.387 7  91531589.41407     -2519.564 7        43.604    22352895.950 6  91531586.41806     -2519.542 6        41.628
G32        18.000    24692816.176 6 129761595.00506     -3245.417 6        39.958                                    24692824.499 5 101112964.72005     -2528.886 5        32.096    24692824.890 5 101112968.70005     -2528.893 5        35.529
E02        19.000    25091094.822 7 131854716.87007      1452.048 7        44.498                                                                    25091098.974 7  98463028.35607      1084.321 7        47.802    25091097.801 8 101031616.42308      1112.616 8        48.015
E10        21.000    24906217.263 7 130883244.19307      -525.472 7        46.203                                                                    24906219.741 8  97737612.77608      -392.413 8        48.677    24906219.123 8 100287275.62208      -402.669 8        49.562
I06        22.000    38756931.943 7 152090647.00907      -440.735 7        42.027
S28        23.000    41028922.207 5 215608361.89705      -501.130 5        34.648
S23        25.000    38268985.826 7 201104770.71807      -502.684 7        45.175
S45        26.000    63525354.998 6 333828487.99306      -562.074 6        36.102
R18        28.000    20568044.253 8 109793857.37008      2772.315 8        51.185                                                                    20568047.238 7  85395360.90007      2156.243 7        46.441
C38        29.000                                                                                                                                    39707304.614 6 206766407.51906       953.335 6        41.132                                                                    39707304.892 6 168014674.47406       774.772 6        41.688
C44        30.000                                                                                                                                    21936189.473 8 114227680.11008      1089.147 8        50.560                                                                    21936190.184 8  92819423.88708       885.053 8        49.090
E12        31.000    26142214.999 6 137378408.97806     -1846.561 6        39.802                                                                    26142215.974 7 102587872.81907     -1378.857 7        43.117    26142215.191 7 105264062.61407     -1414.830 7        43.473
G11        32.000    22862873.449 7 120145382.25207     -2119.879 7        44.206                                    22862873.024 5  93619870.80905     -1651.854 5        32.461    22862873.191 7  93619861.82507     -1651.886 7        43.702
I02        33.000    37646232.427 7 147731898.95507      -728.551 7        42.328
R15        34.000    19628605.583 8 104889456.89308     -1820.897 8        52.294                                                                    19628607.794 7  81580757.53807     -1416.246 7        47.692
R07        35.000    23470500.663 7 125639370.90207     -1314.713 7        44.957                                                                    23470506.984 6  97719500.61006     -1022.468 6        41.759
G29        36.000    20798195.840 8 109295520.19008       837.023 8        49.627                                    20798194.216 8  85165442.03108       652.225 8        50.739    20798194.769 7  85165452.03307       652.224 7        45.890
G31        37.000    23048854.510 7 121122703.14307      2253.341 7        43.441                                    23048855.864 6  94381406.76406      1755.840 6        39.045    23048856.207 6  94381412.79206      1755.844 6        40.420
C10        38.000                                                                                                                                    40468084.068 6 210727917.58806     -1189.857 6        36.212    40468084.434 6 162948191.23106      -920.309 6        39.826    40468081.983 6 171233681.18906      -966.698 6        37.766
E25        39.000    23392285.018 8 122927479.24408      -739.874 8        48.594                                                                    23392288.049 8  91796617.57108      -552.481 8        51.163    23392286.966 8  94191296.97908      -566.947 8        50.982
C12        40.000                                                                                                                                    23651618.028 7 123160319.19007      2297.551 7        44.584    23651618.868 8  95235450.68408      1776.570 8        50.154    23651617.067 7 100077907.12207      1866.984 7        47.556
E07        41.000    28218163.951 6 148287417.03406       692.310 6        36.881                                                                    28218173.615 6 110734118.21106       516.811 6        41.032    28218172.224 6 113622831.46206       530.463 6        41.585
S44        42.000    40769838.703 6 214247059.14406      -416.406 6        37.962
G28        43.000    21660648.331 7 113827639.89507       802.820 7        45.649                                    21660647.668 6  88696946.36606       625.572 6        36.367    21660648.073 7  88696946.37207       625.583 7        46.526
C05        44.000                                                                                                                                    39552361.648 6 205959475.11006      -459.194 6        37.422    39552363.171 7 159260932.13407      -355.058 7        43.617    39552363.112 6 167359029.39206      -373.111 6        40.064
R14        45.000    23214307.117 7 123745382.14107     -4229.108 7        43.856                                                                    23214313.108 6  96246478.37606     -3289.283 6        41.609
R16        46.000    20286671.519 8 108367917.83908      2031.422 8        52.347                                                                    20286674.375 7  84286262.33707      1579.919 7        47.686
R17        47.000    19413513.664 8 103885853.57608      -995.224 8        52.138                                                                    19413514.628 7  80800236.61207      -774.064 7        47.437
C35        48.000                                                                                                                                    22315247.219 8 116201496.19008     -1829.201 8        49.920                                                                    22315248.089 8  94423295.04908     -1486.377 8        49.425
C24        49.000                                                                                                                                    21621132.421 8 112586962.55508       214.278 8        51.105                                                                    21621131.508 8  91486147.10908       174.164 8        50.329
R19        50.000    24246821.753 5 129704180.33705      4070.365 5        30.408                                                                    24246834.285 6 100881085.23406      3165.631 6        36.083
S48        51.000    77264238.336 6 406027891.79106      -524.083 6        37.898
C08        52.000                                                                                                                                    39797037.200 6 207233651.43106      1507.606 6        37.505    39797036.214 6 160246215.80206      1165.688 6        41.809    39797034.639 6 168394320.15106      1225.088 6        39.742
C34        53.000                                                                                                                                    25730476.544 6 133985458.68706      2864.114 6        41.323                                                                    25730483.485 6 108874243.11206      2327.393 6        41.151
C60        54.000                                                                                                                                    40769841.352 6 212299377.25406      -412.536 6        39.547                                                                    40769829.540 6 172510585.53006      -335.293 6        39.805
C25        55.000                                                                                                                                    25059009.537 7 130488972.46007      2493.883 7        42.212                                                                    25059013.535 7 106033048.59207      2026.575 7        43.058
C26        56.000                                                                                                                                    22970224.287 8 119612077.31208     -2712.751 8        49.343                                                                    22970226.075 8  97194653.69808     -2204.362 8        48.071
C02        57.000                                                                                                                                    40970808.251 5 213345708.35105      -414.086 5        32.473    40970807.690 6 164972405.43706      -320.094 6        39.718    40970809.684 6 173360848.39006      -336.436 6        36.019
I03        58.000    87884208.357 6 269091139.00506      1048.080 6        38.721
R06        59.000    24386331.754 4 130130120.65104     -3738.101 4        29.545
R24        60.000    22579554.583 7 120743153.78407     -4403.043 7        46.332                                                                    22579557.119 6  93911407.46006     -3424.520 6        41.874
> 2025 01 02 15 00 10.0000000  0 55
E24         1.000    26450742.448 7 138999698.38807     -2687.694 7        42.789                                                                    26450745.734 7 103798541.49207     -2007.079 7        45.397    26450744.637 7 106506318.73107     -2059.426 7        45.822
E11         2.000    24580110.563 7 129169508.27007      1069.608 7        43.918                                                                    24580110.212 7  96457862.03807       798.797 7        45.862    24580109.678 7  98974141.80307       819.533 7        46.129
E03         3.000    27541520.244 6 144731592.34006     -3303.280 6        39.054                                                                    27541532.231 6 108078776.48706     -2466.640 6        41.273    27541530.556 7 110898226.39307     -2531.091 7        42.129
S21         5.000    38551676.769 7 202590015.48307      -497.951 7        43.073
G26         6.000    24918627.063 6 130948312.16606      2919.501 6        36.665                                    24918637.284 4 102037729.43704      2274.912 4        27.533    24918638.165 5 102037716.43705      2275.309 5        34.767
G25         7.000    20009818.558 8 105152474.52908     -1226.362 8        49.029                                    20009819.418 8  81937076.71508      -955.608 8        50.302    20009820.130 7  81937077.71407      -955.548 7        45.005
C29         8.000                                                                                                                                    26744063.036 6 139263423.49206     -3741.502 6        38.688                                                                    26744063.099 6 113162964.79806     -3040.420 6        38.390
E36         9.000    26997829.984 6 141874628.47106      2755.079 6        40.653                                                                    26997839.173 7 105945448.61507      2057.326 7        44.573    26997837.511 7 108709234.20607      2111.040 7        44.546
G20        11.000    24399494.510 6 128220264.44306      1418.593 6        39.318                                    24399494.326 3  99911940.85403      1105.391 3        22.819
S27        12.000    39349807.491 6 206784605.27706      -499.587 6        36.488
E08        13.000    26814939.716 6 140913582.18706     -1681.683 6        41.235                                                                    26814946.429 7 105227770.93607     -1255.814 7        43.410    26814945.038 7 107972830.66707     -1288.525 7        43.729
S36        14.000    38322985.221 7 201389073.16207      -498.379 7        44.621
G06        15.000    25248695.936 6 132682944.80706     -3813.113 6        36.045                                    25248697.532 4 103389389.87004     -2971.272 4        28.133    25248698.432 5 103389391.90605     -2971.166 5        35.990
G18        16.000    25276987.283 6 132831503.73906      3317.561 6        38.411                                    25276995.873 3 103505116.89503      2585.086 3        21.595    25276995.858 6 103505124.94006      2585.270 6        39.039
G12        17.000    22355973.652 7 117481605.56307     -3234.697 7        45.527                                    22355972.440 7  91544189.75807     -2520.542 7        43.634    22355972.937 6  91544186.75406     -2520.560 6        41.902
G32        18.000    24695904.254 6 129777825.07706     -3246.464 6        39.961                                    24695913.107 5 101125611.48105     -2529.699 5        32.042    24695913.464 5 101125615.47805     -2529.914 5        35.157
E02        19.000    25089713.605 7 131847458.08207      1451.480 7        44.352                                                                    25089717.645 7  98457607.84307      1083.906 7        47.824    25089716.445 8 101026054.49808      1112.190 8        48.012
E10        21.000    24906718.442 7 130885878.13307      -527.968 7        46.004                                                                    24906720.938 8  97739579.68308      -394.249 8        48.632    24906720.349 8 100289293.83708      -404.520 8        49.463
I06        22.000    38757493.540 6 152092850.92606      -440.742 6        41.845
S28        23.000    41029397.169 5 215610866.55005      -500.985 5        34.990
S23        25.000    38269464.451 7 201107284.58807      -502.775 7        45.065
S45        26.000    63525832.974 6 333831299.55106      -562.068 6        36.408
R18        28.000    20565448.774 8 109780003.56608      2769.300 8        51.184                                                                    20565452.418 7  85384585.76507      2153.925 7        46.701
C38        29.000                                                                                                                                    39706389.638 6 206761643.07706       952.563 6        41.406                                                                    39706389.999 6 168010803.00706       773.860 6        41.623
C44        30.000                                                                                                                                    21935144.866 8 114222240.37308      1086.855 8        50.577                                                                    21935145.552 8  92815003.66908       883.058 8        49.136
E12        31.000    26143972.556 6 137387647.04206     -1848.662 6        39.312                                                                    26143973.909 7 102594771.38507     -1380.484 7        42.963    26143973.205 7 105271141.15107     -1416.494 7        43.475
G11        32.000    22864892.069 7 120155989.15507     -2122.837 7        44.579                                    22864891.416 5  93628135.93605     -1654.165 5        32.545    22864891.502 7  93628126.93607     -1654.162 7        43.380
I02        33.000    37647160.776 7 147735541.99307      -728.570 7        42.334
R15        34.000    19630310.557 8 104898569.20608     -1823.925 8        52.155                                                                    19630312.606 7  81587844.89107     -1418.629 7        47.126
R07        35.000    23471729.578 7 125645954.39707     -1318.722 7        44.497                                                                    23471736.634 6  97724621.13406     -1025.692 6        41.428
G29        36.000    20797400.688 8 109291341.25808       834.674 8        49.605                                    20797398.987 8  85162185.72708       650.395 8        50.821    20797399.064 7  85162195.72907       650.391 7        45.726
G31        37.000    23046711.771 7 121111441.60707      2251.295 7        43.733                                    23046712.848 6  94372631.57606      1754.249 6        38.997    23046713.117 6  94372637.59706      1754.264 6        40.701
C10        38.000                                                                                                                                    40469226.235 6 210733867.18306     -1189.783 6        36.439    40469227.052 6 162952791.85206      -920.248 6        39.577    40469224.509 6 171238515.73106      -966.896 6        37.365
E25        39.000    23392989.585 8 122931181.70008      -741.041 8        48.481                                                                    23392992.619 8  91799382.39608      -553.366 8        50.982    23392991.559 8  94194133.92608      -567.812 8        50.985
C12        40.000                                                                                                                                    23649412.617 7 123148835.63407      2296.036 7        44.865    23649413.450 8  95226570.89008      1775.385 8        50.140    23649411.759 7 100068575.82007      1865.583 7        47.543
E07        41.000    28217506.525 6 148283962.01406       689.893 6        37.240                                                                    28217516.393 6 110731538.12106       515.216 6        41.092    28217514.908 6 113620184.09106       528.690 6        41.692
S44        42.000    40770234.352 6 214249141.10706      -416.305 6        37.720
G28        43.000    21659885.946 7 113823633.80407       799.770 7        45.523                                    21659885.301 6  88693824.73906       623.196 6        36.359    21659885.586 7  88693824.73707       623.180 7        46.355
C05        44.000                                                                                                                                    39552802.233 6 205961771.07406      -459.069 6        37.490    39552803.974 7 159262707.54007      -355.047 7        43.558    39552803.938 6 167360895.07706      -373.166 6        39.865
R14        45.000    23218274.023 7 123766530.43007     -4230.107 7        43.848                                                                    23218280.575 6  96262927.03306     -3290.159 6        41.666
R16        46.000    20284770.952 8 108357766.30708      2029.359 8        51.947                                                                    20284773.927 7  84278366.70307      1578.406 7        47.825
R17        47.000    19414445.670 8 103890840.64308      -999.458 8        52.030                                                                    19414446.604 7  80804115.44607      -777.367 7        47.528
C35        48.000                                                                                                                                    22317004.865 8 116210648.17108     -1831.445 8        49.885                                                                    22317005.568 8  94430731.79708     -1488.286 8        49.307
C24        49.000                                                                                                                                    21620927.971 8 112585896.73008       212.117 8        51.173                                                                    21620926.838 8  91485281.05108       172.282 8        50.240
R19        50.000    24243015.722 5 129683830.77705      4069.602 5        30.257                                                                    24243030.028 6 100865257.95706      3165.352 6        36.295
S48        51.000    77264718.848 6 406028911.48116      -523.876 6        37.879
C08        52.000                                                                                                                                    39795590.742 6 207226115.43106      1506.854 6        37.792    39795588.978 6 160240388.51906      1165.094 6        41.933    39795587.625 6 168388196.54906      1224.204 6        39.727
C34        53.000                                                                                                                                    25727726.417 6 133971139.67306      2863.609 6        41.857                                                                    25727733.365 6 108862607.81106      2326.888 6        40.963
C60        54.000                                                                                                                                    40770237.382 6 212301440.28606      -412.566 6        39.438                                                                    40770225.721 6 172512261.93306      -335.466 6        39.892
C25        55.000                                                                                                                                    25056615.384 7 130476504.43407      2493.421 7        42.650                                                                    25056619.118 7 106022917.32407      2026.037 7        43.196
C26        56.000                                                                                                                                    22972830.265 8 119625645.93808     -2714.566 8        49.303                                                                    22972831.803 7  97205679.32507     -2205.903 7        47.998
C02        57.000                                                                                                                                    40971205.501 5 213347778.60705      -414.087 5        32.533    40971204.931 6 164974006.30806      -320.014 6        39.574    40971207.430 5 173362530.68805      -336.354 5        35.971
I03        58.000    87882873.277 6 269085898.17906      1048.291 6        38.510
R06        59.000    24389835.626 5 130148815.52305     -3739.854 5        30.453
R24        60.000    22583671.251 7 120765172.87907     -4404.562 7        45.481                                                                    22583674.866 6  93928533.44006     -3425.636 6        40.899
> 2025 01 02 15 00 15.0000000  0 55
E24         1.000    26453299.874 7 139013138.36207     -2688.287 7        42.686                                                                    26453303.399 7 103808577.82407     -2007.467 7        45.783    26453302.073 7 106516616.88607     -2059.933 7        45.899
E11         2.000    24579094.188 7 129164165.69107      1067.381 7        43.826                                                                    24579093.635 7  96453872.46107       797.162 7        46.004    24579092.994 7  98970048.14207       818.005 7        46.008
E03         3.000    27544663.765 6 144748109.73506     -3303.741 6        38.883                                                                    27544675.208 6 108091110.87806     -2467.095 6        41.189    27544673.673 6 110910882.54806     -2531.440 6        41.952
S21         5.000    38552148.602 7 202592505.27807      -497.982 7        43.073
G26         6.000    24915848.505 6 130933714.48706      2919.329 6        36.605                                    24915859.334 4 102026354.68904      2274.785 4        27.641    24915859.842 5 102026341.72305      2274.840 5        34.590
G25         7.000    20010986.364 8 105158611.51708     -1228.479 8        49.023                                    20010987.254 8  81941858.78408      -957.256 8        50.258    20010988.040 7  81941859.79407      -957.285 7        45.011
C29         8.000                                                                                                                                    26747655.731 6 139282131.13606     -3741.713 6        38.604                                                                    26747655.722 6 113178166.30306     -3040.261 6        38.610
E36         9.000    26995208.713 6 141860853.98506      2754.555 6        40.534                                                                    26995217.873 7 105935162.52107      2057.052 7        44.587    26995216.429 7 108698679.77807      2110.683 7        44.680
G20        11.000    24398145.212 6 128213176.11106      1416.834 6        40.207                                    24398145.573 3  99906417.47803      1104.024 3        22.819
S27        12.000    39350280.902 6 206787102.66406      -499.490 6        36.461
E08        13.000    26816540.753 6 140921995.87306     -1683.869 6        41.466                                                                    26816547.439 7 105234053.86707     -1257.339 7        43.554    26816546.119 7 107979277.50607     -1290.217 7        43.744
S36        14.000    38323459.638 7 201391564.94007      -498.383 7        44.668
G06        15.000    25252324.591 5 132702012.98405     -3814.266 5        35.919                                    25252326.004 4 103404248.24604     -2972.168 4        28.085    25252327.398 5 103404250.25505     -2972.060 5        35.929
G18        16.000    25273829.951 6 132814915.33906      3317.849 6        38.508                                    25273839.024 3 103492190.99703      2585.311 3        21.286    25273838.903 6 103492199.05206      2585.314 6        38.853
G12        17.000    22359051.676 7 117497782.13507     -3235.890 7        45.404                                    22359050.745 7  91556794.87407     -2521.468 7        43.604    22359051.710 7  91556791.86807     -2521.543 7        42.339
G32        18.000    24698993.981 6 129794059.75806     -3247.480 6        39.721                                    24699002.591 5 101138261.83105     -2530.501 5        31.924    24699002.793 6 101138265.80406     -2530.588 6        36.011
E02        19.000    25088332.683 7 131840201.66507      1451.105 7        44.321                                                                    25088336.817 7  98452189.11007      1083.535 7        47.886    25088335.563 7 101020494.40607      1111.854 7        47.971
E10        21.000    24907221.712 7 130888524.33907      -530.433 7        46.012                                                                    24907224.406 8  97741555.75508      -396.097 8        48.761    24907223.918 8 100291321.46208      -406.455 8        49.553
I06        22.000    38758054.926 6 152095054.27306      -440.689 6        41.857
S28        23.000    41029872.122 5 215613370.57205      -500.674 5        34.619
S23        25.000    38269940.907 7 201109798.02407      -502.576 7        45.097
S45        26.000    63526311.174 6 333834110.55006      -562.131 6        36.234
R18        28.000    20562855.860 8 109766164.38908      2766.375 8        50.761                                                                    20562859.226 7  85373821.95707      2151.651 7        46.342
C38        29.000                                                                                                                                    39705475.400 6 206756882.54206       951.777 6        41.731                                                                    39705475.777 6 168006934.69206       773.364 6        41.824
C44        30.000                                                                                                                                    21934102.239 8 114216811.48808      1084.679 8        50.499                                                                    21934102.981 8  92810592.25808       881.428 8        49.255
E12        31.000    26145732.728 6 137396895.76306     -1850.735 6        39.339                                                                    26145733.874 7 102601677.89207     -1382.038 7        43.158    26145733.028 7 105278227.83507     -1418.207 7        43.295
G11        32.000    22866913.479 7 120166610.34507     -2125.736 7        44.513                                    22866912.522 5  93636412.18905     -1656.416 5        32.485    22866912.683 7  93636403.18507     -1656.347 7        42.868
I02        33.000    37648089.200 7 147739185.05707      -728.611 7        42.472
R15        34.000    19632019.020 8 104907696.29508     -1826.880 8        52.270                                                                    19632020.733 7  81594943.73007     -1420.853 7        47.152
R07        35.000    23472963.266 7 125652557.61007     -1322.616 7        43.050                                                                    23472970.650 6  97729756.97406     -1028.786 6        41.757
G29        36.000    20796607.449 8 109287173.81508       832.416 8        49.433                                    20796605.936 8  85158938.37508       648.633 8        50.800    20796606.281 7  85158948.39307       648.626 7        45.740
G31        37.000    23044570.707 7 121100190.32207      2249.206 7        43.672                                    23044571.750 6  94363864.37806      1752.621 6        38.949    23044572.190 6  94363870.38406      1752.604 6        40.210
C10        38.000                                                                                                                                    40470368.335 6 210739815.99606     -1189.558 6        36.892    40470369.525 6 162957391.86106      -919.951 6        39.108    40470366.802 6 171243349.64006      -966.607 6        37.456
E25        39.000    23393695.262 8 122934889.63408      -742.141 8        48.230                                                                    23393698.235 8  91802151.30208      -554.158 8        51.249    23393697.107 8  94196975.06708      -568.637 8        50.949
C12        40.000                                                                                                                                    23647209.100 7 123137359.28507      2294.592 7        44.670    23647209.697 8  95217696.67708      1774.279 8        50.021    23647207.756 7 100059250.36007      1864.564 7        47.605
E07        41.000    28216850.761 6 148280517.40006       687.740 6        37.032                                                                    28216861.023 6 110728965.82806       513.597 6        41.228    28216859.453 6 113617544.68606       527.017 6        41.754
S44        42.000    40770631.213 6 214251222.54206      -416.322 6        37.879
G28        43.000    21659126.211 7 113819642.59307       796.810 7        46.060                                    21659125.805 6  88690714.71406       620.888 6        36.318    21659125.843 7  88690714.71907       620.858 7        46.243
C05        44.000                                                                                                                                    39553243.211 6 205964066.43206      -458.965 6        37.626    39553244.916 7 159264482.46807      -354.907 7        43.579    39553244.661 6 167362760.24206      -372.912 6        39.958
R14        45.000    23222242.716 7 123787684.16107     -4231.263 7        44.108                                                                    23222249.197 7  96279379.92207     -3291.140 7        42.188
R16        46.000    20282872.195 8 108347624.43508      2027.395 8        51.545                                                                    20282875.089 7  84270478.59707      1576.915 7        47.604
R17        47.000    19415381.213 8 103895848.65908     -1003.698 8        52.133                                                                    19415382.483 7  80808010.57507      -780.640 7        47.718
C35        48.000                                                                                                                                    22318764.350 8 116219810.67508     -1833.553 8        49.855                                                                    22318765.127 8  94438177.08008     -1489.912 8        49.495
C24        49.000                                                                                                                                    21620725.380 8 112584841.33608       210.011 8        51.261                                                                    21620724.144 8  91484423.45808       170.653 8        50.354
R19        50.000    24239210.823 5 129663482.68405      4069.296 5        30.325                                                                    24239225.820 6 100849431.86306      3165.067 6        36.488
S48        51.000    77265196.100 6 406031530.31406      -523.605 6        37.822
C08        52.000                                                                                                                                    39794144.105 6 207218582.50406      1506.216 6        37.860    39794142.255 7 160234563.59607      1164.781 7        42.129    39794141.184 6 168382075.44706      1223.819 6        40.010
C34        53.000                                                                                                                                    25724976.451 7 133956822.73607      2863.313 7        42.021                                                                    25724983.917 6 108850974.19006      2326.503 6        41.189
C60        54.000                                                                                                                                    40770633.357 6 212303502.80106      -412.410 6        39.601                                                                    40770621.912 6 172513937.91106      -335.184 6        39.754
C25        55.000                                                                                                                                    25054221.671 7 130464038.91707      2492.799 7        42.569                                                                    25054225.228 7 106012788.10007      2025.566 7        43.156
C26        56.000                                                                                                                                    22975437.449 8 119639222.80008     -2716.167 8        49.248                                                                    22975439.103 8  97216711.62408     -2207.073 8        48.123
C02        57.000                                                                                                                                    40971602.380 5 213349848.29205      -413.932 5        32.742    40971602.695 6 164975606.78306      -320.263 6        39.318    40971604.564 5 173364212.50505      -336.339 5        35.848
I03        58.000    87881537.279 6 269080656.79006      1048.316 6        38.222
R06        59.000    24393341.022 5 130167518.69905     -3741.505 5        31.185
R24        60.000    22587790.343 7 120787199.26707     -4405.986 7        45.428                                                                    22587793.817 6  93945665.08906     -3426.780 6        41.149
> 2025 01 02 15 00 20.0000000  0 55
E24         1.000    26455857.915 7 139026581.26207     -2688.855 7        42.542                                                                    26455861.641 7 103818616.36607     -2007.846 7        45.854    26455860.159 7 106526917.29307     -2060.237 7        45.687
E11         2.000    24578079.343 7 129158833.96207      1065.307 7        44.105                                                                    24578079.053 7  96449890.99607       795.575 7        46.001    24578078.383 7  98965962.80507       816.342 7        46.133
E03         3.000    27547807.415 6 144764629.23206     -3304.051 6        38.769                                                                    27547818.830 6 108103446.82006     -2467.146 6        41.187    27547817.263 7 110923540.30607     -2531.658 7        42.104
S21         5.000    38552620.769 7 202594994.80407      -497.794 7        42.899
G26         6.000    24913070.843 6 130919117.31106      2919.458 6        36.862                                    24913081.508 4 102014980.34704      2274.874 4        27.904    24913081.109 5 102014967.36105      2275.081 5        34.700
G25         7.000    20012156.544 8 105164760.10508     -1230.872 8        48.963                                    20012157.299 8  81946649.89308      -959.121 8        50.385    20012158.024 7  81946650.89007      -958.988 7        45.237
C29         8.000                                                                                                                                    26751247.984 6 139300839.50406     -3741.723 6        38.529                                                                    26751248.626 6 113193368.41806     -3040.381 6        38.435
E36         9.000    26992587.813 6 141847081.64806      2754.455 6        40.715                                                                    26992597.003 7 105924878.04507      2056.863 7        44.349    26992595.603 7 108688126.99607      2110.548 7        44.623
G20        11.000    24396798.440 6 128206097.67806      1414.841 6        40.460                                    24396798.850 3  99900901.82703      1102.462 3        23.276
S27        12.000    39350756.897 6 206789599.94606      -499.199 6        36.544
E08        13.000    26818144.424 6 140930420.06506     -1685.835 6        41.387                                                                    26818150.576 7 105240344.66407     -1258.839 7        43.598    26818149.204 7 107985732.40407     -1291.670 7        43.750
S36        14.000    38323932.699 7 201394056.92907      -498.393 7        44.596
G06        15.000    25255954.369 5 132721087.57305     -3815.260 5        35.924                                    25255955.700 4 103419111.63504     -2972.938 4        28.038    25255956.563 5 103419113.67505     -2973.232 5        35.852
G18        16.000    25270673.486 6 132798326.36206      3317.937 6        38.414                                    25270682.045 3 103479264.64603      2585.378 3        21.429    25270681.267 6 103479272.69606      2585.384 6        38.721
G12        17.000    22362131.593 7 117513965.02507     -3237.139 7        45.833                                    22362130.316 7  91569404.91807     -2522.444 7        43.780    22362130.683 7  91569401.91507     -2522.506 7        42.311
G32        18.000    24702084.280 6 129810299.20006     -3248.318 6        40.300                                    24702092.939 5 101150915.89905     -2531.151 5        32.269    24702093.434 6 101150919.87506     -2530.953 6        36.348
E02        19.000    25086952.386 7 131832947.86007      1450.710 7        44.370                                                                    25086956.454 7  98446772.32407      1083.253 7        47.975    25086955.187 7 101014936.31007      1111.558 7        47.943
