     3.04           OBSERVATION DATA    M                   RINEX VERSION / TYPE
ssrcrin-15.6.1x                         20250102 043000 UTC PGM / RUN BY / DATE 
(00000000023479385599111004) Septentrio proprietary         COMMENT             
rref                                                        MARKER NAME         
01                                                          MARKER NUMBER       
geodetic                                                    MARKER TYPE         
NFB                 CLIMERS@TUW                             OBSERVER / AGENCY   
3297213             SEPT ASTERX SB3 PROB4.14.4              REC # / TYPE / VERS 
Unknown             Unknown                                 ANT # / TYPE        
  4127831.8995  1207193.2101  4695247.5711                  APPROX POSITION XYZ 
        0.0000        0.0000        0.0000                  ANTENNA: DELTA H/E/N
G   23 X1  C1C L1C D1C S1C C1W S1W C2W L2W D2W S2W C2L L2L  SYS / # / OBS TYPES 
       D2L S2L C5Q L5Q D5Q S5Q C1L L1L D1L S1L              SYS / # / OBS TYPES 
E   21 X1  C1C L1C D1C S1C C6C L6C D6C S6C C5Q L5Q D5Q S5Q  SYS / # / OBS TYPES 
       C7Q L7Q D7Q S7Q C8Q L8Q D8Q S8Q                      SYS / # / OBS TYPES 
S    9 X1  C1C L1C D1C S1C C5I L5I D5I S5I                  SYS / # / OBS TYPES 
R   17 X1  C1C L1C D1C S1C C2P L2P D2P S2P C2C L2C D2C S2C  SYS / # / OBS TYPES 
       C3Q L3Q D3Q S3Q                                      SYS / # / OBS TYPES 
C   25 X1  C1P L1P D1P S1P C5P L5P D5P S5P C2I L2I D2I S2I  SYS / # / OBS TYPES 
       C7I L7I D7I S7I C6I L6I D6I S6I C7D L7D D7D S7D      SYS / # / OBS TYPES 
J   17 X1  C1C L1C D1C S1C C2L L2L D2L S2L C5Q L5Q D5Q S5Q  SYS / # / OBS TYPES 
       C1L L1L D1L S1L                                      SYS / # / OBS TYPES 
I    5 X1  C5A L5A D5A S5A                                  SYS / # / OBS TYPES 
SEPTENTRIO RECEIVERS OUTPUT ALIGNED CARRIER PHASES.         COMMENT             
NO FURTHER PHASE SHIFT APPLIED IN THE RINEX ENCODER.        COMMENT             
G L1C                                                       SYS / PHASE SHIFT   
G L2W                                                       SYS / PHASE SHIFT   
G L2L  0.00000                                              SYS / PHASE SHIFT   
G L5Q  0.00000                                              SYS / PHASE SHIFT   
G L1L  0.00000                                              SYS / PHASE SHIFT   
E L1C  0.00000                                              SYS / PHASE SHIFT   
E L6C  0.00000                                              SYS / PHASE SHIFT   
E L5Q  0.00000                                              SYS / PHASE SHIFT   
E L7Q  0.00000                                              SYS / PHASE SHIFT   
E L8Q  0.00000                                              SYS / PHASE SHIFT   
S L1C                                                       SYS / PHASE SHIFT   
S L5I                                                       SYS / PHASE SHIFT   
R L1C                                                       SYS / PHASE SHIFT   
R L2P  0.00000                                              SYS / PHASE SHIFT   
R L2C                                                       SYS / PHASE SHIFT   
R L3Q  0.00000                                              SYS / PHASE SHIFT   
C L1P  0.00000                                              SYS / PHASE SHIFT   
C L5P  0.00000                                              SYS / PHASE SHIFT   
C L2I                                                       SYS / PHASE SHIFT   
C L7I                                                       SYS / PHASE SHIFT   
C L6I                                                       SYS / PHASE SHIFT   
C L7D                                                       SYS / PHASE SHIFT   
J L1C                                                       SYS / PHASE SHIFT   
J L2L  0.00000                                              SYS / PHASE SHIFT   
J L5Q  0.00000                                              SYS / PHASE SHIFT   
J L1L  0.00000                                              SYS / PHASE SHIFT   
I L5A                                                       SYS / PHASE SHIFT   
  2025     1     2     4    30    0.0000000     GPS         TIME OF FIRST OBS   
 C1C    0.000 C2C    0.000 C2P    0.000                     GLONASS COD/PHS/BIS 
DBHZ                                                        SIGNAL STRENGTH UNIT
    18                                                      LEAP SECONDS        
 24 R01  1 R02 -4 R03  5 R04  6 R05  1 R06 -4 R07  5 R08  6 GLONASS SLOT / FRQ #
    R09 -2 R10 -7 R11  0 R12 -1 R13 -2 R14 -7 R15  0 R16 -1 GLONASS SLOT / FRQ #
    R17  4 R18 -3 R19  3 R20  2 R21  4 R22 -3 R23  3 R24  2 GLONASS SLOT / FRQ #
                                                            END OF HEADER       
> 2025 01 02 04 30  0.0000000  0 56
G09         1.000    20266176.314 8 106499510.93808     -1367.408 8        49.991                                    20266173.413 8  82986638.18608     -1065.512 8        53.083    20266173.638 7  82986638.18707     -1065.557 7        46.467
G06         2.000    21743924.659 7 114265117.90107     -2220.233 7        47.212                                    21743922.952 7  89037759.40407     -1730.048 7        47.747    21743923.604 7  89037767.40407     -1730.062 7        44.584
E11         3.000    24715050.818 7 129878490.02907      -207.169 7        43.052                                                                    24715045.979 7  96987175.97207      -154.680 7        44.703    24715045.875 7  99517272.24207      -158.739 7        45.505
G16         4.000    23676116.116 6 124418843.36906       129.448 6        39.285                                    23676110.936 3  96949731.73103       100.871 3        22.876
S21         5.000    38557842.426 7 202622519.58907      -481.031 7        42.265
E10         6.000    24592910.972 7 129236629.77507     -1829.925 7        47.516                                                                    24592909.202 8  96507870.24208     -1366.522 8        50.038    24592909.065 8  99025466.25008     -1402.108 8        50.698
G20         7.000    23197099.541 7 121901588.55807      2692.349 7        42.624                                    23197094.009 4  94988231.84604      2097.944 4        26.838
G03         8.000    24198095.702 6 127161936.56606     -3992.307 6        39.021                                    24198094.021 5  99087261.66605     -3110.889 5        33.084    24198095.071 6  99087259.66206     -3110.807 6        37.002
R10         9.000    20863428.133 7 111213810.39207      1827.086 7        45.818
R17        10.000    23660613.184 7 126612723.89107      2682.639 7        43.867                                                                    23660612.640 6  98476555.69406      2086.419 6        40.808
G30        11.000    23651181.219 6 124287804.32906      2960.002 6        41.802                                    23651179.185 6  96847631.35206      2306.494 6        38.577    23651179.288 6  96847639.34406      2306.564 6        38.766
S27        12.000    39190103.970 5 205945397.35805      -490.613 5        35.571
G26        13.000    24718826.153 6 129898314.19006     -2199.385 6        37.002                                    24718824.757 4 101219472.62304     -1713.806 4        28.190    24718825.278 5 101219472.62505     -1713.859 5        34.871
S36        14.000    38325540.735 7 201402598.54507      -481.530 7        44.692
I09        15.000    38048232.244 7 149309433.22807      -757.762 7        42.673
E09        16.000    28628600.784 6 150444321.98706      2038.747 6        36.733                                                                    28628599.092 6 112344783.16506      1522.522 6        37.939    28628598.821 6 115275513.08506      1562.218 6        39.700
S45        17.000    63512551.973 6 333761649.85406      -522.070 6        37.236
E36        18.000    27743513.029 6 145793137.31306      2045.071 6        38.871                                                                    27743513.411 7 108871517.62007      1527.318 7        42.362    27743512.977 7 111711642.56907      1567.221 7        43.071
E12        19.000    25497749.890 7 133991587.70107     -2970.271 7        43.255                                                                    25497745.962 7 100058641.61507     -2217.984 7        44.521    25497746.010 7 102668866.54007     -2275.946 7        46.105
E21        20.000    27216934.061 6 143025948.60306      1803.406 6        39.946                                                                    27216933.440 7 106805106.27007      1346.562 7        43.333    27216933.115 7 109591322.81507      1381.796 7        44.202
G11        21.000    22336420.214 7 117378700.23507       400.936 7        45.499                                    22336416.031 5  91463905.18505       312.420 5        34.748    22336416.282 7  91463918.17507       312.502 7        45.139
I06        22.000    38091541.979 7 149479634.71607      -330.504 7        43.431
S28        23.000    40987082.151 5 215388567.47305      -479.794 5        34.486
R08        24.000    19664179.751 8 105300832.79008      -649.319 8        50.353                                                                    19664177.630 7  81900652.58607      -505.012 7        47.442
S23        25.000    38265624.262 7 201087211.07507      -477.300 7        44.567
R01        26.000    21832771.431 7 116708686.30107      2390.151 7        44.503                                                                    21832771.485 6  90773415.57006      1859.088 6        38.009
R16        27.000    24720039.538 5 132050027.78305     -4411.209 5        33.329                                                                    24720040.378 4 102705578.39204     -3431.158 4        28.749
R24        29.000    21399692.072 8 114433781.23808      -783.753 8        48.340                                                                    21399689.952 7  89004040.96007      -609.521 7        44.492
E19        30.000    23540158.862 7 123704403.81107     -1679.734 7        43.088                                                                    23540156.130 7  92376668.04907     -1254.458 7        45.400    23540156.104 7  94786490.86607     -1287.079 7        46.894
C23        31.000                                                                                                                                    25449599.751 7 132522755.69607     -2549.462 7        42.478                                                                    25449591.052 7 107685562.22307     -2071.554 7        43.441
R23        32.000    22388314.364 7 119762392.75507     -4467.384 7        45.610
E29        33.000    27185181.951 6 142859174.56306     -2939.444 6        39.318                                                                    27185180.176 7 106680566.37107     -2195.025 7        43.297    27185180.409 7 109463532.28207     -2252.272 7        44.185
E04        34.000    24375931.201 7 128096419.34607       972.871 7        46.683                                                                    24375928.567 8  95656428.75108       726.542 8        49.625    24375928.542 8  98151809.28708       745.510 8        50.871
C16        35.000                                                                                                                                    40024356.619 6 208417360.33606     -1490.211 6        40.434    40024355.872 6 161161536.18706     -1152.274 6        40.677    40024353.794 6 169356177.98906     -1210.911 6        37.331
C32        36.000                                                                                                                                    25483036.271 7 132696904.54507     -3129.902 7        44.161                                                                    25483035.901 7 107827124.44307     -2543.164 7        44.299
I01        37.000   383508022.088 6 201827043.34206     -2870.498 6        41.628
E27        38.000    27421453.720 6 144100715.88206      -388.975 6        38.823                                                                    27421452.899 7 107607689.26007      -290.404 7        42.245    27421452.454 7 110414842.61207      -298.003 7        42.957
C19        39.000                                                                                                                                    23174353.794 8 120674947.11308      1397.363 8        48.456                                                                    23174348.624 8  98058257.62308      1135.722 8        49.315
C39        40.000                                                                                                                                    40894843.773 6 212950209.97106     -1672.921 6        39.628                                                                    40894839.843 6 173039483.94106     -1359.276 6        38.532
S44        42.000    40893794.781 6 214898544.10306      -550.756 6        38.270
G29        43.000    25912945.539 5 136173442.31805       340.524 5        35.600                                    25912940.788 4 106109162.02104       265.346 4        26.048    25912941.086 5 106109160.99405       265.484 5        33.467
C05        44.000                                                                                                                                    39304107.552 6 204666845.88406      -526.552 6        38.495    39304102.107 7 158261414.12007      -407.088 7        43.346    39304103.775 6 166308682.17406      -427.620 6        40.100
C29        45.000                                                                                                                                    26061947.648 6 135711413.04006     -3509.761 6        41.564                                                                    26061945.301 6 110276636.08306     -2851.763 6        40.827
G04        46.000    21710482.665 7 114089392.65807     -2823.574 7        45.943                                    21710479.046 5  88900811.97505     -2200.187 5        34.267    21710479.125 7  88900813.97507     -2200.156 7        44.266
R11        47.000    23523628.293 7 125703115.21507      4025.584 7        42.844                                                                    23523627.017 6  97769092.34306      3131.144 6        41.852
C20        49.000                                                                                                                                    22086829.967 8 115011948.22308     -1068.192 8        52.353                                                                    22086823.892 8  93456613.48308      -867.804 8        49.997
C06        50.000                                                                                                                                    39449065.511 6 205421671.23006     -1484.143 6        38.826    39449059.779 7 158845050.59507     -1147.673 7        42.561    39449059.505 6 166921915.86306     -1205.726 6        38.817
S48        51.000    77295321.018 6 406189580.25606      -466.368 6        37.909
E06        52.000    26237149.608 6 137877178.93606      1758.023 6        41.986                                                                    26237149.125 7 102960242.85607      1312.850 7        44.685    26237149.072 7 105646160.06707      1346.946 7        45.592
C09        53.000                                                                                                                                    38989533.708 6 203028759.02806     -1117.187 6        41.159    38989530.224 7 156994706.46007      -863.815 7        45.353    38989528.409 6 164977477.59006      -907.706 6        41.852
C60        54.000                                                                                                                                    40893797.409 6 212944940.45206      -545.755 6        40.973                                                                    40893781.134 6 173035177.83606      -443.165 6        39.889
R09        55.000    21260741.468 8 113531201.05508     -1701.184 8        48.518                                                                    21260740.250 7  88302040.33707     -1323.233 7        46.687
G07        56.000    21513419.793 8 113053802.66608      1322.757 8        48.887                                    21513414.578 7  88093855.78907      1030.720 7        47.384    21513414.811 7  88093864.79707      1030.704 7        43.759
C02        57.000                                                                                                                                    40846658.324 5 212699322.92505      -559.625 5        34.676    40846651.945 6 164472603.93506      -432.456 6        39.829    40846655.214 6 172835627.21406      -454.300 6        36.767
I03        58.000   100209700.426 6 317459157.31806       848.910 6        41.135
R07        59.000    21814003.861 7 116772139.59007     -3231.176 7        47.628                                                                    21814002.776 7  90822828.41707     -2513.146 7        43.869
> 2025 01 02 04 30  5.0000000  0 56
G09         1.000    20267478.300 8 106506352.42908     -1369.369 8        50.135                                    20267475.308 8  82991969.21608     -1067.039 8        53.142    20267475.374 7  82991969.21707     -1067.003 7        46.228
G06         2.000    21746038.792 7 114276226.12107     -2223.177 7        47.702                                    21746036.777 7  89046415.15707     -1732.347 7        47.767    21746037.805 7  89046423.15907     -1732.329 7        44.405
E11         3.000    24715249.097 7 129879531.99007      -209.581 7        42.995                                                                    24715244.316 7  96987954.06707      -156.506 7        44.780    24715244.113 7  99518070.63707      -160.674 7        45.454
G16         4.000    23675994.482 6 124418204.13606       126.018 6        39.946                                    23675989.299 3  96949233.62703        98.202 3        22.876
S21         5.000    38558302.802 7 202624924.62107      -481.035 7        42.512
E10         6.000    24594653.091 7 129245784.66207     -1832.199 7        47.653                                                                    24594651.281 8  96514706.68508     -1368.190 8        50.020    24594651.141 8  99032481.03908     -1403.937 8        50.748
G20         7.000    23194537.942 7 121888128.50707      2691.420 7        42.681                                    23194532.596 4  94977743.48804      2097.214 4        26.946
G03         8.000    24201894.214 6 127181899.85006     -3993.118 6        39.294                                    24201892.999 5  99102817.46105     -3111.520 5        33.084    24201893.327 6  99102815.44606     -3111.451 6        37.127
R10         9.000    20861715.604 7 111204684.17107      1823.254 7        45.208
R17        10.000    23658108.901 7 126599317.79507      2679.664 7        43.772                                                                    23658107.175 6  98466128.71606      2084.222 6        40.019
G30        11.000    23648365.429 6 124273006.17606      2959.127 6        41.926                                    23648363.158 6  96836100.32606      2305.812 6        38.643    23648363.982 6  96836108.33806      2305.719 6        38.676
S27        12.000    39190571.442 5 205947850.86905      -490.909 5        35.576
G26        13.000    24720919.534 6 129909317.36006     -2202.327 6        37.093                                    24720918.625 4 101228046.51504     -1716.094 4        28.218    24720918.481 5 101228046.53405     -1716.049 5        34.252
S36        14.000    38325997.963 7 201405005.92807      -481.397 7        45.004
I09        15.000    38049197.814 7 149313222.76707      -758.006 7        42.692
E09        16.000    28626659.788 6 150434128.25506      2038.549 6        36.605                                                                    28626659.146 6 112337171.01006      1521.951 6        37.860    28626659.279 6 115267702.33406      1561.875 6        39.766
S45        17.000    63513007.037 6 333764259.21906      -521.899 6        37.285
E36        18.000    27741567.737 6 145782913.97906      2043.679 6        38.763                                                                    27741568.060 7 108863883.32907      1526.319 7        42.387    27741567.404 7 111703809.12107      1566.115 7        42.984
E12        19.000    25500576.952 7 134006442.41307     -2971.957 7        43.263                                                                    25500572.735 7 100069734.42907     -2219.210 7        44.590    25500572.815 7 102680248.71807     -2277.127 7        46.098
E21        20.000    27215219.009 6 143016935.12106      1801.983 6        39.856                                                                    27215218.314 7 106798375.44407      1345.557 7        43.592    27215217.801 7 109584416.39207      1380.703 7        44.117
G11        21.000    22336040.514 7 117376703.15507       397.655 7        45.848                                    22336035.983 5  91462349.01905       309.859 5        34.738    22336035.931 7  91462362.01807       309.945 7        44.664
I06        22.000    38091963.092 7 149481286.78907      -330.426 7        43.532
S28        23.000    40987537.492 5 215390966.60505      -480.027 5        34.829
R08        24.000    19664786.808 8 105304083.81208      -651.257 8        50.584                                                                    19664784.906 7  81903181.16207      -506.548 7        47.720
S23        25.000    38266078.918 7 201089597.45907      -477.305 7        44.767
R01        26.000    21830536.689 7 116696736.92407      2389.329 7        45.112                                                                    21830537.050 6  90764121.60806      1858.420 6        38.634
R16        27.000    24724170.744 5 132072087.95405     -4412.904 5        33.497                                                                    24724170.515 4 102722736.23404     -3431.745 4        29.014
R24        29.000    21400426.482 8 114437710.47608      -788.142 8        48.950                                                                    21400424.973 7  89007097.03007      -613.018 7        44.995
E19        30.000    23541757.269 7 123712804.46307     -1680.705 7        43.105                                                                    23541754.723 7  92382941.25207     -1254.997 7        45.515    23541754.677 7  94792927.73207     -1287.823 7        46.901
C23        31.000                                                                                                                                    25452049.079 7 132535508.28507     -2551.661 7        42.762                                                                    25452039.920 7 107695924.75607     -2073.539 7        43.141
R23        32.000    22392490.298 7 119784733.81207     -4469.180 7        44.897
E29        33.000    27187978.723 6 142873871.79606     -2939.490 6        39.336                                                                    27187976.919 7 106691541.57107     -2195.126 7        43.141    27187977.110 7 109474793.80007     -2252.435 7        44.298
E04        34.000    24375006.030 7 128091557.28107       971.860 7        46.795                                                                    24375003.341 8  95652797.99208       725.759 8        49.696    24375003.336 8  98148083.82008       744.665 8        50.842
C16        35.000                                                                                                                                    40025787.931 6 208424811.83906     -1490.427 6        40.212    40025787.148 6 161167298.16706     -1152.546 6        40.834    40025784.545 6 169362232.95706     -1211.113 6        37.149
C32        36.000                                                                                                                                    25486041.679 7 132712554.65407     -3130.396 7        43.513                                                                    25486041.267 7 107839841.43807     -2543.808 7        44.057
I01        37.000   383511679.361 6 201841395.86806     -2870.649 6        41.471
E27        38.000    27421825.179 6 144102666.40106      -391.336 6        38.667                                                                    27421824.206 7 107609145.83207      -292.239 7        42.059    27421823.695 7 110416337.18607      -299.894 7        42.955
C19        39.000                                                                                                                                    23173012.414 8 120667962.09908      1396.467 8        48.332                                                                    23173007.183 8  98052581.75408      1134.620 8        49.051
C39        40.000                                                                                                                                    40896450.191 6 212958574.32406     -1672.991 6        39.517                                                                    40896446.431 6 173046280.67606     -1359.481 6        38.159
S44        42.000    40894318.194 6 214901297.07206      -550.565 6        38.625
G29        43.000    25912622.107 5 136171746.71405       337.649 5        35.738                                    25912618.085 4 106107840.75604       263.097 4        25.609    25912618.770 5 106107839.74605       263.307 5        33.934
C05        44.000                                                                                                                                    39304613.145 6 204669477.59406      -526.331 6        38.601    39304607.660 7 158263449.13107      -407.074 7        43.409    39304609.225 6 166310820.67006      -427.849 6        39.907
C29        45.000                                                                                                                                    26065317.300 6 135728961.65306     -3509.837 6        41.712                                                                    26065315.213 6 110290895.78406     -2852.091 6        40.472
G04        46.000    21713169.626 7 114103513.12607     -2824.718 7        46.221                                    21713166.080 5  88911814.93305     -2201.079 5        34.281    21713166.194 7  88911816.93907     -2201.159 7        44.248
R11        47.000    23519861.228 7 125682987.34607      4025.398 7        42.902                                                                    23519860.017 6  97753437.34106      3130.838 6        41.754
C20        49.000                                                                                                                                    22087856.036 8 115017292.36608     -1069.661 8        52.291                                                                    22087850.183 8  93460956.05608      -869.320 8        49.749
C06        50.000                                                                                                                                    39450490.749 6 205429092.12906     -1484.385 6        38.724    39450484.937 7 158850788.91107     -1147.772 7        42.641    39450484.579 6 166927945.97606     -1206.339 6        38.670
S48        51.000    77295770.045 6 406191911.91806      -466.497 6        38.210
E06        52.000    26235477.072 7 137868390.01707      1757.428 7        42.245                                                                    26235476.725 7 102953679.71207      1312.308 7        44.758    26235476.578 7 105639425.70707      1346.568 7        45.582
C09        53.000                                                                                                                                    38990606.809 6 203034345.33006     -1117.615 6        41.118    38990602.881 7 156999026.13807      -864.100 7        45.547    38990601.328 6 164982016.92406      -908.041 6        41.509
C60        54.000                                                                                                                                    40894321.376 6 212947668.39206      -545.579 6        40.989                                                                    40894305.074 6 173037394.54506      -443.560 6        39.853
R09        55.000    21262336.279 8 113539717.45108     -1705.523 8        48.338                                                                    21262335.037 7  88308664.19107     -1326.570 7        46.184
G07        56.000    21512162.254 8 113047194.30808      1320.514 8        48.752                                    21512157.028 7  88088706.41807      1028.975 7        47.423    21512157.269 7  88088715.42507      1028.936 7        43.898
C02        57.000                                                                                                                                    40847195.120 5 212702119.54305      -559.255 5        34.410    40847188.795 6 164474766.46906      -432.610 6        40.246    40847192.166 6 172837899.72906      -454.627 6        36.582
I03        58.000   100208618.865 6 317454912.87806       848.805 6        41.225
R07        59.000    21817022.728 7 116788297.60107     -3232.271 7        47.291                                                                    21817021.680 7  90835395.76707     -2513.988 7        44.274
> 2025 01 02 04 30 10.0000000  0 56
G09         1.000    20268781.933 8 106513203.79808     -1371.205 8        50.087                                    20268779.081 8  82997307.94408     -1068.473 8        53.262    20268779.044 7  82997307.95007     -1068.493 7        46.109
G06         2.000    21748155.416 7 114287349.29107     -2226.042 7        47.327                                    21748153.429 7  89055082.56107     -1734.579 7        47.885    21748154.056 7  89055090.55107     -1734.528 7        44.460
E11         3.000    24715449.839 7 129880586.67507      -212.043 7        42.921                                                                    24715445.018 7  96988741.65607      -158.358 7        44.667    24715444.826 7  99518878.76507      -162.458 7        45.481
G16         4.000    23675875.958 6 124417581.89606       122.747 6        40.179                                    23675870.926 3  96948748.76403        95.651 3        22.800
S21         5.000    38558760.911 7 202627329.82007      -480.956 7        42.574
E10         6.000    24596397.334 7 129254951.27307     -1834.404 7        47.501                                                                    24596395.659 8  96521551.87608     -1369.840 8        50.066    24596395.510 8  99039504.80108     -1405.602 8        50.698
G20         7.000    23191977.444 7 121874673.39507      2690.541 7        42.226                                    23191972.324 4  94967258.99304      2096.518 4        27.102
G03         8.000    24205694.266 6 127201866.85906     -3993.645 6        39.381                                    24205692.635 5  99118376.15605     -3111.930 5        33.108    24205692.733 6  99118374.16606     -3111.998 6        37.149
R10         9.000    20860007.403 7 111195577.55107      1819.511 7        45.178
R17        10.000    23655606.308 7 126585926.21507      2676.999 7        44.048                                                                    23655604.300 6  98455713.04706      2082.030 6        39.604
G30        11.000    23645550.324 7 124258212.88407      2958.299 7        42.129                                    23645548.213 6  96824573.09106      2305.166 6        38.805    23645549.098 6  96824581.09806      2305.092 6        39.048
S27        12.000    39191038.673 5 205950304.93505      -490.662 5        35.576
G26        13.000    24723016.711 6 129920334.78706     -2204.809 6        37.353                                    24723015.181 4 101236631.52404     -1718.035 4        28.360    24723016.336 5 101236631.52805     -1718.022 5        34.748
S36        14.000    38326457.346 7 201407413.57007      -481.547 7        44.965
I09        15.000    38050163.621 7 149317012.94207      -758.079 7        42.703
E09        16.000    28624720.255 6 150423936.04606      2038.351 6        36.544                                                                    28624719.866 6 112329559.91306      1522.154 6        37.762    28624719.970 6 115259892.71106      1561.745 6        39.312
S45        17.000    63513459.131 6 333766868.71506      -521.882 6        37.444
E36        18.000    27739623.404 6 145772697.43006      2042.654 6        38.327                                                                    27739623.892 7 108856254.09007      1525.429 7        42.385    27739623.297 7 111695980.85907      1565.182 7        43.113
E12        19.000    25503404.950 7 134021305.21207     -2973.212 7        43.026                                                                    25503400.990 7 100080833.26607     -2220.274 7        44.524    25503401.105 7 102691637.09207     -2278.192 7        46.017
E21        20.000    27213504.618 6 143007928.23806      1800.837 6        39.498                                                                    27213504.463 7 106791649.51107      1344.720 7        43.570    27213503.718 7 109577515.00007      1379.842 7        43.863
G11        21.000    22335663.727 7 117374722.69207       394.549 7        46.008                                    22335659.110 5  91460805.80005       307.443 5        34.867    22335658.957 7  91460818.79607       307.479 7        44.423
I06        22.000    38092384.147 7 149482939.08807      -330.416 7        43.395
S28        23.000    40987990.172 5 215393365.16405      -479.732 5        34.981
R08        24.000    19665395.698 8 105307344.95108      -653.207 8        50.240                                                                    19665393.373 7  81905717.60207      -508.003 7        47.447
S23        25.000    38266533.387 7 201091983.81307      -477.215 7        44.761
R01        26.000    21828302.058 7 116684791.80707      2388.665 7        44.444                                                                    21828302.904 6  90754830.96406      1857.895 6        38.438
R16        27.000    24728302.496 5 132094156.29505     -4414.755 5        34.086                                                                    24728301.090 4 102739900.45104     -3433.433 4        29.450
R24        29.000    21401165.741 8 114441662.58408      -792.559 8        48.864                                                                    21401164.009 7  89010170.89507      -616.470 7        45.031
E19        30.000    23543356.804 7 123721209.90007     -1681.526 7        43.107                                                                    23543354.204 7  92389218.05407     -1255.691 7        45.428    23543354.210 7  94799368.26807     -1288.420 7        46.793
C23        31.000                                                                                                                                    25454499.872 7 132548271.52707     -2553.677 7        43.022                                                                    25454490.728 7 107706295.93607     -2074.924 7        42.961
R23        32.000    22396667.877 7 119807084.03907     -4470.835 7        44.367
E29        33.000    27190775.502 6 142888569.77506     -2939.416 6        39.141                                                                    27190773.832 7 106702517.33707     -2195.173 7        42.912    27190774.051 7 109486055.88907     -2252.450 7        44.286
E04        34.000    24374081.667 7 128086700.54007       970.960 7        46.766                                                                    24374079.155 8  95649171.21008       725.024 8        49.680    24374079.099 8  98144362.42208       743.936 8        50.794
C16        35.000                                                                                                                                    40027218.237 6 208432264.07606     -1490.452 6        40.112    40027218.024 6 161173060.71006     -1152.610 6        41.030    40027215.831 6 169368288.49106     -1210.827 6        37.047
C32        36.000                                                                                                                                    25489047.586 7 132728207.77407     -3130.843 7        43.208                                                                    25489047.403 7 107852560.86707     -2543.930 7        44.056
I01        37.000   383515336.946 6 201855749.11306     -2870.749 6        41.609
E27        38.000    27422198.897 6 144104629.10106      -393.758 6        39.093                                                                    27422197.568 7 107610611.48007      -293.953 7        42.095    27422197.341 7 110417841.07707      -301.763 7        42.904
C19        39.000                                                                                                                                    23171672.099 8 120660982.11708      1395.573 8        48.390                                                                    23171666.798 8  98046909.93508      1134.173 8        49.111
C39        40.000                                                                                                                                    40898056.299 6 212966938.72506     -1672.883 6        39.595                                                                    40898052.520 6 173053077.42406     -1359.317 6        38.402
S44        42.000    40894843.270 6 214904050.05906      -550.561 6        38.637
G29        43.000    25912302.448 6 136170065.89106       334.827 6        36.420                                    25912298.386 4 106106531.01304       260.910 4        26.060    25912299.321 5 106106530.01705       260.916 5        33.916
C05        44.000                                                                                                                                    39305118.532 6 204672109.45606      -526.428 6        38.670    39305112.806 7 158265484.25007      -407.036 7        43.543    39305114.630 6 166312959.27206      -427.655 6        40.012
C29        45.000                                                                                                                                    26068687.275 6 135746511.12306     -3509.900 6        41.538                                                                    26068685.416 6 110305156.16006     -2852.067 6        40.331
G04        46.000    21715857.893 7 114117639.62307     -2825.849 7        46.368                                    21715854.298 5  88922822.59205     -2201.963 5        34.371    21715854.385 7  88922824.59207     -2201.926 7        44.176
R11        47.000    23516095.438 7 125662861.36507      4025.089 7        42.681                                                                    23516093.881 7  97737783.80307      3130.690 7        42.061
C20        49.000                                                                                                                                    22088883.913 8 115022644.22508     -1071.071 8        52.554                                                                    22088877.972 8  93465304.86808      -870.163 8        49.782
C06        50.000                                                                                                                                    39451916.255 6 205436514.08206     -1484.467 6        39.045    39451910.281 7 158856528.03307     -1147.883 7        42.673    39451910.082 6 166933976.90306     -1205.957 6        38.808
S48        51.000    77296218.710 6 406194243.65606      -466.290 6        38.132
E06        52.000    26233805.193 6 137859604.46906      1756.839 6        41.893                                                                    26233804.819 7 102947119.07407      1311.919 7        44.700    26233804.798 7 105632693.92107      1346.227 7        45.591
C09        53.000                                                                                                                                    38991679.770 6 203039933.36706     -1117.777 6        41.461    38991676.196 7 157003347.16607      -864.230 7        45.704    38991674.412 6 164986557.65006      -907.959 6        41.478
C60        54.000                                                                                                                                    40894845.191 6 212950396.35806      -545.527 6        41.066                                                                    40894828.938 6 173039611.22406      -443.183 6        39.823
R09        55.000    21263935.322 8 113548255.51708     -1709.691 8        49.112                                                                    21263934.142 7  88315304.90207     -1329.698 7        47.479
G07        56.000    21510906.654 8 113040597.58908      1318.255 8        49.047                                    21510901.714 7  88083566.12007      1027.212 7        47.510    21510902.094 7  88083575.12607      1027.145 7        44.071
C02        57.000                                                                                                                                    40847732.274 5 212704916.26005      -559.365 5        34.662    40847726.150 6 164476929.05806      -432.487 6        40.179    40847729.360 6 172840172.27206      -454.352 6        36.544
I03        58.000   100207537.539 6 317450668.56106       848.887 6        41.209
R07        59.000    21820042.845 7 116804461.06107     -3233.056 7        47.191                                                                    21820041.268 7  90847967.34707     -2514.678 7        43.850
> 2025 01 02 04 30 15.0000000  0 56
G09         1.000    20270087.670 8 106520065.22908     -1373.449 8        50.082                                    20270084.773 8  83002654.51308     -1070.220 8        53.287    20270084.996 7  83002654.51207     -1070.189 7        46.237
G06         2.000    21750275.156 7 114298487.59107     -2229.356 7        47.545                                    21750272.960 7  89063761.75207     -1737.161 7        47.919    21750273.691 7  89063769.75807     -1737.263 7        44.060
E11         3.000    24715652.917 7 129881654.26007      -215.007 7        42.965                                                                    24715648.135 7  96989538.87507      -160.423 7        44.727    24715647.876 7  99519696.78007      -164.688 7        45.500
G16         4.000    23675760.599 6 124416976.85606       119.167 6        40.000                                    23675755.885 3  96948277.30103        92.857 3        22.400
S21         5.000    38559213.698 7 202629735.31107      -481.294 7        42.542
E10         6.000    24598144.015 7 129264129.80207     -1837.078 7        47.450                                                                    24598142.257 8  96528405.97608     -1371.836 8        50.080    24598142.065 8  99046537.69808     -1407.561 8        50.714
G20         7.000    23189418.143 7 121861223.53107      2689.362 7        42.656                                    23189412.834 4  94956778.58504      2095.610 4        27.174
G03         8.000    24209494.463 6 127221837.85406     -3994.529 6        39.330                                    24209492.951 5  99133937.96205     -3112.618 5        33.090    24209493.706 6  99133935.97106     -3112.918 6        37.062
R10         9.000    20858302.814 7 111186490.68207      1815.292 7        45.670
R17        10.000    23653106.063 7 126572549.34907      2673.761 7        43.407                                                                    23653104.586 6  98445308.80406      2079.670 6        39.964
G30        11.000    23642735.982 7 124243424.68507      2956.993 7        42.313                                    23642734.230 6  96813049.82006      2304.149 6        38.802    23642734.597 6  96813057.82306      2304.267 6        39.240
S27        12.000    39191507.447 5 205952759.18805      -491.111 5        35.948
G26        13.000    24725115.878 6 129931366.68506     -2208.169 6        36.662                                    24725114.452 4 101245227.80004     -1720.650 4        28.417    24725114.719 5 101245227.78505     -1720.493 5        34.690
S36        14.000    38326916.720 7 201409821.53907      -481.621 7        44.829
I09        15.000    38051129.669 7 149320803.89807      -758.403 7        42.618
E09        16.000    28622781.395 6 150413745.46606      2038.035 6        36.193                                                                    28622780.665 6 112321950.10506      1521.806 6        38.147    28622780.428 6 115252084.37206      1561.528 6        39.387
S45        17.000    63513915.192 6 333769478.49906      -522.098 6        37.406
E36        18.000    27737681.101 6 145762487.86006      2041.111 6        38.772                                                                    27737680.961 7 108848630.07007      1524.185 7        42.404    27737680.495 7 111688157.95607      1563.996 7        43.151
E12        19.000    25506234.827 7 134036176.33407     -2975.211 7        42.904                                                                    25506230.835 7 100091938.32707     -2221.764 7        44.548    25506231.034 7 102703031.84807     -2279.750 7        46.078
E21        20.000    27211792.229 6 142998928.14606      1799.152 6        39.501                                                                    27211791.867 7 106784928.67207      1343.504 7        43.818    27211791.125 7 109570618.82707      1378.623 7        44.021
G11        21.000    22335289.551 7 117372759.05807       390.905 7        45.839                                    22335285.435 5  91459275.69605       304.599 5        34.871    22335285.382 7  91459288.69007       304.574 7        44.001
I06        22.000    38092805.343 7 149484591.81207      -330.712 7        43.261
S28        23.000    40988444.950 5 215395763.90205      -480.031 5        34.910
R08        24.000    19666006.804 8 105310616.36808      -655.376 8        50.458                                                                    19666004.220 7  81908262.03807      -509.797 7        47.510
S23        25.000    38266986.868 7 201094370.42107      -477.557 7        44.846
R01        26.000    21826068.266 7 116672851.05507      2387.637 7        44.918                                                                    21826067.835 6  90745543.72406      1856.970 6        38.700
R16        27.000    24732434.305 5 132116232.88105     -4416.367 5        33.569                                                                    24732432.453 5 102757071.15505     -3434.714 5        32.126
R24        29.000    21401909.341 8 114445637.72008      -797.499 8        48.987                                                                    21401907.490 7  89013262.67007      -620.320 7        44.784
E19        30.000    23544957.305 7 123729620.52707     -1682.726 7        43.012                                                                    23544954.709 7  92395498.71207     -1256.676 7        45.419    23544954.711 7  94805812.76707     -1289.326 7        46.916
C23        31.000                                                                                                                                    25456952.830 7 132561045.65207     -2556.004 7        42.935                                                                    25456943.846 7 107716675.93107     -2076.819 7        42.764
R23        32.000    22400847.585 7 119829443.75207     -4473.044 7        44.023
E29        33.000    27193572.800 6 142903268.71906     -2940.121 6        39.465                                                                    27193570.829 7 106713493.81107     -2195.501 7        42.696    27193570.969 7 109497318.69307     -2252.697 7        44.287
E04        34.000    24373158.442 7 128081849.33707       969.560 7        46.630                                                                    24373155.944 8  95645548.55608       723.972 8        49.742    24373155.959 8  98140645.26408       742.877 8        50.821
C16        35.000                                                                                                                                    40028649.445 6 208439717.28306     -1491.093 6        39.925    40028649.636 6 161178823.98606     -1152.725 6        41.039    40028647.153 6 169374344.80206     -1211.344 6        36.836
C32        36.000                                                                                                                                    25492054.346 7 132743864.12107     -3131.788 7        42.790                                                                    25492053.978 7 107865282.89407     -2544.666 7        44.084
I01        37.000   383518994.960 6 201870103.23006     -2870.988 6        41.669
E27        38.000    27422574.936 6 144106604.18606      -396.443 6        38.940                                                                    27422573.165 7 107612086.39107      -296.034 7        42.059    27422573.212 7 110419354.44607      -303.715 7        42.899
C19        39.000                                                                                                                                    23170332.795 8 120654007.37408      1394.261 8        48.359                                                                    23170327.363 8  98041242.36008      1133.081 8        49.025
C39        40.000                                                                                                                                    40899663.014 6 212975303.38906     -1673.258 6        39.486                                                                    40899658.865 6 173059874.37406     -1359.579 6        38.075
S44        42.000    40895368.135 6 214906803.27506      -550.873 6        38.850
G29        43.000    25911985.495 6 136168400.04706       331.608 6        36.423                                    25911981.473 4 106105232.94904       258.401 4        26.144    25911981.771 5 106105231.96305       258.479 5        34.048
C05        44.000                                                                                                                                    39305623.924 6 204674741.67406      -526.690 6        38.510    39305618.341 7 158267519.64907      -407.245 7        43.636    39305619.972 6 166315098.13606      -427.918 6        39.853
C29        45.000                                                                                                                                    26072057.930 6 135764061.62706     -3510.332 6        41.228                                                                    26072055.776 6 110319417.34406     -2852.236 6        40.205
G04        46.000    21718547.225 7 114131772.33607     -2827.291 7        46.127                                    21718543.711 5  88933835.09805     -2203.086 5        34.371    21718543.619 7  88933837.09407     -2203.092 7        43.867
R11        47.000    23512329.841 7 125642737.42107      4024.445 7        42.652                                                                    23512327.999 7  97722131.84207      3130.116 7        42.184
C20        49.000                                                                                                                                    22089913.442 8 115028003.99208     -1072.917 8        52.543                                                                    22089907.291 8  93469660.09608      -871.689 8        49.731
C06        50.000                                                                                                                                    39453341.902 6 205443937.27406     -1484.953 6        39.000    39453335.588 7 158862268.11007     -1148.184 7        42.726    39453335.668 6 166940008.83806     -1206.604 6        38.712
S48        51.000    77296667.178 6 406196575.65506      -466.546 6        38.285
E06        52.000    26232134.096 6 137850822.48606      1755.865 6        41.723                                                                    26232133.593 7 102940561.10107      1311.195 7        44.793    26232133.557 7 105625964.87207      1345.457 7        45.675
C09        53.000                                                                                                                                    38992753.384 6 203045523.32106     -1118.332 6        41.473    38992749.660 7 157007669.68007      -864.799 7        45.666    38992747.874 6 164991099.92106      -908.590 6        41.490
C60        54.000                                                                                                                                    40895369.292 6 212953124.55206      -545.871 6        40.927                                                                    40895352.923 6 173041828.07106      -443.437 6        39.871
R09        55.000    21265538.837 8 113556815.37208     -1714.230 8        48.875                                                                    21265536.916 7  88321962.58207     -1333.364 7        47.466
G07        56.000    21509653.705 8 113034012.71508      1315.581 8        48.893                                    21509648.663 7  88078435.05107      1025.128 7        47.592    21509648.598 7  88078444.05407      1025.152 7        43.945
C02        57.000                                                                                                                                    40848269.088 5 212707713.27805      -559.623 5        34.471    40848263.232 6 164479091.89006      -432.651 6        40.226    40848266.277 6 172842445.04006      -454.534 6        36.352
I03        58.000   100206455.727 6 317446424.52606       848.660 6        41.092
R07        59.000    21823063.694 7 116820630.01207     -3234.480 7        46.937                                                                    21823061.134 7  90860543.18107     -2515.785 7        42.739
> 2025 01 02 04 30 20.0000000  0 56
G09         1.000    20271395.216 8 106526936.36608     -1375.207 8        50.140                                    20271392.311 8  83008008.64708     -1071.591 8        53.256    20271392.649 7  83008008.64507     -1071.623 7        46.558
G06         2.000    21752397.411 7 114309640.64407     -2232.087 7        47.683                                    21752395.295 7  89072452.44207     -1739.293 7        47.889    21752396.050 7  89072460.44607     -1739.299 7        44.197
E11         3.000    24715858.568 7 129882734.38107      -217.245 7        42.918                                                                    24715853.636 7  96990345.45707      -162.317 7        44.780    24715853.438 7  99520524.40207      -166.440 7        45.508
G16         4.000    23675648.668 6 124416388.69406       116.023 6        39.964                                    23675643.813 3  96947818.98903        90.414 3        22.286
S21         5.000    38559674.284 7 202632140.63507      -481.040 7        42.796
E10         6.000    24599892.878 7 129273319.89307     -1839.215 7        47.439                                                                    24599891.090 8  96535268.70208     -1373.427 8        50.090    24599890.869 8  99053579.45408     -1409.234 8        50.739
G20         7.000    23186860.057 7 121847778.51207      2688.559 7        42.411                                    23186854.310 4  94946301.95304      2094.982 4        27.210
G03         8.000    24213295.029 6 127241812.44006     -3995.301 6        39.168                                    24213293.884 5  99149502.56105     -3113.219 5        32.910    24213294.077 6  99149500.57506     -3113.252 6        37.017
R10         9.000    20856601.679 7 111177423.15807      1811.623 7        45.378
R17        10.000    23650608.656 7 126559186.99907      2671.073 7        43.702                                                                    23650607.181 6  98434915.87806      2077.435 6        39.646
G30        11.000    23639922.920 6 124228641.20706      2956.112 6        41.979                                    23639921.056 6  96801530.23306      2303.467 6        38.724    23639921.215 6  96801538.22306      2303.574 6        39.180
S27        12.000    39191971.199 5 205955213.38405      -491.060 5        35.771
G26        13.000    24727217.872 6 129942412.65806     -2210.651 6        36.488                                    24727216.401 4 101253835.05104     -1722.571 4        28.265    24727217.067 5 101253835.05605     -1722.655 5        35.152
S36        14.000    38327372.821 7 201412229.26007      -481.306 7        45.056
I09        15.000    38052095.819 7 149324595.37007      -758.268 7        42.645
E09        16.000    28620842.394 6 150403556.26806      2037.696 6        36.333                                                                    28620841.887 6 112314341.29406      1521.550 6        37.955    28620841.496 6 115244277.07006      1561.354 6        39.327
S45        17.000    63514369.880 6 333770488.15916      -521.932 6        37.418
E36        18.000    27735739.685 6 145752284.94206      2039.810 6        38.805                                                                    27735739.469 7 108841011.01007      1523.336 7        42.351    27735739.007 7 111680340.13607      1563.006 7        43.041
E12        19.000    25509066.225 7 134051055.42407     -2976.661 7        42.813                                                                    25509062.214 7 100103049.33407     -2222.856 7        44.489    25509062.486 7 102714432.70807     -2280.770 7        46.051
E21        20.000    27210080.695 6 142989934.50606      1798.005 6        39.429                                                                    27210080.480 7 106778212.64107      1342.683 7        43.903    27210079.694 7 109563727.60207      1377.668 7        44.158
G11        21.000    22334919.180 7 117370811.88607       387.796 7        45.562                                    22334914.907 5  91457758.41905       302.180 5        34.829    22334915.025 7  91457771.42107       302.092 7        44.400
I06        22.000    38093226.510 7 149486244.62907      -330.618 7        43.450
S28        23.000    40988905.607 5 215398162.53305      -479.491 5        35.005
R08        24.000    19666619.490 8 105313897.70308      -657.263 8        50.263                                                                    19666616.926 7  81910814.19007      -511.170 7        47.439
S23        25.000    38267443.635 7 201096757.04507      -477.257 7        44.910
R01        26.000    21823835.630 7 116660914.54507      2386.879 7        44.609                                                                    21823834.764 6  90736259.75806      1856.372 6        38.694
R16        27.000    24736567.528 5 132138317.54305     -4417.440 5        32.467                                                                    24736566.802 5 102774248.10805     -3435.851 5        30.347
