     3.04           OBSERVATION DATA    M                   RINEX VERSION / TYPE
ssrcrin-15.6.1x                         20250102 230000 UTC PGM / RUN BY / DATE 
(00000000023479385599111004) Septentrio proprietary         COMMENT             
rref                                                        MARKER NAME         
01                                                          MARKER NUMBER       
geodetic                                                    MARKER TYPE         
NFB                 CLIMERS@TUW                             OBSERVER / AGENCY   
3297213             SEPT ASTERX SB3 PROB4.14.4              REC # / TYPE / VERS 
Unknown             Unknown                                 ANT # / TYPE        
  4127831.8568  1207193.4216  4695247.6950                  APPROX POSITION XYZ 
        0.0000        0.0000        0.0000                  ANTENNA: DELTA H/E/N
G   23 X1  C1C L1C D1C S1C C1W S1W C2W L2W D2W S2W C2L L2L  SYS / # / OBS TYPES 
       D2L S2L C5Q L5Q D5Q S5Q C1L L1L D1L S1L              SYS / # / OBS TYPES 
E   21 X1  C1C L1C D1C S1C C6C L6C D6C S6C C5Q L5Q D5Q S5Q  SYS / # / OBS TYPES 
       C7Q L7Q D7Q S7Q C8Q L8Q D8Q S8Q                      SYS / # / OBS TYPES 
S    9 X1  C1C L1C D1C S1C C5I L5I D5I S5I                  SYS / # / OBS TYPES 
R   17 X1  C1C L1C D1C S1C C2P L2P D2P S2P C2C L2C D2C S2C  SYS / # / OBS TYPES 
       C3Q L3Q D3Q S3Q                                      SYS / # / OBS TYPES 
C   25 X1  C1P L1P D1P S1P C5P L5P D5P S5P C2I L2I D2I S2I  SYS / # / OBS TYPES 
       C7I L7I D7I S7I C6I L6I D6I S6I C7D L7D D7D S7D      SYS / # / OBS TYPES 
J   17 X1  C1C L1C D1C S1C C2L L2L D2L S2L C5Q L5Q D5Q S5Q  SYS / # / OBS TYPES 
       C1L L1L D1L S1L                                      SYS / # / OBS TYPES 
I    5 X1  C5A L5A D5A S5A                                  SYS / # / OBS TYPES 
SEPTENTRIO RECEIVERS OUTPUT ALIGNED CARRIER PHASES.         COMMENT             
NO FURTHER PHASE SHIFT APPLIED IN THE RINEX ENCODER.        COMMENT             
G L1C                                                       SYS / PHASE SHIFT   
G L2W                                                       SYS / PHASE SHIFT   
G L2L  0.00000                                              SYS / PHASE SHIFT   
G L5Q  0.00000                                              SYS / PHASE SHIFT   
G L1L  0.00000                                              SYS / PHASE SHIFT   
E L1C  0.00000                                              SYS / PHASE SHIFT   
E L6C  0.00000                                              SYS / PHASE SHIFT   
E L5Q  0.00000                                              SYS / PHASE SHIFT   
E L7Q  0.00000                                              SYS / PHASE SHIFT   
E L8Q  0.00000                                              SYS / PHASE SHIFT   
S L1C                                                       SYS / PHASE SHIFT   
S L5I                                                       SYS / PHASE SHIFT   
R L1C                                                       SYS / PHASE SHIFT   
R L2P  0.00000                                              SYS / PHASE SHIFT   
R L2C                                                       SYS / PHASE SHIFT   
R L3Q  0.00000                                              SYS / PHASE SHIFT   
C L1P  0.00000                                              SYS / PHASE SHIFT   
C L5P  0.00000                                              SYS / PHASE SHIFT   
C L2I                                                       SYS / PHASE SHIFT   
C L7I                                                       SYS / PHASE SHIFT   
C L6I                                                       SYS / PHASE SHIFT   
C L7D                                                       SYS / PHASE SHIFT   
J L1C                                                       SYS / PHASE SHIFT   
J L2L  0.00000                                              SYS / PHASE SHIFT   
J L5Q  0.00000                                              SYS / PHASE SHIFT   
J L1L  0.00000                                              SYS / PHASE SHIFT   
I L5A                                                       SYS / PHASE SHIFT   
  2025     1     2    23     0    0.0000000     GPS         TIME OF FIRST OBS   
 C1C    0.000 C2C    0.000 C2P    0.000                     GLONASS COD/PHS/BIS 
DBHZ                                                        SIGNAL STRENGTH UNIT
    18                                                      LEAP SECONDS        
 24 R01  1 R02 -4 R03  5 R04  6 R05  1 R06 -4 R07  5 R08  6 GLONASS SLOT / FRQ #
    R09 -2 R10 -7 R11  0 R12 -1 R13 -2 R14 -7 R15  0 R16 -1 GLONASS SLOT / FRQ #
    R17  4 R18 -3 R19  3 R20  2 R21  4 R22 -3 R23  3 R24  2 GLONASS SLOT / FRQ #
                                                            END OF HEADER       
> 2025 01 02 23 00  0.0000000  0 53
E08         2.000    27406355.517 6 144021380.60906      2912.250 6        39.261                                                                    27406354.225 7 107548435.06407      2174.569 7        43.033    27406353.363 7 110354045.72707      2231.324 7        43.716
G21         4.000    20729371.722 7 108933649.40507      -436.820 7        44.203                                    20729366.096 6  84883369.55906      -340.380 6        37.240
S21         5.000    38564447.280 7 202657199.65507      -327.006 7        42.129
E13         6.000    25733933.427 7 135232776.33107      1803.939 7        43.410                                                                    25733934.206 7 100985540.63907      1347.099 7        45.914    25733933.828 7 103619941.32607      1382.174 7        47.030
G10         7.000    23387102.150 7 122900118.21007     -3233.597 7        43.791                                    23387100.749 6  95766342.06306     -2519.689 6        40.102    23387100.189 6  95766336.07906     -2519.732 6        40.825
E15         8.000    23455633.389 8 123260299.43908      -237.313 8        48.008                                                                    23455633.526 8  92045098.54608      -177.205 8        51.068    23455633.025 8  94446262.70308      -181.853 8        51.602
G27        10.000    24226546.865 6 127311507.27206     -4155.280 6        41.070                                    24226545.266 6  99203840.78606     -3237.877 6        37.467    24226546.095 6  99203842.77206     -3237.889 6        40.417
G14        11.000    24010406.974 6 126175544.34706      -768.181 6        40.019                                    24010404.064 3  98318598.73803      -598.591 3        23.867    24010404.116 6  98318602.73306      -598.435 6        39.808
G32        12.000    21992017.180 8 115568859.22908      -787.489 8        48.747                                    21992014.516 8  90053657.60508      -613.629 8        48.203    21992014.966 7  90053630.61507      -613.673 7        44.728
G03        13.000    22778869.912 7 119703819.15307      2822.876 7        43.173                                    22778869.017 6  93275717.30306      2199.642 6        39.967    22778869.092 6  93275722.28206      2199.706 6        40.825
S36        14.000    38332343.687 7 201438356.79007      -326.214 7        43.736
C13        15.000                                                                                                                                    40518996.418 6 210993100.81006     -1171.641 6        38.667    40518997.068 6 163153283.45106      -905.901 6        37.928    40518995.623 6 171449200.10406      -951.972 6        36.964
G17        16.000    25052078.607 6 131649568.71306      2909.665 6        39.661                                    25052074.902 5 102584055.30605      2267.274 5        31.985    25052075.178 6 102584057.31606      2267.086 6        36.839
C16        17.000                                                                                                                                    40508691.365 6 210939398.85006      1349.862 6        38.556    40508691.296 6 163111728.96606      1043.986 6        39.526    40508689.351 5 171405532.46005      1097.086 5        35.824
E27        18.000    27435193.938 6 144172926.00906     -3013.163 6        40.045                                                                    27435194.418 6 107661601.85606     -2250.149 6        41.888    27435194.291 7 110470162.94807     -2308.826 7        42.737
E05        20.000    24110695.993 7 126702589.19907     -1396.301 7        43.892                                                                    24110695.515 7  94615575.49807     -1042.631 7        46.330    24110695.109 7  97083809.89807     -1069.883 7        47.723
C41        21.000                                                                                                                                    24604482.003 7 128122015.48207      2744.868 7        44.919                                                                    24604486.917 7 104109661.05507      2230.382 7        45.747
I06        22.000    38506372.321 7 151107509.34807      -137.345 7        42.629
E03        23.000    24717862.780 7 129893261.04207      1406.505 7        46.532                                                                    24717862.085 8  96998243.37708      1050.316 8        48.671    24717861.906 8  99528628.93708      1077.665 8        49.581
R22        24.000    20393541.323 8 108862151.47408      2194.198 8        51.445                                                                    20393539.369 8  84670577.23708      1706.562 8        48.246
S23        25.000    38288337.859 7 201206558.42207      -324.590 7        44.542
S45        26.000    63536780.748 6 333888560.83206      -368.378 6        37.251
G02        27.000    21300977.392 8 111937443.02508      1024.866 8        48.748                                    21300970.596 6  87223972.31306       798.596 6        40.095
S27        28.000    39235201.727 6 206182440.73606      -299.088 6        36.064
C39        29.000                                                                                                                                    40007357.285 6 208328821.82306      1068.520 6        41.607                                                                    40007353.285 6 169284227.24406       868.272 6        40.644
E21        30.000    26995207.955 6 141860787.54706     -1120.436 6        40.961                                                                    26995208.311 7 105935010.18407      -836.755 7        43.120    26995208.087 7 108698528.53407      -858.608 7        44.397
C43        31.000                                                                                                                                    24018745.253 7 125072009.84507     -3155.737 7        46.299                                                                    24018743.659 7 101631294.63107     -2564.299 7        44.975
C42        32.000                                                                                                                                    23853391.864 7 124210895.00607     -2732.891 7        46.985                                                                    23853399.177 7 100931569.15707     -2220.719 7        47.151
C28        33.000                                                                                                                                    21641469.829 8 112692825.01708        99.968 8        50.822                                                                    21641468.431 8  91572152.73508        81.195 8        48.630
R13        34.000    23654265.724 6 126312462.42606     -1935.757 6        39.607
E34        35.000    25635876.285 7 134717643.50107     -2318.140 7        44.147                                                                    25635876.514 7 100600947.72007     -1731.073 7        47.011    25635876.347 7 103225309.14807     -1776.288 7        47.925
C14        36.000                                                                                                                                    22316013.987 7 116205357.75707     -1340.792 7        46.779    22316009.723 8  89857341.92708     -1036.841 8        52.131    22316008.728 8  94426350.75908     -1089.586 8        49.790
R21        37.000    19745196.567 8 105660589.84308     -1656.286 8        52.072                                                                    19745194.470 7  82180480.88007     -1288.241 7        46.697
R06        38.000    19404290.748 6 103545041.46006      -389.969 6        41.159
R05        39.000    22884300.440 7 122329722.51807     -4385.308 7        43.581                                                                    22884299.131 6  95145348.75906     -3410.859 6        40.727
C27        40.000                                                                                                                                    23924105.512 7 124579128.84707      2325.731 7        46.310                                                                    23924104.141 7 101230761.54507      1889.799 7        45.228
C06        41.000                                                                                                                                    40264711.074 6 209668920.33506      1443.776 6        36.450    40264706.525 6 162129287.61506      1116.466 6        40.548    40264706.210 6 170373148.62006      1173.208 6        38.736
S44        42.000    40636031.130 6 213543983.63806      -375.099 6        37.974
G08        43.000    21759723.228 7 114348210.92707     -3072.229 7        47.559                                    21759721.467 7  89102542.84107     -2393.945 7        46.978    21759722.420 7  89102540.85007     -2393.966 7        44.379
C05        44.000                                                                                                                                    39262573.358 6 204450566.10406      -293.937 6        37.637    39262569.229 7 158094171.83607      -227.391 7        42.908    39262570.932 6 166132936.36506      -238.910 6        40.138
C11        45.000                                                                                                                                    25845715.473 6 134585559.58206     -3479.014 6        39.492    25845713.294 7 104070150.62207     -2690.240 7        43.708    25845711.573 6 109361829.78206     -2827.133 6        41.897
C33        47.000                                                                                                                                    22080121.138 8 114977012.60008       391.071 8        51.179                                                                    22080132.203 8  93428299.03808       317.742 8        49.480
R07        49.000    21001412.557 8 112422255.35508      3190.094 8        50.837                                                                    21001411.260 7  87439530.31607      2481.125 7        45.395
S48        51.000    77318304.970 6 406311442.14406      -344.623 6        38.117
C08        52.000                                                                                                                                    41322301.016 5 215176165.30905     -1268.754 5        34.481    41322294.455 6 166387890.19806      -981.163 6        38.637    41322293.228 5 174848278.39305     -1030.981 5        34.890
R14        53.000    24329140.596 6 129688009.39506      1444.909 6        41.893                                                                    24329141.790 6 100868388.78506      1123.872 6        38.504
C60        54.000                                                                                                                                    40636032.067 6 211602694.20506      -371.772 6        38.883                                                                    40636016.919 6 171944492.86306      -302.028 6        40.367
R12        55.000    24536646.760 6 131070340.73106     -3747.953 6        39.913                                                                    24536647.437 6 101943596.47306     -2915.209 6        36.427
I09        56.000    37374900.716 7 146667176.30507       -22.861 7        42.241
C02        57.000                                                                                                                                    40648179.118 5 211665787.44605      -331.753 5        33.677    40648172.918 6 163673408.58206      -256.643 6        40.384    40648175.927 6 171995794.80406      -269.372 6        36.068
I03        58.000    77460105.035 6 228184855.42006      1093.706 6        39.453
R23        59.000    24242086.675 7 129678816.50407      3593.776 7        42.250
R20        60.000    23477736.868 5 125546213.37605     -3972.949 5        32.186                                                                    23477739.978 6  97647122.14006     -3090.248 6        40.389
> 2025 01 02 23 00  5.0000000  0 53
E08         2.000    27403584.555 6 144006821.01606      2911.951 6        39.324                                                                    27403583.593 7 107537562.63307      2174.406 7        43.198    27403582.666 7 110342889.66907      2231.040 7        43.395
G21         4.000    20729788.266 7 108935838.55907      -438.730 7        44.059                                    20729782.690 6  84885075.39306      -341.869 6        37.134
S21         5.000    38564757.579 7 202658835.04007      -327.273 7        42.176
E13         6.000    25732217.614 7 135223758.00107      1803.402 7        43.801                                                                    25732218.140 7 100978806.18007      1346.720 7        46.010    25732217.663 7 103613031.18107      1381.834 7        46.911
G10         7.000    23390179.244 7 122916287.41907     -3234.203 7        43.862                                    23390177.686 6  95778941.44306     -2520.158 6        40.093    23390177.103 6  95778935.45406     -2520.048 6        40.384
E15         8.000    23455859.864 8 123261489.02508      -238.478 8        48.123                                                                    23455859.887 8  92045986.87808      -178.086 8        51.113    23455859.374 8  94447174.20808      -182.735 8        51.528
G27        10.000    24230500.657 6 127332285.10806     -4155.879 6        40.775                                    24230499.365 6  99220031.29906     -3238.346 6        37.482    24230499.352 6  99220033.29506     -3238.235 6        40.162
G14        11.000    24011139.162 6 126179392.63806      -771.178 6        39.838                                    24011136.288 3  98321597.39703      -600.918 3        23.886    24011136.543 6  98321601.39906      -600.851 6        39.150
G32        12.000    21992767.729 8 115572804.83108      -790.703 8        48.330                                    21992765.328 8  90056732.09908      -616.134 8        48.147    21992765.655 7  90056705.10007      -616.123 7        44.543
G03        13.000    22776185.088 7 119689708.55707      2821.439 7        42.857                                    22776183.915 6  93264722.03706      2198.522 6        39.913    22776184.753 6  93264727.04006      2198.651 6        40.062
S36        14.000    38332655.126 7 201439988.65507      -326.266 7        43.640
C13        15.000                                                                                                                                    40520121.249 6 210998958.27306     -1171.402 6        38.318    40520122.482 6 163157812.79506      -905.769 6        38.736    40520120.350 6 171453959.76706      -951.935 6        37.164
G17        16.000    25049311.003 6 131635022.74406      2908.862 6        39.309                                    25049306.815 5 102572720.78005      2266.646 5        31.849    25049306.959 6 102572722.78206      2266.607 6        36.628
C16        17.000                                                                                                                                    40507395.635 6 210932650.15506      1349.564 6        38.498    40507395.617 6 163106510.46706      1043.388 6        39.489    40507393.460 5 171400048.62405      1096.454 5        35.886
E27        18.000    27438061.359 6 144187993.97806     -3014.049 6        40.238                                                                    27438061.797 6 107672853.89106     -2250.706 6        41.647    27438061.496 7 110481708.52907     -2309.513 7        42.500
E05        20.000    24112025.488 7 126709576.52507     -1398.547 7        43.788                                                                    24112025.206 7  94620793.31507     -1044.411 7        46.322    24112024.814 7  97089163.83107     -1071.685 7        47.670
C41        21.000                                                                                                                                    24601847.025 7 128108294.34607      2743.614 7        45.628                                                                    24601851.979 7 104098511.50907      2229.314 7        45.910
I06        22.000    38506546.733 7 151108195.54407      -137.197 7        42.415
E03        23.000    24716525.518 7 129886233.72107      1404.428 7        46.632                                                                    24716524.879 8  96992995.70608      1048.730 8        48.758    24716524.653 8  99523244.36508      1076.128 8        49.458
R22        24.000    20391487.061 8 108851185.62708      2192.185 8        51.859                                                                    20391485.045 7  84662048.23307      1705.027 7        47.731
S23        25.000    38288648.444 7 201208181.68507      -324.551 7        44.272
S45        26.000    63537090.216 6 333890402.82806      -368.215 6        37.543
G02        27.000    21300002.990 8 111932322.67008      1023.362 8        48.293                                    21299996.229 6  87219982.42806       797.423 6        40.031
S27        28.000    39235477.787 5 206183935.57805      -298.892 5        35.871
C39        29.000                                                                                                                                    40006331.665 6 208323481.94306      1067.746 6        41.178                                                                    40006327.881 6 169279888.15606       867.440 6        40.849
E21        30.000    26996275.128 6 141866396.16906     -1122.866 6        41.020                                                                    26996275.581 7 105939198.44107      -838.555 7        43.183    26996275.253 7 108702826.05007      -860.420 7        44.220
C43        31.000                                                                                                                                    24021775.912 7 125087791.83507     -3156.943 7        45.779                                                                    24021774.652 7 101644118.79107     -2565.413 7        45.281
C42        32.000                                                                                                                                    23856016.828 7 124224563.69307     -2734.511 7        46.960                                                                    23856024.154 7 100942676.08607     -2222.056 7        47.155
C28        33.000                                                                                                                                    21641374.932 8 112692331.40908        97.604 8        50.718                                                                    21641373.613 8  91571751.63808        79.227 8        48.630
R13        34.000    23656079.988 6 126322151.46606     -1939.491 6        40.148
E34        35.000    25638082.461 7 134729236.16907     -2318.945 7        44.400                                                                    25638082.502 7 100609604.56907     -1731.609 7        47.070    25638082.334 7 103234191.83107     -1776.838 7        47.915
C14        36.000                                                                                                                                    22317302.380 7 116212068.32307     -1343.342 7        46.638    22317298.534 8  89862530.96308     -1038.765 8        52.495    22317297.495 8  94431803.63608     -1091.637 8        49.783
R21        37.000    19746744.959 8 105668878.87508     -1659.382 8        52.216                                                                    19746743.383 7  82186927.90807     -1290.630 7        46.763
R06        38.000    19404657.658 6 103547002.48206      -394.434 6        41.154
R05        39.000    22888402.234 7 122351652.72007     -4386.769 7        43.617                                                                    22888401.847 6  95162405.60606     -3411.883 6        40.267
C27        40.000                                                                                                                                    23921872.810 7 124567503.43407      2324.539 7        46.343                                                                    23921871.659 7 101221314.94707      1888.842 7        45.165
C06        41.000                                                                                                                                    40263325.444 6 209661703.13706      1443.238 6        36.635    40263320.335 6 162123706.81906      1116.062 6        40.620    40263320.378 6 170367284.05606      1172.638 6        38.784
S44        42.000    40636387.876 6 213545859.48406      -375.200 6        37.626
G08        43.000    21762647.408 7 114363577.48207     -3074.335 7        47.516                                    21762645.622 7  89114516.77507     -2395.585 7        46.960    21762646.356 7  89114514.78507     -2395.676 7        43.657
C05        44.000                                                                                                                                    39262855.375 6 204452037.01606      -294.165 6        37.516    39262851.182 7 158095309.24207      -227.530 7        42.703    39262853.382 6 166134131.60106      -239.093 6        40.262
C11        45.000                                                                                                                                    25849056.741 6 134602956.96906     -3479.780 6        39.417    25849054.081 7 104083603.38807     -2690.868 7        44.101    25849052.452 6 109375966.56906     -2827.576 6        41.349
C33        47.000                                                                                                                                    22079746.899 8 114975063.90008       388.419 8        51.235                                                                    22079758.006 8  93426715.55808       315.590 8        49.489
R07        49.000    20998434.424 8 112406311.66008      3187.449 8        50.730                                                                    20998432.741 7  87427129.66507      2479.120 7        45.041
S48        51.000    77318612.403 6 406313165.50306      -344.937 6        37.762
C08        52.000                                                                                                                                    41323518.718 5 215182508.53005     -1268.396 5        33.772    41323512.727 6 166392795.17706      -980.908 6        38.366    41323511.444 5 174853432.78105     -1030.932 5        34.552
R14        53.000    24327787.074 6 129680794.18706      1441.245 6        41.597                                                                    24327788.562 6 100862776.94706      1121.072 6        38.273
C60        54.000                                                                                                                                    40636388.970 6 211604552.98306      -371.768 6        38.922                                                                    40636373.889 6 171946003.27506      -302.136 6        40.317
R12        55.000    24540155.122 6 131089084.44406     -3749.424 6        40.534                                                                    24540157.908 6 101958174.97606     -2916.221 6        36.578
I09        56.000    37374929.662 7 146667291.70207       -23.266 7        42.118
C02        57.000                                                                                                                                    40648497.305 5 211667447.05105      -331.952 5        33.347    40648491.762 6 163674691.90006      -256.607 6        40.367    40648494.856 6 171997143.38606      -269.854 6        36.030
I03        58.000    77458711.716 6 228179387.15806      1093.645 6        39.303
R23        59.000    24238728.383 7 129660847.08807      3593.847 7        42.102
R20        60.000    23481452.794 5 125566081.83605     -3974.303 5        31.940                                                                    23481455.500 6  97662575.37306     -3091.116 6        40.122
> 2025 01 02 23 00 10.0000000  0 53
E08         2.000    27400814.416 6 143992262.41706      2911.658 6        39.931                                                                    27400813.156 7 107526690.95707      2174.291 7        43.306    27400812.136 7 110331734.37707      2230.971 7        43.422
G21         4.000    20730206.586 7 108938036.26307      -440.461 7        44.528                                    20730200.908 6  84886787.88606      -343.218 6        37.070
S21         5.000    38565070.275 7 202660469.98907      -327.011 7        42.233
E13         6.000    25730501.877 7 135214741.38007      1803.217 7        43.659                                                                    25730502.286 7 100972072.99507      1346.465 7        46.065    25730501.960 7 103606122.34307      1381.633 7        46.851
G10         7.000    23393256.621 7 122932459.77107     -3234.845 7        43.742                                    23393255.083 6  95791543.27406     -2520.659 6        39.895    23393254.484 6  95791537.28706     -2520.675 6        39.835
E15         8.000    23456087.127 8 123262684.07608      -239.591 8        48.434                                                                    23456087.301 8  92046879.28808      -178.903 8        51.201    23456086.796 8  94448089.89708      -183.591 8        51.444
G27        10.000    24234454.923 6 127353065.04906     -4156.179 6        40.458                                    24234453.782 6  99236223.45606     -3238.587 6        36.964    24234452.963 6  99236225.45706     -3238.497 6        39.285
G14        11.000    24011874.586 6 126183255.56906      -774.216 6        40.510                                    24011871.168 3  98324607.47503      -603.289 3        23.467    24011871.473 6  98324611.47006      -603.112 6        38.673
G32        12.000    21993521.171 8 115576765.92608      -793.815 8        48.123                                    21993519.069 8  90059818.66608      -618.559 8        48.035    21993519.719 7  90059791.66007      -618.490 7        44.783
G03        13.000    22773501.035 7 119675604.13807      2820.217 7        42.828                                    22773499.930 6  93253731.58506      2197.568 6        39.859    22773500.771 6  93253736.59906      2197.564 6        40.360
S36        14.000    38332963.368 7 201441620.21807      -326.321 7        43.515
C13        15.000                                                                                                                                    40521245.198 6 211004814.40406     -1170.962 6        37.992    40521246.961 6 163162341.13206      -905.536 6        38.817    40521244.941 6 171458718.35206      -951.601 6        37.471
G17        16.000    25046543.254 6 131620480.44706      2907.972 6        38.685                                    25046539.458 5 102561389.11805      2265.951 5        31.570    25046539.554 6 102561391.12406      2265.958 6        36.098
C16        17.000                                                                                                                                    40506100.446 6 210925904.25206      1348.789 6        38.649    40506099.998 6 163101294.11006      1043.037 6        39.529    40506097.953 6 171394567.01806      1096.182 6        36.325
E27        18.000    27440928.952 6 144203065.32506     -3014.628 6        40.474                                                                    27440929.744 6 107684108.47106     -2251.291 6        41.669    27440929.407 7 110493256.69307     -2309.979 7        42.508
E05        20.000    24113357.019 7 126716574.82807     -1400.740 7        44.012                                                                    24113356.863 7  94626019.31007     -1046.011 7        46.399    24113356.594 7  97094526.15707     -1073.307 7        47.588
C41        21.000                                                                                                                                    24599212.808 7 128094578.88207      2742.501 7        45.205                                                                    24599218.328 7 104087366.57207      2228.557 7        46.157
I06        22.000    38506721.513 7 151108881.51607      -137.199 7        42.157
E03        23.000    24715189.925 7 129879216.30707      1402.390 7        46.958                                                                    24715189.568 8  96987755.42308      1047.331 8        48.780    24715189.327 8  99517867.37508      1074.672 8        49.478
R22        24.000    20389434.552 8 108840229.05508      2190.359 8        51.915                                                                    20389432.449 7  84653526.44707      1703.722 7        47.970
S23        25.000    38288959.906 7 201209804.67407      -324.606 7        44.698
S45        26.000    63537396.822 6 333892244.61806      -368.339 6        37.713
G02        27.000    21299029.707 8 111927209.45708      1021.894 8        48.323                                    21299023.213 6  87215998.10706       796.280 6        39.901
S27        28.000    39235764.315 6 206185430.59406      -298.933 6        36.302
C39        29.000                                                                                                                                    40005307.003 6 208318145.91106      1066.892 6        41.004                                                                    40005303.134 6 169275552.18806       866.942 6        41.306
E21        30.000    26997344.670 6 141872015.98106     -1125.117 6        41.185                                                                    26997344.999 7 105943395.04807      -840.229 7        43.287    26997344.715 7 108707132.13307      -862.135 7        44.206
C43        31.000                                                                                                                                    24024808.029 7 125103579.79407     -3158.300 7        45.589                                                                    24024806.415 7 101656947.77907     -2566.336 7        45.303
C42        32.000                                                                                                                                    23858643.270 7 124238239.76507     -2736.033 7        46.599                                                                    23858650.464 7 100953789.00107     -2223.142 7        47.370
C28        33.000                                                                                                                                    21641282.293 8 112691848.76208        95.412 8        50.533                                                                    21641280.949 8  91571359.43208        77.629 8        48.784
R13        34.000    23657898.897 6 126331858.38406     -1943.171 6        40.286
E34        35.000    25640289.114 7 134740832.35007     -2319.661 7        44.367                                                                    25640289.249 7 100618264.05907     -1732.177 7        47.168    25640288.917 7 103243077.22307     -1777.403 7        47.724
C14        36.000                                                                                                                                    22318593.612 7 116218790.56907     -1345.651 7        46.531    22318589.684 8  89867729.02708     -1040.567 8        52.353    22318588.365 8  94437266.00008     -1093.397 8        49.915
R21        37.000    19748296.565 8 105677183.00008     -1662.360 8        51.925                                                                    19748295.074 7  82193386.66307     -1292.923 7        46.629
R06        38.000    19405028.703 6 103548984.55406      -398.668 6        40.915
R05        39.000    22892505.674 7 122373589.20307     -4387.844 7        43.191                                                                    22892505.723 6  95179467.32806     -3412.884 6        41.416
C27        40.000                                                                                                                                    23919640.952 7 124555882.95807      2323.550 7        45.991                                                                    23919639.992 7 101211872.35207      1888.113 7        45.350
C06        41.000                                                                                                                                    40261939.498 5 209654488.44405      1442.880 5        35.838    40261934.514 6 162118128.01906      1115.469 6        40.632    40261934.867 6 170361421.55606      1172.310 6        39.123
S44        42.000    40636747.113 6 213547735.11406      -375.105 6        37.319
G08        43.000    21765573.639 7 114378954.14107     -3076.403 7        47.841                                    21765571.664 7  89126498.58607     -2397.197 7        46.857    21765572.640 7  89126496.58407     -2397.190 7        43.460
C05        44.000                                                                                                                                    39263138.996 6 204453507.74506      -294.184 6        37.618    39263133.176 7 158096446.49107      -227.368 7        42.519    39263135.827 6 166135326.67306      -238.824 6        40.048
C11        45.000                                                                                                                                    25852398.977 6 134620357.23206     -3480.255 6        39.450    25852395.534 7 104097058.37007     -2691.325 7        44.056    25852393.955 6 109390105.71706     -2827.960 6        41.576
C33        47.000                                                                                                                                    22079374.988 8 114973127.80408       385.982 8        51.139                                                                    22079386.215 8  93425142.32208       313.672 8        49.682
R07        49.000    20995458.255 8 112390380.61608      3184.844 8        50.706                                                                    20995456.418 7  87414738.84207      2477.112 7        44.400
S48        51.000    77318928.144 6 406314888.29606      -344.579 6        37.686
C08        52.000                                                                                                                                    41324735.348 5 215188850.10305     -1268.001 5        33.820    41324729.894 6 166397698.89106      -980.621 6        38.333    41324729.518 5 174858585.83805     -1030.470 5        34.762
R14        53.000    24326436.833 6 129673596.35306      1437.593 6        41.538                                                                    24326437.635 6 100857178.59906      1118.436 6        38.411
C60        54.000                                                                                                                                    40636745.930 6 211606411.56706      -371.784 6        39.072                                                                    40636730.621 6 171947513.51506      -301.980 6        40.543
R12        55.000    24543665.337 6 131107834.08706     -3750.589 6        41.266                                                                    24543667.203 6 101972757.99406     -2917.174 6        37.123
I09        56.000    37374959.906 7 146667408.07907       -23.458 7        42.404
C02        57.000                                                                                                                                    40648816.185 5 211669106.50405      -332.109 5        33.359    40648809.909 6 163675975.08806      -256.651 6        40.288    40648813.160 5 171998491.80805      -269.650 5        35.952
I03        58.000    77457318.202 6 228173918.87006      1093.702 6        39.568
R23        59.000    24235368.254 6 129642876.09306      3594.490 6        41.268
R20        60.000    23485170.446 5 125585955.50605     -3975.187 5        31.932                                                                    23485170.530 6  97678032.70306     -3091.883 6        40.293
> 2025 01 02 23 00 15.0000000  0 53
E08         2.000    27398044.249 6 143977704.46006      2911.559 6        39.838                                                                    27398042.934 7 107515819.76607      2174.031 7        43.446    27398041.899 7 110320579.58607      2230.772 7        43.418
G21         4.000    20730626.371 7 108940242.10907      -442.091 7        44.309                                    20730620.681 6  84888506.73006      -344.489 6        37.183
S21         5.000    38565379.949 7 202662104.35507      -326.952 7        42.391
E13         6.000    25728786.187 7 135205726.07007      1802.696 7        43.551                                                                    25728786.718 7 100965340.77807      1346.229 7        46.143    25728786.363 7 103599214.50707      1381.342 7        46.742
G10         7.000    23396334.765 7 122948634.82307     -3235.367 7        43.809                                    23396332.906 6  95804147.21006     -2521.066 6        39.829    23396332.692 6  95804141.22706     -2521.194 6        39.901
E15         8.000    23456315.427 8 123263884.14708      -240.639 8        48.296                                                                    23456315.674 8  92047775.44908      -179.712 8        51.291    23456315.165 8  94449009.43908      -184.433 8        51.399
G27        10.000    24238409.110 6 127373846.71906     -4156.676 6        40.572                                    24238408.275 6  99252416.96406     -3238.969 6        36.518    24238407.638 6  99252418.97106     -3239.055 6        38.997
G14        11.000    24012612.538 6 126187132.67306      -777.055 6        39.868                                    24012608.918 3  98327628.60503      -605.501 3        23.467    24012609.946 6  98327632.62306      -605.533 6        39.213
G32        12.000    21994277.708 8 115580742.05908      -796.880 8        48.518                                    21994275.695 8  90062916.95608      -620.943 8        48.146    21994276.392 7  90062889.95807      -621.024 7        44.819
G03        13.000    22770818.184 7 119661505.53507      2818.881 7        43.388                                    22770817.024 6  93242745.67006      2196.527 6        39.997    22770817.779 6  93242750.67606      2196.490 6        40.665
S36        14.000    38333276.288 7 201443250.80707      -326.101 7        43.805
C13        15.000                                                                                                                                    40522369.612 6 211010668.78606     -1170.697 6        37.887    40522371.358 6 163166868.14006      -905.423 6        38.571    40522369.294 6 171463475.52706      -951.426 6        37.342
G17        16.000    25043777.097 6 131605941.34406      2907.254 6        38.495                                    25043772.691 5 102550059.94405      2265.385 5        31.638    25043772.983 6 102550061.95306      2265.258 6        36.420
C16        17.000                                                                                                                                    40504805.120 6 210919160.66206      1348.427 6        38.691    40504805.192 6 163096079.54506      1042.688 6        39.787    40504802.916 5 171389087.29405      1095.691 5        35.762
E27        18.000    27443797.554 6 144218139.61906     -3015.303 6        40.520                                                                    27443798.194 6 107695365.26106     -2251.712 6        41.871    27443798.039 7 110504807.13107     -2310.425 7        42.466
E05        20.000    24114690.420 7 126723583.66807     -1402.978 7        43.573                                                                    24114690.603 7  94631253.19507     -1047.733 7        46.459    24114690.358 7  97099896.57007     -1075.060 7        47.403
C41        21.000                                                                                                                                    24596579.602 7 128080868.71407      2741.303 7        45.205                                                                    24596585.425 7 104076225.92307      2227.615 7        46.152
I06        22.000    38506896.225 7 151109566.91207      -137.075 7        42.227
E03        23.000    24713856.266 7 129872208.36407      1400.495 7        46.773                                                                    24713855.983 8  96982522.23608      1045.794 8        48.839    24713855.677 8  99512497.66808      1073.093 8        49.392
R22        24.000    20387383.815 8 108829281.35008      2188.421 8        51.540                                                                    20387381.989 7  84645011.56907      1702.074 7        47.855
S23        25.000    38289265.841 7 201211426.94307      -324.574 7        44.492
S45        26.000    63537701.263 6 333894085.74506      -368.294 6        37.263
G02        27.000    21298058.127 8 111922102.95808      1020.491 8        48.291                                    21298051.458 6  87212019.02206       795.190 6        40.043
S27        28.000    39236059.138 6 206186925.40206      -299.123 6        36.276
C39        29.000                                                                                                                                    40004283.069 6 208312813.27606      1066.042 6        41.495                                                                    40004278.999 6 169271218.98606       866.200 6        40.827
E21        30.000    26998415.949 6 141877646.53206     -1127.298 6        41.018                                                                    26998416.399 7 105947599.69407      -841.836 7        43.340    26998416.195 7 108711446.46407      -863.831 7        44.059
C43        31.000                                                                                                                                    24027840.781 7 125119373.25507     -3159.472 7        46.002                                                                    24027839.084 7 101669781.24007     -2567.170 7        45.035
C42        32.000                                                                                                                                    23861270.836 7 124251922.79807     -2737.504 7        46.452                                                                    23861278.089 7 100964907.57707     -2224.413 7        47.267
C28        33.000                                                                                                                                    21641191.668 8 112691376.65908        93.187 8        50.875                                                                    21641190.278 8  91570975.80708        75.736 8        48.709
R13        34.000    23659718.435 6 126341582.65606     -1946.954 6        39.787
E34        35.000    25642496.395 7 134752431.64007     -2320.248 7        44.512                                                                    25642496.481 7 100626925.87507     -1732.731 7        47.362    25642496.184 7 103251964.99707     -1777.953 7        47.686
C14        36.000                                                                                                                                    22319886.996 7 116225524.12807     -1347.991 7        46.773    22319882.629 8  89872935.84508     -1042.390 8        52.187    22319881.426 8  94442737.56108     -1095.314 8        49.853
R21        37.000    19749851.332 8 105685501.62208     -1665.320 8        52.219                                                                    19749849.350 7  82199856.71307     -1295.267 7        46.516
R06        38.000    19405404.253 6 103550987.49706      -402.845 6        41.056
R05        39.000    22896610.554 7 122395531.36707     -4389.265 7        43.060                                                                    22896610.267 6  95196533.43206     -3413.950 6        40.646
C27        40.000                                                                                                                                    23917410.299 7 124544266.99807      2322.594 7        46.026                                                                    23917409.220 7 101202433.43007      1887.270 7        45.321
C06        41.000                                                                                                                                    40260554.130 6 209647275.96306      1442.094 6        36.231    40260549.522 6 162112550.84806      1115.048 6        40.651    40260549.549 6 170355560.79406      1171.910 6        39.084
S44        42.000    40637102.808 6 213549610.10606      -374.958 6        37.565
G08        43.000    21768501.590 7 114394340.46807     -3078.278 7        47.641                                    21768499.579 7  89138487.93207     -2398.660 7        46.912    21768500.661 7  89138485.93707     -2398.804 7        43.970
C05        44.000                                                                                                                                    39263420.954 6 204454977.83906      -294.219 6        37.573    39263416.020 7 158097583.25407      -227.380 7        42.889    39263418.219 6 166136521.22306      -238.889 6        40.040
C11        45.000                                                                                                                                    25855740.945 6 134637760.01206     -3480.825 6        40.050    25855737.667 7 104110515.31007     -2691.685 7        44.196    25855735.796 6 109404246.89406     -2828.553 6        41.364
C33        47.000                                                                                                                                    22079005.308 8 114971203.93208       383.432 8        51.347                                                                    22079016.702 8  93423579.01108       311.578 8        49.563
R07        49.000    20992484.077 8 112374462.07208      3182.277 8        50.897                                                                    20992482.538 7  87402357.76607      2475.030 7        45.053
S48        51.000    77319239.244 6 406316610.26006      -344.430 6        37.796
C08        52.000                                                                                                                                    41325952.973 5 215195189.70405     -1267.667 5        33.928    41325947.792 6 166402601.05306      -980.328 6        38.186    41325947.205 5 174863737.24205     -1030.255 5        35.176
R14        53.000    24325089.761 6 129666415.63806      1434.276 6        40.980                                                                    24325090.588 6 100851593.64206      1115.573 6        38.730
C60        54.000                                                                                                                                    40637102.775 6 211608269.51906      -371.606 6        39.345                                                                    40637087.631 6 171949023.25306      -301.959 6        40.520
R12        55.000    24547175.823 6 131126589.12606     -3751.686 6        40.663                                                                    24547178.199 6 101987345.21806     -2917.842 6        37.002
I09        56.000    37374989.651 7 146667525.13207       -23.631 7        42.398
C02        57.000                                                                                                                                    40649134.981 5 211670765.37305      -331.839 5        33.641    40649128.620 6 163677257.83306      -256.637 6        40.296    40649131.745 5 171999839.77305      -269.660 5        35.529
I03        58.000    77455924.798 6 228168450.28806      1093.573 6        39.853
R23        59.000    24232007.040 6 129624903.10006      3594.689 6        40.389
R20        60.000    23488888.033 5 125605834.01705     -3976.519 5        32.341                                                                    23488888.769 6  97693493.73206     -3092.728 6        40.124
> 2025 01 02 23 00 20.0000000  0 53
E08         2.000    27395274.135 6 143963147.03906      2911.282 6        39.775                                                                    27395272.581 7 107504948.96407      2173.921 7        43.501    27395271.816 7 110309425.19407      2230.689 7        43.435
G21         4.000    20731047.572 7 108942456.02007      -443.825 7        44.256                                    20731042.011 6  84890231.85706      -345.841 6        37.206
S21         5.000    38565691.294 7 202663737.82107      -326.868 7        42.258
E13         6.000    25727070.647 7 135196711.96107      1802.505 7        43.365                                                                    25727071.352 7 100958609.47307      1346.012 7        46.188    25727071.060 7 103592307.60107      1381.053 7        46.886
G10         7.000    23399413.165 7 122964812.52407     -3236.073 7        43.708                                    23399411.282 6  95816753.21506     -2521.617 6        39.793    23399411.245 6  95816747.22206     -2521.621 6        39.859
E15         8.000    23456544.873 8 123265089.18608      -241.703 8        48.209                                                                    23456544.958 8  92048675.31508      -180.480 8        51.307    23456544.428 8  94449932.77408      -185.218 8        51.457
G27        10.000    24242364.614 6 127394629.96406     -4156.999 6        39.775                                    24242363.004 6  99268611.70406     -3239.221 6        36.121    24242362.626 6  99268613.69906     -3239.236 6        38.979
G14        11.000    24013352.693 6 126191023.89406      -779.874 6        39.895                                    24013349.370 3  98330660.72803      -607.690 3        23.981    24013350.359 6  98330664.72206      -607.741 6        38.586
G32        12.000    21995037.739 8 115584733.17408      -799.945 8        48.391                                    21995035.182 8  90066026.91308      -623.337 8        48.202    21995035.926 7  90065999.92207      -623.357 7        45.062
G03        13.000    22768136.862 7 119647412.63507      2817.667 7        42.741                                    22768135.244 6  93231764.20206      2195.586 6        40.024    22768136.092 6  93231769.20506      2195.691 6        41.166
S36        14.000    38333584.182 7 201444880.93007      -326.261 7        43.503
C13        15.000                                                                                                                                    40523493.628 6 211016521.26306     -1170.472 6        37.614    40523494.894 6 163171393.62806      -904.908 6        38.802    40523493.307 6 171468231.14606      -951.164 6        37.592
G17        16.000    25041011.457 6 131591405.40206      2906.653 6        38.901                                    25041006.558 5 102538733.24305      2264.925 5        31.638    25041006.873 6 102538735.22806      2264.757 6        36.219
C16        17.000                                                                                                                                    40503510.376 6 210912419.34206      1347.904 6        38.949    40503510.685 6 163090866.73206      1042.238 6        39.877    40503508.613 5 171383609.42605      1095.129 5        35.938
E27        18.000    27446666.951 6 144233216.81506     -3016.068 6        40.157                                                                    27446667.352 6 107706624.18906     -2252.117 6        41.745    27446667.263 7 110516359.77907     -2310.934 7        42.821
E05        20.000    24116026.366 7 126730602.95907     -1405.156 7        43.623                                                                    24116026.304 7  94636494.87007     -1049.266 7        46.604    24116026.126 7  97105274.97807     -1076.641 7        47.503
C41        21.000                                                                                                                                    24593947.803 7 128067163.74007      2740.208 7        45.315                                                                    24593953.351 7 104065089.51707      2226.705 7        46.118
I06        22.000    38507071.077 7 151110251.69307      -136.964 7        42.322
E03        23.000    24712524.526 7 129865209.85007      1398.475 7        46.625                                                                    24712524.199 8  96977296.06808      1044.359 8        48.952    24712523.889 8  99507135.17308      1071.607 8        49.443
R22        24.000    20385334.601 8 108818342.41208      2186.652 8        51.664                                                                    20385332.504 7  84636503.52107      1700.738 7        47.605
S23        25.000    38289577.178 7 201213048.42607      -324.435 7        44.454
S45        26.000    63538004.153 6 333895926.05906      -368.148 6        37.584
G02        27.000    21297087.683 8 111917003.12108      1019.100 8        48.088                                    21297080.973 6  87208045.12406       794.103 6        40.086
S27        28.000    39236338.172 6 206188419.29106      -299.145 6        36.170
C39        29.000                                                                                                                                    40003259.296 6 208307483.98406      1065.332 6        41.364                                                                    40003255.560 6 169266888.49406       865.692 6        40.906
E21        30.000    26999489.627 6 141883287.78006     -1129.575 6        41.437                                                                    26999489.979 7 105951812.30407      -843.469 7        43.335    26999489.566 7 108715768.96707      -865.442 7        44.003
C43        31.000                                                                                                                                    24030874.756 7 125135172.11607     -3160.536 7        46.317                                                                    24030873.026 7 101682619.12807     -2568.228 7        44.865
