     3.04           OBSERVATION DATA    M                   RINEX VERSION / TYPE
ssrcrin-15.6.1x                         20250102 051500 UTC PGM / RUN BY / DATE 
(00000000023479385599111004) Septentrio proprietary         COMMENT             
rref                                                        MARKER NAME         
01                                                          MARKER NUMBER       
geodetic                                                    MARKER TYPE         
NFB                 CLIMERS@TUW                             OBSERVER / AGENCY   
3297213             SEPT ASTERX SB3 PROB4.14.4              REC # / TYPE / VERS 
Unknown             Unknown                                 ANT # / TYPE        
  4127831.5330  1207193.1288  4695247.3545                  APPROX POSITION XYZ 
        0.0000        0.0000        0.0000                  ANTENNA: DELTA H/E/N
G   23 X1  C1C L1C D1C S1C C1W S1W C2W L2W D2W S2W C2L L2L  SYS / # / OBS TYPES 
       D2L S2L C5Q L5Q D5Q S5Q C1L L1L D1L S1L              SYS / # / OBS TYPES 
E   21 X1  C1C L1C D1C S1C C6C L6C D6C S6C C5Q L5Q D5Q S5Q  SYS / # / OBS TYPES 
       C7Q L7Q D7Q S7Q C8Q L8Q D8Q S8Q                      SYS / # / OBS TYPES 
S    9 X1  C1C L1C D1C S1C C5I L5I D5I S5I                  SYS / # / OBS TYPES 
R   17 X1  C1C L1C D1C S1C C2P L2P D2P S2P C2C L2C D2C S2C  SYS / # / OBS TYPES 
       C3Q L3Q D3Q S3Q                                      SYS / # / OBS TYPES 
C   25 X1  C1P L1P D1P S1P C5P L5P D5P S5P C2I L2I D2I S2I  SYS / # / OBS TYPES 
       C7I L7I D7I S7I C6I L6I D6I S6I C7D L7D D7D S7D      SYS / # / OBS TYPES 
J   17 X1  C1C L1C D1C S1C C2L L2L D2L S2L C5Q L5Q D5Q S5Q  SYS / # / OBS TYPES 
       C1L L1L D1L S1L                                      SYS / # / OBS TYPES 
I    5 X1  C5A L5A D5A S5A                                  SYS / # / OBS TYPES 
SEPTENTRIO RECEIVERS OUTPUT ALIGNED CARRIER PHASES.         COMMENT             
NO FURTHER PHASE SHIFT APPLIED IN THE RINEX ENCODER.        COMMENT             
G L1C                                                       SYS / PHASE SHIFT   
G L2W                                                       SYS / PHASE SHIFT   
G L2L  0.00000                                              SYS / PHASE SHIFT   
G L5Q  0.00000                                              SYS / PHASE SHIFT   
G L1L  0.00000                                              SYS / PHASE SHIFT   
E L1C  0.00000                                              SYS / PHASE SHIFT   
E L6C  0.00000                                              SYS / PHASE SHIFT   
E L5Q  0.00000                                              SYS / PHASE SHIFT   
E L7Q  0.00000                                              SYS / PHASE SHIFT   
E L8Q  0.00000                                              SYS / PHASE SHIFT   
S L1C                                                       SYS / PHASE SHIFT   
S L5I                                                       SYS / PHASE SHIFT   
R L1C                                                       SYS / PHASE SHIFT   
R L2P  0.00000                                              SYS / PHASE SHIFT   
R L2C                                                       SYS / PHASE SHIFT   
R L3Q  0.00000                                              SYS / PHASE SHIFT   
C L1P  0.00000                                              SYS / PHASE SHIFT   
C L5P  0.00000                                              SYS / PHASE SHIFT   
C L2I                                                       SYS / PHASE SHIFT   
C L7I                                                       SYS / PHASE SHIFT   
C L6I                                                       SYS / PHASE SHIFT   
C L7D                                                       SYS / PHASE SHIFT   
J L1C                                                       SYS / PHASE SHIFT   
J L2L  0.00000                                              SYS / PHASE SHIFT   
J L5Q  0.00000                                              SYS / PHASE SHIFT   
J L1L  0.00000                                              SYS / PHASE SHIFT   
I L5A                                                       SYS / PHASE SHIFT   
  2025     1     2     5    15    0.0000000     GPS         TIME OF FIRST OBS   
 C1C    0.000 C2C    0.000 C2P    0.000                     GLONASS COD/PHS/BIS 
DBHZ                                                        SIGNAL STRENGTH UNIT
    18                                                      LEAP SECONDS        
 24 R01  1 R02 -4 R03  5 R04  6 R05  1 R06 -4 R07  5 R08  6 GLONASS SLOT / FRQ #
    R09 -2 R10 -7 R11  0 R12 -1 R13 -2 R14 -7 R15  0 R16 -1 GLONASS SLOT / FRQ #
    R17  4 R18 -3 R19  3 R20  2 R21  4 R22 -3 R23  3 R24  2 GLONASS SLOT / FRQ #
                                                            END OF HEADER       
> 2025 01 02 05 15  0.0000000  0 56
G09         1.000    20925276.233 8 109963102.80808     -2327.887 8        48.258                                    20925273.265 8  85685540.68208     -1813.937 8        50.220    20925273.509 7  85685540.69607     -1813.948 7        45.321
G06         2.000    22947132.998 7 120588015.49007     -3511.795 7        43.600                                    22947131.466 6  93964691.59106     -2736.464 6        41.676    22947132.234 7  93964699.59807     -2736.487 7        42.030
E11         3.000    24877152.426 7 130730339.71707     -1579.718 7        42.654                                                                    24877148.035 7  97623297.07007     -1179.571 7        44.758    24877147.859 7 100169987.85407     -1210.399 7        45.192
G16         4.000    23796441.258 6 125051154.86306     -1763.024 6        38.955                                    23796436.339 3  97442441.74603     -1373.804 3        21.619
S21         5.000    38507922.023 7 202360201.59907      -490.121 7        42.724
E10         6.000    25532265.448 7 134172970.21707     -2929.156 7        45.384                                                                    25532264.441 7 100194097.55607     -2187.262 7        47.664    25532264.188 8 102807856.12708     -2244.374 8        48.485
G20         7.000    21704568.224 7 114058287.18507      1847.344 7        47.054                                    21704562.904 5  88876569.09205      1439.489 5        34.843
R02         8.000    24467767.192 6 130564686.19606      2921.889 6        40.720                                                                    24467766.684 6 101550310.78906      2272.568 6        36.567
R10         9.000    20230134.340 7 107838005.33607      -583.632 7        44.590
R17        10.000    22482589.754 7 120308888.70707       668.379 7        45.792                                                                    22482588.279 6  93573574.37106       519.948 6        41.385
G30        11.000    22009933.095 7 115662991.02907      2182.493 7        47.686                                    22009930.723 7  90126998.55607      1700.644 7        46.514    22009931.507 7  90127006.56407      1700.610 7        42.391
S27        12.000    39146650.718 6 205717037.37306      -505.210 6        36.991
S36        14.000    38275832.001 7 201141368.64307      -490.276 7        45.296
I09        15.000    38293985.454 7 150273818.49007      -826.885 7        42.440
E09        16.000    27326935.592 6 143604038.32906      1855.610 6        40.527                                                                    27326934.839 7 107236781.24607      1385.676 7        42.146    27326934.625 7 110034258.70107      1421.874 7        43.050
S45        17.000    63460844.862 6 333489683.29806      -531.316 6        37.422
E36        18.000    26621474.580 6 139896789.43506      1082.861 6        40.841                                                                    26621474.194 7 104468402.50607       808.557 7        44.510    26621473.760 7 107193663.36807       829.723 7        45.303
E12        19.000    26909713.385 6 141411499.83406     -3608.532 6        39.219                                                                    26909709.770 6 105599483.69006     -2694.501 6        41.058    26909709.805 7 108354252.48807     -2764.991 7        42.432
E21        20.000    26216068.649 7 137766369.29507       851.565 7        42.969                                                                    26216068.025 7 102877499.40807       636.003 7        45.437    26216067.480 7 105561256.51807       652.495 7        46.328
G11        21.000    22302009.297 7 117197868.52907     -1426.177 7        46.086                                    22302005.120 5  91322997.08205     -1111.305 5        35.124    22302005.338 7  91323010.08507     -1111.312 7        45.166
I06        22.000    38028622.893 7 149232723.98407      -357.096 7        43.486
S28        23.000    40936967.058 5 215125208.33905      -490.753 5        35.262
R08        24.000    19970190.521 8 106939504.83508     -1759.252 8        50.318                                                                    19970187.943 7  83175175.11507     -1368.279 7        47.052
S23        25.000    38213885.626 7 200815312.84507      -486.643 7        45.001
R01        26.000    20465793.011 8 109401401.48008      1782.632 8        48.200                                                                    20465792.561 6  85089972.35506      1386.451 6        41.066
C44        27.000                                                                                                                                    25782307.789 6 134255247.12706      -942.429 6        41.337                                                                    25782305.955 6 109093380.83206      -765.764 6        40.610
R24        29.000    22083622.847 8 118091064.77308     -3000.034 8        48.394                                                                    22083621.512 7  91848594.32207     -2333.304 7        42.861
E19        30.000    24227180.177 7 127314723.58707     -2136.818 7        42.245                                                                    24227177.496 7  95072685.72107     -1595.633 7        44.117    24227177.262 7  97552839.48107     -1637.303 7        44.855
C23        31.000                                                                                                                                    26726284.401 6 139170782.89006     -3438.576 6        38.661                                                                    26726276.289 6 113087627.37506     -2794.082 6        39.937
R23        32.000    24491082.509 6 131010778.86806     -4851.991 6        38.937
E29        33.000    28408417.089 6 149287285.40606     -2974.029 6        36.091                                                                    28408418.193 6 111480768.71406     -2220.970 6        40.515    28408417.892 6 114388958.49306     -2278.813 6        40.980
E04        34.000    23724111.531 8 124671084.06108       399.996 8        48.536                                                                    23724108.849 8  93098548.67108       298.733 8        50.734    23724108.697 8  95527201.89508       306.500 8        51.504
C16        35.000                                                                                                                                    40510282.847 6 210947702.61006     -1523.347 6        38.691    40510283.356 6 163118155.75206     -1177.961 6        39.979    40510280.931 5 171412287.07305     -1237.890 5        35.948
C32        36.000                                                                                                                                    26882212.382 6 139982750.91906     -3402.940 6        40.036                                                                    26882214.315 6 113747464.31506     -2765.065 6        41.015
I01        37.000   385211228.706 6 208510785.60906     -2951.344 6        41.683
E27        38.000    27657831.822 6 145342889.98706     -1679.146 6        38.808                                                                    27657831.222 6 108535286.58006     -1253.883 6        41.864    27657830.752 7 111366638.14507     -1286.489 7        42.235
C19        39.000                                                                                                                                    22310674.527 8 116177543.58208       738.469 8        51.086                                                                    22310669.370 8  94403749.00508       600.055 8        49.999
C39        40.000                                                                                                                                    41457570.055 5 215880451.37105     -1639.567 5        32.575                                                                    41457566.527 5 175420541.06305     -1332.822 5        34.038
G05        41.000    24450125.099 6 128486284.98706      3122.852 6        41.378                                    24450120.588 5 100119164.70105      2433.388 5        33.210    24450120.717 6 100119173.70606      2433.339 6        37.017
S44        42.000    40877674.511 6 214813808.39806      -551.666 6        37.384
G29        43.000    25855120.539 6 135869570.12306     -1271.160 6        37.270                                    25855116.953 4 105872377.99404      -990.512 4        27.820    25855117.122 5 105872377.00605      -990.427 5        34.371
C05        44.000                                                                                                                                    39281794.066 6 204550655.37806      -541.676 6        37.671    39281790.276 7 158171566.87407      -419.123 7        43.809    39281791.742 6 166214266.79506      -440.495 6        39.904
G04        46.000    23004805.199 7 120891097.88207     -3336.544 7        42.457                                    23004802.191 4  94200840.42404     -2599.914 4        28.815    23004802.467 7  94200842.41407     -2599.963 7        42.607
R11        47.000    21333822.773 8 114001462.05408      3266.929 8        49.278                                                                    21333820.907 7  88667807.55607      2541.071 7        45.886
C20        49.000                                                                                                                                    22559691.584 8 117474259.53608     -1913.383 8        51.929                                                                    22559685.423 8  95457442.80508     -1554.896 8        49.933
C06        50.000                                                                                                                                    39939461.829 6 207975285.36306     -1545.952 6        38.054    39939455.632 6 160819665.66506     -1195.515 6        40.162    39939455.754 6 168996935.46406     -1256.264 6        38.354
S48        51.000    77240849.344 6 405902460.56306      -474.621 6        38.189
E06        52.000    25131453.495 7 132066708.04407      1374.062 7        44.394                                                                    25131452.842 7  98621255.35507      1026.072 7        47.683    25131452.823 8 101193981.53308      1052.848 8        48.772
C09        53.000                                                                                                                                    39308541.613 6 204689912.73806     -1251.041 6        40.498    39308538.228 7 158279215.53907      -967.344 7        44.278    39308536.062 6 166327300.77506     -1016.620 6        41.130
C60        54.000                                                                                                                                    40877675.403 6 212860974.90706      -546.486 6        39.486                                                                    40877660.528 6 172966945.19406      -444.107 6        39.474
R09        55.000    22357790.101 7 119389375.49807     -3687.575 7        45.273                                                                    22357788.481 7  92858397.83307     -2868.146 7        44.147
G07        56.000    20874358.546 8 109695515.14308       -19.267 8        49.790                                    20874353.394 8  85477008.72608       -15.012 8        50.112    20874353.583 7  85477017.73207       -14.993 7        45.976
C02        57.000                                                                                                                                    40839816.974 5 212663681.07105      -568.496 5        34.710    40839812.004 6 164445038.09306      -439.512 6        39.964    40839815.236 5 172806660.99905      -461.744 5        35.738
I03        58.000    99330291.494 6 314008141.10706       837.789 6        40.501
R07        59.000    23277986.935 7 124608933.37107     -3736.479 7        43.520                                                                    23277986.990 6  96918107.73206     -2906.058 6        40.586
C35        60.000                                                                                                                                    25886694.690 6 134798808.32106     -2776.417 6        41.411                                                                    25886693.171 6 109535067.98306     -2256.195 6        40.830
> 2025 01 02 05 15  5.0000000  0 56
G09         1.000    20927491.601 8 109974745.32908     -2329.241 8        48.049                                    20927488.762 8  85694612.77708     -1814.993 8        50.204    20927488.930 7  85694612.77407     -1814.995 7        45.302
G06         2.000    22950474.994 7 120605578.30807     -3513.365 7        43.187                                    22950473.597 6  93978376.90206     -2737.684 6        41.726    22950473.920 6  93978384.90306     -2737.617 6        41.712
E11         3.000    24878656.635 7 130738242.99307     -1581.758 7        42.633                                                                    24878652.016 7  97629198.86607     -1181.168 7        44.709    24878651.772 7 100176043.60407     -1211.919 7        45.052
G16         4.000    23798120.327 6 125059977.81006     -1766.195 6        39.718                                    23798114.982 3  97449316.77303     -1376.255 3        21.476
S21         5.000    38508389.236 7 202362650.90807      -489.856 7        42.629
E10         6.000    25535053.514 7 134187618.66407     -2930.482 7        45.527                                                                    25535051.922 7 100205036.32707     -2188.303 7        47.625    25535051.787 8 102819080.25708     -2245.374 8        48.360
G20         7.000    21702811.009 7 114049054.71207      1845.533 7        47.173                                    21702805.950 5  88869374.96005      1438.079 5        34.948
R02         8.000    24465027.192 6 130550075.18506      2922.416 6        38.886                                                                    24465028.175 5 101538946.74705      2272.999 5        35.852
R10         9.000    20230684.408 7 107840934.41807      -588.110 7        44.966
R17        10.000    22481967.222 7 120305556.73007       664.354 7        46.509                                                                    22481965.263 7  93570982.83507       516.625 7        42.000
G30        11.000    22007857.406 7 115652082.16607      2180.936 7        47.901                                    22007854.803 7  90118498.14407      1699.431 7        46.634    22007855.663 7  90118506.13607      1699.433 7        42.508
S27        12.000    39147128.990 6 205719563.54006      -505.461 6        36.805
S36        14.000    38276296.849 7 201143819.30907      -490.185 7        45.186
I09        15.000    38295038.614 7 150277952.36607      -826.782 7        42.552
E09        16.000    27325169.931 6 143594760.47906      1855.382 6        40.667                                                                    27325169.233 7 107229852.97907      1385.594 7        42.224    27325169.062 7 110027149.69507      1421.712 7        42.929
S45        17.000    63461305.520 6 333492339.50206      -531.197 6        37.070
E36        18.000    26620444.986 6 139891379.98306      1080.885 6        40.865                                                                    26620444.780 7 104464362.98007       807.159 7        44.561    26620444.320 7 107189518.46507       828.196 7        45.183
E12        19.000    26913146.575 6 141429542.94506     -3608.932 6        38.874                                                                    26913143.145 6 105612957.43206     -2694.944 6        40.956    26913143.185 7 108368077.71307     -2765.214 7        42.262
E21        20.000    26215259.200 7 137762115.68007       849.679 7        42.990                                                                    26215258.535 7 102874323.00707       634.488 7        45.505    26215257.980 7 105557997.24407       651.057 7        46.035
G11        21.000    22303367.468 7 117205006.62407     -1429.159 7        46.236                                    22303363.479 5  91328559.23705     -1113.630 5        34.990    22303363.948 7  91328572.23607     -1113.674 7        45.210
I06        22.000    38029077.522 7 149234508.55307      -356.774 7        43.566
S28        23.000    40937431.937 5 215127660.13205      -490.560 5        35.324
R08        24.000    19971833.886 8 106948305.38308     -1761.042 8        50.061                                                                    19971831.632 7  83182019.99507     -1369.738 7        47.296
S23        25.000    38214348.854 7 200817745.36007      -486.525 7        44.897
R01        26.000    20464126.242 8 109392491.06308      1781.483 8        48.071                                                                    20464125.790 6  85083042.03806      1385.519 6        41.213
C44        27.000                                                                                                                                    25783214.487 6 134259964.76006      -944.808 6        41.502                                                                    25783211.904 6 109097214.31006      -767.800 6        40.644
R24        29.000    22086429.254 8 118106072.18108     -3003.049 8        48.158                                                                    22086428.026 7  91860266.75107     -2335.728 7        42.305
E19        30.000    24229213.480 7 127325408.51007     -2137.278 7        42.449                                                                    24229210.658 7  95080664.71007     -1595.915 7        44.160    24229210.704 7  97561026.62107     -1637.635 7        44.755
C23        31.000                                                                                                                                    26729586.434 6 139187977.61706     -3439.546 6        38.742                                                                    26729578.554 6 113101599.49206     -2794.919 6        40.072
R23        32.000    24495617.931 6 131035036.48206     -4851.320 6        39.510
E29        33.000    28411246.975 6 149302155.09806     -2973.923 6        36.386                                                                    28411247.704 6 111491872.65206     -2220.739 6        40.396    28411247.489 6 114400352.11706     -2278.652 6        40.822
E04        34.000    23723731.144 8 124669085.50108       399.199 8        48.599                                                                    23723728.527 8  93097056.23408       298.172 8        50.805    23723728.417 8  95525670.52008       305.960 8        51.359
C16        35.000                                                                                                                                    40511745.603 6 210955318.23706     -1522.997 6        38.718    40511745.435 6 163124044.63106     -1177.669 6        40.164    40511743.403 5 171418475.39805     -1237.796 5        35.871
C32        36.000                                                                                                                                    26885479.716 6 139999765.70806     -3403.222 6        40.343                                                                    26885481.758 6 113761290.18106     -2765.485 6        41.008
I01        37.000   385214989.236 7 208525542.26107     -2951.237 7        42.091
E27        38.000    27659430.564 6 145351290.13706     -1681.011 6        38.640                                                                    27659429.723 7 108541559.41807     -1255.445 7        42.102    27659429.151 7 111373074.62507     -1288.127 7        42.000
C19        39.000                                                                                                                                    22309965.999 8 116173853.77308       737.268 8        51.240                                                                    22309960.807 8  94400750.72808       598.985 8        50.096
C39        40.000                                                                                                                                    41459144.489 5 215888649.24505     -1639.154 5        32.719                                                                    41459140.957 5 175427202.47405     -1332.147 5        34.095
G05        41.000    24447153.614 6 128470670.69506      3122.701 6        40.710                                    24447149.195 5 100106997.72105      2433.271 5        33.174    24447149.784 6 100107006.75006      2433.077 6        36.824
S44        42.000    40878198.410 6 214816565.06106      -551.283 6        37.319
G29        43.000    25856330.889 6 135875932.38106     -1273.617 6        37.675                                    25856327.587 4 105877335.59904      -992.421 4        27.772    25856327.862 5 105877334.62005      -992.586 5        34.290
C05        44.000                                                                                                                                    39282314.545 6 204553364.53806      -541.819 6        37.837    39282310.804 7 158173661.74107      -418.889 7        43.826    39282312.069 6 166216468.18706      -440.375 6        39.955
G04        46.000    23007980.258 7 120907781.89107     -3337.115 7        42.955                                    23007977.195 4  94213840.93604     -2600.349 4        28.967    23007977.239 7  94213842.93007     -2600.353 7        42.311
R11        47.000    21330766.655 8 113985132.39908      3264.773 8        48.591                                                                    21330765.085 7  88655106.73107      2539.357 7        45.934
C20        49.000                                                                                                                                    22561529.459 8 117483829.70308     -1914.716 8        51.860                                                                    22561523.302 8  95465219.33808     -1555.976 8        50.087
C06        50.000                                                                                                                                    39940946.240 6 207983014.35306     -1545.789 6        37.739    39940939.835 6 160825642.18606     -1195.159 6        40.184    39940939.941 6 169003215.88506     -1256.095 6        38.306
S48        51.000    77241304.976 6 405904831.93706      -474.104 6        38.027
E06        52.000    25130146.109 7 132059838.72007      1373.558 7        44.319                                                                    25130145.658 7  98616125.66507      1025.698 7        47.677    25130145.593 8 101188718.02108      1052.524 8        48.580
C09        53.000                                                                                                                                    39309742.976 6 204696167.42106     -1251.016 6        40.687    39309739.279 7 158284052.05307      -967.225 7        44.655    39309737.222 6 166332383.20706     -1016.535 6        41.323
C60        54.000                                                                                                                                    40878199.902 6 212863706.51106      -546.298 6        39.559                                                                    40878185.027 6 172969164.82906      -444.092 6        39.471
R09        55.000    22361244.073 7 119407819.42807     -3690.173 7        45.374                                                                    22361242.366 7  92872743.11307     -2870.137 7        44.020
G07        56.000    20874377.877 8 109695616.58908       -21.441 8        50.044                                    20874372.689 8  85477087.77608       -16.708 8        50.232    20874373.050 7  85477096.77807       -16.676 7        45.824
C02        57.000                                                                                                                                    40840363.183 5 212666522.69405      -568.178 5        34.776    40840357.631 6 164447235.38106      -439.358 6        39.919    40840360.806 5 172808970.02105      -461.894 5        35.919
I03        58.000    99329223.727 6 314003951.09306       838.150 6        40.656
R07        59.000    23281476.854 7 124627616.60907     -3737.048 7        43.005                                                                    23281476.338 6  96932639.13006     -2906.554 6        40.393
C35        60.000                                                                                                                                    25889360.725 6 134812692.97806     -2777.490 6        41.998                                                                    25889359.455 6 109546350.41406     -2257.243 6        40.973
> 2025 01 02 05 15 10.0000000  0 56
G09         1.000    20929708.266 7 109986395.24107     -2330.687 7        47.668                                    20929705.685 8  85703690.62908     -1816.119 8        50.183    20929705.743 7  85703690.62907     -1816.077 7        44.897
G06         2.000    22953818.875 7 120623149.10207     -3515.034 7        43.636                                    22953817.217 6  93992068.42706     -2738.984 6        41.654    22953818.110 7  93992076.43307     -2738.988 7        42.220
E11         3.000    24880162.677 7 130746157.95307     -1584.107 7        42.597                                                                    24880158.148 7  97635109.38507     -1182.905 7        44.962    24880157.996 7 100182108.31207     -1213.797 7        45.046
G16         4.000    23799802.399 6 125068817.22606     -1769.485 6        39.919                                    23799796.907 3  97456204.62503     -1378.816 3        21.524
S21         5.000    38508852.447 7 202365099.72407      -489.694 7        42.552
E10         6.000    25537842.425 7 134202274.85007     -2931.965 7        45.409                                                                    25537840.882 7 100215980.87907     -2189.500 7        47.873    25537840.793 8 102830310.31708     -2246.595 8        48.350
G20         7.000    21701056.077 7 114039832.49007      1843.412 7        46.925                                    21701051.044 5  88862188.81205      1436.428 5        34.952
R02         8.000    24462290.391 6 130535462.73206      2922.719 6        41.368                                                                    24462290.392 5 101527581.41205      2273.412 5        33.168
R10         9.000    20231238.194 7 107843886.49207      -592.626 7        45.153
R17        10.000    22481349.451 7 120302246.00807       660.003 7        47.195                                                                    22481347.617 6  93568407.82106       513.399 6        41.623
G30        11.000    22005783.102 7 115641182.12807      2179.102 7        47.576                                    22005780.592 7  90110004.60607      1698.005 7        46.650    22005781.482 7  90110012.61107      1698.045 7        42.622
S27        12.000    39147610.802 6 205722089.94506      -505.109 6        37.142
S36        14.000    38276764.634 7 201146269.66207      -490.088 7        45.087
I09        15.000    38296092.467 7 150282086.53007      -826.698 7        42.645
E09        16.000    27323405.073 6 143585484.00006      1855.157 6        40.915                                                                    27323403.946 7 107222925.74407      1385.343 7        42.508    27323403.694 7 110020041.75207      1421.459 7        42.840
S45        17.000    63461769.339 6 333494995.38306      -531.034 6        37.323
E36        18.000    26619417.227 6 139885980.90006      1078.747 6        40.858                                                                    26619417.312 7 104460331.20607       805.597 7        44.784    26619417.010 7 107185381.50807       826.634 7        45.156
E12        19.000    26916580.598 6 141447589.08006     -3609.491 6        38.949                                                                    26916577.143 6 105626433.44606     -2695.526 6        41.201    26916577.207 7 108381905.26607     -2765.657 7        42.146
E21        20.000    26214451.932 7 137757872.33407       847.599 7        43.247                                                                    26214450.980 7 102871154.26507       633.050 7        45.886    26214450.572 7 105554745.84407       649.540 7        45.961
G11        21.000    22304729.210 7 117212160.47207     -1432.349 7        46.114                                    22304724.837 5  91334133.66505     -1116.120 5        35.029    22304724.776 7  91334146.65807     -1116.106 7        44.891
I06        22.000    38029532.559 7 149236293.02607      -356.874 7        43.708
S28        23.000    40937901.489 5 215130111.62205      -490.176 5        34.986
R08        24.000    19973479.335 8 106957115.82508     -1763.094 8        50.287                                                                    19973476.877 7  83188872.55907     -1371.339 7        47.146
S23        25.000    38214810.903 7 200820177.45907      -486.380 7        44.919
R01        26.000    20462460.137 8 109383587.41708      1780.018 8        48.072                                                                    20462459.223 6  85076116.98306      1384.407 6        41.256
C44        27.000                                                                                                                                    25784122.176 6 134264694.96606      -947.346 6        40.753                                                                    25784120.245 6 109101057.96406      -769.678 6        40.460
R24        29.000    22089238.066 7 118121095.79607     -3006.309 7        47.463                                                                    22089237.773 7  91871951.80007     -2338.153 7        42.819
E19        30.000    24231247.107 7 127336096.50007     -2137.873 7        42.472                                                                    24231244.586 7  95088645.99607     -1596.369 7        44.373    24231244.576 7  97569216.12007     -1638.125 7        44.758
C23        31.000                                                                                                                                    26732889.887 6 139205177.49506     -3440.485 6        38.850                                                                    26732881.748 6 113115575.79906     -2795.826 6        40.098
R23        32.000    24500152.517 6 131059291.87706     -4850.846 6        39.246
E29        33.000    28414076.653 6 149317024.27406     -2973.697 6        36.526                                                                    28414077.322 6 111502976.20906     -2220.686 6        40.651    28414077.082 6 114411745.34206     -2278.654 6        40.934
E04        34.000    23723351.619 8 124667091.71108       398.290 8        48.688                                                                    23723349.134 8  93095567.36608       297.457 8        50.997    23723349.006 8  95524142.81408       305.223 8        51.379
C16        35.000                                                                                                                                    40513207.872 6 210962933.28406     -1522.868 6        38.357    40513208.095 6 163129933.05906     -1177.630 6        40.102    40513205.922 5 171424663.19005     -1237.167 5        35.614
C32        36.000                                                                                                                                    26888747.848 6 140016781.92306     -3403.471 6        40.427                                                                    26888749.719 6 113775117.23006     -2765.505 6        41.027
I01        37.000   385218749.805 7 208540299.28707     -2951.393 7        42.191
E27        38.000    27661030.763 6 145359700.99506     -1683.302 6        38.586                                                                    27661030.294 7 108547840.25007     -1256.945 7        42.284    27661029.494 6 111379519.30706     -1289.747 6        41.809
C19        39.000                                                                                                                                    22309258.807 8 116170170.73408       735.946 8        51.047                                                                    22309253.522 8  94397757.95908       597.997 8        49.971
C39        40.000                                                                                                                                    41460717.945 5 215896846.05905     -1639.255 5        32.814                                                                    41460714.942 5 175433863.00105     -1331.952 5        34.014
G05        41.000    24444182.581 6 128455058.89206      3122.177 6        41.039                                    24444178.209 5 100094832.67605      2432.866 5        33.287    24444179.025 6 100094841.68806      2432.677 6        37.497
S44        42.000    40878721.344 6 214819321.21306      -550.968 6        37.096
G29        43.000    25857544.513 6 135882308.37706     -1276.794 6        37.191                                    25857541.033 4 105882303.92004      -994.912 4        27.605    25857541.263 5 105882302.89005      -994.464 5        33.329
C05        44.000                                                                                                                                    39282834.805 6 204556073.32106      -541.661 6        37.584    39282830.894 7 158175756.34507      -418.828 7        43.968    39282832.195 6 166218669.30006      -440.225 6        39.895
G04        46.000    23011155.877 7 120924469.00007     -3337.704 7        42.925                                    23011152.723 4  94226843.86804     -2600.805 4        28.872    23011152.447 7  94226845.86807     -2600.867 7        42.102
R11        47.000    21327713.219 8 113968814.55508      3262.407 8        48.115                                                                    21327711.438 7  88642415.07607      2537.440 7        45.535
C20        49.000                                                                                                                                    22563368.594 8 117493407.21508     -1916.247 8        51.612                                                                    22563362.533 8  95473001.84308     -1557.076 8        49.898
C06        50.000                                                                                                                                    39942430.577 6 207990742.98906     -1545.656 6        37.414    39942423.806 6 160831618.46106     -1195.295 6        40.191    39942424.300 6 169009496.01506     -1255.932 6        38.147
S48        51.000    77241764.350 6 405907202.62406      -474.085 6        38.153
E06        52.000    25128839.805 7 132052972.63907      1372.960 7        44.680                                                                    25128839.118 7  98610998.39507      1025.201 7        47.962    25128839.016 8 101183456.99708      1051.922 8        48.631
C09        53.000                                                                                                                                    39310944.204 6 204702422.37006     -1250.986 6        40.503    39310940.481 7 158288888.78307      -967.372 7        44.837    39310938.478 6 166337465.87406     -1016.545 6        41.097
C60        54.000                                                                                                                                    40878724.383 6 212866437.61306      -546.076 6        39.709                                                                    40878709.727 6 172971384.06506      -443.885 6        39.360
R09        55.000    22364700.410 7 119426277.04707     -3692.871 7        44.962                                                                    22364698.568 7  92887099.03907     -2872.292 7        43.663
G07        56.000    20874399.463 8 109695730.18508       -23.897 8        49.823                                    20874394.295 8  85477176.29208       -18.618 8        50.241    20874394.614 7  85477185.29307       -18.607 7        45.816
C02        57.000                                                                                                                                    40840908.985 5 212669363.88305      -568.357 5        34.252    40840903.308 6 164449432.33706      -439.368 6        39.799    40840906.514 5 172811278.69305      -461.563 5        35.452
I03        58.000    99328156.265 6 313999760.81206       838.069 6        40.448
R07        59.000    23284967.692 7 124646303.28407     -3737.798 7        43.346                                                                    23284967.537 6  96947173.17906     -2907.127 6        40.396
C35        60.000                                                                                                                                    25892028.638 6 134826583.93906     -2778.781 6        41.824                                                                    25892027.154 6 109557637.94306     -2257.944 6        40.982
> 2025 01 02 05 15 15.0000000  0 56
G09         1.000    20931926.777 8 109998053.02308     -2332.580 8        48.051                                    20931924.106 8  85712774.61208     -1817.597 8        50.251    20931924.425 7  85712774.61807     -1817.650 7        44.817
G06         2.000    22957164.299 7 120640728.35607     -3516.925 7        43.462                                    22957162.406 6  94005766.54306     -2740.460 6        41.752    22957162.773 6  94005774.54206     -2740.411 6        41.459
E11         3.000    24881671.458 7 130754085.03907     -1586.670 7        42.830                                                                    24881666.650 7  97641028.96507     -1184.936 7        44.855    24881666.500 7 100188182.31307     -1215.821 7        45.222
G16         4.000    23801487.733 6 125077673.59506     -1773.272 6        40.386                                    23801482.127 3  97463105.69103     -1381.776 3        21.238
S21         5.000    38509319.231 7 202367548.53207      -489.974 7        42.739
E10         6.000    25540632.594 7 134216939.24207     -2933.864 7        45.475                                                                    25540631.456 7 100226931.55807     -2190.930 7        47.848    25540631.348 8 102841546.67208     -2248.075 8        48.513
G20         7.000    21699303.342 7 114030621.01707      1840.999 7        46.740                                    21699298.146 5  88855011.04005      1434.543 5        35.100
R02         8.000    24459552.165 6 130520848.83606      2922.628 6        41.793                                                                    24459550.434 5 101516215.09005      2273.150 5        34.448
R10         9.000    20231796.137 7 107846862.18907      -597.673 7        45.258
R17        10.000    22480735.017 7 120298956.91807       655.337 7        46.735                                                                    22480732.557 7  93565849.62707       509.620 7        42.032
G30        11.000    22003710.509 7 115630291.41507      2176.946 7        47.877                                    22003708.169 7  90101518.33807      1696.321 7        46.745    22003708.927 7  90101526.33607      1696.400 7        42.521
S27        12.000    39148092.866 6 205724615.54806      -505.283 6        37.093
S36        14.000    38277228.842 7 201148720.79707      -490.413 7        45.315
I09        15.000    38297146.054 7 150286221.30407      -827.149 7        42.591
E09        16.000    27321639.912 6 143576209.38506      1854.494 6        40.820                                                                    27321639.210 7 107215999.90507      1384.758 7        42.574    27321638.777 7 110012935.23407      1420.914 7        43.145
S45        17.000    63462232.031 6 333497651.29506      -531.516 6        37.546
E36        18.000    26618391.943 6 139880592.66606      1076.515 6        41.063                                                                    26618391.889 7 104456307.52207       803.798 7        44.811    26618391.682 7 107181252.86107       824.807 7        45.249
E12        19.000    26920015.629 6 141465638.74606     -3610.407 6        39.589                                                                    26920011.652 6 105639912.07906     -2696.111 6        41.068    26920011.895 7 108395735.52507     -2766.468 7        42.110
E21        20.000    26213646.401 7 137753639.72207       845.210 7        43.651                                                                    26213645.503 7 102867993.55607       631.148 7        45.798    26213645.178 7 105551502.67907       647.620 7        45.962
G11        21.000    22306093.559 7 117219330.54307     -1435.812 7        46.197                                    22306089.228 5  91339720.72905     -1118.815 5        35.171    22306089.185 7  91339733.73207     -1118.867 7        44.695
I06        22.000    38029987.337 7 149238077.73307      -357.279 7        43.600
S28        23.000    40938372.217 5 215132562.76505      -490.418 5        35.233
R08        24.000    19975126.763 8 106965936.72108     -1765.438 8        50.281                                                                    19975123.638 7  83195733.24607     -1373.115 7        47.193
S23        25.000    38215273.993 7 200822609.54007      -486.447 7        45.028
R01        26.000    20460796.415 8 109374691.06508      1778.297 8        48.146                                                                    20460795.858 6  85069197.60406      1383.158 6        41.490
C44        27.000                                                                                                                                    25785032.590 6 134269438.16706      -950.228 6        40.946                                                                    25785031.214 6 109104912.19906      -772.007 6        40.567
R24        29.000    22092050.740 7 118136136.19907     -3009.978 7        47.710                                                                    22092050.058 7  91883649.88107     -2341.019 7        42.063
E19        30.000    24233281.578 7 127346788.15707     -2138.951 7        42.500                                                                    24233279.061 7  95096630.03007     -1597.251 7        44.322    24233279.131 7  97577408.42807     -1638.899 7        44.700
C23        31.000                                                                                                                                    26736193.777 6 139222382.98606     -3441.953 6        39.156                                                                    26736185.820 6 113129556.65006     -2796.649 6        40.167
R23        32.000    24504685.818 6 131083545.53106     -4850.815 6        39.538
E29        33.000    28416906.039 6 149331893.43906     -2974.128 6        36.900                                                                    28416906.710 6 111514079.74906     -2220.759 6        40.515    28416906.635 6 114423138.54306     -2278.887 6        40.951
E04        34.000    23722973.208 8 124665103.15608       396.989 8        48.796                                                                    23722970.713 8  93094082.40908       296.474 8        51.000    23722970.547 8  95522619.11908       304.214 8        51.378
C16        35.000                                                                                                                                    40514669.968 6 210970548.19806     -1523.152 6        38.402    40514670.008 6 163135821.38706     -1177.902 6        40.067    40514668.098 6 171430850.95406     -1237.839 6        36.023
C32        36.000                                                                                                                                    26892015.983 6 140033800.09106     -3403.963 6        40.768                                                                    26892017.920 6 113788945.85806     -2765.903 6        40.832
I01        37.000   385222510.500 7 208555057.08507     -2951.721 7        42.256
E27        38.000    27662633.497 6 145368123.05106     -1685.693 6        38.568                                                                    27662632.837 7 108554129.43207     -1258.755 7        42.182    27662632.134 6 111385972.55906     -1291.679 6        41.924
C19        39.000                                                                                                                                    22308552.937 8 116166494.96008       734.193 8        51.335                                                                    22308547.623 8  94394771.08708       596.747 8        49.926
C39        40.000                                                                                                                                    41462292.219 5 215905042.14705     -1639.408 5        32.407                                                                    41462289.265 5 175440522.99005     -1331.815 5        33.898
G05        41.000    24441212.663 6 128439449.97606      3121.355 6        41.099                                    24441207.992 5 100082669.89405      2432.228 5        33.341    24441209.229 6 100082678.90706      2432.326 6        38.018
S44        42.000    40879247.229 6 214822077.36306      -551.507 6        37.259
G29        43.000    25858760.076 6 135888698.54606     -1279.756 6        37.701                                    25858756.979 4 105887283.27404      -997.210 4        27.545    25858756.217 5 105887282.27105      -997.441 5        33.737
C05        44.000                                                                                                                                    39283355.024 6 204558782.20706      -541.959 6        37.868    39283351.096 7 158177851.02007      -419.119 7        43.932    39283352.455 6 166220870.48806      -440.449 6        39.844
G04        46.000    23014331.875 7 120941159.69207     -3338.718 7        42.973                                    23014328.956 4  94239849.60104     -2601.593 4        28.910    23014328.263 6  94239851.59306     -2601.476 6        41.642
R11        47.000    21324661.454 8 113952509.05808      3259.677 8        48.625                                                                    21324660.055 7  88629733.01007      2535.252 7        46.093
C20        49.000                                                                                                                                    22565209.265 8 117502992.55608     -1918.080 8        51.759                                                                    22565203.304 8  95480790.71608     -1558.460 8        49.854
C06        50.000                                                                                                                                    39943914.294 6 207998471.74406     -1546.065 6        37.626    39943908.321 6 160837594.82506     -1195.422 6        40.222    39943908.386 6 169015776.28006     -1256.345 6        37.977
S48        51.000    77242222.356 6 405909573.58606      -474.391 6        38.303
E06        52.000    25127534.113 7 132046110.25307      1371.939 7        44.643                                                                    25127533.254 7  98605873.89207      1024.478 7        47.961    25127533.166 8 101178198.80908      1051.195 8        48.662
C09        53.000                                                                                                                                    39312145.527 6 204708678.07406     -1251.351 6        40.691    39312141.756 7 158293726.08707      -967.693 7        44.965    39312139.825 6 166342549.14006     -1016.759 6        41.111
C60        54.000                                                                                                                                    40879249.016 6 212869168.69306      -546.364 6        39.712                                                                    40879233.944 6 172973603.26006      -443.857 6        39.330
R09        55.000    22368159.537 7 119444748.90007     -3695.960 7        44.901                                                                    22368157.425 7  92901466.02907     -2874.615 7        43.414
G07        56.000    20874423.446 8 109695856.44308       -26.753 8        49.700                                    20874418.317 8  85477274.67608       -20.849 8        50.292    20874418.480 7  85477283.67907       -20.835 7        45.813
C02        57.000                                                                                                                                    40841455.198 5 212672205.12305      -568.615 5        34.467    40841449.275 6 164451629.32906      -439.418 6        39.976    40841452.213 5 172813587.42505      -462.008 5        35.224
I03        58.000    99327088.205 6 313995570.57606       837.895 6        40.613
R07        59.000    23288459.885 7 124664993.94907     -3738.640 7        43.657                                                                    23288460.071 6  96961710.35506     -2907.936 6        40.846
C35        60.000                                                                                                                                    25894697.734 7 134840481.62807     -2780.328 7        42.248                                                                    25894696.304 6 109568930.97006     -2259.213 6        41.068
> 2025 01 02 05 15 20.0000000  0 56
G09         1.000    20934146.932 7 110009719.09407     -2334.023 7        47.894                                    20934144.061 8  85721865.05408     -1818.719 8        50.149    20934144.449 7  85721865.05507     -1818.678 7        44.805
G06         2.000    22960510.975 7 120658316.48207     -3518.469 7        43.687                                    22960509.273 6  94019471.57406     -2741.662 6        41.647    22960510.039 6  94019479.57706     -2741.673 6        41.685
E11         3.000    24883182.085 7 130762024.69607     -1589.085 7        42.882                                                                    24883177.520 7  97646957.93007     -1186.643 7        44.777    24883177.348 7 100194265.94407     -1217.603 7        45.270
G16         4.000    23803176.547 6 125086547.32006     -1776.400 6        40.315                                    23803170.433 3  97470020.28503     -1384.205 3        21.405
S21         5.000    38509784.539 7 202369997.68607      -489.788 7        42.772
E10         6.000    25543425.015 7 134231612.26107     -2935.399 7        45.397                                                                    25543423.637 7 100237888.68007     -2192.009 7        47.693    25543423.480 8 102852789.63308     -2249.215 8        48.534
G20         7.000    21697552.577 7 114021420.71107      1838.984 7        46.488                                    21697547.371 5  88847841.97405      1432.975 5        34.924
R02         8.000    24456813.098 6 130506234.41706      2922.973 6        41.151                                                                    24456812.919 5 101504848.31305      2273.417 5        34.771
R10         9.000    20232358.889 7 107849861.85207      -602.192 7        44.564
R17        10.000    22480123.538 7 120295690.11407       651.171 7        46.366                                                                    22480122.237 7  93563308.79307       506.486 7        42.064
G30        11.000    22001639.951 7 115619410.43307      2175.302 7        47.749                                    22001637.620 7  90093039.65107      1695.043 7        46.672    22001638.249 7  90093047.66007      1694.965 7        42.756
S27        12.000    39148573.431 6 205727140.84806      -504.687 6        37.138
S36        14.000    38277696.730 7 201151172.95507      -490.394 7        45.377
I09        15.000    38298200.200 7 150290357.03507      -827.153 7        42.500
E09        16.000    27319875.499 6 143566937.04206      1854.313 6        40.677                                                                    27319874.914 7 107209075.74507      1384.747 7        42.408    27319874.379 7 110005830.45007      1420.861 7        42.980
S45        17.000    63462695.497 6 333498707.67016      -531.338 6        37.732
E36        18.000    26617368.874 6 139875215.71906      1074.293 6        41.139                                                                    26617368.589 7 104452292.27007       802.214 7        44.674    26617368.429 7 107177132.85707       823.236 7        45.344
E12        19.000    26923450.645 6 141483692.32806     -3610.912 6        39.601                                                                    26923447.240 6 105653393.65406     -2696.571 6        41.068    26923447.567 7 108409568.78807     -2766.772 7        42.476
E21        20.000    26212843.067 7 137749418.27907       843.112 7        43.901                                                                    26212842.171 7 102864841.19007       629.618 7        45.755    26212841.946 7 105548268.07007       646.138 7        46.188
G11        21.000    22307461.251 7 117226517.27507     -1438.948 7        45.291                                    22307456.793 5  91345320.77705     -1121.256 5        35.100    22307457.140 7  91345333.77507     -1121.335 7        44.849
I06        22.000    38030442.239 7 149239862.97007      -357.047 7        43.644
S28        23.000    40938836.832 5 215135014.81105      -490.449 5        35.419
R08        24.000    19976776.234 8 106974768.45708     -1767.348 8        50.583                                                                    19976773.246 7  83202602.36707     -1374.606 7        47.408
S23        25.000    38215736.569 7 200825042.03507      -486.563 7        44.986
R01        26.000    20459133.267 8 109365802.29808      1777.069 8        48.085                                                                    20459132.404 6  85062284.10206      1382.217 6        41.192
