     3.04           OBSERVATION DATA    M                   RINEX VERSION / TYPE
ssrcrin-15.6.1x                         20250102 220000 UTC PGM / RUN BY / DATE 
(00000000023479385599111004) Septentrio proprietary         COMMENT             
rref                                                        MARKER NAME         
01                                                          MARKER NUMBER       
geodetic                                                    MARKER TYPE         
NFB                 CLIMERS@TUW                             OBSERVER / AGENCY   
3297213             SEPT ASTERX SB3 PROB4.14.4              REC # / TYPE / VERS 
Unknown             Unknown                                 ANT # / TYPE        
  4127832.0277  1207193.1951  4695247.7651                  APPROX POSITION XYZ 
        0.0000        0.0000        0.0000                  ANTENNA: DELTA H/E/N
G   23 X1  C1C L1C D1C S1C C1W S1W C2W L2W D2W S2W C2L L2L  SYS / # / OBS TYPES 
       D2L S2L C5Q L5Q D5Q S5Q C1L L1L D1L S1L              SYS / # / OBS TYPES 
E   21 X1  C1C L1C D1C S1C C6C L6C D6C S6C C5Q L5Q D5Q S5Q  SYS / # / OBS TYPES 
       C7Q L7Q D7Q S7Q C8Q L8Q D8Q S8Q                      SYS / # / OBS TYPES 
S    9 X1  C1C L1C D1C S1C C5I L5I D5I S5I                  SYS / # / OBS TYPES 
R   17 X1  C1C L1C D1C S1C C2P L2P D2P S2P C2C L2C D2C S2C  SYS / # / OBS TYPES 
       C3Q L3Q D3Q S3Q                                      SYS / # / OBS TYPES 
C   25 X1  C1P L1P D1P S1P C5P L5P D5P S5P C2I L2I D2I S2I  SYS / # / OBS TYPES 
       C7I L7I D7I S7I C6I L6I D6I S6I C7D L7D D7D S7D      SYS / # / OBS TYPES 
J   17 X1  C1C L1C D1C S1C C2L L2L D2L S2L C5Q L5Q D5Q S5Q  SYS / # / OBS TYPES 
       C1L L1L D1L S1L                                      SYS / # / OBS TYPES 
I    5 X1  C5A L5A D5A S5A                                  SYS / # / OBS TYPES 
SEPTENTRIO RECEIVERS OUTPUT ALIGNED CARRIER PHASES.         COMMENT             
NO FURTHER PHASE SHIFT APPLIED IN THE RINEX ENCODER.        COMMENT             
G L1C                                                       SYS / PHASE SHIFT   
G L2W                                                       SYS / PHASE SHIFT   
G L2L  0.00000                                              SYS / PHASE SHIFT   
G L5Q  0.00000                                              SYS / PHASE SHIFT   
G L1L  0.00000                                              SYS / PHASE SHIFT   
E L1C  0.00000                                              SYS / PHASE SHIFT   
E L6C  0.00000                                              SYS / PHASE SHIFT   
E L5Q  0.00000                                              SYS / PHASE SHIFT   
E L7Q  0.00000                                              SYS / PHASE SHIFT   
E L8Q  0.00000                                              SYS / PHASE SHIFT   
S L1C                                                       SYS / PHASE SHIFT   
S L5I                                                       SYS / PHASE SHIFT   
R L1C                                                       SYS / PHASE SHIFT   
R L2P  0.00000                                              SYS / PHASE SHIFT   
R L2C                                                       SYS / PHASE SHIFT   
R L3Q  0.00000                                              SYS / PHASE SHIFT   
C L1P  0.00000                                              SYS / PHASE SHIFT   
C L5P  0.00000                                              SYS / PHASE SHIFT   
C L2I                                                       SYS / PHASE SHIFT   
C L7I                                                       SYS / PHASE SHIFT   
C L6I                                                       SYS / PHASE SHIFT   
C L7D                                                       SYS / PHASE SHIFT   
J L1C                                                       SYS / PHASE SHIFT   
J L2L  0.00000                                              SYS / PHASE SHIFT   
J L5Q  0.00000                                              SYS / PHASE SHIFT   
J L1L  0.00000                                              SYS / PHASE SHIFT   
I L5A                                                       SYS / PHASE SHIFT   
  2025     1     2    22     0    0.0000000     GPS         TIME OF FIRST OBS   
 C1C    0.000 C2C    0.000 C2P    0.000                     GLONASS COD/PHS/BIS 
DBHZ                                                        SIGNAL STRENGTH UNIT
    18                                                      LEAP SECONDS        
 24 R01  1 R02 -4 R03  5 R04  6 R05  1 R06 -4 R07  5 R08  6 GLONASS SLOT / FRQ #
    R09 -2 R10 -7 R11  0 R12 -1 R13 -2 R14 -7 R15  0 R16 -1 GLONASS SLOT / FRQ #
    R17  4 R18 -3 R19  3 R20  2 R21  4 R22 -3 R23  3 R24  2 GLONASS SLOT / FRQ #
                                                            END OF HEADER       
> 2025 01 02 22 00  0.0000000  0 55
G23         1.000    24674766.536 6 129666850.48406     -3811.901 6        38.532                                    24674763.082 3 101039125.87303     -2970.316 3        20.190    24674763.085 6 101039123.88906     -2970.353 6        37.565
C37         2.000                                                                                                                                    27285644.743 6 142083493.81706     -2863.764 6        37.890                                                                    27285649.094 6 115454494.89806     -2327.081 6        37.289
G21         4.000    21136446.295 7 111072836.13307       734.301 7        45.946                                    21136441.229 6  86550267.18806       572.184 6        36.960
S21         5.000    38625517.817 7 202978161.79307      -360.474 7        42.362
E13         6.000    27333006.894 6 143635947.31506      1975.185 6        39.877                                                                    27333008.515 6 107260631.25206      1474.925 6        41.244    27333008.333 7 110058730.47507      1513.482 7        42.698
G10         7.000    21717494.315 8 114126270.49508     -2365.294 8        48.759                                    21717492.376 8  88929577.94908     -1843.087 8        48.895    21717492.566 7  88929571.95007     -1843.028 7        44.888
E15         8.000    23841915.156 8 125290220.63408       473.760 8        48.540                                                                    23841915.439 8  93560947.78708       353.779 8        50.602    23841915.241 8  96001655.95508       363.003 8        51.573
E36         9.000    28797183.710 5 151330392.10105     -2783.317 5        34.329                                                                    28797185.809 6 113006598.71306     -2078.523 6        40.396    28797185.066 6 115954584.95706     -2132.623 6        41.128
G27        10.000    21910419.563 7 115140180.80307     -3295.494 7        47.880                                    21910417.321 7  89719691.43407     -2567.917 7        47.915    21910417.803 7  89719693.42307     -2567.834 7        44.021
G14        11.000    24522341.076 6 128865781.53906      1365.537 6        38.883                                    24522338.576 3 100414888.71503      1064.059 3        22.876    24522337.783 6 100414892.71806      1063.930 6        39.315
G32        12.000    22511708.589 7 118299850.85807      1377.858 7        47.207                                    22511706.649 7  92181701.45007      1073.655 7        46.120    22511707.198 7  92181674.45607      1073.583 7        43.704
G03        13.000    25248942.535 6 132684098.80906      3411.216 6        36.427                                    25248943.269 4 103390212.25004      2658.087 4        27.928    25248943.282 5 103390217.24505      2658.022 5        35.395
S36        14.000    38393845.896 7 201761549.93307      -359.416 7        43.909
C13        15.000                                                                                                                                    39943944.993 6 207998662.37806     -1343.716 6        39.072    39943947.352 6 160837793.24006     -1039.299 6        40.365    39943945.668 6 169015973.26206     -1092.018 6        39.228
E27        18.000    25948944.941 7 136362644.45907     -2041.634 7        43.936                                                                    25948944.916 7 101829251.53907     -1524.552 7        46.075    25948944.405 7 104485664.03207     -1564.313 7        46.717
E05        20.000    24030179.531 7 126279469.43307       314.193 7        44.421                                                                    24030179.582 7  94299608.28407       234.584 7        46.816    24030179.188 7  96759600.19407       240.702 7        47.994
R11        21.000    24319530.397 6 129956187.56006     -4274.650 6        41.902                                                                    24319530.842 6 101077031.33106     -3324.688 6        37.921
I06        22.000    38663682.208 6 151724825.01906      -167.583 6        41.545
E03        23.000    26389731.345 6 138678982.63606      2474.206 6        41.945                                                                    26389731.900 7 103559007.03307      1847.671 7        45.704    26389731.163 7 106260543.22907      1895.839 7        46.133
R22        24.000    22490547.160 7 120056096.82807      2970.270 7        47.341                                                                    22490546.109 7  93376975.63607      2310.158 7        43.655
S23        25.000    38350858.619 7 201535095.55707      -358.529 7        44.575
S45        26.000    63601587.456 6 334229457.10906      -401.769 6        37.871
G02        27.000    22603654.445 7 118783047.98807      1843.074 7        45.925                                    22603648.228 5  92558207.68505      1436.160 5        34.067
S27        28.000    39316716.388 5 206610800.71305      -329.153 5        35.333
C39        29.000                                                                                                                                    41212929.806 6 214606542.57006      1522.283 6        38.748                                                                    41212926.361 6 174385387.25106      1236.929 6        38.676
E21        30.000    27105274.309 6 142439187.20506       579.806 6        40.772                                                                    27105275.063 7 106366931.16607       433.027 7        43.401    27105274.441 7 109141717.11307       444.199 7        44.483
C43        31.000                                                                                                                                    22485611.036 8 117088581.52208     -2077.403 8        50.490                                                                    22485609.281 8  95144105.95908     -1688.056 8        48.867
C42        32.000                                                                                                                                    22736861.871 8 118396830.91208     -1216.789 8        49.268                                                                    22736869.456 8  96207165.83608      -988.760 8        50.096
C28        33.000                                                                                                                                    22494090.174 8 117132637.78408      1407.659 8        49.479                                                                    22494088.917 8  95179863.28808      1143.775 8        48.060
R13        34.000    23612708.017 6 126090558.70306       978.366 6        39.264
E34        35.000    24525425.735 7 128882188.34607     -1784.819 7        46.717                                                                    24525425.552 8  96243303.36308     -1332.767 8        49.055    24525425.300 8  98753987.02508     -1367.535 8        50.268
C14        36.000                                                                                                                                    22328401.701 8 116269860.60208       563.682 8        48.866    22328397.545 8  89907218.98208       435.900 8        51.950    22328396.271 8  94478764.12008       457.928 8        49.522
R21        37.000    19626589.802 8 105025902.59908       344.447 8        51.431                                                                    19626588.394 7  81686834.66707       267.850 7        46.477
R06        38.000    20461106.571 7 109184409.67407      2540.636 7        42.529
R05        39.000    20744497.235 8 110891252.97808     -2537.004 8        49.845                                                                    20744497.099 7  86248761.72107     -1973.255 7        46.077
C27        40.000                                                                                                                                    25990350.407 6 135338589.38806      2681.088 6        40.532                                                                    25990350.378 6 109973700.28106      2178.611 6        40.203
R04        41.000    24544348.150 6 131433884.10706     -4667.896 6        38.610                                                                    24544346.999 5 102226357.75805     -3630.651 5        32.737
S44        42.000    40670156.018 6 213723290.39806      -390.511 6        37.573
G08        43.000    20555939.969 8 108022288.72808     -1194.267 8        50.222                                    20555938.042 8  84173253.22708      -930.599 8        50.602    20555939.016 7  84173251.22707      -930.590 7        45.442
C05        44.000                                                                                                                                    39349369.815 6 204902526.43806      -313.179 6        38.664    39349363.628 7 158443655.14007      -242.134 7        42.514    39349365.622 6 166500190.32306      -254.465 6        39.760
C11        45.000                                                                                                                                    23939077.078 7 124657193.30507     -2828.679 7        44.813    23939073.866 8  96392908.39308     -2187.388 8        48.783    23939072.732 7 101294219.24807     -2298.557 7        46.488
E09        46.000    27914643.256 6 146692464.04706     -2233.712 6        38.444                                                                    27914642.882 6 109543086.45106     -1668.035 6        40.965    27914642.780 6 112400729.08006     -1711.563 6        41.886
C33        47.000                                                                                                                                    23256211.802 8 121101220.80708      2086.404 8        49.157                                                                    23256223.535 8  98404718.62808      1695.275 8        48.733
C21        48.000                                                                                                                                    26165810.549 6 136252268.91606     -3413.649 6        40.939                                                                    26165804.976 6 110716116.89406     -2774.048 6        41.356
R07        49.000    23889649.141 7 127883188.71207      4242.440 7        43.507                                                                    23889649.206 6  99464694.43506      3299.531 6        39.775
S48        51.000    77377262.316 6 406620869.94406      -386.449 6        37.800
C08        52.000                                                                                                                                    40664803.114 5 211752405.28705     -1487.128 5        34.938    40664797.305 6 163740421.40006     -1149.911 6        38.691    40664796.707 6 172066192.62706     -1208.291 6        36.431
C34        53.000                                                                                                                                    26046350.524 6 135630457.41906     -3415.407 6        39.928                                                                    26046351.395 6 110210970.99606     -2775.346 6        40.725
C60        54.000                                                                                                                                    40670154.670 6 211780370.85106      -387.054 6        40.067                                                                    40670138.377 6 172088868.88506      -314.472 6        40.381
R12        55.000    22826589.275 7 121935529.85707     -1890.600 7        46.311                                                                    22826589.738 7  94838745.86107     -1470.515 7        42.753
I09        56.000    37721452.023 7 148027112.20307       133.072 7        43.200
C02        57.000                                                                                                                                    40711700.394 5 211996556.08405      -342.179 5        33.599    40711694.565 6 163929178.87706      -264.712 6        40.486    40711697.749 6 172264570.65306      -278.150 6        36.295
I03        58.000    78764021.187 6 233301696.44906      1102.364 6        40.098
E30        59.000    27869463.652 6 146455221.39606     -3452.472 6        39.769                                                                    27869464.833 6 109366026.47506     -2578.304 6        41.509    27869464.070 7 112219037.14007     -2645.306 7        42.455
R20        60.000    21421546.296 6 114550841.68206     -2940.657 6        36.253                                                                    21421548.807 7  89095167.42207     -2287.095 7        45.017
> 2025 01 02 22 00  5.0000000  0 55
G23         1.000    24678394.376 6 129685912.05306     -3812.307 6        38.895                                    24678390.131 3 101053979.05903     -2970.634 3        20.524    24678391.178 6 101053977.07306     -2970.703 6        38.246
C37         2.000                                                                                                                                    27288395.283 6 142097815.41406     -2864.573 6        37.331                                                                    27288399.279 6 115466132.37906     -2327.530 6        37.289
G21         4.000    21135748.624 7 111069169.83807       732.611 7        45.643                                    21135743.549 6  86547410.33906       570.865 6        36.843
S21         5.000    38625866.112 7 202979965.10607      -360.470 7        42.273
E13         6.000    27331128.364 6 143626073.63406      1974.901 6        40.191                                                                    27331129.618 6 107253258.05106      1474.724 6        41.128    27331129.393 7 110051164.94407      1513.175 7        42.597
G10         7.000    21719745.852 8 114138102.38508     -2367.111 8        48.360                                    21719743.897 8  88938797.60208     -1844.500 8        48.781    21719743.802 7  88938791.59707     -1844.516 7        44.790
E15         8.000    23841465.195 8 125287855.69008       472.669 8        48.488                                                                    23841465.411 8  93559181.76008       352.983 8        50.610    23841465.194 8  95999843.86008       362.176 8        51.585
E36         9.000    28799831.785 5 151344309.87205     -2783.285 5        34.986                                                                    28799834.271 6 113016991.85106     -2078.537 6        40.477    28799833.449 6 115965249.22806     -2132.736 6        40.949
G27        10.000    21913556.000 7 115156664.14207     -3297.576 7        47.484                                    21913553.986 7  89732535.59307     -2569.541 7        47.834    21913554.458 7  89732537.58907     -2569.598 7        44.152
G14        11.000    24521044.172 6 128858962.23406      1362.759 6        39.291                                    24521040.835 3 100409574.97603      1061.896 3        22.514    24521040.973 6 100409578.97406      1061.876 6        39.679
G32        12.000    22510399.392 7 118292969.90907      1375.036 7        46.742                                    22510397.223 7  92176339.67307      1071.454 7        46.014    22510397.815 7  92176312.67507      1071.447 7        43.829
G03        13.000    25245696.391 6 132667044.90306      3410.638 6        36.828                                    25245698.101 4 103376923.50504      2657.640 4        28.019    25245698.243 5 103376928.50705      2657.422 5        35.548
S36        14.000    38394190.828 7 201763349.15507      -359.734 7        43.888
C13        15.000                                                                                                                                    39945235.976 6 208005382.43106     -1343.712 6        39.297    39945238.039 6 160842989.61206     -1039.076 6        40.594    39945235.955 6 169021433.87306     -1091.827 6        38.931
E27        18.000    25950888.751 7 136372858.58007     -2043.687 7        44.011                                                                    25950888.649 7 101836878.96607     -1526.075 7        46.031    25950888.076 7 104493490.43307     -1565.918 7        46.679
E05        20.000    24029881.987 7 126277905.85307       311.684 7        44.008                                                                    24029882.110 7  94298440.67807       232.727 7        46.757    24029881.679 7  96758402.12307       238.836 7        47.892
R11        21.000    24323529.473 7 129977562.58307     -4275.072 7        42.269                                                                    24323529.793 6 101093656.38706     -3325.155 6        38.132
I06        22.000    38663896.314 6 151725663.68906      -167.650 6        41.733
E03        23.000    26387377.807 6 138666615.06806      2473.167 6        41.633                                                                    26387378.423 7 103549771.52207      1846.782 7        45.636    26387377.678 7 106251066.78807      1894.991 7        46.050
R22        24.000    22487764.913 7 120041247.64207      2969.764 7        47.240                                                                    22487764.079 7  93365426.26607      2309.787 7        42.980
S23        25.000    38351202.384 7 201536889.89907      -358.723 7        44.615
S45        26.000    63601926.610 6 334231467.01706      -401.944 6        37.599
G02        27.000    22601901.344 7 118773836.16507      1842.097 7        45.520                                    22601895.253 5  92551029.64405      1435.400 5        34.062
S27        28.000    39317031.870 5 206612446.97405      -329.248 5        34.986
C39        29.000                                                                                                                                    41211468.648 6 214598933.33806      1521.708 6        39.249                                                                    41211465.088 6 174379204.15206      1236.701 6        38.574
E21        30.000    27104724.252 6 142436295.71406       577.330 6        40.517                                                                    27104724.635 7 106364771.95707       431.037 7        43.498    27104724.126 7 109139501.57607       442.265 7        44.331
C43        31.000                                                                                                                                    22487606.740 8 117098974.24208     -2079.280 8        50.435                                                                    22487605.086 8  95152550.91008     -1689.491 8        48.805
C42        32.000                                                                                                                                    22738031.787 8 118402922.72708     -1219.603 8        49.535                                                                    22738039.327 8  96212115.95008      -990.876 8        50.017
C28        33.000                                                                                                                                    22492739.671 8 117125604.47808      1406.102 8        49.618                                                                    22492738.302 8  95174148.16208      1142.672 8        48.083
R13        34.000    23611795.524 6 126085678.17406       974.156 6        39.270
E34        35.000    24527124.408 7 128891115.65807     -1785.641 7        46.532                                                                    24527124.436 8  96249969.86808     -1333.505 8        48.981    24527124.084 8  98760827.43708     -1368.275 8        50.158
C14        36.000                                                                                                                                    22327862.028 8 116267050.54308       560.713 8        48.954    22327857.976 8  89905046.06508       433.634 8        51.993    22327856.645 8  94476480.72708       455.791 8        49.482
R21        37.000    19626269.610 8 105024187.87208       341.883 8        51.597                                                                    19626268.018 7  81685500.99107       265.857 7        46.512
R06        38.000    20458727.741 7 109171716.46507      2537.007 7        42.882
R05        39.000    20746872.983 8 110903948.98708     -2540.987 8        50.000                                                                    20746872.156 7  86258636.38407     -1976.341 7        46.283
C27        40.000                                                                                                                                    25987776.808 6 135325185.59006      2680.750 6        41.042                                                                    25987776.298 6 109962808.61006      2178.571 6        40.276
R04        41.000    24548707.988 6 131457226.83206     -4668.792 6        38.264                                                                    24548706.515 5 102244513.21605     -3631.249 5        32.515
S44        42.000    40670527.243 6 213725244.48006      -390.748 6        37.365
G08        43.000    20557077.649 8 108028268.56608     -1197.306 8        50.258                                    20557075.976 8  84177912.84108      -932.963 8        50.502    20557076.675 7  84177910.85207      -932.997 7        45.118
C05        44.000                                                                                                                                    39349670.634 6 204904092.88506      -313.073 6        38.811    39349664.551 7 158444866.42307      -242.157 7        42.423    39349666.518 6 166501463.21206      -254.309 6        39.664
C11        45.000                                                                                                                                    23941794.357 7 124671341.20807     -2830.001 7        44.623    23941790.535 8  96403848.44008     -2188.360 8        48.680    23941789.607 7 101305715.60207     -2299.582 7        46.509
E09        46.000    27916769.483 6 146703638.25806     -2235.631 6        37.860                                                                    27916769.174 6 109551430.84006     -1669.475 6        40.913    27916769.038 6 112409291.13606     -1712.969 6        41.726
C33        47.000                                                                                                                                    23254209.929 8 121090795.13308      2084.257 8        49.431                                                                    23254221.374 8  98396246.92908      1693.731 8        48.652
C21        48.000                                                                                                                                    26169089.124 6 136269341.76706     -3414.966 6        41.616                                                                    26169083.624 6 110729990.00506     -2774.769 6        41.511
R07        49.000    23885687.316 7 127861978.81507      4241.954 7        43.886                                                                    23885686.989 6  99448197.83806      3299.278 6        39.640
S48        51.000    77377614.913 6 406622802.87306      -386.221 6        37.595
C08        52.000                                                                                                                                    40666231.344 5 211759841.32305     -1486.831 5        34.762    40666225.120 6 163746171.41406     -1149.736 6        38.610    40666224.513 6 172072235.03606     -1208.086 6        36.431
C34        53.000                                                                                                                                    26049630.650 6 135647537.07506     -3416.080 6        39.862                                                                    26049631.437 6 110224849.63306     -2775.800 6        40.691
C60        54.000                                                                                                                                    40670526.289 6 211782307.15606      -387.078 6        40.529                                                                    40670510.456 6 172090442.31206      -314.467 6        40.582
R12        55.000    22828360.250 7 121944993.84207     -1894.617 7        46.221                                                                    22828361.262 7  94846106.74907     -1473.577 7        42.055
I09        56.000    37721283.120 7 148026448.52007       132.867 7        43.098
C02        57.000                                                                                                                                    40712029.260 5 211998268.38905      -342.399 5        33.569    40712023.306 6 163930502.92606      -264.700 6        40.543    40712026.364 6 172265962.04406      -277.957 6        36.382
I03        58.000    78762617.249 6 233296186.10106      1102.082 6        40.472
E30        59.000    27872748.837 6 146472485.05706     -3452.728 6        39.480                                                                    27872750.010 6 109378918.14306     -2578.296 6        41.690    27872749.234 7 112232265.13907     -2645.640 7        42.430
R20        60.000    21424298.228 6 114565549.87806     -2942.515 6        36.473                                                                    21424298.901 7  89106607.13107     -2288.561 7        44.823
> 2025 01 02 22 00 10.0000000  0 55
G23         1.000    24682021.604 6 129704974.60406     -3812.790 6        39.339                                    24682017.552 3 101068832.99903     -2970.985 3        20.976    24682018.089 6 101068831.02506     -2971.119 6        37.853
C37         2.000                                                                                                                                    27291146.625 6 142112139.71506     -2865.333 6        37.119                                                                    27291149.940 6 115477772.00406     -2328.272 6        37.474
G21         4.000    21135052.190 7 111065510.86807       730.816 7        45.869                                    21135047.237 6  86544559.19706       569.469 6        36.941
S21         5.000    38626206.541 7 202981767.95807      -360.733 7        42.313
E13         6.000    27329249.532 6 143616200.45906      1974.343 6        39.967                                                                    27329250.784 6 107245885.21806      1474.415 6        41.173    27329250.751 7 110043599.77907      1512.776 7        42.487
G10         7.000    21721999.123 8 114149943.03008     -2369.216 8        48.699                                    21721997.094 8  88948024.08008     -1846.141 8        48.835    21721996.853 7  88948018.08007     -1846.099 7        44.628
E15         8.000    23841015.937 8 125285494.93008       471.524 8        48.600                                                                    23841016.167 8  93557418.85408       352.097 8        50.560    23841015.961 8  95998034.96508       361.271 8        51.574
E36         9.000    28802481.119 5 151358227.47005     -2783.948 5        35.295                                                                    28802482.767 6 113027384.86306     -2078.771 6        40.138    28802482.002 6 115975913.35906     -2133.010 6        40.753
G27        10.000    21916694.425 7 115173156.68607     -3299.673 7        47.556                                    21916692.412 7  89745386.92607     -2571.173 7        47.894    21916692.521 7  89745388.93807     -2571.239 7        43.958
G14        11.000    24519748.229 6 128852156.09906      1359.703 6        39.520                                    24519745.638 3 100404271.48903      1059.521 3        22.686    24519745.644 6 100404275.48706      1059.436 6        39.877
G32        12.000    22509092.167 7 118286101.72707      1372.118 7        47.008                                    22509090.199 7  92170987.84907      1069.179 7        46.049    22509090.480 7  92170960.84107      1069.264 7        43.374
G03        13.000    25242451.741 6 132649992.37306      3410.049 6        37.055                                    25242453.210 4 103363635.84904      2657.180 4        28.284    25242452.858 5 103363640.83505      2657.170 5        34.700
S36        14.000    38394533.533 7 201765147.87207      -360.128 7        43.750
C13        15.000                                                                                                                                    39946527.138 6 208012101.20406     -1343.812 6        39.282    39946528.507 6 160848184.99606     -1039.212 6        40.703    39946526.266 6 169026893.39006     -1091.875 6        39.072
E27        18.000    25952834.337 7 136383082.06307     -2045.782 7        44.090                                                                    25952834.104 7 101844513.38507     -1527.690 7        46.056    25952833.570 7 104501324.02007     -1567.595 7        46.711
E05        20.000    24029586.553 7 126276353.78807       309.081 7        44.208                                                                    24029586.630 7  94297281.67507       230.722 7        46.848    24029586.357 8  96757212.88708       236.798 8        48.013
R11        21.000    24327530.758 7 129998939.30607     -4275.680 7        43.016                                                                    24327530.869 6 101110282.66406     -3325.617 6        38.048
I06        22.000    38664109.880 6 151726501.91506      -167.755 6        41.390
E03        23.000    26385025.271 7 138654251.64407      2472.119 7        42.080                                                                    26385025.654 7 103540539.09907      1846.034 7        45.621    26385025.053 7 106241593.52407      1894.172 7        46.225
R22        24.000    22484983.615 7 120026400.24207      2969.001 7        47.571                                                                    22484982.736 7  93353878.31807      2309.308 7        43.934
S23        25.000    38351542.428 7 201538683.77607      -359.011 7        44.521
S45        26.000    63602263.462 6 334233476.26406      -402.114 6        37.263
G02        27.000    22600149.412 7 118764628.39507      1840.976 7        45.716                                    22600143.079 5  92543854.76605      1434.524 5        34.176
S27        28.000    39317342.317 5 206614092.83905      -329.339 5        35.490
C39        29.000                                                                                                                                    41210007.718 6 214591326.11506      1520.971 6        38.931                                                                    41210004.054 6 174373022.63906      1236.012 6        38.727
E21        30.000    27104176.023 6 142433415.37006       574.773 6        40.513                                                                    27104176.448 7 106362621.06007       429.156 7        43.393    27104176.055 7 109137294.56007       440.393 7        44.295
C43        31.000                                                                                                                                    22489604.179 8 117109375.15308     -2081.221 8        50.542                                                                    22489602.446 8  95161002.47308     -1691.032 8        48.933
C42        32.000                                                                                                                                    22739204.264 8 118409027.36208     -1222.454 8        49.613                                                                    22739211.685 8  96217076.44108      -993.214 8        50.156
C28        33.000                                                                                                                                    22491390.246 8 117118577.77208      1404.459 8        49.527                                                                    22491388.868 8  95168438.35708      1141.392 8        48.160
R13        34.000    23610884.603 6 126080817.14206       969.965 6        38.793
E34        35.000    24528823.872 7 128900046.51407     -1786.726 7        46.643                                                                    24528823.885 8  96256639.00508     -1334.263 8        49.046    24528823.626 8  98767670.55408     -1369.068 8        50.118
C14        36.000                                                                                                                                    22327325.004 8 116264253.81508       557.779 8        48.886    22327320.974 8  89902883.46708       431.302 8        52.052    22327319.531 8  94474208.13208       453.369 8        49.632
R21        37.000    19625951.196 8 105022484.83208       339.189 8        51.700                                                                    19625949.806 7  81684176.40207       263.851 7        46.680
R06        38.000    20456352.697 7 109159039.95007      2533.417 7        42.377
R05        39.000    20749251.450 8 110916663.79808     -2545.063 8        49.833                                                                    20749250.484 7  86268525.68707     -1979.492 7        46.331
C27        40.000                                                                                                                                    25985203.316 6 135311781.79806      2680.530 6        41.707                                                                    25985202.439 6 109951916.93706      2178.115 6        40.348
R04        41.000    24553067.035 6 131480573.14106     -4669.784 6        38.033                                                                    24553066.420 5 102262671.45405     -3632.428 5        32.395
S44        42.000    40670899.944 6 213727198.13006      -390.879 6        37.297
G08        43.000    20558218.690 8 108034262.97408     -1200.672 8        50.327                                    20558216.678 8  84182583.80808      -935.590 8        50.598    20558217.616 7  84182581.81407      -935.524 7        45.506
C05        44.000                                                                                                                                    39349971.445 6 204905658.91506      -313.390 6        38.673    39349965.294 7 158446077.38307      -242.393 7        42.400    39349967.243 6 166502735.71906      -254.560 6        39.838
C11        45.000                                                                                                                                    23944512.218 7 124685494.56007     -2831.519 7        44.716    23944508.748 8  96414792.70008     -2189.444 8        48.595    23944507.645 7 101317216.32007     -2300.719 7        46.619
E09        46.000    27918897.439 6 146714821.31706     -2237.740 6        37.792                                                                    27918897.029 6 109559781.82906     -1671.060 6        40.887    27918897.162 6 112417859.98306     -1714.703 6        41.933
C33        47.000                                                                                                                                    23252209.721 8 121080379.09908      2082.026 8        49.297                                                                    23252221.103 8  98387783.02708      1691.887 8        48.793
C21        48.000                                                                                                                                    26172368.578 6 136286419.16906     -3416.141 6        41.952                                                                    26172363.184 6 110743866.76506     -2775.762 6        41.709
R07        49.000    23881724.810 7 127840770.04207      4241.294 7        43.372                                                                    23881724.283 6  99431702.16706      3298.754 6        39.658
S48        51.000    77377959.769 6 406624734.88706      -386.655 6        37.928
C08        52.000                                                                                                                                    40667658.787 5 211767275.69805     -1487.070 5        34.662    40667653.041 6 163751920.13806     -1149.689 6        38.775    40667652.234 6 172078276.06006     -1208.187 6        36.299
C34        53.000                                                                                                                                    26052911.523 6 135664618.83406     -3416.910 6        39.979                                                                    26052911.929 6 110238729.93506     -2776.312 6        41.244
C60        54.000                                                                                                                                    40670898.462 6 211784243.05906      -387.552 6        40.458                                                                    40670882.303 6 172092015.36206      -314.782 6        40.584
R12        55.000    22830135.283 7 121954476.48307     -1898.607 7        46.209                                                                    22830135.868 7  94853482.09907     -1476.627 7        42.015
I09        56.000    37721114.028 7 148025785.70907       132.359 7        43.141
C02        57.000                                                                                                                                    40712358.608 5 211999980.34005      -342.597 5        34.029    40712351.737 6 163931826.71906      -264.939 6        40.656    40712354.979 6 172267353.13506      -278.394 6        36.348
I03        58.000    78761212.593 6 233290675.57406      1101.821 6        40.174
E30        59.000    27876034.204 6 146489748.84606     -3453.014 6        39.889                                                                    27876035.314 6 109391809.93006     -2578.530 6        41.745    27876034.493 7 112245493.22407     -2645.819 7        42.377
R20        60.000    21427048.973 6 114580266.21906     -2944.344 6        36.223                                                                    21427051.258 7  89118053.17607     -2290.023 7        45.011
> 2025 01 02 22 00 15.0000000  0 55
G23         1.000    24685649.180 6 129724038.47206     -3812.842 6        39.535                                    24685645.630 3 101083687.96203     -2971.039 3        21.405    24685645.981 6 101083685.97006     -2971.079 6        38.523
C37         2.000                                                                                                                                    27293897.494 6 142126467.01106     -2865.837 6        37.036                                                                    27293901.952 6 115489414.10706     -2328.864 6        37.437
G21         4.000    21134357.496 7 111061859.51207       729.499 7        46.171                                    21134352.422 6  86541713.98806       568.442 6        36.866
S21         5.000    38626552.121 7 202983570.49307      -360.465 7        42.400
E13         6.000    27327370.784 6 143606328.05106      1974.417 6        39.345                                                                    27327372.207 6 107238512.99206      1474.260 6        41.411    27327371.991 7 110036035.21507      1512.849 7        42.591
G10         7.000    21724254.274 8 114161792.71908     -2370.732 8        48.954                                    21724252.012 8  88957257.60608     -1847.324 8        48.734    21724252.050 7  88957251.60907     -1847.361 7        44.734
E15         8.000    23840567.473 8 125283138.63208       470.806 8        48.621                                                                    23840567.775 8  93555659.28408       351.592 8        50.687    23840567.579 8  95996229.49208       360.714 8        51.616
E36         9.000    28805129.004 6 151372145.21906     -2783.674 6        36.136                                                                    28805131.244 6 113037777.97506     -2078.521 6        40.267    28805130.529 6 115986577.61106     -2132.959 6        40.911
G27        10.000    21919834.825 7 115189658.77207     -3301.385 7        47.430                                    21919832.667 7  89758245.69307     -2572.507 7        47.772    21919833.215 7  89758247.69007     -2572.469 7        43.973
G14        11.000    24518455.681 6 128845363.37406      1357.270 6        40.014                                    24518452.857 3 100398978.45803      1057.614 3        22.686    24518452.253 6 100398982.46806      1057.507 6        38.607
G32        12.000    22507787.889 7 118279246.59007      1369.806 7        47.270                                    22507785.599 7  92165646.18807      1067.380 7        45.928    22507786.329 7  92165619.19107      1067.340 7        43.299
G03        13.000    25239207.435 6 132632941.49306      3409.983 6        36.847                                    25239208.453 4 103350349.45804      2657.122 4        28.142    25239209.159 5 103350354.46205      2657.115 5        34.457
S36        14.000    38394874.155 7 201766946.97607      -359.936 7        43.888
C13        15.000                                                                                                                                    39947816.274 6 208018818.95106     -1343.400 6        39.171    39947818.624 6 160853379.58506     -1038.833 6        41.189    39947816.236 6 169032352.11606     -1091.682 6        38.931
E27        18.000    25954781.322 7 136393315.22507     -2047.646 7        44.032                                                                    25954781.477 7 101852155.02707     -1529.051 7        46.103    25954780.853 7 104509164.99907     -1568.924 7        46.712
E05        20.000    24029293.572 7 126274813.53107       306.928 7        43.924                                                                    24029293.394 7  94296131.48807       229.127 7        46.977    24029293.204 7  96756032.69807       235.069 7        47.994
R11        21.000    24331531.152 7 130020317.90607     -4275.818 7        42.064                                                                    24331531.826 6 101126910.46506     -3325.649 6        38.450
I06        22.000    38664322.991 6 151727339.90706      -167.583 6        41.578
E03        23.000    26382673.449 6 138641892.68706      2471.409 6        41.971                                                                    26382673.627 7 103531310.01107      1845.495 7        45.675    26382673.269 7 106232123.67507      1893.597 7        46.202
R22        24.000    22482203.094 7 120011554.92307      2968.902 7        47.454                                                                    22482201.757 7  93342331.96607      2309.036 7        43.881
S23        25.000    38351879.817 7 201540477.37207      -358.690 7        44.215
S45        26.000    63602602.308 6 334235485.36406      -401.710 6        37.932
G02        27.000    22598397.727 7 118755424.98807      1840.247 7        46.227                                    22598391.746 5  92536683.28005      1433.962 5        34.052
S27        28.000    39317658.026 5 206615738.56205      -329.161 5        35.367
C39        29.000                                                                                                                                    41208547.458 6 214583721.17106      1520.887 6        39.273                                                                    41208543.704 6 174366843.01006      1235.779 6        38.610
E21        30.000    27103630.268 6 142430546.45206       572.711 6        40.691                                                                    27103630.587 7 106360478.68807       427.633 7        43.697    27103630.116 7 109135096.30507       438.769 7        44.488
C43        31.000                                                                                                                                    22491603.170 8 117119784.58008     -2082.726 8        50.994                                                                    22491601.535 8  95169461.00308     -1692.479 8        48.896
C42        32.000                                                                                                                                    22740378.934 8 118415145.12708     -1224.857 8        49.504                                                                    22740386.551 8  96222047.63908      -995.362 8        50.086
C28        33.000                                                                                                                                    22490042.027 8 117111557.95708      1403.354 8        49.721                                                                    22490040.809 8  95162734.20408      1140.239 8        48.115
R13        34.000    23609977.710 6 126075976.09706       966.258 6        40.193
E34        35.000    24530524.125 7 128908981.17807     -1787.296 7        46.728                                                                    24530524.068 8  96263311.00108     -1334.709 8        49.245    24530523.878 8  98774516.60008     -1369.487 8        50.192
C14        36.000                                                                                                                                    22326790.631 8 116261470.70708       555.322 8        48.971    22326786.459 8  89900731.39808       429.368 8        52.357    22326785.111 8  94471946.65208       451.083 8        49.585
R21        37.000    19625635.276 8 105020793.66808       337.060 8        52.049                                                                    19625633.893 7  81682861.05107       262.173 7        46.249
R06        38.000    20453980.045 7 109146380.55007      2530.262 7        42.428
R05        39.000    20751633.084 8 110929397.61908     -2548.619 8        50.029                                                                    20751632.540 7  86278429.77707     -1982.309 7        45.941
C27        40.000                                                                                                                                    25982628.999 6 135298378.34006      2680.752 6        41.738                                                                    25982628.548 6 109941025.53806      2178.235 6        40.465
R04        41.000    24557428.183 6 131503923.33406     -4670.432 6        38.796                                                                    24557425.374 5 102280832.73205     -3632.595 5        32.742
S44        42.000    40671270.910 6 213729151.68606      -390.736 6        37.478
G08        43.000    20559362.137 8 108040272.22508     -1203.288 8        50.393                                    20559360.206 8  84187266.34208      -937.627 8        50.528    20559361.258 7  84187264.34207      -937.633 7        45.526
C05        44.000                                                                                                                                    39350272.188 6 204907224.75706      -313.055 6        38.871    39350265.832 7 158447288.19407      -242.047 7        42.552    39350267.817 6 166504008.11406      -254.593 6        39.742
C11        45.000                                                                                                                                    23947231.535 7 124699653.62107     -2832.373 7        44.846    23947227.755 8  96425741.38908     -2190.137 8        48.568    23947226.862 7 101328721.73207     -2301.629 7        46.673
E09        46.000    27921027.639 6 146726013.51006     -2239.267 6        38.192                                                                    27921026.877 6 109568139.62106     -1672.298 6        40.925    27921026.957 6 112426435.80106     -1715.829 6        41.945
C33        47.000                                                                                                                                    23250211.348 8 121069973.00808      2080.283 8        49.651                                                                    23250222.654 8  98379327.24208      1690.303 8        48.734
C21        48.000                                                                                                                                    26175649.373 7 136303501.41007     -3416.964 7        42.320                                                                    26175643.693 6 110757747.50806     -2776.624 6        41.616
R07        49.000    23877763.450 7 127819563.04007      4241.320 7        43.196                                                                    23877763.641 6  99415207.85606      3298.750 6        39.444
S48        51.000    77378305.546 6 406626666.44706      -386.492 6        37.841
C08        52.000                                                                                                                                    40669085.800 5 211774708.63705     -1486.282 5        34.633    40669080.660 6 163757667.79206     -1149.477 6        39.288    40669079.756 6 172084315.95506     -1207.734 6        36.469
C34        53.000                                                                                                                                    26056192.097 6 135681702.98006     -3417.017 6        39.874                                                                    26056192.827 6 110252612.22206     -2776.719 6        41.044
C60        54.000                                                                                                                                    40671270.134 6 211786178.84906      -387.170 6        40.212                                                                    40671253.935 6 172093588.37706      -314.678 6        40.353
R12        55.000    22831914.483 7 121963977.95807     -1902.173 7        45.862                                                                    22831915.489 7  94860872.16007     -1479.364 7        42.880
I09        56.000    37720945.425 7 148025123.99407       132.248 7        42.870
C02        57.000                                                                                                                                    40712686.597 5 212001692.17505      -342.364 5        33.617    40712680.666 6 163933150.43606      -264.674 6        40.658    40712683.751 6 172268744.15806      -278.207 6        36.234
I03        58.000    78759808.086 6 233285165.10406      1102.156 6        39.973
E30        59.000    27879319.910 6 146507013.03106     -3452.834 6        40.148                                                                    27879320.553 6 109404702.00906     -2578.378 6        41.998    27879319.749 7 112258721.62707     -2645.669 7        42.351
R20        60.000    21429801.949 6 114594991.23806     -2945.865 6        36.318                                                                    21429804.327 7  89129505.96807     -2291.154 7        44.850
> 2025 01 02 22 00 20.0000000  0 55
G23         1.000    24689277.103 6 129743103.39406     -3813.213 6        39.330                                    24689273.614 3 101098543.72703     -2971.340 3        21.714    24689274.346 6 101098541.75706     -2971.371 6        38.532
C37         2.000                                                                                                                                    27296648.708 6 142140797.04306     -2866.498 6        36.922                                                                    27296653.707 6 115501058.39306     -2329.074 6        37.675
G21         4.000    21133664.263 7 111058215.55307       727.874 7        46.157                                    21133659.008 6  86538874.54306       567.172 6        36.805
S21         5.000    38626896.946 7 202985372.51107      -360.542 7        42.622
E13         6.000    27325492.231 6 143596456.24006      1974.177 6        39.727                                                                    27325493.702 6 107231141.17406      1474.064 6        41.395    27325493.398 7 110028471.09907      1512.563 7        42.626
G10         7.000    21726510.726 8 114173651.27508     -2372.653 8        48.783                                    21726508.616 8  88966498.04108     -1848.821 8        48.650    21726508.681 7  88966492.05007     -1848.901 7        44.432
E15         8.000    23840119.833 8 125280786.59708       469.788 8        48.515                                                                    23840120.231 8  93553902.90008       350.784 8        50.733    23840119.974 8  95994427.28808       359.929 8        51.670
E36         9.000    28807777.172 5 151386062.82905     -2783.364 5        35.338                                                                    28807779.824 6 113048171.02306     -2078.694 6        40.570    28807778.945 6 115997241.77306     -2132.948 6        41.194
G27        10.000    21922976.516 7 115206170.13607     -3303.457 7        47.423                                    21922974.684 7  89771111.68607     -2574.122 7        47.613    21922975.238 7  89771113.68507     -2574.051 7        44.248
G14        11.000    24517165.600 6 128838583.90306      1354.423 6        38.688                                    24517162.557 3 100393695.75603      1055.395 3        22.762    24517162.704 6 100393699.76706      1055.323 6        38.447
G32        12.000    22506485.669 7 118272404.32907      1367.062 7        47.547                                    22506483.427 7  92160314.56007      1065.240 7        45.827    22506484.538 7  92160287.56207      1065.177 7        44.060
G03        13.000    25235963.618 6 132615892.10606      3409.631 6        37.614                                    25235963.862 4 103337064.24004      2656.854 4        27.473    25235964.076 5 103337069.22805      2656.984 5        33.575
S36        14.000    38395218.206 7 201768746.16107      -360.186 7        43.877
C13        15.000                                                                                                                                    39949105.889 6 208025535.43706     -1343.383 6        39.321    39949108.534 6 160858573.19606     -1038.736 6        41.285    39949106.188 6 169037809.80706     -1091.430 6        39.177
