     3.04           OBSERVATION DATA    M                   RINEX VERSION / TYPE
ssrcrin-15.6.1x                         20250102 170000 UTC PGM / RUN BY / DATE 
(00000000023479385599111004) Septentrio proprietary         COMMENT             
rref                                                        MARKER NAME         
01                                                          MARKER NUMBER       
geodetic                                                    MARKER TYPE         
NFB                 CLIMERS@TUW                             OBSERVER / AGENCY   
3297213             SEPT ASTERX SB3 PROB4.14.4              REC # / TYPE / VERS 
Unknown             Unknown                                 ANT # / TYPE        
  4127831.6910  1207193.1828  4695247.5362                  APPROX POSITION XYZ 
        0.0000        0.0000        0.0000                  ANTENNA: DELTA H/E/N
G   23 X1  C1C L1C D1C S1C C1W S1W C2W L2W D2W S2W C2L L2L  SYS / # / OBS TYPES 
       D2L S2L C5Q L5Q D5Q S5Q C1L L1L D1L S1L              SYS / # / OBS TYPES 
E   21 X1  C1C L1C D1C S1C C6C L6C D6C S6C C5Q L5Q D5Q S5Q  SYS / # / OBS TYPES 
       C7Q L7Q D7Q S7Q C8Q L8Q D8Q S8Q                      SYS / # / OBS TYPES 
S    9 X1  C1C L1C D1C S1C C5I L5I D5I S5I                  SYS / # / OBS TYPES 
R   17 X1  C1C L1C D1C S1C C2P L2P D2P S2P C2C L2C D2C S2C  SYS / # / OBS TYPES 
       C3Q L3Q D3Q S3Q                                      SYS / # / OBS TYPES 
C   25 X1  C1P L1P D1P S1P C5P L5P D5P S5P C2I L2I D2I S2I  SYS / # / OBS TYPES 
       C7I L7I D7I S7I C6I L6I D6I S6I C7D L7D D7D S7D      SYS / # / OBS TYPES 
J   17 X1  C1C L1C D1C S1C C2L L2L D2L S2L C5Q L5Q D5Q S5Q  SYS / # / OBS TYPES 
       C1L L1L D1L S1L                                      SYS / # / OBS TYPES 
I    5 X1  C5A L5A D5A S5A                                  SYS / # / OBS TYPES 
SEPTENTRIO RECEIVERS OUTPUT ALIGNED CARRIER PHASES.         COMMENT             
NO FURTHER PHASE SHIFT APPLIED IN THE RINEX ENCODER.        COMMENT             
G L1C                                                       SYS / PHASE SHIFT   
G L2W                                                       SYS / PHASE SHIFT   
G L2L  0.00000                                              SYS / PHASE SHIFT   
G L5Q  0.00000                                              SYS / PHASE SHIFT   
G L1L  0.00000                                              SYS / PHASE SHIFT   
E L1C  0.00000                                              SYS / PHASE SHIFT   
E L6C  0.00000                                              SYS / PHASE SHIFT   
E L5Q  0.00000                                              SYS / PHASE SHIFT   
E L7Q  0.00000                                              SYS / PHASE SHIFT   
E L8Q  0.00000                                              SYS / PHASE SHIFT   
S L1C                                                       SYS / PHASE SHIFT   
S L5I                                                       SYS / PHASE SHIFT   
R L1C                                                       SYS / PHASE SHIFT   
R L2P  0.00000                                              SYS / PHASE SHIFT   
R L2C                                                       SYS / PHASE SHIFT   
R L3Q  0.00000                                              SYS / PHASE SHIFT   
C L1P  0.00000                                              SYS / PHASE SHIFT   
C L5P  0.00000                                              SYS / PHASE SHIFT   
C L2I                                                       SYS / PHASE SHIFT   
C L7I                                                       SYS / PHASE SHIFT   
C L6I                                                       SYS / PHASE SHIFT   
C L7D                                                       SYS / PHASE SHIFT   
J L1C                                                       SYS / PHASE SHIFT   
J L2L  0.00000                                              SYS / PHASE SHIFT   
J L5Q  0.00000                                              SYS / PHASE SHIFT   
J L1L  0.00000                                              SYS / PHASE SHIFT   
I L5A                                                       SYS / PHASE SHIFT   
  2025     1     2    17     0    0.0000000     GPS         TIME OF FIRST OBS   
 C1C    0.000 C2C    0.000 C2P    0.000                     GLONASS COD/PHS/BIS 
DBHZ                                                        SIGNAL STRENGTH UNIT
    18                                                      LEAP SECONDS        
 24 R01  1 R02 -4 R03  5 R04  6 R05  1 R06 -4 R07  5 R08  6 GLONASS SLOT / FRQ #
    R09 -2 R10 -7 R11  0 R12 -1 R13 -2 R14 -7 R15  0 R16 -1 GLONASS SLOT / FRQ #
    R17  4 R18 -3 R19  3 R20  2 R21  4 R22 -3 R23  3 R24  2 GLONASS SLOT / FRQ #
                                                            END OF HEADER       
> 2025 01 02 17 00  0.0000000  0 56
E11         2.000    24833198.513 7 130499533.67407     -2179.544 7        42.468                                                                    24833195.463 7  97451074.06607     -1627.574 7        44.090    24833195.297 7  99993262.38807     -1670.038 7        44.798
G16         3.000    23066130.731 7 121213503.80807      2770.716 7        42.317                                    23066128.501 4  94452156.02904      2158.994 4        26.467
G05         4.000    23050933.077 7 121133562.08307      -367.934 7        44.384                                    23050929.986 6  94389811.24306      -286.705 6        40.262    23050930.547 6  94389810.25506      -286.628 6        40.200
S21         5.000    38613307.547 7 202913959.47107      -471.425 7        42.544
G26         6.000    21131292.462 8 111045915.10408      1160.484 8        48.686                                    21131292.364 8  86529413.16208       904.270 8        49.365    21131292.488 7  86529400.17507       904.247 7        45.269
G25         7.000    23171290.637 7 121766127.58507     -3958.436 7        42.102                                    23171291.153 6  94882782.10606     -3084.497 6        38.655    23171291.930 6  94882783.10506     -3084.353 6        40.906
G04         8.000    25702696.888 5 135068545.98605     -1967.502 5        35.643                                    25702698.540 2 105248195.25602     -1533.169 2        12.970    25702698.137 5 105248204.24505     -1533.053 5        32.886
E36         9.000    23813410.057 8 125140495.69408       603.806 8        48.614                                                                    23813411.294 8  93449211.80908       450.926 8        50.624    23813410.982 8  95887004.98008       462.653 8        50.921
G20        11.000    24527264.231 6 128891763.36306     -2591.393 6        38.859                                    24527260.466 3 100435202.47003     -2019.267 3        18.806
S27        12.000    39401170.247 6 207054611.36606      -455.392 6        36.374
C23        13.000                                                                                                                                    26016089.663 6 135472623.07606      2424.917 6        40.868                                                                    26016084.190 7 110082587.36907      1970.256 7        43.128
S36        14.000    38384287.222 7 201711284.15907      -471.400 7        44.215
C13        15.000                                                                                                                                    38104682.518 7 198421128.70307       295.982 7        44.405    38104684.599 7 153431834.49507       228.837 7        44.932    38104682.625 7 161233440.88507       240.259 7        43.255
G18        16.000    21123571.917 8 111005339.28908      1168.000 8        49.034                                    21123569.093 6  86497761.45706       910.128 6        40.632    21123569.144 7  86497769.46607       910.121 7        47.730
R10        17.000    23528440.638 6 125419820.52806      3668.503 6        38.423
R01        18.000    23853403.598 6 127510108.98406     -1144.253 6        39.393                                                                    23853404.793 5  99174404.81405      -889.734 5        34.733
E02        19.000    23380992.536 8 122868124.73608      -107.750 8        48.990                                                                    23380992.045 8  91752278.41708       -80.482 8        50.919    23380991.620 8  94145801.46708       -82.553 8        51.316
E10        21.000    27132934.127 6 142584751.20706     -3165.117 6        40.095                                                                    27132934.636 7 106475759.98407     -2363.604 7        43.575    27132933.990 7 109253373.46507     -2425.339 7        44.163
I06        22.000    38896075.870 6 152636741.39006      -365.437 6        40.977
S28        23.000    41091050.197 5 215934903.19205      -468.753 5        34.357
E29        24.000    28912127.583 5 151934270.01105      -388.630 5        34.486                                                                    28912128.133 6 113457409.88106      -290.299 6        38.835    28912127.753 6 116417168.84806      -297.887 6        40.248
S23        25.000    38336646.426 7 201460362.24507      -474.754 7        44.998
S45        26.000    63594240.062 6 334190979.04806      -531.091 6        36.930
R09        27.000    20079445.098 8 107223313.74008      1597.802 8        51.409                                                                    20079445.175 8  83396019.69008      1242.723 8        48.579
R18        28.000    19754364.287 8 105450430.51208     -2360.104 8        50.639                                                                    19754365.165 8  82017152.49008     -1835.699 8        48.018
C38        29.000                                                                                                                                    38765296.491 7 201861185.83907      -489.221 7        43.464                                                                    38765294.827 7 164028791.88507      -397.823 7        43.822
C44        30.000                                                                                                                                    22056981.174 8 114856708.53908     -1935.838 8        49.893                                                                    22056980.077 8  93330568.36208     -1573.147 8        49.948
C43        31.000                                                                                                                                    25975013.203 6 135258713.41306      2508.247 6        40.389                                                                    25975017.137 6 109908804.91306      2038.064 6        40.710
R02        32.000    24052777.664 7 128350240.80607      1879.808 7        42.222                                                                    24052778.727 6  99827969.63006      1462.130 6        38.598
I02        33.000    38509502.505 6 151119598.68306      -870.011 6        41.042
R15        34.000    23975064.297 4                     -4907.833 4        28.663                                                                    23975074.046 4                     -3817.302 4        25.850
E34        35.000    26800670.542 6 140838619.68006      2559.358 6        41.342                                                                    26800675.352 7 105171788.79807      1911.113 7        43.922    26800674.744 7 107915391.61107      1961.124 7        44.564
G29        36.000    21277188.137 8 111812673.64508     -2197.823 8        48.111                                    21277184.513 7  87126868.41107     -1712.591 7        47.885    21277185.228 7  87126878.41307     -1712.546 7        44.229
G31        37.000    22250007.975 7 116924801.48507     -2170.887 7        47.223                                    22250005.144 7  91110331.23507     -1691.606 7        44.673    22250005.861 7  91110337.23207     -1691.568 7        42.686
C10        38.000                                                                                                                                    41473775.788 5 215964859.41305     -1171.895 5        30.725    41473776.191 5 166997735.94005      -906.200 5        35.319    41473772.844 5 175489132.73705      -952.990 5        31.306
E25        39.000    25062376.434 7 131703886.18607     -2599.810 7        46.112                                                                    25062377.679 8  98350433.34408     -1941.406 8        48.070    25062377.253 8 100916081.22808     -1992.081 8        48.996
C12        40.000                                                                                                                                    21786150.031 7 113446405.54207      -560.771 7        47.754    21786147.010 8  87724052.57508      -433.621 8        51.877    21786146.477 8  92184569.54908      -455.804 8        49.699
E07        41.000    28884559.957 6 151789351.33906     -2362.130 6        36.681                                                                    28884570.134 6 113349197.92506     -1763.942 6        37.202    28884569.499 6 116306130.78606     -1809.896 6        38.604
S44        42.000    40728270.843 6 214028664.61906      -405.362 6        38.763
G28        43.000    23097806.501 7 121379967.91507     -3432.554 7        44.414                                    23097805.099 5  94581879.98605     -2674.716 5        31.336    23097805.462 7  94581879.98507     -2674.719 7        43.443
C05        44.000                                                                                                                                    39547998.780 6 205936816.16806      -407.751 6        37.493    39547995.021 7 159243426.83707      -315.305 7        42.684    39547996.850 6 167340630.09206      -331.505 6        40.515
C11        45.000                                                                                                                                    23918998.295 7 124552603.07207      2038.073 7        45.753    23918997.060 8  96312024.15908      1575.967 8        48.273    23918995.000 7 101209224.34107      1655.897 7        46.644
R16        46.000    19960634.217 8 106626324.32508     -2872.281 8        52.074                                                                    19960635.347 7  82931698.98607     -2233.961 7        47.120
R17        47.000    23112388.499 7 123679299.36807     -4371.012 7        45.067                                                                    23112388.175 6  96195144.00006     -3399.689 6        41.468
C35        48.000                                                                                                                                    25694449.499 6 133797910.36906     -3429.835 6        41.325                                                                    25694449.331 7 108721827.48307     -2787.202 7        42.569
C24        49.000                                                                                                                                    23073481.064 8 120149737.84208     -3083.586 8        48.707                                                                    23073478.809 8  97631525.08808     -2505.857 8        48.500
R19        50.000    19784885.461 7 105836049.99107       930.341 7        42.006                                                                    19784885.681 7  82317038.47607       723.552 7        45.550
S48        51.000    77336718.634 6 406408136.77306      -507.828 6        38.429
C08        52.000                                                                                                                                    38020254.450 7 197981535.51707        89.669 7        42.281    38020248.658 7 153091909.34007        69.357 7        45.866    38020247.503 7 160876231.32807        72.810 7        43.050
C34        53.000                                                                                                                                    22204615.541 8 115625525.04508      1078.624 8        50.109                                                                    22204615.641 8  93955323.93408       876.284 8        49.033
C60        54.000                                                                                                                                    40728270.162 6 212082968.68706      -401.705 6        40.157                                                                    40728256.163 6 172334748.65506      -326.654 6        40.591
C25        55.000                                                                                                                                    22376285.220 8 116519425.90708       -22.678 8        49.942                                                                    22376284.072 8  94681669.31508       -18.600 8        49.477
C02        57.000                                                                                                                                    40912634.700 5 213042846.39505      -377.046 5        33.377    40912629.617 6 164738229.99606      -291.685 6        38.108    40912632.546 5 173114761.60705      -306.520 5        35.871
I03        58.000    85307358.874 6 258979120.54806      1100.422 6        41.428
E30        59.000    26669457.218 6 140149125.18606      2035.439 6        41.914                                                                    26669459.412 7 104656923.26807      1520.012 7        44.898    26669458.870 7 107387088.41407      1559.627 7        45.649
R20        60.000    24402454.461 5 130490946.08205      3534.809 5        34.024                                                                    24402463.648 6 101492990.29106      2749.418 6        37.577
> 2025 01 02 17 00  5.0000000  0 56
E11         2.000    24835273.160 7 130510435.57507     -2181.187 7        42.607                                                                    24835269.976 7  97459215.11107     -1628.897 7        44.233    24835269.924 7 100001615.80507     -1671.378 7        44.737
G16         3.000    23063495.017 7 121199652.81507      2769.647 7        42.341                                    23063492.747 4  94441363.07404      2158.161 4        26.527
G05         4.000    23051285.131 7 121135410.42107      -371.451 7        44.563                                    23051281.674 6  94391251.51206      -289.444 6        40.253    23051281.796 6  94391250.52906      -289.527 6        39.733
S21         5.000    38613755.679 7 202916316.87107      -471.456 7        42.626
G26         6.000    21130189.236 8 111040118.78708      1157.987 8        48.773                                    21130189.340 8  86524896.55908       902.327 8        49.387    21130189.473 7  86524883.57107       902.305 7        45.020
G25         7.000    23175056.989 7 121785922.51507     -3959.508 7        42.536                                    23175058.226 6  94898206.72906     -3085.329 6        38.793    23175058.231 6  94898207.72606     -3085.442 6        40.853
G04         8.000    25704570.815 5 135078388.87805     -1969.852 5        35.743                                    25704571.685 2 105255865.02002     -1534.930 2        14.238    25704571.647 5 105255874.02305     -1534.627 5        34.186
E36         9.000    23812836.432 8 125137481.86908       601.679 8        48.575                                                                    23812837.821 8  93446961.23708       449.280 8        50.737    23812837.467 8  95884695.69508       460.973 8        50.966
G20        11.000    24529730.690 6 128904726.25206     -2593.797 6        38.225                                    24529727.165 3 100445303.42203     -2021.155 3        18.836
S27        12.000    39401601.893 6 207056888.14806      -455.490 6        36.250
C23        13.000                                                                                                                                    26013762.406 6 135460501.77706      2423.597 6        41.130                                                                    26013756.447 7 110072737.81707      1969.364 7        42.825
S36        14.000    38384735.645 7 201713640.49507      -471.134 7        44.211
C13        15.000                                                                                                                                    38104399.049 7 198419651.78407       294.908 7        44.363    38104400.843 7 153430692.44507       227.992 7        44.767    38104399.025 7 161232240.74807       239.637 7        43.139
G18        16.000    21122461.940 8 110999506.18708      1165.197 8        48.877                                    21122459.062 6  86493216.19106       907.943 6        40.615    21122459.075 7  86493224.20107       907.906 7        47.480
R10        17.000    23524998.292 6 125401479.60106      3667.500 6        37.879
R01        18.000    23854474.466 6 127515839.55706     -1148.154 6        39.441                                                                    23854477.650 5  99178861.91105      -892.928 5        34.300
E02        19.000    23381095.833 8 122868667.56908      -109.486 8        48.866                                                                    23381095.303 8  91752683.78708       -81.718 8        51.049    23381094.919 8  94146217.41508       -83.893 8        51.209
E10        21.000    27135946.152 6 142600578.79506     -3166.022 6        40.248                                                                    27135946.549 7 106487579.28507     -2364.242 7        43.674    27135945.931 7 109265501.10007     -2425.908 7        44.065
I06        22.000    38896541.231 6 152638567.83406      -365.375 6        41.130
S28        23.000    41091491.752 5 215937247.23705      -469.099 5        34.138
E29        24.000    28912498.105 5 151936218.80305      -390.787 5        34.905                                                                    28912498.864 6 113458865.06606      -291.946 6        38.712    28912498.589 6 116418662.01006      -299.679 6        40.076
S23        25.000    38337097.040 7 201462735.80307      -474.748 7        45.087
S45        26.000    63594693.109 6 334193635.53706      -531.297 6        37.028
R09        27.000    20077951.167 8 107215333.43608      1594.274 8        51.036                                                                    20077950.823 8  83389812.79608      1239.958 8        48.919
R18        28.000    19756576.361 8 105462237.87408     -2362.859 8        50.564                                                                    19756577.328 8  82026335.99508     -1837.730 8        48.074
C38        29.000                                                                                                                                    38765766.784 7 201863634.69507      -490.331 7        43.382                                                                    38765765.194 7 164030781.75407      -398.370 7        43.738
C44        30.000                                                                                                                                    22058840.893 8 114866391.66208     -1937.412 8        50.008                                                                    22058839.588 8  93338436.68508     -1574.278 8        49.729
C43        31.000                                                                                                                                    25972605.620 6 135246173.32106      2507.672 6        40.739                                                                    25972608.794 6 109898615.12506      2037.638 6        40.634
R02        32.000    24051018.103 7 128340849.15407      1876.717 7        42.434                                                                    24051018.209 6  99820665.00506      1459.767 6        37.505
I02        33.000    38510611.181 6 151123948.94606      -870.006 6        41.299
R15        34.000    23979656.365 4 128140114.64014     -4908.121 4        28.171                                                                    23979666.948 4                     -3817.500 4        26.299
E34        35.000    26798236.010 6 140825824.75706      2558.518 6        41.628                                                                    26798240.604 7 105162234.17507      1910.554 7        44.086    26798239.919 7 107905587.73907      1960.383 7        44.760
G29        36.000    21279279.954 7 111823666.49907     -2199.328 7        47.802                                    21279276.392 7  87135434.27407     -1713.762 7        47.907    21279276.809 7  87135444.28207     -1713.812 7        43.505
G31        37.000    22252074.878 7 116935663.01407     -2173.770 7        47.256                                    22252072.022 7  91118794.77107     -1693.848 7        44.703    22252072.751 7  91118800.78007     -1693.883 7        42.582
C10        38.000                                                                                                                                    41474901.200 5 215970719.49805     -1172.473 5        31.464    41474901.189 5 167002267.33905      -906.495 5        35.300    41474897.893 5 175493894.47105      -951.752 5        31.011
E25        39.000    25064850.521 7 131716888.26207     -2601.147 7        45.985                                                                    25064851.855 8  98360142.69108     -1942.364 8        48.283    25064851.382 8 100926043.85708     -1993.043 8        48.902
C12        40.000                                                                                                                                    21786689.546 7 113449214.19807      -562.705 7        47.803    21786686.461 8  87726224.41308      -435.158 8        52.038    21786685.868 8  92186851.80108      -457.163 8        49.502
E07        41.000    28886808.054 5 151801165.98805     -2363.607 5        35.490                                                                    28886818.967 6 113358020.53706     -1765.102 6        36.941    28886817.621 6 116315183.56106     -1811.123 6        38.375
S44        42.000    40728655.510 6 214030691.69306      -405.400 6        38.477
G28        43.000    23101073.363 7 121397134.93807     -3434.324 7        45.129                                    23101071.875 5  94595256.88405     -2676.099 5        31.336    23101072.121 7  94595256.88807     -2676.115 7        43.456
C05        44.000                                                                                                                                    39548390.118 6 205938855.00706      -407.667 6        37.637    39548386.400 7 159245003.41207      -315.324 7        42.538    39548388.412 6 167342286.80506      -331.396 6        40.343
C11        45.000                                                                                                                                    23917042.120 7 124542415.71407      2036.827 7        45.761    23917040.017 8  96304146.66908      1574.978 8        48.327    23917038.646 7 101200946.27207      1655.121 7        46.493
R16        46.000    19963324.857 8 106640694.63208     -2875.873 8        52.714                                                                    19963325.474 7  82942875.88807     -2236.757 7        47.430
R17        47.000    23116472.949 7 123701155.23007     -4371.355 7        45.359                                                                    23116471.474 6  96212142.99206     -3399.934 6        40.791
C35        48.000                                                                                                                                    25697742.542 6 133815060.00106     -3430.063 6        41.297                                                                    25697742.776 7 108735762.93507     -2787.072 7        42.482
C24        49.000                                                                                                                                    23076442.691 8 120165160.07608     -3085.342 8        48.785                                                                    23076440.589 8  97644056.89408     -2507.009 8        48.423
R19        50.000    19784017.485 6 105831407.00206       926.965 6        41.702                                                                    19784017.378 7  82313427.26007       720.949 7        45.114
S48        51.000    77337171.556 6 406410675.40306      -507.724 6        38.249
C08        52.000                                                                                                                                    38020168.646 7 197981089.69507        88.583 7        42.320    38020162.921 7 153091564.61507        68.449 7        46.025    38020161.963 7 160875869.05907        71.971 7        42.809
C34        53.000                                                                                                                                    22203580.557 8 115620136.04808      1076.944 8        50.328                                                                    22203580.716 8  93950944.91008       875.174 8        48.975
C60        54.000                                                                                                                                    40728656.117 6 212084977.32906      -401.784 6        40.184                                                                    40728641.921 6 172336380.83106      -326.443 6        40.462
C25        55.000                                                                                                                                    22376308.367 8 116519546.36008       -25.510 8        49.915                                                                    22376307.197 8  94681767.17708       -20.684 8        49.307
C02        57.000                                                                                                                                    40912996.981 5 213044731.66705      -377.397 5        33.742    40912991.828 6 164739687.80806      -291.629 6        38.441    40912994.653 5 173116293.53305      -306.331 5        35.810
I03        58.000    85305956.767 6 258973617.82306      1100.468 6        41.402
E30        59.000    26667520.847 7 140138948.81607      2034.907 7        42.053                                                                    26667522.894 7 104649324.05007      1519.613 7        44.962    26667522.338 7 107379290.95307      1559.269 7        45.687
R20        60.000    24399150.285 5 130473274.39805      3533.808 5        33.437                                                                    24399158.483 6 101479245.69006      2748.552 6        38.126
> 2025 01 02 17 00 10.0000000  0 56
E11         2.000    24837349.463 7 130521345.75007     -2182.516 7        43.122                                                                    24837346.123 7  97467362.32507     -1629.880 7        44.311    24837346.021 7 100009975.55207     -1672.370 7        44.810
G16         3.000    23060860.416 7 121185807.29007      2768.664 7        42.303                                    23060857.938 4  94430574.37704      2157.390 4        26.695
G05         4.000    23051640.105 7 121137275.93307      -374.632 7        44.593                                    23051636.645 6  94392705.16906      -291.922 6        40.367    23051637.130 6  94392704.17106      -291.773 6        40.184
S21         5.000    38614206.365 7 202918673.99807      -471.019 7        42.555
G26         6.000    21129088.540 8 111034334.70908      1155.844 8        48.702                                    21129088.654 8  86520389.49608       900.656 8        49.452    21129088.760 7  86520376.50107       900.616 7        45.020
G25         7.000    23178824.922 7 121805722.62307     -3960.305 7        42.847                                    23178826.208 6  94913635.38106     -3085.955 6        39.105    23178825.738 6  94913636.38006     -3085.889 6        40.613
G04         8.000    25706445.471 5 135088243.30805     -1971.911 5        34.657                                    25706446.860 2 105263543.80402     -1536.545 2        14.286    25706447.190 5 105263552.76505     -1536.307 5        34.462
E36         9.000    23812264.997 8 125134478.62508       599.808 8        48.764                                                                    23812266.311 8  93444718.56208       447.933 8        50.841    23812265.970 8  95882394.51808       459.585 8        51.058
G20        11.000    24532199.543 6 128917701.20506     -2596.068 6        38.336                                    24532196.042 3 100455413.77103     -2022.908 3        18.896
S27        12.000    39402039.141 6 207059165.01606      -454.882 6        36.333
C23        13.000                                                                                                                                    26011436.222 6 135448386.15206      2422.806 6        41.392                                                                    26011429.558 7 110062892.92507      1968.599 7        42.946
S36        14.000    38385185.504 7 201715995.92407      -470.751 7        44.423
C13        15.000                                                                                                                                    38104116.181 7 198418179.75707       294.164 7        44.305    38104118.159 7 153429554.19307       227.368 7        44.686    38104116.253 7 161231044.62807       238.984 7        43.259
G18        16.000    21121354.442 8 110993686.68708      1162.759 8        48.905                                    21121351.629 6  86488681.52706       906.043 6        40.608    21121351.985 7  86488689.53507       906.109 7        47.590
R10        17.000    23521558.481 6 125383142.77606      3667.062 6        38.204
R01        18.000    23855550.671 6 127521590.55106     -1152.016 6        39.087                                                                    23855551.358 5  99183334.91805      -895.763 5        34.414
E02        19.000    23381200.694 8 122869218.60408      -110.866 8        48.915                                                                    23381200.220 8  91753095.27908       -82.789 8        51.180    23381199.741 8  94146639.63808       -84.938 8        51.274
E10        21.000    27138958.722 6 142616410.26606     -3166.473 6        40.532                                                                    27138959.293 7 106499401.49507     -2364.528 7        44.015    27138958.498 7 109277631.71207     -2426.264 7        44.059
I06        22.000    38897006.490 6 152640393.88806      -365.030 6        41.037
S28        23.000    41091941.177 5 215939590.80305      -468.389 5        34.248
E29        24.000    28912871.009 5 151938178.98405      -393.032 5        35.490                                                                    28912871.505 6 113460328.80506      -293.260 6        38.820    28912871.689 6 116420163.93406      -301.091 6        40.393
S23        25.000    38337549.430 7 201465108.94307      -474.386 7        45.068
S45        26.000    63595141.094 6 334196291.64706      -531.072 6        36.926
R09        27.000    20076459.435 8 107207370.40508      1591.084 8        51.141                                                                    20076459.577 8  83383619.33808      1237.547 8        48.677
R18        28.000    19758790.534 8 105474058.50808     -2365.224 8        50.444                                                                    19758791.263 7  82035529.82207     -1839.595 7        47.969
C38        29.000                                                                                                                                    38766238.035 7 201866088.31607      -491.028 7        43.414                                                                    38766236.342 7 164032775.54507      -399.053 7        43.716
C44        30.000                                                                                                                                    22060701.931 8 114876082.16708     -1938.664 8        50.064                                                                    22060700.577 8  93346311.03008     -1575.355 8        49.889
C43        31.000                                                                                                                                    25970197.852 6 135233635.82706      2507.340 6        40.939                                                                    25970200.938 6 109888427.45306      2037.321 6        40.563
R02        32.000    24049260.569 7 128331472.22807      1874.108 7        42.694                                                                    24049261.980 6  99813371.86506      1457.750 6        38.159
I02        33.000    38511719.645 6 151128299.51706      -869.922 6        41.306
R15        34.000    23984248.926 4 128164658.19904     -4908.748 4        28.910                                                                    23984258.347 4                     -3817.302 4        25.835
E34        35.000    26795802.343 7 140813033.55707      2558.009 7        42.248                                                                    26795806.593 7 105152682.31207      1910.310 7        44.363    26795805.696 7 107895786.70507      1960.137 7        44.918
G29        36.000    21281373.180 7 111834666.96207     -2200.622 7        47.744                                    21281369.702 7  87144006.06907     -1714.771 7        47.946    21281370.133 7  87144016.07707     -1714.765 7        43.558
G31        37.000    22254144.469 7 116946538.83307     -2176.369 7        47.011                                    22254141.614 7  91127269.44207     -1695.874 7        44.621    22254142.195 7  91127275.44707     -1695.844 7        42.906
C10        38.000                                                                                                                                    41476028.352 5 215976579.76905     -1171.807 5        31.917    41476026.808 5 167006798.89105      -906.049 5        35.324    41476023.482 5 175498656.51605      -952.911 5        30.868
E25        39.000    25067325.988 7 131729896.35607     -2601.999 7        45.932                                                                    25067327.277 8  98369856.53408     -1943.041 8        48.402    25067326.736 8 100936011.10708     -1993.771 8        49.016
C12        40.000                                                                                                                                    21787230.771 7 113452032.32307      -564.323 7        47.907    21787227.840 8  87728403.57808      -436.368 8        51.968    21787227.067 8  92189141.78508      -458.636 8        49.679
E07        41.000    28889058.065 5 151812987.65805     -2364.662 5        34.752                                                                    28889068.764 6 113366848.40206     -1765.859 6        37.399    28889067.019 6 116324241.71006     -1811.910 6        38.372
S44        42.000    40729039.797 6 214032718.60906      -405.255 6        38.438
G28        43.000    23104341.595 7 121414310.36107     -3435.679 7        44.175                                    23104340.295 5  94608640.33005     -2677.148 5        31.321    23104340.354 7  94608640.32707     -2677.114 7        43.340
C05        44.000                                                                                                                                    39548781.215 6 205940893.56706      -407.295 6        37.603    39548777.971 7 159246579.78207      -315.126 7        42.718    39548779.795 6 167343943.33706      -331.214 6        40.658
C11        45.000                                                                                                                                    23915086.409 7 124532234.23907      2035.908 7        45.121    23915085.286 8  96296273.73908      1574.285 8        48.637    23915083.326 7 101192673.03007      1654.335 7        46.587
R16        46.000    19966018.528 8 106655082.69108     -2879.162 8        52.513                                                                    19966018.787 7  82954066.61707     -2239.379 7        47.395
R17        47.000    23120556.589 7 123723012.30907     -4371.287 7        45.081                                                                    23120557.400 6  96229142.95006     -3399.911 6        40.846
C35        48.000                                                                                                                                    25701036.183 6 133832210.30606     -3429.852 6        41.347                                                                    25701036.365 7 108749698.99707     -2787.193 7        42.732
C24        49.000                                                                                                                                    23079405.858 8 120180590.86008     -3086.771 8        48.928                                                                    23079403.964 8  97656595.69408     -2508.314 8        48.514
R19        50.000    19783152.482 6 105826780.47706       923.855 6        41.912                                                                    19783152.528 7  82309828.86007       718.644 7        45.223
S48        51.000    77337630.027 6 406413213.67506      -507.323 6        38.387
C08        52.000                                                                                                                                    38020084.189 7 197980649.22907        87.870 7        42.347    38020078.587 7 153091224.02107        67.896 7        45.961    38020077.430 7 160875511.17007        71.237 7        43.027
C34        53.000                                                                                                                                    22202547.393 8 115614755.34108      1075.545 8        50.530                                                                    22202547.451 8  93946572.68308       873.871 8        49.066
C60        54.000                                                                                                                                    40729041.539 6 212086985.82706      -401.528 6        40.236                                                                    40729027.585 6 172338012.92006      -326.391 6        40.591
C25        55.000                                                                                                                                    22376334.323 8 116519680.26808       -27.910 8        50.017                                                                    22376332.932 8  94681876.01608       -22.780 8        49.448
C02        57.000                                                                                                                                    40913358.432 5 213046616.63705      -376.372 5        33.814    40913353.376 6 164741145.41506      -291.402 6        38.309    40913356.546 6 173117825.29206      -306.392 6        36.197
I03        58.000    85304554.407 6 258968114.86606      1100.714 6        41.437
E30        59.000    26665584.763 7 140128774.85007      2034.788 7        42.263                                                                    26665586.789 7 104641726.63607      1519.482 7        44.999    26665586.261 7 107371495.33907      1559.139 7        45.765
R20        60.000    24395845.386 5 130455606.21805      3533.589 5        32.922                                                                    24395855.807 6 101465503.81906      2748.393 6        38.237
> 2025 01 02 17 00 15.0000000  0 56
E11         2.000    24839427.223 7 130532264.21307     -2184.678 7        43.372                                                                    24839423.826 7  97475515.72507     -1631.431 7        44.391    24839423.738 7 100018341.65607     -1674.027 7        44.941
G16         3.000    23058226.309 7 121171967.25407      2767.352 7        42.326                                    23058224.246 4  94419789.96304      2156.375 4        26.838
G05         4.000    23051998.379 7 121139158.60707      -378.421 7        44.713                                    23051994.867 6  94394172.19806      -294.877 6        40.465    23051995.318 6  94394171.21106      -295.002 6        39.934
S21         5.000    38614655.580 7 202921030.99007      -471.582 7        42.552
G26         6.000    21127990.036 8 111028562.87308      1152.949 8        48.387                                    21127990.299 8  86515891.97208       898.397 8        49.548    21127990.664 7  86515878.98707       898.373 7        45.017
G25         7.000    23182593.947 7 121825527.95607     -3961.656 7        42.728                                    23182595.030 6  94929068.10606     -3087.005 6        39.297    23182594.695 6  94929069.12306     -3087.061 6        40.148
G04         8.000    25708322.621 5 135098109.25505     -1974.639 5        35.733                                    25708324.253 2 105271231.50702     -1538.666 2        14.000    25708324.259 5 105271240.49405     -1538.518 5        34.619
E36         9.000    23811695.644 8 125131485.98108       597.283 8        48.847                                                                    23811696.849 8  93442483.81208       446.027 8        50.892    23811696.433 8  95880101.46408       457.695 8        51.135
G20        11.000    24534671.106 6 128930688.26006     -2598.899 6        38.423                                    24534667.396 3 100465533.54303     -2025.111 3        19.552
S27        12.000    39402468.310 6 207061441.43006      -455.219 6        36.473
C23        13.000                                                                                                                                    26009110.355 6 135436276.25106      2421.271 6        41.859                                                                    26009103.953 7 110053052.66307      1967.494 7        42.919
S36        14.000    38385634.240 7 201718350.78907      -471.018 7        44.301
C13        15.000                                                                                                                                    38103833.990 7 198416712.65207       292.703 7        44.284    38103836.629 7 153428419.73807       226.268 7        44.685    38103834.582 7 161229852.48107       237.849 7        43.245
G18        16.000    21120249.724 8 110987880.80908      1159.622 8        48.704                                    21120246.812 6  86484157.47606       903.597 6        40.832    21120247.088 7  86484165.48007       903.591 7        47.466
R10        17.000    23518120.003 6 125364810.38806      3665.849 6        37.754
R01        18.000    23856632.042 6 127527361.90106     -1156.484 6        39.721                                                                    23856631.079 5  99187823.75705      -899.756 5        33.772
E02        19.000    23381307.097 8 122869777.84608      -112.832 8        48.979                                                                    23381306.644 8  91753512.90908       -84.309 8        51.170    23381306.186 8  94147068.16008       -86.471 8        51.388
E10        21.000    27141972.108 6 142632245.64606     -3167.720 6        40.875                                                                    27141972.420 7 106511226.62207     -2365.446 7        43.729    27141971.893 7 109289765.32507     -2427.185 7        43.998
I06        22.000    38897471.721 6 152642219.55806      -365.258 6        40.946
S28        23.000    41092387.856 5 215941934.12005      -468.652 5        34.505
E29        24.000    28913246.349 5 151940150.28205      -395.559 5        34.919                                                                    28913246.922 6 113461800.73806      -295.385 6        38.640    28913246.845 6 116421674.29506      -303.268 6        40.505
S23        25.000    38338000.902 7 201467481.95407      -474.835 7        44.962
S45        26.000    63595594.248 6 334197347.68316      -531.232 6        36.873
R09        27.000    20074971.996 8 107199424.96808      1587.108 8        51.292                                                                    20074971.454 8  83377439.56108      1234.412 8        48.599
R18        28.000    19761007.641 8 105485892.42108     -2368.365 8        50.653                                                                    19761008.017 7  82044733.98507     -1842.033 7        47.847
C38        29.000                                                                                                                                    38766710.206 7 201868546.73007      -492.332 7        43.536                                                                    38766708.375 7 164034773.21307      -400.055 7        43.727
C44        30.000                                                                                                                                    22062564.055 8 114885780.06908     -1940.463 8        50.097                                                                    22062562.925 8  93354191.37108     -1576.781 8        49.867
C43        31.000                                                                                                                                    25967790.212 6 135221100.93806      2506.667 6        41.175                                                                    25967793.723 6 109878241.89806      2036.771 6        40.446
R02        32.000    24047506.775 7 128322110.24207      1870.701 7        42.863                                                                    24047507.487 6  99806090.34206      1454.865 6        38.267
I02        33.000    38512828.667 6 151132650.73706      -870.416 6        41.220
R15        34.000    23988842.051 5 128189204.56715     -4909.692 5        30.536                                                                    23988849.537 4                     -3818.994 4        24.902
E34        35.000    26793368.661 6 140800246.08506      2556.931 6        41.840                                                                    26793373.360 7 105143133.25307      1909.404 7        44.448    26793372.322 7 107885988.53607      1959.170 7        45.223
G29        36.000    21283468.137 8 111845675.04208     -2202.561 8        48.118                                    21283464.442 8  87152583.79808     -1716.283 8        48.034    21283465.090 7  87152593.80207     -1716.239 7        43.623
G31        37.000    22256216.981 7 116957428.92507     -2179.582 7        46.928                                    22256213.925 7  91135755.23507     -1698.376 7        44.826    22256214.395 7  91135761.24107     -1698.396 7        42.749
C10        38.000                                                                                                                                    41477153.019 5 215982440.25405     -1172.187 5        32.317    41477152.338 5 167011330.60705      -906.653 5        35.843    41477149.221 5 175503418.63005      -952.653 5        30.943
E25        39.000    25069802.456 7 131742910.49907     -2603.586 7        46.024                                                                    25069803.785 8  98379574.89408     -1944.276 8        48.380    25069803.409 8 100945982.98608     -1994.989 8        49.077
C12        40.000                                                                                                                                    21787773.822 8 113454859.97708      -566.692 8        48.009    21787770.813 8  87730590.10708      -438.187 8        52.132    21787770.100 8  92191439.48308      -460.447 8        49.652
E07        41.000    28891309.308 5 151824816.39305     -2366.445 5        34.462                                                                    28891319.584 6 113375681.52306     -1767.293 6        37.584    28891318.271 6 116333305.28206     -1813.416 6        38.751
S44        42.000    40729425.483 6 214034745.38206      -405.425 6        38.532
G28        43.000    23107611.539 7 121431494.15207     -3437.822 7        43.968                                    23107610.241 5  94622030.29505     -2678.819 5        31.585    23107610.027 7  94622030.29907     -2678.821 7        42.838
C05        44.000                                                                                                                                    39549173.234 6 205942931.86306      -407.839 6        37.584    39549169.533 7 159248155.92107      -315.332 7        42.766    39549171.295 6 167345599.61906      -331.455 6        40.560
C11        45.000                                                                                                                                    23913131.397 7 124522058.70307      2034.400 7        45.440    23913131.341 8  96288405.38408      1573.096 8        48.470    23913129.189 7 101184404.58907      1653.063 7        46.506
R16        46.000    19968714.948 8 106669488.50208     -2883.180 8        52.576                                                                    19968715.928 8  82965271.13608     -2242.448 8        48.252
R17        47.000    23124640.235 7 123744870.76307     -4371.982 7        44.352                                                                    23124642.154 6  96246143.98206     -3400.538 6        41.373
C35        48.000                                                                                                                                    25704329.962 6 133849361.30106     -3430.470 6        41.335                                                                    25704330.033 7 108763635.57407     -2787.509 7        42.627
C24        49.000                                                                                                                                    23082371.041 8 120196030.19908     -3088.899 8        49.332                                                                    23082368.993 8  97669141.43108     -2510.026 8        48.583
R19        50.000    19782290.791 7 105822170.39407       920.173 7        42.140                                                                    19782290.431 7  82306243.24907       715.771 7        45.055
S48        51.000    77338089.392 6 406415751.96906      -507.773 6        38.207
C08        52.000                                                                                                                                    38020000.963 7 197980214.33807        86.252 7        42.438    38019995.053 7 153090887.74507        66.681 7        45.979    38019993.867 7 160875157.77407        70.204 7        43.003
C34        53.000                                                                                                                                    22201515.343 8 115609382.95608      1073.455 8        50.547                                                                    22201515.716 8  93942207.18408       872.321 8        49.030
C60        54.000                                                                                                                                    40729427.481 6 212088994.17306      -401.864 6        40.458                                                                    40729413.204 6 172339644.87306      -326.624 6        40.560
C25        55.000                                                                                                                                    22376362.700 8 116519827.63808       -30.973 8        50.202                                                                    22376361.255 8  94681995.77308       -25.201 8        49.426
C02        57.000                                                                                                                                    40913720.722 5 213048501.46705      -377.258 5        34.095    40913715.524 6 164742602.88606      -291.809 6        38.495    40913718.591 6 173119356.85506      -306.493 6        36.110
I03        58.000    85303151.702 6 258962611.66806      1100.627 6        41.292
E30        59.000    26663649.217 7 140118603.34607      2033.890 7        42.519                                                                    26663651.147 7 104634131.04607      1518.833 7        45.103    26663650.648 7 107363701.60807      1558.444 7        45.905
R20        60.000    24392540.230 5 130437941.68005      3531.997 5        33.449                                                                    24392551.755 6 101451764.72106      2747.439 6        37.149
> 2025 01 02 17 00 20.0000000  0 56
E11         2.000    24841506.554 7 130543191.02807     -2186.099 7        43.065                                                                    24841503.122 7  97483675.37007     -1632.408 7        44.333    24841502.970 7 100026714.16107     -1675.092 7        44.922
G16         3.000    23055594.120 6 121158132.81306      2766.409 6        41.859                                    23055591.663 4  94409009.90404      2155.637 4        26.838
G05         4.000    23052359.742 7 121141058.61507      -381.689 7        44.591                                    23052356.389 6  94395652.73406      -297.423 6        40.596    23052356.864 6  94395651.73906      -297.313 6        40.117
S21         5.000    38615103.444 7 202923387.89007      -471.285 7        42.521
G26         6.000    21126894.265 8 111022803.38908      1150.737 8        48.378                                    21126894.290 8  86511404.07008       896.673 8        49.554    21126894.644 7  86511391.07107       896.713 7        45.148
G25         7.000    23186363.296 7 121845338.60307     -3962.612 7        42.504                                    23186364.724 6  94944504.97506     -3087.752 6        39.084    23186364.714 6  94944505.98106     -3087.689 6        40.076
G04         8.000    25710202.002 6 135107986.77706     -1976.622 6        36.287                                    25710203.770 2 105278928.22002     -1540.228 2        14.952    25710203.691 5 105278937.27605     -1540.369 5        34.590
E36         9.000    23811128.051 8 125128504.03108       595.394 8        48.598                                                                    23811129.393 8  93440257.04008       444.662 8        50.806    23811128.985 8  95877816.60708       456.213 8        51.147
G20        11.000    24537145.046 6 128943687.51706     -2601.102 6        38.267                                    24537141.147 3 100475662.83903     -2026.841 3        19.254
S27        12.000    39402900.899 6 207063716.89306      -455.051 6        36.442
C23        13.000                                                                                                                                    26006785.352 6 135424172.13306      2420.148 6        41.743                                                                    26006779.444 7 110043217.09807      1966.544 7        43.020
S36        14.000    38386082.766 7 201720704.35207      -470.819 7        44.265
C13        15.000                                                                                                                                    38103553.443 7 198415250.54207       291.997 7        44.340    38103555.705 7 153427289.14607       225.824 7        44.631    38103553.693 7 161228664.39407       237.170 7        43.162
