     3.04           OBSERVATION DATA    M                   RINEX VERSION / TYPE
ssrcrin-15.6.1x                         20250102 063000 UTC PGM / RUN BY / DATE 
(00000000023479385599111004) Septentrio proprietary         COMMENT             
rref                                                        MARKER NAME         
01                                                          MARKER NUMBER       
geodetic                                                    MARKER TYPE         
NFB                 CLIMERS@TUW                             OBSERVER / AGENCY   
3297213             SEPT ASTERX SB3 PROB4.14.4              REC # / TYPE / VERS 
Unknown             Unknown                                 ANT # / TYPE        
  4127831.2120  1207193.1473  4695247.9005                  APPROX POSITION XYZ 
        0.0000        0.0000        0.0000                  ANTENNA: DELTA H/E/N
G   23 X1  C1C L1C D1C S1C C1W S1W C2W L2W D2W S2W C2L L2L  SYS / # / OBS TYPES 
       D2L S2L C5Q L5Q D5Q S5Q C1L L1L D1L S1L              SYS / # / OBS TYPES 
E   21 X1  C1C L1C D1C S1C C6C L6C D6C S6C C5Q L5Q D5Q S5Q  SYS / # / OBS TYPES 
       C7Q L7Q D7Q S7Q C8Q L8Q D8Q S8Q                      SYS / # / OBS TYPES 
S    9 X1  C1C L1C D1C S1C C5I L5I D5I S5I                  SYS / # / OBS TYPES 
R   17 X1  C1C L1C D1C S1C C2P L2P D2P S2P C2C L2C D2C S2C  SYS / # / OBS TYPES 
       C3Q L3Q D3Q S3Q                                      SYS / # / OBS TYPES 
C   25 X1  C1P L1P D1P S1P C5P L5P D5P S5P C2I L2I D2I S2I  SYS / # / OBS TYPES 
       C7I L7I D7I S7I C6I L6I D6I S6I C7D L7D D7D S7D      SYS / # / OBS TYPES 
J   17 X1  C1C L1C D1C S1C C2L L2L D2L S2L C5Q L5Q D5Q S5Q  SYS / # / OBS TYPES 
       C1L L1L D1L S1L                                      SYS / # / OBS TYPES 
I    5 X1  C5A L5A D5A S5A                                  SYS / # / OBS TYPES 
SEPTENTRIO RECEIVERS OUTPUT ALIGNED CARRIER PHASES.         COMMENT             
NO FURTHER PHASE SHIFT APPLIED IN THE RINEX ENCODER.        COMMENT             
G L1C                                                       SYS / PHASE SHIFT   
G L2W                                                       SYS / PHASE SHIFT   
G L2L  0.00000                                              SYS / PHASE SHIFT   
G L5Q  0.00000                                              SYS / PHASE SHIFT   
G L1L  0.00000                                              SYS / PHASE SHIFT   
E L1C  0.00000                                              SYS / PHASE SHIFT   
E L6C  0.00000                                              SYS / PHASE SHIFT   
E L5Q  0.00000                                              SYS / PHASE SHIFT   
E L7Q  0.00000                                              SYS / PHASE SHIFT   
E L8Q  0.00000                                              SYS / PHASE SHIFT   
S L1C                                                       SYS / PHASE SHIFT   
S L5I                                                       SYS / PHASE SHIFT   
R L1C                                                       SYS / PHASE SHIFT   
R L2P  0.00000                                              SYS / PHASE SHIFT   
R L2C                                                       SYS / PHASE SHIFT   
R L3Q  0.00000                                              SYS / PHASE SHIFT   
C L1P  0.00000                                              SYS / PHASE SHIFT   
C L5P  0.00000                                              SYS / PHASE SHIFT   
C L2I                                                       SYS / PHASE SHIFT   
C L7I                                                       SYS / PHASE SHIFT   
C L6I                                                       SYS / PHASE SHIFT   
C L7D                                                       SYS / PHASE SHIFT   
J L1C                                                       SYS / PHASE SHIFT   
J L2L  0.00000                                              SYS / PHASE SHIFT   
J L5Q  0.00000                                              SYS / PHASE SHIFT   
J L1L  0.00000                                              SYS / PHASE SHIFT   
I L5A                                                       SYS / PHASE SHIFT   
  2025     1     2     6    30    0.0000000     GPS         TIME OF FIRST OBS   
 C1C    0.000 C2C    0.000 C2P    0.000                     GLONASS COD/PHS/BIS 
DBHZ                                                        SIGNAL STRENGTH UNIT
    18                                                      LEAP SECONDS        
 24 R01  1 R02 -4 R03  5 R04  6 R05  1 R06 -4 R07  5 R08  6 GLONASS SLOT / FRQ #
    R09 -2 R10 -7 R11  0 R12 -1 R13 -2 R14 -7 R15  0 R16 -1 GLONASS SLOT / FRQ #
    R17  4 R18 -3 R19  3 R20  2 R21  4 R22 -3 R23  3 R24  2 GLONASS SLOT / FRQ #
                                                            END OF HEADER       
> 2025 01 02 06 30  0.0000000  0 53
G09         1.000    23130383.860 6 121550985.97406     -3425.265 6        41.375                                    23130382.681 6  94715051.10806     -2669.030 6        39.613    23130383.489 6  94715051.08906     -2669.005 6        40.548
E11         3.000    26713369.850 6 140379706.51906     -3198.562 6        38.958                                                                    26713366.347 6 104828987.71606     -2388.691 6        40.625    26713365.903 6 107563653.65506     -2450.868 6        40.703
G08         4.000    25282914.743 6 132862627.52306      1706.140 6        37.025                                    25282920.218 4 103529341.73204      1329.458 4        27.509    25282921.460 5 103529337.76005      1329.433 5        35.229
S21         5.000    38618593.286 7 202941764.25707      -465.247 7        43.081
E10         6.000    28151975.170 6 147939598.56906     -3631.481 6        38.688                                                                    28151976.035 6 110474361.30606     -2711.992 6        40.605    28151975.903 7 113356301.90807     -2782.648 7        42.040
G20         7.000    20851841.746 8 109577169.39308      -741.236 8        48.638                                    20851837.217 6  85384786.39806      -577.581 6        39.910
R02         8.000    21705360.365 8 115823958.34508      2755.363 8        48.548                                                                    21705359.630 7  90085300.89507      2142.990 7        44.044
R10         9.000    22014067.147 6 117347350.73406     -3986.602 6        41.824
R17        10.000    23244880.528 7 124388056.40107     -2994.863 7        44.998                                                                    23244879.390 6  96746259.43306     -2329.255 6        41.912
G30        11.000    20662778.090 8 108583636.59108       180.716 8        50.725                                    20662775.893 8  84610616.91208       140.820 8        52.138    20662776.297 7  84610624.90407       140.853 7        45.102
S27        12.000    39274060.696 6 206386599.29406      -488.719 6        36.004
G13        13.000    22903581.068 7 120359129.26807      2531.205 7        44.089                                    22903575.900 4  93786312.69904      1972.377 4        26.443
S36        14.000    38386927.058 7 201725171.16007      -465.957 7        44.978
I09        15.000    38992366.604 7 153014369.04107      -910.093 7        42.205
E09        16.000    25585219.732 7 134451255.94907      1488.420 7        44.694                                                                    25585219.269 7 100401910.06907      1111.566 7        47.176    25585219.088 8 103021086.68108      1140.570 8        48.322
S45        17.000    63569428.665 6 334060765.49306      -508.300 6        37.093
E36        18.000    26314258.727 7 138282356.88407     -1114.832 7        42.696                                                                    26314259.280 7 103262818.00507      -832.500 7        45.046    26314258.991 7 105956629.04007      -854.237 7        45.550
E21        20.000    26085736.412 7 137081452.81507     -1280.111 7        43.562                                                                    26085736.729 7 102366031.15207      -955.864 7        45.666    26085736.399 7 105036446.13607      -980.792 7        46.781
G11        21.000    24244132.054 7 127403770.73707     -3482.434 7        42.000                                    24244128.787 4  99275642.73004     -2713.580 4        26.287    24244129.461 6  99275655.72506     -2713.548 6        39.859
I06        22.000    38148565.103 7 149703368.64007      -372.399 7        43.010
S28        23.000    41049499.438 5 215716480.46605      -469.262 5        35.410
R08        24.000    21910026.368 7 117327194.70207     -3520.966 7        46.830                                                                    21910023.818 7  91254481.20507     -2738.525 7        44.286
S23        25.000    38322098.118 7 201383935.41007      -463.055 7        45.023
R01        26.000    19380411.292 8 103599406.16108      -134.504 8        49.009                                                                    19380411.115 6  80577307.30406      -104.698 6        41.993
C40        29.000                                                                                                                                    40898095.660 6 212967113.82806      1366.170 6        39.099                                                                    40898096.621 6 173053228.67506      1110.166 6        39.456
E19        30.000    25990669.231 6 136581888.52506     -2651.272 6        38.204                                                                    25990669.139 6 101992961.53206     -1979.906 6        40.598    25990668.169 6 104653645.35406     -2031.580 6        40.598
G14        31.000    23590404.984 7 123968407.00107      2989.479 7        42.914                                    23590404.226 4  96598755.53804      2329.468 4        28.768    23590404.885 6  96598741.55406      2329.504 6        41.936
G27        32.000    25260828.594 5 132746544.57205       590.130 5        35.733                                    25260830.972 4 103438885.34804       459.853 4        26.503    25260831.112 5 103438875.34305       459.851 5        33.168
C37        33.000                                                                                                                                    25030167.012 7 130338621.61307     -3175.053 7        44.558                                                                    25030170.681 7 105910813.19807     -2580.114 7        44.671
E04        34.000    23477048.754 8 123372753.95408      -531.437 8        48.374                                                                    23477047.155 8  92129013.90008      -396.877 8        51.223    23477046.766 8  94532375.19608      -407.211 8        51.522
C16        35.000                                                                                                                                    41478396.064 6 215988838.80806     -1385.602 6        37.414    41478401.527 6 167016260.99706     -1071.482 6        38.015    41478397.320 5 175508606.27205     -1125.993 5        33.162
R12        36.000    22110285.998 7 118109168.65807      3718.270 7        47.964                                                                    22110287.790 7  91862688.78907      2891.945 7        44.754
I01        37.000   388358285.879 6 220860445.88406     -3055.105 6        41.049
C19        39.000                                                                                                                                    22027496.128 8 114702947.85808      -882.383 8        51.808                                                                    22027491.368 8  93205516.95808      -717.045 8        50.187
E34        40.000    28284861.690 6 148637960.05506      1326.181 6        37.051                                                                    28284861.904 6 110995880.51706       990.297 6        41.628    28284861.458 7 113891424.75607      1016.076 7        42.127
G05        41.000    21946707.911 7 115330736.00607      1706.503 7        46.201                                    21946703.140 7  89868087.23807      1329.744 7        44.673    21946703.752 7  89868096.24607      1329.660 7        42.802
S44        42.000    41033520.466 6 215632710.05306      -508.268 6        36.881
C36        43.000                                                                                                                                    23695875.964 7 123390635.25007      2429.439 7        47.822                                                                    23695881.190 7 100265016.72907      1973.994 7        47.455
C05        44.000                                                                                                                                    39444596.685 6 205398356.37706      -524.490 6        38.318    39444594.483 7 158827050.98907      -405.363 7        43.439    39444595.345 6 166903083.58806      -426.059 6        39.961
R18        45.000    23263470.280 7 124182000.87807       -79.033 7        44.227                                                                    23263470.252 7  96585984.25807       -61.515 7        42.216
G18        46.000    26145287.642 6 137394415.83006      1925.456 6        37.104                                    26145283.901 3 107060570.57303      1500.367 3        18.955    26145284.421 6 107060560.57606      1500.492 6        37.081
R11        47.000    19570327.071 8 104577872.35308      -107.053 8        51.280                                                                    19570325.551 8  81338348.02308       -83.253 8        49.321
C20        49.000                                                                                                                                    24483683.808 7 127492958.99007     -3177.515 7        47.001                                                                    24483679.356 7 103598449.70007     -2582.068 7        45.716
C06        50.000                                                                                                                                    40943762.196 5 213204869.02605     -1443.493 5        35.595    40943760.748 6 164863493.17806     -1116.229 6        39.520    40943759.293 5 173246385.85005     -1173.211 5        35.752
S48        51.000    77344089.638 6 406445624.94606      -449.852 6        38.267
E06        52.000    23947399.637 8 125844454.82408       663.700 8        48.040                                                                    23947399.109 8  93974765.66708       495.621 8        50.437    23947399.139 8  96426279.29408       508.558 8        51.304
C09        53.000                                                                                                                                    40102012.676 6 208821689.81606     -1243.525 6        37.875    40102011.424 7 161474158.64307      -961.592 7        43.920    40102008.560 6 169684700.84506     -1010.514 6        38.456
C60        54.000                                                                                                                                    41033522.780 6 213672431.33806      -503.776 6        40.238                                                                    41033510.928 6 173626303.66806      -409.474 6        38.826
E31        55.000    27647333.735 6 145287705.90206      2748.476 6        38.871                                                                    27647338.507 7 108494092.71907      2052.494 7        42.301    27647338.124 7 111324370.16107      2105.992 7        43.755
G07        56.000    21481042.314 7 112883648.69107     -1968.399 7        47.922                                    21481037.798 7  87961265.98507     -1533.814 7        47.719    21481037.774 7  87961274.98007     -1533.795 7        44.886
C02        57.000                                                                                                                                    41020204.223 5 213602915.42005      -538.582 5        34.733    41020204.417 6 165171291.41806      -416.185 6        40.751    41020206.084 5 173569847.95505      -437.262 5        35.005
I03        58.000    98060734.100 6 309026021.13206       857.862 6        40.336
C22        60.000                                                                                                                                    23441426.466 8 122065654.50908      1944.518 8        48.060                                                                    23441420.280 7  99188317.94907      1579.989 7        47.896
> 2025 01 02 06 30  5.0000000  0 53
G09         1.000    23133643.414 6 121568115.28606     -3426.335 6        41.313                                    23133642.494 6  94728398.59506     -2669.867 6        39.817    23133643.062 6  94728398.57006     -2669.861 6        40.551
E11         3.000    26716413.424 6 140395702.03706     -3199.780 6        38.703                                                                    26716410.286 6 104840932.40006     -2389.576 6        40.458    26716409.738 6 107575909.94006     -2451.851 6        40.543
G08         4.000    25281292.324 6 132854102.06706      1704.200 6        36.423                                    25281297.694 4 103522698.55104      1327.957 4        28.085    25281298.795 5 103522694.56105      1327.689 5        34.310
S21         5.000    38619040.207 7 202944091.04507      -465.496 7        43.247
E10         6.000    28155430.530 6 147957756.80706     -3631.627 6        39.024                                                                    28155431.490 6 110487920.97606     -2711.789 6        40.827    28155431.262 6 113370215.31606     -2782.628 6        41.874
G20         7.000    20852548.748 8 109580884.25208      -744.652 8        48.800                                    20852544.127 6  85387681.08506      -580.246 6        39.934
R02         8.000    21702778.736 8 115810184.19108      2754.394 8        49.103                                                                    21702778.285 7  90074587.65207      2142.313 7        43.520
R10         9.000    22017807.823 7 117367289.96507     -3989.084 7        42.193
R17        10.000    23247680.000 7 124403038.19707     -2997.888 7        44.841                                                                    23247679.124 6  96757911.91906     -2331.711 6        41.323
G30        11.000    20662607.185 8 108582739.19408       178.182 8        50.769                                    20662605.139 8  84609917.64008       138.845 8        52.197    20662605.637 7  84609925.64307       138.851 7        45.049
S27        12.000    39274528.906 6 206389043.77306      -489.065 6        36.098
G13        13.000    22901172.679 7 120346475.00007      2530.386 7        43.244                                    22901167.756 4  93776452.22604      1971.726 4        26.455
S36        14.000    38387367.450 7 201727501.22007      -465.942 7        44.932
I09        15.000    38993526.290 6 153018919.99606      -910.251 6        41.926
E09        16.000    25583803.686 7 134443815.12907      1487.882 7        44.597                                                                    25583803.353 7 100396353.60207      1110.978 7        47.284    25583803.241 8 103015385.26308      1140.035 8        48.235
S45        17.000    63569866.369 6 334063308.30506      -508.768 6        37.418
E36        18.000    26315321.111 7 138287937.42807     -1117.457 7        42.724                                                                    26315321.253 7 103266985.28407      -834.372 7        45.040    26315320.967 7 105960905.03007      -856.158 7        45.458
E21        20.000    26086955.249 7 137087859.34207     -1282.540 7        43.543                                                                    26086955.834 7 102370815.24007      -957.764 7        45.658    26086955.461 7 105041355.03307      -982.746 7        46.678
G11        21.000    24247446.368 6 127421186.39906     -3483.718 6        41.890                                    24247442.876 4  99289213.36004     -2714.584 4        26.671    24247443.676 6  99289226.35106     -2714.545 6        40.141
I06        22.000    38149039.749 7 149705231.42907      -372.583 7        42.701
S28        23.000    41049942.862 5 215718825.83205      -468.963 5        35.490
R08        24.000    21913313.237 7 117344803.84607     -3522.767 7        46.869                                                                    21913312.258 7  91268177.19207     -2739.865 7        44.939
S23        25.000    38322539.132 7 201386250.66007      -462.868 7        45.106
R01        26.000    19380538.416 8 103600086.01508      -137.484 8        48.691                                                                    19380538.431 7  80577836.08107      -106.883 7        42.099
C40        29.000                                                                                                                                    40896784.192 6 212960283.61406      1365.593 6        39.213                                                                    40896785.071 6 173047678.58706      1109.839 6        39.757
E19        30.000    25993192.236 6 136595146.29006     -2651.887 6        37.860                                                                    25993191.992 6 102002861.79406     -1980.214 6        40.667    25993191.294 6 104663803.88406     -2031.892 6        40.536
G14        31.000    23587560.952 7 123953461.71507      2988.636 7        42.809                                    23587560.225 4  96587109.86704      2328.804 4        29.147    23587561.084 7  96587095.87907      2328.763 7        42.154
G27        32.000    25260268.935 5 132743601.46505       587.122 5        35.486                                    25260270.897 4 103436592.01904       457.508 4        26.467    25260271.158 5 103436582.02605       457.364 5        33.635
C37        33.000                                                                                                                                    25033216.484 7 130354500.75307     -3176.492 7        44.203                                                                    25033220.105 7 105923716.28307     -2581.100 7        44.772
E04        34.000    23477555.122 8 123375413.95508      -532.582 8        48.379                                                                    23477553.370 8  92131000.25208      -397.674 8        51.209    23477552.941 8  94534413.36908      -408.084 8        51.446
C16        35.000                                                                                                                                    41479726.637 6 215995766.53206     -1385.365 6        37.202    41479731.655 6 167021617.92506     -1071.282 6        37.626    41479727.746 5 175514235.59805     -1125.990 5        32.868
R12        36.000    22106806.600 8 118090581.79608      3716.468 8        48.085                                                                    22106808.217 7  91848232.33807      2890.580 7        45.112
I01        37.000   388362178.666 6 220875721.09206     -3055.111 6        41.456
C19        39.000                                                                                                                                    22028344.482 8 114707365.41908      -884.630 8        51.694                                                                    22028339.751 8  93209106.58908      -718.799 8        50.263
E34        40.000    28283601.805 6 148631334.85606      1324.017 6        37.096                                                                    28283601.340 6 110990933.13906       988.758 6        41.890    28283600.932 7 113886348.30907      1014.532 7        42.171
G05        41.000    21945085.150 7 115322210.54107      1703.714 7        46.124                                    21945080.813 7  89861444.01407      1327.568 7        44.790    21945081.324 7  89861453.00707      1327.675 7        42.582
S44        42.000    41034008.262 6 215635252.02806      -508.325 6        37.331
C36        43.000                                                                                                                                    23693544.041 7 123378492.07007      2427.898 7        47.633                                                                    23693549.194 7 100255149.40207      1972.906 7        47.515
C05        44.000                                                                                                                                    39445099.492 6 205400978.18806      -524.469 6        37.996    39445097.800 7 158829078.33907      -405.433 7        43.522    39445098.685 6 166905214.02706      -426.065 6        40.014
R18        45.000    23263545.790 7 124182407.37207       -83.536 7        43.160                                                                    23263546.227 7  96586300.40807       -64.974 7        42.576
G18        46.000    26143456.720 6 137384794.01506      1923.158 6        36.314                                    26143452.972 3 107053073.04403      1498.545 3        18.537    26143453.351 6 107053063.05206      1498.596 6        37.425
R11        47.000    19570429.204 8 104578419.07808      -111.635 8        51.504                                                                    19570427.644 8  81338773.24408       -86.842 8        49.096
C20        49.000                                                                                                                                    24486735.255 7 127508849.92207     -3178.813 7        46.442                                                                    24486731.347 7 103611362.35707     -2582.965 7        46.044
C06        50.000                                                                                                                                    40945147.486 5 213212087.32405     -1443.707 5        35.533    40945146.907 6 164869074.79606     -1116.328 6        39.339    40945145.318 5 173252251.29005     -1173.443 5        35.819
S48        51.000    77344524.445 6 406447874.42606      -450.191 6        38.135
E06        52.000    23946768.599 8 125841138.84808       662.690 8        48.205                                                                    23946768.096 8  93972289.44708       494.833 8        50.437    23946768.105 8  96423738.47408       507.791 8        51.222
C09        53.000                                                                                                                                    40103206.467 6 208827906.91806     -1243.301 6        37.679    40103205.259 7 161478966.07407      -961.459 7        44.041    40103202.745 6 169689752.73706     -1010.437 6        38.811
C60        54.000                                                                                                                                    41034006.529 6 213674950.19706      -503.765 6        39.982                                                                    41033994.717 6 173628350.43206      -409.362 6        38.976
E31        55.000    27644718.722 6 145273963.58506      2748.490 6        38.898                                                                    27644723.326 7 108483830.57807      2052.352 7        42.502    27644723.083 7 111313840.31107      2105.935 7        43.454
G07        56.000    21482915.724 7 112893495.09507     -1970.147 7        47.958                                    21482911.533 7  87968938.50007     -1535.180 7        47.761    21482911.579 7  87968947.50707     -1535.239 7        44.867
C02        57.000                                                                                                                                    41020721.334 5 213605606.39205      -538.220 5        34.795    41020721.014 6 165173372.24606      -416.168 6        40.384    41020722.628 5 173572034.60805      -437.413 5        35.029
I03        58.000    98059641.319 6 309021732.15106       857.727 6        40.520
C22        60.000                                                                                                                                    23439559.790 7 122055935.11707      1943.255 7        47.964                                                                    23439553.724 7  99180420.13907      1579.086 7        47.977
> 2025 01 02 06 30 10.0000000  0 53
G09         1.000    23136904.079 6 121585248.81606     -3427.205 6        41.957                                    23136903.062 6  94741749.37606     -2670.547 6        39.880    23136903.053 6  94741749.38006     -2670.640 6        40.901
E11         3.000    26719458.045 6 140411702.40006     -3200.632 6        38.613                                                                    26719454.993 6 104852880.69006     -2390.000 6        40.424    26719454.566 6 107588169.93206     -2452.506 6        40.691
G08         4.000    25279671.041 6 132845584.88706      1702.546 6        36.250                                    25279676.901 4 103516061.78604      1326.645 4        27.198    25279677.493 5 103516057.79405      1326.971 5        34.171
S21         5.000    38619477.769 7 202946417.34307      -465.227 7        42.864
E10         6.000    28158885.913 6 147975914.34206     -3631.515 6        38.829                                                                    28158886.717 6 110501480.15406     -2711.876 6        40.796    28158886.488 6 113384128.21806     -2782.622 6        41.664
G20         7.000    20853258.740 8 109584615.45008      -747.978 8        48.846                                    20853254.154 6  85390588.50406      -582.843 6        39.919
R02         8.000    21700198.289 8 115796413.99208      2753.518 8        48.909                                                                    21700197.606 7  90063877.48807      2141.710 7        43.738
R10         9.000    22021550.083 6 117387240.51406     -3991.311 6        41.714
R17        10.000    23250483.219 7 124418034.99807     -3000.870 7        44.453                                                                    23250481.285 7  96769576.13307     -2334.091 7        42.099
G30        11.000    20662438.575 8 108581853.43408       175.950 8        50.802                                    20662436.595 8  84609227.43208       137.102 8        52.154    20662436.951 7  84609235.43707       137.074 7        45.294
S27        12.000    39274995.354 6 206391487.37506      -488.732 6        36.015
G13        13.000    22898765.106 7 120333824.25607      2529.778 7        43.160                                    22898760.338 4  93766594.49804      1971.265 4        26.228
S36        14.000    38387811.102 7 201729830.54907      -465.930 7        45.150
I09        15.000    38994686.036 6 153023471.14406      -910.346 6        41.974
E09        16.000    25582388.304 7 134436376.58907      1487.393 7        44.674                                                                    25582387.864 7 100390798.83807      1110.691 7        47.179    25582387.643 8 103009685.59808      1139.620 8        48.158
S45        17.000    63570309.404 6 334064250.60916      -508.611 6        37.592
E36        18.000    26316385.079 7 138293529.99807     -1119.746 7        42.963                                                                    26316385.461 7 103271161.55007      -836.209 7        45.034    26316385.218 7 105965190.24007      -858.035 7        45.380
E21        20.000    26088176.691 7 137094277.29107     -1284.817 7        43.833                                                                    26088177.098 7 102375607.85507      -959.508 7        45.497    26088176.769 7 105046272.67107      -984.527 7        46.593
G11        21.000    24250761.782 7 127438607.22307     -3484.817 7        42.603                                    24250758.021 4  99302788.01104     -2715.442 4        26.647    24250758.846 6  99302800.99106     -2715.406 6        40.584
I06        22.000    38149514.330 7 149707094.06507      -372.573 7        42.703
S28        23.000    41050387.819 5 215721170.92105      -469.299 5        35.395
R08        24.000    21916602.498 7 117362421.30307     -3524.459 7        45.974                                                                    21916602.510 7  91281879.64607     -2741.252 7        44.569
S23        25.000    38322977.386 7 201388565.37707      -463.039 7        44.855
R01        26.000    19380668.367 8 103600779.76408      -140.244 8        48.766                                                                    19380668.359 7  80578375.65107      -109.155 7        42.161
C40        29.000                                                                                                                                    40895472.658 6 212953455.90606      1365.142 6        39.267                                                                    40895473.820 6 173042130.56006      1109.199 6        39.817
E19        30.000    25995715.312 6 136608406.23806     -2652.294 6        37.652                                                                    25995715.364 6 102012763.67906     -1980.621 6        40.598    25995714.726 6 104673964.08706     -2032.194 6        40.589
G14        31.000    23584717.742 7 123938519.81407      2987.990 7        43.202                                    23584717.110 4  96575466.84004      2328.297 4        29.450    23584717.892 7  96575452.83807      2328.309 7        42.495
G27        32.000    25259711.788 5 132740672.43305       584.428 5        35.190                                    25259713.375 4 103434309.64904       455.405 4        26.275    25259714.498 5 103434299.63505       455.398 5        33.689
C37        33.000                                                                                                                                    25036267.034 7 130370386.10107     -3177.782 7        44.268                                                                    25036270.833 7 105936624.42707     -2582.267 7        44.570
E04        34.000    23478062.532 8 123378079.07308      -533.573 8        48.579                                                                    23478060.545 8  92132990.43208      -398.437 8        51.076    23478060.135 8  94536455.46608      -408.856 8        51.362
C16        35.000                                                                                                                                    41481057.064 6 216002692.91806     -1385.158 6        37.474    41481061.475 6 167026973.81906     -1071.373 6        37.210    41481057.803 5 175519863.82205     -1125.628 5        33.114
R12        36.000    22103328.704 7 118072003.02007      3714.795 7        47.682                                                                    22103330.398 7  91833782.18107      2889.321 7        45.216
I01        37.000   388366071.275 6 220890996.58906     -3055.239 6        41.571
C19        39.000                                                                                                                                    22029194.868 8 114711793.25208      -886.664 8        51.828                                                                    22029190.064 8  93212704.56708      -720.520 8        50.151
E34        40.000    28282342.994 6 148624719.19106      1322.027 6        37.887                                                                    28282342.366 6 110985992.88206       987.280 6        41.640    28282342.092 6 113881279.18106      1013.045 6        41.881
G05        41.000    21943465.481 7 115313698.00507      1701.128 7        46.427                                    21943460.932 7  89854810.86507      1325.554 7        44.754    21943461.476 7  89854819.86407      1325.624 7        42.631
S44        42.000    41034494.193 6 215637793.41506      -508.102 6        37.584
C36        43.000                                                                                                                                    23691213.029 7 123366355.64307      2426.555 7        47.556                                                                    23691218.489 7 100245287.55807      1971.781 7        47.450
C05        44.000                                                                                                                                    39445603.601 6 205403599.56306      -524.358 6        38.279    39445601.389 7 158831105.34007      -405.398 7        43.537    39445602.328 6 166907344.11406      -426.030 6        39.958
R18        45.000    23263626.644 7 124182835.00107       -87.752 7        43.630                                                                    23263626.237 7  96586633.00107       -68.248 7        42.354
G18        46.000    26141628.030 5 137375182.74905      1921.079 5        34.386                                    26141623.980 2 107045583.76502      1496.939 2        16.943    26141624.139 6 107045573.75306      1496.995 6        36.571
R11        47.000    19570535.677 8 104578987.79708      -116.014 8        51.436                                                                    19570534.171 8  81339215.58108       -90.271 8        48.855
C20        49.000                                                                                                                                    24489788.128 7 127524746.41007     -3179.834 7        46.478                                                                    24489784.106 7 103624279.54207     -2583.971 7        45.949
C06        50.000                                                                                                                                    40946534.837 6 213219304.42506     -1443.414 6        36.284    40946532.864 6 164874655.47606     -1116.120 6        39.102    40946531.275 5 173258115.74005     -1172.837 5        35.800
S48        51.000    77344958.537 6 406450123.84606      -450.022 6        38.132
E06        52.000    23946138.386 8 125837827.14108       661.795 8        48.261                                                                    23946137.906 8  93969816.40308       494.220 8        50.281    23946137.909 8  96421200.92108       507.135 8        51.126
C09        53.000                                                                                                                                    40104399.920 6 208834123.17806     -1243.205 6        37.425    40104399.021 7 161483772.87107      -961.392 7        43.714    40104396.655 6 169694803.96606     -1010.438 6        39.030
C60        54.000                                                                                                                                    41034490.399 6 213677468.48406      -503.613 6        39.847                                                                    41034478.314 6 173630396.73406      -409.258 6        38.775
E31        55.000    27642103.704 6 145260221.14706      2748.326 6        38.907                                                                    27642108.449 7 108473568.36207      2052.278 7        42.239    27642108.046 7 111303310.38207      2105.944 7        43.395
G07        56.000    21484790.938 7 112903349.56907     -1971.794 7        47.816                                    21484786.798 7  87976617.30407     -1536.462 7        47.729    21484786.946 7  87976626.29707     -1536.475 7        44.751
C02        57.000                                                                                                                                    41021238.424 5 213608296.87905      -538.206 5        34.838    41021237.974 6 165175452.69006      -416.383 6        40.355    41021239.365 5 173574220.82305      -437.306 5        34.771
I03        58.000    98058548.262 6 309017442.80606       857.858 6        40.565
C22        60.000                                                                                                                                    23437694.282 7 122046220.79907      1942.314 7        47.822                                                                    23437688.186 7  99172526.46107      1578.197 7        47.831
> 2025 01 02 06 30 15.0000000  0 53
G09         1.000    23140165.328 6 121602387.10806     -3427.847 6        41.411                                    23140164.521 6  94755103.85906     -2671.047 6        39.847    23140164.425 6  94755103.85906     -2671.036 6        41.020
E11         3.000    26722503.978 6 140427708.09906     -3201.476 6        38.850                                                                    26722500.803 6 104864832.98106     -2390.560 6        40.200    26722500.399 6 107600434.03406     -2452.950 6        40.451
G08         4.000    25278052.145 5 132837076.55205      1701.027 5        35.943                                    25278057.682 4 103509431.91404      1325.469 4        26.611    25278058.643 5 103509427.91105      1325.533 5        34.619
S21         5.000    38619921.273 7 202948743.83207      -465.052 7        43.073
E10         6.000    28162341.206 6 147994071.72006     -3631.218 6        38.925                                                                    28162342.234 6 110515039.21306     -2711.757 6        41.049    28162341.780 6 113398040.97506     -2782.339 6        41.478
G20         7.000    20853971.851 8 109588363.48808      -751.064 8        48.351                                    20853967.386 6  85393509.04406      -585.245 6        39.922
R02         8.000    21697618.323 8 115782648.44208      2752.932 8        48.755                                                                    21697618.285 7  90053170.95307      2141.161 7        43.841
R10         9.000    22025294.721 7 117407203.08107     -3993.439 7        42.500
R17        10.000    23253288.438 7 124433047.11507     -3003.664 7        44.883                                                                    23253286.889 6  96781252.21406     -2336.197 6        41.993
G30        11.000    20662272.440 8 108580979.85708       173.764 8        50.679                                    20662270.376 8  84608546.72108       135.401 8        52.131    20662270.827 7  84608554.72007       135.425 7        45.758
S27        12.000    39275462.965 6 206393931.94506      -488.807 6        36.265
G13        13.000    22896358.381 7 120321177.53907      2529.166 7        43.172                                    22896353.907 4  93756739.91104      1970.779 4        26.251
S36        14.000    38388259.914 7 201732160.57707      -465.632 7        45.347
I09        15.000    38995845.875 6 153028022.88506      -910.258 6        41.900
E09        16.000    25580973.251 7 134428940.86707      1487.101 7        44.628                                                                    25580972.832 7 100385246.17007      1110.590 7        47.115    25580972.729 8 103003988.08308      1139.531 8        48.206
S45        17.000    63570747.923 6 334066793.05506      -508.165 6        37.342
E36        18.000    26317451.640 7 138299135.12307     -1121.994 7        42.817                                                                    26317452.089 7 103275347.17407      -837.768 7        44.935    26317451.861 7 105969485.06007      -859.685 7        45.351
E21        20.000    26089400.624 7 137100707.16807     -1286.923 7        43.791                                                                    26089400.778 7 102380409.37007      -961.033 7        45.449    26089400.207 7 105051199.44407      -986.063 7        46.532
G11        21.000    24254077.352 7 127456033.73807     -3485.567 7        42.409                                    24254074.400 4  99316367.10204     -2716.019 4        26.886    24254074.594 6  99316380.08806     -2716.031 6        40.892
I06        22.000    38149989.742 7 149708956.96307      -372.306 7        42.559
S28        23.000    41050835.818 5 215723516.33505      -468.944 5        35.157
R08        24.000    21919894.091 7 117380047.59007     -3525.896 7        46.455                                                                    21919893.616 7  91295588.94107     -2742.285 7        44.473
S23        25.000    38323420.931 7 201390880.22907      -462.777 7        45.229
R01        26.000    19380800.895 8 103601487.98708      -142.846 8        48.853                                                                    19380801.096 7  80578926.48307      -111.084 7        42.114
C40        29.000                                                                                                                                    40894161.972 6 212946631.24606      1364.981 6        39.297                                                                    40894163.192 6 173036584.97906      1108.966 6        40.021
E19        30.000    25998239.257 6 136621668.83406     -2652.266 6        37.890                                                                    25998239.135 6 102022667.53906     -1980.754 6        40.460    25998238.731 6 104684126.31006     -2032.390 6        40.553
G14        31.000    23581875.388 7 123923581.83207      2987.418 7        42.933                                    23581874.682 4  96563826.85904      2327.851 4        29.536    23581874.943 7  96563812.85707      2327.890 7        42.461
G27        32.000    25259157.488 5 132737758.02505       581.628 5        35.305                                    25259158.630 4 103432038.67504       453.217 4        26.216    25259158.635 5 103432028.67905       453.197 5        33.784
C37        33.000                                                                                                                                    25039318.783 7 130386278.17707     -3178.763 7        43.987                                                                    25039322.741 7 105949538.02707     -2583.087 7        44.563
E04        34.000    23478570.666 8 123380749.87308      -534.500 8        48.561                                                                    23478568.745 8  92134984.84808      -399.090 8        51.064    23478568.376 8  94538501.91608      -409.525 8        51.303
C16        35.000                                                                                                                                    41482386.866 6 216009618.43706     -1384.738 6        37.463    41482391.750 6 167032329.03506     -1070.770 6        37.459    41482387.947 5 175525491.36805     -1125.402 5        32.719
R12        36.000    22099852.124 8 118053432.90408      3713.414 8        48.043                                                                    22099853.259 7  91819338.75607      2888.259 7        44.445
I01        37.000   388369964.152 6 220906272.70306     -3055.043 6        41.771
C19        39.000                                                                                                                                    22030047.340 8 114716231.88708      -888.572 8        51.869                                                                    22030042.435 8  93216311.32008      -722.080 8        50.186
E34        40.000    28281085.708 6 148618113.64206      1320.360 6        37.512                                                                    28281085.212 6 110981060.13606       986.019 6        41.380    28281085.277 6 113876217.77006      1011.725 6        41.678
G05        41.000    21941848.301 7 115305198.90607      1698.733 7        46.139                                    21941843.609 7  89848188.18207      1323.692 7        44.688    21941843.687 7  89848197.18507      1323.667 7        42.296
S44        42.000    41034973.247 6 215640334.78306      -508.213 6        37.633
C36        43.000                                                                                                                                    23688883.885 7 123354226.48007      2425.291 7        47.595                                                                    23688889.179 7 100235431.61807      1970.833 7        47.470
C05        44.000                                                                                                                                    39446107.070 6 205406221.05806      -524.128 6        38.381    39446105.100 7 158833132.44007      -405.233 7        43.361    39446105.685 6 166909474.28706      -425.871 6        40.112
R18        45.000    23263711.047 7 124183284.40107       -91.658 7        44.295                                                                    23263710.254 6  96586982.52406       -71.287 6        41.638
G18        46.000    26139800.931 5 137365582.48605      1919.427 5        32.802                                    26139797.099 2 107038103.03702      1495.663 2        14.857    26139797.235 5 107038093.09705      1495.321 5        34.986
R11        47.000    19570646.596 8 104579579.10208      -120.326 8        51.664                                                                    19570644.895 8  81339675.48408       -93.579 8        48.959
C20        49.000                                                                                                                                    24492842.248 7 127540648.98407     -3180.898 7        46.530                                                                    24492838.147 7 103637201.67107     -2584.794 7        46.140
C06        50.000                                                                                                                                    40947919.915 6 213226520.80006     -1442.857 6        36.166    40947918.417 6 164880235.60306     -1115.750 6        38.847    40947917.277 5 173263979.60105     -1172.273 5        35.719
S48        51.000    77345389.369 6 406452373.73506      -449.789 6        38.288
E06        52.000    23945509.057 8 125834520.19808       661.210 8        48.094                                                                    23945508.614 8  93967346.92708       493.717 8        50.309    23945508.633 8  96418667.02608       506.645 8        51.061
C09        53.000                                                                                                                                    40105594.255 6 208840339.18306     -1242.830 6        37.853    40105592.387 7 161488579.45107      -961.022 7        43.691    40105590.252 6 169699854.94206     -1009.999 6        38.976
C60        54.000                                                                                                                                    41034973.379 6 213679986.74606      -503.467 6        40.033                                                                    41034961.965 6 173632443.01506      -409.140 6        38.718
E31        55.000    27639489.056 6 145246479.16006      2748.578 6        38.526                                                                    27639493.504 7 108463306.45107      2052.610 7        42.292    27639493.102 7 111292780.79307      2106.075 7        43.045
G07        56.000    21486668.128 7 112913212.63607     -1973.234 7        47.902                                    21486663.685 7  87984302.80007     -1537.585 7        47.672    21486663.661 7  87984311.80007     -1537.575 7        44.820
C02        57.000                                                                                                                                    41021754.829 5 213610987.36905      -537.959 5        34.686    41021754.608 6 165177533.13406      -415.898 6        40.212    41021755.926 5 173576407.10005      -437.218 5        35.010
I03        58.000    98057455.164 6 309013153.44706       858.116 6        40.660
C22        60.000                                                                                                                                    23435829.839 8 122036512.12008      1941.421 8        48.024                                                                    23435823.827 7  99164637.36807      1577.501 7        47.876
> 2025 01 02 06 30 20.0000000  0 53
G09         1.000    23143427.664 6 121619529.65906     -3428.942 6        41.635                                    23143426.694 6  94768461.67406     -2671.901 6        39.964    23143426.688 6  94768461.65206     -2671.766 6        40.577
E11         3.000    26725550.760 6 140443718.70406     -3202.564 6        38.877                                                                    26725547.618 6 104876788.93706     -2391.470 6        40.436    26725547.205 6 107612701.87706     -2453.922 6        40.331
G08         4.000    25276434.641 6 132828576.56606      1698.988 6        36.416                                    25276440.265 4 103502808.56204      1323.884 4        26.838    25276441.159 5 103502804.56005      1323.829 5        34.843
S21         5.000    38620365.681 7 202951069.98007      -465.141 7        42.954
E10         6.000    28165796.209 6 148012228.45606     -3631.350 6        38.982                                                                    28165797.483 6 110528597.77706     -2711.681 6        41.261    28165796.986 6 113411953.24906     -2782.378 6        41.349
G20         7.000    20854688.040 8 109592127.86008      -754.576 8        48.552                                    20854683.740 6  85396442.31206      -587.980 6        39.991
R02         8.000    21695039.558 8 115768886.76408      2751.828 8        48.953                                                                    21695038.919 7  90042467.41407      2140.340 7        43.689
R10         9.000    22029043.217 7 117427177.20207     -3996.018 7        42.961
R17        10.000    23256096.247 7 124448074.17207     -3006.792 7        45.517                                                                    23256095.184 6  96792939.92206     -2338.726 6        41.406
G30        11.000    20662108.392 8 108580117.97508       171.176 8        51.011                                    20662106.370 8  84607875.11808       133.384 8        52.222    20662106.990 7  84607883.11807       133.309 7        45.646
S27        12.000    39275924.146 6 206396375.27006      -488.507 6        36.125
G13        13.000    22893952.659 7 120308534.42407      2528.275 7        43.528                                    22893948.000 4  93746888.11204      1970.088 4        26.395
S36        14.000    38388703.446 7 201734489.48507      -465.763 7        45.183
I09        15.000    38997005.956 6 153032574.84606      -910.391 6        41.988
E09        16.000    25579558.924 7 134421507.48207      1486.403 7        44.399                                                                    25579558.353 7 100379695.26407      1109.974 7        47.188    25579558.182 8 102998292.37008      1138.867 8        48.033
S45        17.000    63571190.922 6 334069335.14306      -508.472 6        37.255
E36        18.000    26318520.466 7 138304752.31307     -1124.695 7        42.836                                                                    26318521.056 7 103279541.83507      -839.927 7        44.969    26318520.775 7 105973789.14807      -861.883 7        45.187
E21        20.000    26090626.210 7 137107148.49607     -1289.398 7        43.630                                                                    26090626.478 7 102385219.44907      -962.924 7        45.499    26090626.019 7 105056135.00307      -987.991 7        46.380
G11        21.000    24257394.611 7 127473465.46107     -3486.931 7        42.470                                    24257391.619 4  99329950.23904     -2717.087 4        26.982    24257391.352 6  99329963.24206     -2717.215 6        40.446
I06        22.000    38150464.085 7 149710819.74207      -372.567 7        42.758
S28        23.000    41051283.418 5 215725861.62905      -469.088 5        35.571
R08        24.000    21923188.194 7 117397682.14207     -3527.818 7        46.882                                                                    21923186.240 7  91309304.68407     -2743.843 7        44.456
S23        25.000    38323857.849 7 201393194.94607      -462.897 7        44.880
R01        26.000    19380936.084 8 103602210.34108      -145.955 8        48.713                                                                    19380935.788 7  80579488.31107      -113.576 7        42.061
C40        29.000                                                                                                                                    40892852.068 6 212939809.15006      1364.078 6        39.456                                                                    40892852.895 6 173031041.48406      1108.551 6        39.790
E19        30.000    26000763.433 6 136634933.65406     -2653.073 6        38.375                                                                    26000763.232 6 102032573.06406     -1981.268 6        40.598    26000762.869 6 104694290.25906     -2033.059 6        40.405
G14        31.000    23579033.204 7 123908647.29507      2986.549 7        42.899                                    23579032.854 4  96552189.56204      2327.174 4        29.441    23579032.637 7  96552175.55307      2327.256 7        42.063
G27        32.000    25258605.032 5 132734857.74805       578.729 5        35.805                                    25258606.746 4 103429778.70604       450.958 4        26.515    25258606.960 5 103429768.71605       450.857 5        33.180
C37        33.000                                                                                                                                    25042371.903 7 130402176.48207     -3180.274 7        43.915                                                                    25042375.681 7 105962456.68007     -2584.180 7        44.433
E04        34.000    23479079.706 8 123383425.86108      -535.818 8        48.337                                                                    23479078.017 8  92136983.14708      -400.125 8        51.107    23479077.601 8  94540552.34108      -410.575 8        51.121
C16        35.000                                                                                                                                    41483716.817 6 216016542.66606     -1384.762 6        37.664    41483721.186 6 167037683.25506     -1070.762 6        37.115    41483718.079 5 175531117.81105     -1125.247 5        33.281
R12        36.000    22096377.866 8 118034870.92308      3711.497 8        48.484                                                                    22096378.415 7  91804901.64907      2886.735 7        44.558
I01        37.000   388373856.976 6 220921549.17206     -3055.352 6        41.752
C19        39.000                                                                                                                                    22030901.731 8 114720680.85008      -890.869 8        51.890                                                                    22030896.825 8  93219926.45408      -723.749 8        50.118
E34        40.000    28279830.452 6 148611517.69006      1318.119 6        37.524                                                                    28279829.899 6 110976134.60806       984.324 6        41.523    28279829.872 6 113871163.73906      1009.910 6        41.735
G05        41.000    21940233.280 7 115296712.84507      1695.863 7        46.687                                    21940228.767 7  89841575.66307      1321.453 7        44.855    21940229.540 7  89841584.66307      1321.476 7        42.612
