     3.04           OBSERVATION DATA    M                   RINEX VERSION / TYPE
ssrcrin-15.6.1x                         20250102 213000 UTC PGM / RUN BY / DATE 
(00000000023479385599111004) Septentrio proprietary         COMMENT             
rref                                                        MARKER NAME         
01                                                          MARKER NUMBER       
geodetic                                                    MARKER TYPE         
NFB                 CLIMERS@TUW                             OBSERVER / AGENCY   
3297213             SEPT ASTERX SB3 PROB4.14.4              REC # / TYPE / VERS 
Unknown             Unknown                                 ANT # / TYPE        
  4127832.1465  1207193.3523  4695247.6757                  APPROX POSITION XYZ 
        0.0000        0.0000        0.0000                  ANTENNA: DELTA H/E/N
G   23 X1  C1C L1C D1C S1C C1W S1W C2W L2W D2W S2W C2L L2L  SYS / # / OBS TYPES 
       D2L S2L C5Q L5Q D5Q S5Q C1L L1L D1L S1L              SYS / # / OBS TYPES 
E   21 X1  C1C L1C D1C S1C C6C L6C D6C S6C C5Q L5Q D5Q S5Q  SYS / # / OBS TYPES 
       C7Q L7Q D7Q S7Q C8Q L8Q D8Q S8Q                      SYS / # / OBS TYPES 
S    9 X1  C1C L1C D1C S1C C5I L5I D5I S5I                  SYS / # / OBS TYPES 
R   17 X1  C1C L1C D1C S1C C2P L2P D2P S2P C2C L2C D2C S2C  SYS / # / OBS TYPES 
       C3Q L3Q D3Q S3Q                                      SYS / # / OBS TYPES 
C   25 X1  C1P L1P D1P S1P C5P L5P D5P S5P C2I L2I D2I S2I  SYS / # / OBS TYPES 
       C7I L7I D7I S7I C6I L6I D6I S6I C7D L7D D7D S7D      SYS / # / OBS TYPES 
J   17 X1  C1C L1C D1C S1C C2L L2L D2L S2L C5Q L5Q D5Q S5Q  SYS / # / OBS TYPES 
       C1L L1L D1L S1L                                      SYS / # / OBS TYPES 
I    5 X1  C5A L5A D5A S5A                                  SYS / # / OBS TYPES 
SEPTENTRIO RECEIVERS OUTPUT ALIGNED CARRIER PHASES.         COMMENT             
NO FURTHER PHASE SHIFT APPLIED IN THE RINEX ENCODER.        COMMENT             
G L1C                                                       SYS / PHASE SHIFT   
G L2W                                                       SYS / PHASE SHIFT   
G L2L  0.00000                                              SYS / PHASE SHIFT   
G L5Q  0.00000                                              SYS / PHASE SHIFT   
G L1L  0.00000                                              SYS / PHASE SHIFT   
E L1C  0.00000                                              SYS / PHASE SHIFT   
E L6C  0.00000                                              SYS / PHASE SHIFT   
E L5Q  0.00000                                              SYS / PHASE SHIFT   
E L7Q  0.00000                                              SYS / PHASE SHIFT   
E L8Q  0.00000                                              SYS / PHASE SHIFT   
S L1C                                                       SYS / PHASE SHIFT   
S L5I                                                       SYS / PHASE SHIFT   
R L1C                                                       SYS / PHASE SHIFT   
R L2P  0.00000                                              SYS / PHASE SHIFT   
R L2C                                                       SYS / PHASE SHIFT   
R L3Q  0.00000                                              SYS / PHASE SHIFT   
C L1P  0.00000                                              SYS / PHASE SHIFT   
C L5P  0.00000                                              SYS / PHASE SHIFT   
C L2I                                                       SYS / PHASE SHIFT   
C L7I                                                       SYS / PHASE SHIFT   
C L6I                                                       SYS / PHASE SHIFT   
C L7D                                                       SYS / PHASE SHIFT   
J L1C                                                       SYS / PHASE SHIFT   
J L2L  0.00000                                              SYS / PHASE SHIFT   
J L5Q  0.00000                                              SYS / PHASE SHIFT   
J L1L  0.00000                                              SYS / PHASE SHIFT   
I L5A                                                       SYS / PHASE SHIFT   
  2025     1     2    21    30    0.0000000     GPS         TIME OF FIRST OBS   
 C1C    0.000 C2C    0.000 C2P    0.000                     GLONASS COD/PHS/BIS 
DBHZ                                                        SIGNAL STRENGTH UNIT
    18                                                      LEAP SECONDS        
 24 R01  1 R02 -4 R03  5 R04  6 R05  1 R06 -4 R07  5 R08  6 GLONASS SLOT / FRQ #
    R09 -2 R10 -7 R11  0 R12 -1 R13 -2 R14 -7 R15  0 R16 -1 GLONASS SLOT / FRQ #
    R17  4 R18 -3 R19  3 R20  2 R21  4 R22 -3 R23  3 R24  2 GLONASS SLOT / FRQ #
                                                            END OF HEADER       
> 2025 01 02 21 30  0.0000000  0 55
G23         1.000    23397034.482 6 122952321.40606     -3611.718 6        40.596                                    23397030.239 4  95807025.48204     -2814.338 4        25.850    23397030.788 6  95807023.47506     -2814.275 6        40.532
C37         2.000                                                                                                                                    26348938.145 6 137205819.89806     -2510.128 6        40.350                                                                    26348941.618 6 111490986.70306     -2039.738 6        40.646
G16         3.000    25162641.735 6 132230753.78206     -4120.373 6        37.924                                    25162638.766 3 103037029.08903     -3210.668 3        18.090
G21         4.000    21478363.869 7 112869622.73107      1253.019 7        44.265                                    21478359.244 5  87950359.76305       976.381 5        33.587
S21         5.000    38498203.666 6 202309125.07206      -385.865 6        41.712
E13         6.000    28017452.662 6 147232729.14306      2016.704 6        37.493                                                                    28017455.714 6 109946537.80906      1506.034 6        39.724    28017454.529 6 112814704.39706      1545.053 6        39.811
G10         7.000    21031007.422 8 110518757.78708     -1609.968 8        50.441                                    21031005.537 8  86118529.17708     -1254.520 8        51.848    21031005.456 7  86118523.18007     -1254.497 7        46.430
E15         8.000    24057288.749 7 126422014.02207       778.672 7        47.701                                                                    24057289.305 8  94406117.52808       581.503 8        50.573    24057288.783 8  96868873.67408       596.678 8        51.057
E36         9.000    27844717.483 6 146325150.93906     -2779.047 6        38.156                                                                    27844718.961 6 109268919.83706     -2075.327 6        41.001    27844718.427 6 112119401.28306     -2129.489 6        41.759
G27        10.000    20910438.255 8 109885245.53808     -2513.155 8        49.555                                    20910436.096 8  85624937.06208     -1958.301 8        51.303    20910436.559 7  85624939.07207     -1958.371 7        45.661
G14        11.000    25141885.759 6 132121509.99006      2208.113 6        37.369                                    25141881.569 3 102951820.39203      1720.612 3        20.310    25141882.792 6 102951824.41206      1720.425 6        37.860
G32        12.000    23128405.884 7 121540610.64907      2172.203 7        44.935                                    23128404.174 7  94706967.38807      1692.624 7        42.028    23128404.503 7  94706940.38607      1692.682 7        42.095
S36        14.000    38266770.427 7 201093756.16307      -384.648 7        43.932
C13        15.000                                                                                                                                    39467249.668 6 205516384.93506     -1412.321 6        39.213    39467251.826 6 158918338.72506     -1091.953 6        41.437    39467250.213 6 166998919.37806     -1147.590 6        39.856
E27        18.000    25376876.300 7 133356403.75507     -1278.704 7        44.632                                                                    25376876.124 7  99584331.77207      -954.830 7        47.450    25376875.693 8 102182181.12208      -979.721 8        48.132
E05        20.000    24276994.997 7 127576489.95807      1104.629 7        43.553                                                                    24276995.552 7  95268161.23707       824.867 7        46.176    24276995.194 7  97753419.90207       846.408 7        47.109
R11        21.000    22932678.323 7 122545289.17407     -3871.934 7        45.595                                                                    22932677.576 6  95313003.60006     -3011.693 6        40.546
I06        22.000    38581776.247 6 151403404.19706      -191.834 6        40.953
E03        23.000    27277438.248 6 143343905.40206      2666.757 6        38.880                                                                    27277439.594 7 107042550.65107      1991.442 7        44.131    27277438.883 7 109834962.21207      2043.351 7        44.281
R22        24.000    23507173.881 7 125482901.77307      3032.051 7        44.257                                                                    23507173.403 6  97597819.95106      2358.084 6        40.441
S23        25.000    38224075.308 7 200868855.95707      -384.247 7        44.188
S45        26.000    63476024.276 6 333569828.30206      -427.885 6        37.316
G02        27.000    23283320.350 7 122354709.85407      2111.402 7        43.852                                    23283314.621 4  95341319.09604      1645.249 4        29.962
S27        28.000    39200324.144 5 205999139.46705      -353.366 5        35.929
C38        29.000                                                                                                                                    41625099.814 4 216752943.27704     -1536.917 4        26.024
E21        30.000    27437340.901 6 144184209.33906      1334.673 6        39.069                                                                    27437341.705 7 107670032.00507       996.769 7        42.986    27437341.128 7 110478811.89507      1022.767 7        43.228
C43        31.000                                                                                                                                    21874149.380 8 113904541.33008     -1460.108 8        51.059                                                                    21874147.697 8  92556812.61608     -1186.522 8        49.749
C42        32.000                                                                                                                                    22485042.530 8 117085539.31308      -229.322 8        49.757                                                                    22485049.874 8  95141633.78008      -186.466 8        50.229
C28        33.000                                                                                                                                    23056215.432 7 120059766.18107      1816.226 7        47.534                                                                    23056214.119 7  97558394.03607      1475.803 7        47.088
R13        34.000    24167776.010 5 129054574.74005      2258.775 5        35.919
E34        35.000    23961288.922 7 125917629.58307     -1508.248 7        47.827                                                                    23961288.856 8  94029509.41108     -1126.248 8        50.184    23961288.759 8  96482441.93608     -1155.605 8        51.126
C14        36.000                                                                                                                                    22687089.251 7 118137634.39807      1490.427 7        47.915    22687085.210 8  91351499.32808      1152.507 8        51.130    22687083.513 8  95996482.62908      1211.015 8        48.909
R21        37.000    19875315.060 8 106356880.47808      1100.503 8        51.793                                                                    19875314.105 7  82722039.09007       855.906 7        46.060
R06        38.000    21501097.269 6 114733994.00306      3548.835 6        40.400
R05        39.000    20139775.316 8 107658665.73908     -1011.085 8        50.774                                                                    20139774.648 7  83734527.21607      -786.356 7        47.551
C27        40.000                                                                                                                                    26913352.934 6 140144887.31406      2639.226 6        37.550                                                                    26913353.800 6 113879207.41506      2144.478 6        37.119
R04        41.000    23046938.651 7 123415337.53807     -4164.755 7        44.916                                                                    23046936.743 6  95989713.84706     -3239.310 6        39.234
S44        42.000    40534186.291 6 213008775.08306      -405.925 6        37.161
G08        43.000    20329830.698 8 106834074.70708      -132.402 8        50.134                                    20329828.658 8  83247371.93108      -103.171 8        51.053    20329829.394 7  83247369.92707      -103.088 7        46.165
C05        44.000                                                                                                                                    39238369.266 6 204324516.22306      -332.003 6        38.598    39238364.340 7 157996700.43007      -256.748 7        43.515    39238365.820 6 166030509.23706      -269.799 6        40.074
C11        45.000                                                                                                                                    23034859.505 7 119948696.53207     -2397.484 7        46.164    23034855.518 8  92752000.71008     -1853.875 8        50.060    23034854.474 7  97468180.48307     -1948.194 7        47.707
E09        46.000    27270556.994 6 143307765.75806     -1505.495 6        40.060                                                                    27270556.444 6 107015551.44506     -1124.176 6        41.428    27270556.286 7 109807258.42307     -1153.490 7        42.663
C33        47.000                                                                                                                                    24088176.971 7 125433477.16607      2687.697 7        46.164                                                                    24088189.130 7 101925030.63107      2183.866 7        46.767
C21        48.000                                                                                                                                    25060073.439 7 130494406.14207     -2943.081 7        43.020                                                                    25060068.322 7 106037381.58207     -2391.643 7        44.710
E06        49.000    28483046.022 6 149679427.27206     -2390.582 6        36.011                                                                    28483047.422 6 111773599.99306     -1785.347 6        40.076    28483047.058 6 114689430.64706     -1831.925 6        39.901
S48        51.000    77248214.764 6 405942142.26006      -414.874 6        37.267
C08        52.000                                                                                                                                    40134066.365 5 208988717.24505     -1582.115 5        35.690    40134060.304 6 161603362.27806     -1223.110 6        40.675    40134059.821 6 169820469.54106     -1285.446 6        38.159
C34        53.000                                                                                                                                    24900049.410 7 129661361.75707     -3204.853 7        43.716                                                                    24900049.505 7 105360591.71807     -2604.413 7        43.039
C60        54.000                                                                                                                                    40534187.443 6 211072351.10006      -402.341 6        39.787                                                                    40534171.159 6 171513544.03106      -326.948 6        39.838
R12        55.000    22432493.714 7 119830346.81607      -418.825 7        47.178                                                                    22432494.617 7  93201382.10907      -325.772 7        43.259
I09        56.000    37799340.037 7 148332756.78807       203.979 7        44.158
C02        57.000                                                                                                                                    40591501.454 5 211370642.97905      -355.786 5        33.521    40591494.664 6 163445181.98606      -275.204 6        40.162    40591498.549 6 171755964.02506      -289.332 6        36.272
I03        58.000    79269441.954 6 235285069.92906      1099.392 6        40.727
E30        59.000    26704398.399 7 140332770.53807     -3314.164 7        42.207                                                                    26704399.029 7 104794068.76307     -2474.875 7        44.579    26704398.473 7 107527810.71007     -2539.380 7        45.216
R20        60.000    20536856.357 6 109820010.60006     -2311.465 6        36.945                                                                    20536859.170 7  85415632.74007     -1797.799 7        46.608
> 2025 01 02 21 30  5.0000000  0 55
G23         1.000    23400471.300 6 122970381.74506     -3612.333 6        41.478                                    23400466.958 4  95821098.47004     -2814.806 4        25.985    23400467.379 6  95821096.46806     -2814.872 6        40.787
C37         2.000                                                                                                                                    26351348.135 6 137218373.27506     -2511.233 6        40.057                                                                    26351352.421 6 111501187.33506     -2040.552 6        40.720
G16         3.000    25166561.769 6 132251354.35406     -4119.755 6        37.637                                    25166559.033 3 103053081.46303     -3210.198 3        18.448
G21         4.000    21477172.556 7 112863360.18507      1251.874 7        44.113                                    21477167.526 5  87945479.85905       975.483 5        33.748
S21         5.000    38498569.709 6 202311052.57006      -385.375 6        41.766
E13         6.000    28015533.967 6 147222645.17806      2016.644 6        37.248                                                                    28015536.813 6 109939007.57706      1506.036 6        40.048    28015535.745 6 112806977.72106      1545.328 6        39.640
G10         7.000    21032540.232 8 110526812.49108     -1612.160 8        50.461                                    21032538.297 8  86124805.56908     -1256.229 8        51.855    21032538.066 7  86124799.56707     -1256.132 7        46.218
E15         8.000    24056547.887 7 126418121.70707       778.113 7        47.903                                                                    24056548.607 8  94403210.93108       581.035 8        50.660    24056548.079 8  96865891.25508       596.205 8        50.956
E36         9.000    27847361.486 6 146339045.70306     -2778.804 6        38.036                                                                    27847363.075 6 109279295.80806     -2075.250 6        41.151    27847362.382 6 112130047.91506     -2129.312 6        41.635
G27        10.000    20912830.516 8 109897816.27808     -2515.320 8        49.964                                    20912828.244 8  85634732.44508     -1959.990 8        51.320    20912828.732 7  85634734.44507     -1959.974 7        45.836
G14        11.000    25139785.685 6 132110474.32106      2205.984 6        38.156                                    25139781.757 3 102943221.18703      1718.945 3        20.048    25139782.707 6 102943225.16806      1719.284 6        37.248
G32        12.000    23126339.348 7 121529752.87107      2170.768 7        45.263                                    23126338.137 7  94698506.78707      1691.506 7        42.309    23126338.424 7  94698479.78707      1691.513 7        42.512
S36        14.000    38267138.446 7 201095680.09107      -384.550 7        43.890
C13        15.000                                                                                                                                    39468605.747 6 205523444.78606     -1411.867 6        39.694    39468607.686 6 158923797.86706     -1091.761 6        41.261    39468606.149 6 167004656.08906     -1147.060 6        39.697
E27        18.000    25378093.807 7 133362801.82007     -1280.677 7        44.755                                                                    25378093.672 7  99589109.55307      -956.403 7        47.608    25378093.243 8 102187083.53908      -981.308 8        48.013
E05        20.000    24275944.883 7 127570971.07807      1102.861 7        43.949                                                                    24275945.355 7  95264040.00007       823.552 7        46.345    24275944.934 7  97749191.15707       844.986 7        46.943
R11        21.000    22936302.763 7 122564653.02407     -3873.535 7        46.212                                                                    22936301.672 6  95328064.36206     -3012.847 6        41.661
I06        22.000    38582020.607 6 151404362.80206      -191.812 6        40.944
E03        23.000    27274900.717 6 143330571.02006      2666.818 6        38.739                                                                    27274902.167 7 107032593.17807      1991.404 7        44.196    27274901.396 7 109824744.97007      2043.462 7        44.185
R22        24.000    23504333.307 7 125467740.57007      3032.338 7        43.926                                                                    23504333.924 6  97586027.97206      2358.379 6        41.015
S23        25.000    38224441.905 7 200870776.45007      -383.996 7        44.086
S45        26.000    63476387.685 6 333571967.91706      -427.761 6        37.573
G02        27.000    23281311.432 7 122344153.79807      2110.973 7        44.321                                    23281305.848 4  95333093.60104      1644.913 4        29.991
S27        28.000    39200660.558 5 206000905.69705      -353.260 5        35.890
C38        29.000                                                                                                                                    41626575.517 4 216760628.79904     -1537.017 4        25.158                                                                    41626573.532 4 176135812.27914     -1248.951 4        24.316
E21        30.000    27436071.907 6 144177539.50806      1333.056 6        39.189                                                                    27436072.610 7 107665051.29707       995.377 7        43.082    27436071.933 7 110473701.25107      1021.449 7        43.206
C43        31.000                                                                                                                                    21875551.931 8 113911845.13308     -1461.546 8        51.193                                                                    21875550.274 8  92562747.55708     -1187.547 8        49.733
C42        32.000                                                                                                                                    22485264.186 8 117086692.24908      -231.958 8        50.048                                                                    22485271.270 8  95142570.63708      -188.419 8        50.228
C28        33.000                                                                                                                                    23054471.478 7 120050686.54007      1815.540 7        47.736                                                                    23054470.486 7  97551016.09607      1475.269 7        47.109
R13        34.000    24165661.388 6 129043287.06206      2256.160 6        36.125
E34        35.000    23962724.070 7 125925171.61407     -1508.751 7        47.839                                                                    23962724.096 8  94035141.45308     -1126.661 8        50.262    23962723.953 8  96488220.89908     -1156.021 8        51.034
C14        36.000                                                                                                                                    22685658.709 7 118130187.32107      1488.251 7        47.987    22685654.828 8  91345740.78108      1150.848 8        50.992    22685653.386 8  95990431.28208      1209.406 8        49.002
R21        37.000    19874287.810 8 106351381.81908      1098.901 8        51.817                                                                    19874286.445 7  82717762.35207       854.661 7        45.731
R06        38.000    21497773.097 6 114716254.23506      3546.910 6        40.918
R05        39.000    20140722.941 8 107663731.89708     -1015.403 8        50.130                                                                    20140722.303 7  83738467.56607      -789.788 7        46.830
C27        40.000                                                                                                                                    26910819.134 6 140131689.04306      2639.844 6        38.270                                                                    26910819.415 6 113868482.73106      2145.480 6        37.323
R04        41.000    23050827.509 7 123436165.28307     -4166.580 7        44.497                                                                    23050826.060 6  96005913.21806     -3240.903 6        39.354
S44        42.000    40534571.508 6 213010803.87706      -405.553 6        37.251
G08        43.000    20329957.943 8 106834742.68608      -134.976 8        50.411                                    20329955.768 8  83247892.43508      -105.178 8        51.046    20329956.544 7  83247890.43607      -105.153 7        45.970
C05        44.000                                                                                                                                    39238688.066 6 204326175.12206      -331.618 6        38.751    39238683.046 7 157997983.20807      -256.480 7        43.520    39238684.271 6 166031857.23506      -269.399 6        40.100
C11        45.000                                                                                                                                    23037161.400 7 119960686.03807     -2398.496 7        46.120    23037158.472 8  92761271.75408     -1854.652 8        50.202    23037156.899 7  97477922.93407     -1948.881 7        47.727
E09        46.000    27271990.107 6 143315297.35206     -1507.303 6        40.336                                                                    27271989.726 6 107021175.70406     -1125.664 6        41.459    27271989.555 7 109813029.40807     -1155.044 7        42.563
C33        47.000                                                                                                                                    24085597.498 7 125420041.33507      2686.554 7        46.233                                                                    24085609.061 7 101914112.92007      2183.043 7        46.949
C21        48.000                                                                                                                                    25062899.972 7 130509125.34007     -2944.683 7        43.627                                                                    25062894.876 7 106049342.14907     -2392.762 7        44.634
E06        49.000    28485321.503 5 149691384.26905     -2392.269 5        35.843                                                                    28485322.853 6 111782528.89606     -1786.355 6        39.712    28485322.351 6 114698592.47106     -1832.829 6        39.315
S48        51.000    77248585.269 6 405944215.87306      -414.709 6        37.289
C08        52.000                                                                                                                                    40135585.780 5 208996625.29005     -1581.435 5        35.338    40135578.831 6 161609477.27706     -1222.822 6        40.563    40135578.572 6 169826895.48906     -1285.073 6        38.027
C34        53.000                                                                                                                                    24903127.208 7 129677387.21107     -3205.446 7        43.204                                                                    24903126.931 7 105373613.70307     -2604.560 7        42.980
C60        54.000                                                                                                                                    40534573.567 6 211074361.44706      -401.998 6        39.925                                                                    40534557.167 6 171515177.63006      -326.629 6        39.745
R12        55.000    22432888.172 7 119832451.25207      -422.924 7        47.374                                                                    22432888.131 7  93203018.88807      -328.925 7        43.198
I09        56.000    37799079.892 7 148331736.41107       204.042 7        44.051
C02        57.000                                                                                                                                    40591842.925 5 211372421.79105      -355.586 5        33.707    40591836.394 6 163446557.49306      -275.010 6        39.931    40591840.186 6 171757409.47906      -288.958 6        36.378
I03        58.000    79268041.080 6 235279572.59706      1099.526 6        40.632
E30        59.000    26707552.208 7 140349342.31207     -3314.628 7        42.394                                                                    26707552.485 7 104806443.79707     -2475.251 7        44.587    26707551.946 7 107540508.57907     -2539.843 7        45.062
R20        60.000    20539019.659 6 109831571.61506     -2313.064 6        37.962                                                                    20539021.300 7  85424624.63307     -1799.055 7        46.620
> 2025 01 02 21 30 10.0000000  0 55
G23         1.000    23403908.788 6 122988446.13306     -3613.364 6        41.783                                    23403904.634 4  95835174.62204     -2815.613 4        26.072    23403904.978 6  95835172.62606     -2815.476 6        41.082
C37         2.000                                                                                                                                    26353760.485 6 137230933.08506     -2512.669 6        40.296                                                                    26353764.371 6 111511393.23406     -2041.730 6        40.648
G16         3.000    25170481.462 6 132271952.54706     -4119.479 6        37.403                                    25170478.911 3 103069131.98303     -3209.974 3        18.298
G21         4.000    21475982.048 7 112857104.13807      1250.534 7        44.321                                    21475976.987 5  87940605.02205       974.440 5        33.563
S21         5.000    38498937.048 6 202312979.42406      -385.364 6        41.859
E13         6.000    28013614.863 6 147212561.26506      2016.641 6        37.233                                                                    28013617.840 6 109931477.37706      1506.048 6        39.919    28013616.933 6 112799251.09106      1545.422 6        39.685
G10         7.000    21034075.169 8 110534878.68508     -1614.404 8        50.400                                    21034073.253 8  86131090.91608     -1257.975 8        51.707    21034073.207 7  86131084.91207     -1257.938 7        46.054
E15         8.000    24055808.204 7 126414233.10607       777.316 7        47.506                                                                    24055808.600 8  94400307.11008       580.443 8        50.617    24055808.113 8  96862911.67808       595.640 8        51.127
E36         9.000    27850005.278 6 146352940.15606     -2778.966 6        37.444                                                                    27850007.079 6 109289671.54806     -2075.168 6        41.123    27850006.327 6 112140694.31606     -2129.163 6        41.578
G27        10.000    20915224.853 8 109910398.71008     -2517.677 8        49.572                                    20915222.601 8  85644536.93708     -1961.825 8        51.182    20915222.759 7  85644538.93207     -1961.815 7        45.684
G14        11.000    25137687.278 6 132099448.08306      2204.228 6        38.189                                    25137683.623 3 102934629.30803      1717.574 3        19.940    25137683.912 6 102934633.32606      1717.557 6        37.043
G32        12.000    23124274.713 7 121518903.60907      2169.103 7        44.504                                    23124273.718 7  94690052.81907      1690.211 7        42.207    23124273.625 7  94690025.83907      1690.095 7        42.383
S36        14.000    38267503.765 7 201097602.94907      -384.617 7        44.006
C13        15.000                                                                                                                                    39469961.342 6 205530503.53506     -1411.577 6        40.007    39469963.513 6 158929256.14106     -1091.515 6        41.330    39469961.520 6 167010391.91406     -1147.102 6        39.486
E27        18.000    25379313.547 7 133369210.89107     -1282.904 7        44.238                                                                    25379313.191 7  99593895.54607      -958.027 7        47.509    25379312.815 8 102191994.38708      -983.056 8        48.178
E05        20.000    24274896.745 7 127565461.81507      1100.853 7        43.795                                                                    24274896.978 7  95259925.94707       822.080 7        46.264    24274896.505 7  97744969.77507       843.512 7        47.039
R11        21.000    22939927.785 7 122584025.78007     -3875.545 7        45.761                                                                    22939927.840 7  95343132.04407     -3014.202 7        42.089
I06        22.000    38582264.516 6 151405320.67106      -191.472 6        40.915
E03        23.000    27272363.542 6 143317237.22406      2666.690 6        39.120                                                                    27272364.676 7 107022636.13607      1991.400 7        44.042    27272363.997 7 109814528.18907      2043.264 7        44.360
R22        24.000    23501492.104 7 125452578.85807      3032.378 7        43.573                                                                    23501492.505 6  97574235.54406      2358.657 6        41.094
S23        25.000    38224807.460 7 200872695.99107      -383.888 7        44.196
S45        26.000    63476748.849 6 333574106.68506      -427.665 6        37.546
G02        27.000    23279303.525 7 122333600.57907      2110.342 7        44.298                                    23279297.687 4  95324870.31504      1644.420 4        29.782
S27        28.000    39200996.958 6 206002670.40906      -352.864 6        36.117
C38        29.000                                                                                                                                    41628053.163 4 216768312.41504     -1536.567 4        25.910                                                                    41628049.568 4 176142055.72104     -1248.532 4        24.030
E21        30.000    27434804.622 6 144170878.74206      1331.224 6        39.504                                                                    27434805.115 7 107660077.34107       994.064 7        42.946    27434804.527 7 110468597.55007      1019.946 7        43.031
C43        31.000                                                                                                                                    21876955.959 8 113919157.14308     -1463.236 8        51.154                                                                    21876954.506 8  92568689.16708     -1189.010 8        49.735
C42        32.000                                                                                                                                    22485488.118 8 117087858.88608      -234.694 8        49.986                                                                    22485495.330 8  95143518.62008      -190.670 8        50.259
C28        33.000                                                                                                                                    23052728.723 7 120041611.08207      1814.661 7        47.737                                                                    23052727.659 7  97543641.54107      1474.620 7        47.169
R13        34.000    24163550.142 6 129032014.16706      2252.995 6        36.786
E34        35.000    23964160.119 7 125932717.22407     -1509.513 7        47.468                                                                    23964159.997 8  94040776.16508     -1127.267 8        50.136    23964159.844 8  96494002.60508     -1156.656 8        51.089
C14        36.000                                                                                                                                    22684230.545 7 118122751.80007      1485.940 7        47.867    22684226.845 8  91339991.16708      1149.019 8        51.043    22684225.541 8  95984389.31008      1207.462 8        48.925
R21        37.000    19873262.070 8 106345891.82508      1097.147 8        51.706                                                                    19873260.557 7  82713492.36407       853.297 7        46.188
R06        38.000    21494450.999 6 114698524.73906      3544.788 6        40.169
R05        39.000    20141674.390 8 107668820.27108     -1019.922 8        50.471                                                                    20141674.047 7  83742425.18907      -793.311 7        46.925
C27        40.000                                                                                                                                    26908283.701 6 140118489.13906      2640.125 6        38.042                                                                    26908284.193 6 113857756.72406      2145.345 6        37.206
R04        41.000    23054718.437 7 123457002.87807     -4168.646 7        44.047                                                                    23054717.778 6  96022120.21606     -3242.056 6        39.240
S44        42.000    40534957.181 6 213012832.02306      -405.541 6        37.501
G08        43.000    20330087.531 8 106835424.69808      -137.845 8        49.964                                    20330085.539 8  83248423.87008      -107.412 8        50.939    20330086.318 7  83248421.87607      -107.418 7        46.170
C05        44.000                                                                                                                                    39239005.913 6 204327833.33506      -331.580 6        38.685    39239001.073 7 157999265.43907      -256.408 7        43.401    39239002.789 6 166033204.66906      -269.425 6        40.250
C11        45.000                                                                                                                                    23039464.922 7 119972681.40207     -2399.622 7        46.074    23039462.445 8  92770547.33608     -1855.579 8        50.431    23039460.556 7  97487670.15207     -1949.966 7        47.764
E09        46.000    27273425.391 6 143322839.57806     -1509.628 6        40.417                                                                    27273424.926 6 107026807.88706     -1127.311 6        41.495    27273424.901 7 109818808.51307     -1156.675 7        42.713
C33        47.000                                                                                                                                    24083018.953 7 125406611.81907      2685.239 7        47.111                                                                    24083030.114 7 101903200.34207      2182.082 7        46.894
C21        48.000                                                                                                                                    25065728.129 7 130523852.42607     -2946.255 7        44.098                                                                    25065722.981 7 106061309.10407     -2394.017 7        44.432
E06        49.000    28487598.150 6 149703348.91806     -2393.758 6        36.049                                                                    28487599.598 6 111791463.53506     -1787.713 6        39.691    28487599.270 6 114707760.18306     -1834.168 6        39.595
S48        51.000    77248961.663 6 405946288.72406      -414.485 6        37.388
C08        52.000                                                                                                                                    40137103.360 5 209004531.74205     -1580.806 5        34.881    40137097.402 6 161615591.06106     -1222.715 6        40.369    40137096.825 6 169833320.10406     -1284.708 6        38.057
C34        53.000                                                                                                                                    24906204.947 7 129693415.73507     -3205.960 7        42.512                                                                    24906205.010 7 105386638.18207     -2605.059 7        43.029
C60        54.000                                                                                                                                    40534959.258 6 211076371.16306      -401.925 6        39.823                                                                    40534943.274 6 171516810.68606      -326.592 6        39.691
R12        55.000    22433285.410 7 119834576.64507      -427.281 7        46.537                                                                    22433285.997 7  93204671.98207      -332.191 7        43.327
I09        56.000    37798820.093 7 148330716.66207       203.959 7        44.158
C02        57.000                                                                                                                                    40592183.958 5 211374200.01205      -355.641 5        34.000    40592177.905 6 163447932.53106      -274.995 6        40.038    40592181.661 6 171758854.40506      -288.794 6        36.155
I03        58.000    79266640.267 6 235274074.88106      1099.594 6        40.717
E30        59.000    26710706.516 7 140365917.19807     -3315.400 7        42.391                                                                    26710706.524 7 104818821.13907     -2475.791 7        44.488    26710706.059 7 107553208.80007     -2540.241 7        45.062
R20        60.000    20541182.421 6 109843141.15006     -2314.813 6        37.584                                                                    20541184.465 7  85433623.16707     -1800.380 7        46.526
> 2025 01 02 21 30 15.0000000  0 55
G23         1.000    23407346.749 6 123006514.84406     -3614.193 6        41.855                                    23407343.102 4  95849254.13704     -2816.256 4        26.503    23407343.039 6  95849252.13506     -2816.163 6        41.042
C37         2.000                                                                                                                                    26356173.081 6 137243499.67206     -2513.896 6        40.000                                                                    26356177.617 6 111521604.61106     -2042.876 6        40.632
G16         3.000    25174400.784 6 132292548.62006     -4119.025 6        36.892                                    25174398.109 3 103085180.86903     -3209.623 3        19.015
G21         4.000    21474792.789 7 112850854.90307      1249.217 7        44.367                                    21474787.777 5  87935735.49505       973.411 5        33.629
S21         5.000    38499300.869 6 202314905.85806      -385.068 6        41.502
E13         6.000    28011695.945 6 147202477.70906      2016.710 6        37.006                                                                    28011698.552 6 109923947.46006      1505.929 6        39.817    28011698.126 6 112791524.73506      1545.267 6        39.550
G10         7.000    21035612.284 8 110542956.65108     -1616.774 8        50.432                                    21035610.436 8  86137385.43508     -1259.825 8        51.824    21035610.194 7  86137379.43807     -1259.838 7        46.105
E15         8.000    24055068.867 7 126410348.50607       776.541 7        47.460                                                                    24055069.417 8  94397406.26908       579.893 8        50.539    24055068.893 8  96859935.17308       595.003 8        51.128
E36         9.000    27852649.696 6 146366834.61306     -2778.934 6        37.202                                                                    27852651.244 6 109300047.26006     -2075.088 6        41.242    27852650.239 6 112151340.71206     -2129.192 6        41.449
G27        10.000    20917621.293 8 109922993.13608     -2520.035 8        49.792                                    20917619.243 8  85654350.77508     -1963.665 8        51.246    20917619.381 7  85654352.77307     -1963.641 7        45.494
G14        11.000    25135591.013 6 132088431.59906      2202.317 6        37.826                                    25135587.487 3 102926045.04403      1716.089 3        19.761    25135588.133 6 102926049.05806      1716.217 6        37.210
G32        12.000    23122211.738 7 121508063.14907      2167.238 7        44.265                                    23122210.923 7  94681605.71807      1688.753 7        42.131    23122211.097 7  94681578.72707      1688.862 7        42.366
S36        14.000    38267870.929 7 201099525.50307      -384.631 7        43.727
C13        15.000                                                                                                                                    39471317.120 6 205537561.36106     -1411.640 6        40.114    39471319.078 6 158934713.68706     -1091.367 6        41.523    39471316.929 6 167016126.97006     -1147.054 6        39.739
E27        18.000    25380535.042 7 133375631.24107     -1285.125 7        44.208                                                                    25380535.007 7  99598689.96707      -959.714 7        47.381    25380534.495 8 102196913.87708      -984.721 8        48.132
E05        20.000    24273850.021 7 127559962.48707      1098.857 7        43.591                                                                    24273850.451 7  95255819.30807       820.599 7        46.268    24273850.019 7  97740756.00607       842.001 7        46.971
R11        21.000    22943554.034 7 122603407.71507     -3877.387 7        45.592                                                                    22943553.596 6  95358206.88306     -3015.688 6        41.657
I06        22.000    38582508.208 6 151406278.10706      -191.528 6        40.772
E03        23.000    27269826.566 6 143303904.34606      2666.455 6        39.504                                                                    27269827.491 7 107012679.78107      1991.177 7        44.006    27269826.976 7 109804312.09107      2043.217 7        44.528
R22        24.000    23498651.890 7 125437416.93607      3032.289 7        43.280                                                                    23498652.357 6  97562442.93206      2358.330 6        40.567
S23        25.000    38225173.507 7 200874615.01107      -383.659 7        44.065
S45        26.000    63477113.313 6 333574544.91616      -427.532 6        37.323
G02        27.000    23277295.905 7 122323050.52007      2109.688 7        44.179                                    23277290.152 4  95316649.49504      1643.911 4        29.981
S27        28.000    39201332.723 5 206004434.88505      -352.977 5        35.890
C38        29.000                                                                                                                                    41629527.737 4 216775994.39004     -1536.179 4        25.308                                                                    41629523.523 4 176148298.05004     -1248.138 4        24.782
E21        30.000    27433538.591 6 144164227.35106      1329.247 6        39.129                                                                    27433539.390 7 107655110.38107       992.741 7        42.722    27433538.793 7 110463501.01407      1018.624 7        43.191
C43        31.000                                                                                                                                    21878361.804 8 113926477.65908     -1464.946 8        51.232                                                                    21878360.307 8  92574637.69108     -1190.405 8        49.616
C42        32.000                                                                                                                                    22485714.751 8 117089039.50708      -237.543 8        50.200                                                                    22485722.030 8  95144477.98508      -193.025 8        50.236
C28        33.000                                                                                                                                    23050986.905 7 120032540.12007      1813.757 7        47.940                                                                    23050985.693 7  97536270.65507      1473.749 7        47.082
R13        34.000    24161442.057 6 129020756.58506      2250.009 6        36.896
E34        35.000    23965596.707 7 125940266.70507     -1510.277 7        47.339                                                                    23965596.627 8  94046413.76208     -1127.817 8        50.056    23965596.469 8  96499787.27208     -1157.211 8        51.107
C14        36.000                                                                                                                                    22682804.774 7 118115328.12007      1483.566 7        47.774    22682801.062 8  91334250.70808      1147.184 8        51.015    22682799.922 8  95978356.96808      1205.520 8        48.988
R21        37.000    19872237.738 8 106340411.02108      1095.305 8        52.132                                                                    19872236.325 7  82709229.53007       851.865 7        46.564
R06        38.000    21491129.093 6 114680806.00806      3542.760 6        40.498
R05        39.000    20142630.784 8 107673931.39608     -1024.447 8        50.203                                                                    20142630.368 7  83746400.51407      -796.828 7        47.204
C27        40.000                                                                                                                                    26905747.517 6 140105287.85506      2640.490 6        37.675                                                                    26905748.944 6 113847029.58906      2145.625 6        37.225
R04        41.000    23058611.537 7 123477850.69507     -4170.558 7        43.685                                                                    23058611.260 6  96038335.20206     -3243.654 6        39.069
S44        42.000    40535344.419 6 213014859.83006      -405.504 6        37.304
G08        43.000    20330219.986 8 106836121.00708      -140.712 8        50.006                                    20330218.033 8  83248966.45508      -109.647 8        51.053    20330218.925 7  83248964.45907      -109.656 7        46.078
C05        44.000                                                                                                                                    39239324.619 6 204329491.11706      -331.384 6        38.652    39239319.622 7 158000547.36507      -256.410 7        43.414    39239321.294 6 166034551.77606      -269.377 6        39.982
C11        45.000                                                                                                                                    23041769.728 7 119984682.92307     -2400.904 7        46.048    23041766.945 8  92779827.67208     -1856.506 8        50.412    23041765.431 7  97497422.37607     -1950.992 7        47.742
E09        46.000    27274862.538 6 143330392.69806     -1511.753 6        40.558                                                                    27274862.234 6 107032448.20406     -1128.883 6        41.449    27274862.324 7 109824595.96707     -1158.240 7        42.804
C33        47.000                                                                                                                                    24080440.727 7 125393188.92907      2683.941 7        46.980                                                                    24080452.158 7 101892293.15907      2180.932 7        46.838
C21        48.000                                                                                                                                    25068557.856 7 130538587.68707     -2947.918 7        44.507                                                                    25068552.583 7 106073282.73207     -2395.355 7        44.324
E06        49.000    28489876.368 5 149715321.60805     -2395.349 5        35.443                                                                    28489878.014 6 111800404.15906     -1788.701 6        39.655    28489877.697 6 114716934.05606     -1835.262 6        39.757
S48        51.000    77249335.518 6 405948361.12106      -414.361 6        37.157
C08        52.000                                                                                                                                    40138620.624 5 209012436.93105     -1580.675 5        34.524    40138615.085 6 161621703.85806     -1222.458 6        40.353    40138614.927 6 169839743.76006     -1284.830 6        37.671
C34        53.000                                                                                                                                    24909283.251 7 129709447.60907     -3206.727 7        42.652                                                                    24909283.876 7 105399665.40407     -2605.728 7        43.166
C60        54.000                                                                                                                                    40535345.155 6 211078380.53306      -401.930 6        39.880                                                                    40535329.014 6 171518443.46406      -326.632 6        39.574
R12        55.000    22433686.717 7 119836723.37007      -431.450 7        47.513                                                                    22433687.619 7  93206341.66107      -335.541 7        43.731
I09        56.000    37798560.401 7 148329697.75307       203.712 7        43.856
C02        57.000                                                                                                                                    40592524.941 5 211375977.91105      -355.561 5        33.563    40592519.202 6 163449307.29906      -274.884 6        39.988    40592522.922 6 171760299.09006      -288.792 6        36.287
I03        58.000    79265239.233 6 235268577.03306      1099.510 6        40.849
E30        59.000    26713861.164 7 140382495.44607     -3315.979 7        42.027                                                                    26713861.315 7 104831200.99707     -2476.235 7        44.364    26713860.849 7 107565911.60807     -2540.697 7        45.097
R20        60.000    20543348.152 6 109854719.64006     -2316.632 6        36.957                                                                    20543349.589 7  85442628.65207     -1801.756 7        46.495
> 2025 01 02 21 30 20.0000000  0 55
G23         1.000    23410785.685 6 123024587.97906     -3615.235 6        41.876                                    23410782.383 4  95863337.09404     -2817.067 4        26.431    23410782.186 6  95863335.09706     -2817.065 6        40.477
C37         2.000                                                                                                                                    26358587.952 6 137256073.06306     -2515.394 6        40.369                                                                    26358592.317 6 111531821.49606     -2043.752 6        40.717
G16         3.000    25178319.562 6 132313142.66506     -4118.751 6        36.514                                    25178317.048 3 103101228.15403     -3209.413 3        18.687
G21         4.000    21473604.803 7 112844612.56707      1247.695 7        44.224                                    21473599.931 5  87930871.34105       972.230 5        33.719
S21         5.000    38499667.506 6 202316831.88406      -385.259 6        41.554
E13         6.000    28009777.667 6 147192394.60006      2016.587 6        37.864                                                                    28009779.509 6 109916417.88106      1505.760 6        39.483    28009779.270 6 112783798.73106      1545.242 6        39.646
G10         7.000    21037151.801 8 110551046.49008     -1619.197 8        50.558                                    21037149.877 8  86143689.20708     -1261.713 8        51.878    21037149.941 7  86143683.21007     -1261.749 7        46.049
E15         8.000    24054330.355 7 126406468.01507       775.593 7        47.635                                                                    24054330.955 8  94394508.49908       579.206 8        50.560    24054330.483 8  96856961.80408       594.314 8        51.095
E36         9.000    27855293.172 6 146380729.14706     -2778.945 6        37.474                                                                    27855295.269 6 109310423.05806     -2075.245 6        41.106    27855294.225 6 112161987.17606     -2129.341 6        41.163
G27        10.000    20920020.437 8 109935599.64608     -2522.558 8        49.786                                    20920018.175 8  85664174.02808     -1965.629 8        51.324    20920018.550 7  85664176.02607     -1965.583 7        45.254
G14        11.000    25133496.437 6 132077425.01206      2200.268 6        37.304                                    25133493.140 3 102917468.49803      1714.507 3        19.761    25133493.519 6 102917472.50406      1714.354 6        37.641
G32        12.000    23120150.829 7 121497231.63807      2165.338 7        45.041                                    23120149.823 7  94673165.58907      1687.275 7        42.197    23120150.088 7  94673138.59007      1687.329 7        42.154
S36        14.000    38268232.576 7 201101447.54507      -384.321 7        43.803
C13        15.000                                                                                                                                    39472672.335 6 205544618.32206     -1411.445 6        40.129    39472674.093 6 158940170.58906     -1091.376 6        41.328    39472671.921 6 167021861.30806     -1146.649 6        39.453
E27        18.000    25381758.749 7 133382063.00307     -1287.610 7        44.563                                                                    25381758.930 7  99603492.89407      -961.510 7        47.293    25381758.470 8 102201842.10308      -986.547 8        48.130
