     3.04           OBSERVATION DATA    M                   RINEX VERSION / TYPE
ssrcrin-15.6.1x                         20250102 090000 UTC PGM / RUN BY / DATE 
(00000000023479385599111004) Septentrio proprietary         COMMENT             
rref                                                        MARKER NAME         
01                                                          MARKER NUMBER       
geodetic                                                    MARKER TYPE         
NFB                 CLIMERS@TUW                             OBSERVER / AGENCY   
3297213             SEPT ASTERX SB3 PROB4.14.4              REC # / TYPE / VERS 
Unknown             Unknown                                 ANT # / TYPE        
  4127832.0746  1207193.3360  4695247.7840                  APPROX POSITION XYZ 
        0.0000        0.0000        0.0000                  ANTENNA: DELTA H/E/N
G   23 X1  C1C L1C D1C S1C C1W S1W C2W L2W D2W S2W C2L L2L  SYS / # / OBS TYPES 
       D2L S2L C5Q L5Q D5Q S5Q C1L L1L D1L S1L              SYS / # / OBS TYPES 
E   21 X1  C1C L1C D1C S1C C6C L6C D6C S6C C5Q L5Q D5Q S5Q  SYS / # / OBS TYPES 
       C7Q L7Q D7Q S7Q C8Q L8Q D8Q S8Q                      SYS / # / OBS TYPES 
S    9 X1  C1C L1C D1C S1C C5I L5I D5I S5I                  SYS / # / OBS TYPES 
R   17 X1  C1C L1C D1C S1C C2P L2P D2P S2P C2C L2C D2C S2C  SYS / # / OBS TYPES 
       C3Q L3Q D3Q S3Q                                      SYS / # / OBS TYPES 
C   25 X1  C1P L1P D1P S1P C5P L5P D5P S5P C2I L2I D2I S2I  SYS / # / OBS TYPES 
       C7I L7I D7I S7I C6I L6I D6I S6I C7D L7D D7D S7D      SYS / # / OBS TYPES 
J   17 X1  C1C L1C D1C S1C C2L L2L D2L S2L C5Q L5Q D5Q S5Q  SYS / # / OBS TYPES 
       C1L L1L D1L S1L                                      SYS / # / OBS TYPES 
I    5 X1  C5A L5A D5A S5A                                  SYS / # / OBS TYPES 
SEPTENTRIO RECEIVERS OUTPUT ALIGNED CARRIER PHASES.         COMMENT             
NO FURTHER PHASE SHIFT APPLIED IN THE RINEX ENCODER.        COMMENT             
G L1C                                                       SYS / PHASE SHIFT   
G L2W                                                       SYS / PHASE SHIFT   
G L2L  0.00000                                              SYS / PHASE SHIFT   
G L5Q  0.00000                                              SYS / PHASE SHIFT   
G L1L  0.00000                                              SYS / PHASE SHIFT   
E L1C  0.00000                                              SYS / PHASE SHIFT   
E L6C  0.00000                                              SYS / PHASE SHIFT   
E L5Q  0.00000                                              SYS / PHASE SHIFT   
E L7Q  0.00000                                              SYS / PHASE SHIFT   
E L8Q  0.00000                                              SYS / PHASE SHIFT   
S L1C                                                       SYS / PHASE SHIFT   
S L5I                                                       SYS / PHASE SHIFT   
R L1C                                                       SYS / PHASE SHIFT   
R L2P  0.00000                                              SYS / PHASE SHIFT   
R L2C                                                       SYS / PHASE SHIFT   
R L3Q  0.00000                                              SYS / PHASE SHIFT   
C L1P  0.00000                                              SYS / PHASE SHIFT   
C L5P  0.00000                                              SYS / PHASE SHIFT   
C L2I                                                       SYS / PHASE SHIFT   
C L7I                                                       SYS / PHASE SHIFT   
C L6I                                                       SYS / PHASE SHIFT   
C L7D                                                       SYS / PHASE SHIFT   
J L1C                                                       SYS / PHASE SHIFT   
J L2L  0.00000                                              SYS / PHASE SHIFT   
J L5Q  0.00000                                              SYS / PHASE SHIFT   
J L1L  0.00000                                              SYS / PHASE SHIFT   
I L5A                                                       SYS / PHASE SHIFT   
  2025     1     2     9     0    0.0000000     GPS         TIME OF FIRST OBS   
 C1C    0.000 C2C    0.000 C2P    0.000                     GLONASS COD/PHS/BIS 
DBHZ                                                        SIGNAL STRENGTH UNIT
    18                                                      LEAP SECONDS        
 24 R01  1 R02 -4 R03  5 R04  6 R05  1 R06 -4 R07  5 R08  6 GLONASS SLOT / FRQ #
    R09 -2 R10 -7 R11  0 R12 -1 R13 -2 R14 -7 R15  0 R16 -1 GLONASS SLOT / FRQ #
    R17  4 R18 -3 R19  3 R20  2 R21  4 R22 -3 R23  3 R24  2 GLONASS SLOT / FRQ #
                                                            END OF HEADER       
> 2025 01 02 09 00  0.0000000  0 53
E24         1.000    26543628.134 7 139487780.37707      2383.255 7        42.906                                                                    26543634.352 7 104163007.63207      1779.699 7        45.068    26543632.903 7 106880293.92907      1826.205 7        45.761
G15         2.000    20754010.980 8 109063017.95008      1227.218 8        48.028                                    20754009.374 7  84984146.44507       956.271 7        47.867    20754009.608 7  84984141.44407       956.258 7        44.713
E15         3.000    28545152.664 6 150005758.93506      -780.697 6        36.348                                                                    28545158.433 6 112017280.08506      -583.088 6        39.964    28545157.422 6 114939467.05006      -598.160 6        41.368
G08         4.000    25667922.673 3                     -3274.853 3        20.810                                                                                                    25667943.026 4                     -2552.189 4        24.436
S21         5.000    38563602.645 7 202652718.05807      -519.114 7        42.313
E05         6.000    24296421.275 7 127678517.11707      1818.379 7        43.213                                                                    24296425.508 7  95344321.18107      1357.816 7        46.395    24296424.697 7  97831563.88707      1393.285 7        46.900
G20         7.000    25149167.925 5 132159549.80105     -4102.477 5        33.042                                    25149176.767 1 102981390.58101     -3196.689 1        10.296
R02         8.000    19704878.645 8 105148956.78108     -2491.683 8        52.666                                                                    19704880.924 7  81782509.58807     -1937.996 7        47.230
R20         9.000    23846276.872 5 127516802.37605     -1182.675 5        30.257                                                                    23846287.609 6  99179755.67206      -919.981 6        40.994
G24        10.000    23764541.881 6 124883470.29906      2821.060 6        41.719                                    23764546.112 5  97311799.11105      2198.227 5        34.690    23764546.279 6  97311804.09506      2198.314 6        37.225
G30        11.000    22620777.195 7 118872923.66507     -3040.749 7        44.545                                    22620779.204 7  92628226.19507     -2369.413 7        42.349    22620779.684 6  92628234.19106     -2369.369 6        40.682
S27        12.000    39268736.183 6 206358495.60506      -551.606 6        36.435
G13        13.000    19967718.083 8 104931029.37008      -789.934 8        48.696                                    19967715.620 6  81764407.32106      -615.531 6        40.791
S36        14.000    38333050.995 7 201441992.36207      -519.368 7        44.330
I09        15.000    40386622.726 6 158485523.98406     -1050.815 6        40.048
E09        16.000    23544266.841 8 123725937.65808      -533.541 8        48.572                                                                    23544268.985 8  92392732.82208      -398.433 8        50.696    23544268.292 8  94802975.65208      -408.800 8        51.172
S45        17.000    63514720.245 6 333773553.01606      -567.376 6        36.420
R21        18.000    23935474.527 6 128083597.84306      1722.479 6        40.570                                                                    23935482.915 6  99620624.98606      1339.643 6        38.964
R03        21.000    20182306.443 8 108037427.69908      1817.203 8        52.471                                                                    20182306.718 7  84029100.77707      1413.388 7        47.131
I06        22.000    38222787.049 7 149994551.05907      -471.790 7        42.999
S28        23.000    41006163.097 5 215488693.35105      -528.138 5        35.024
S23        25.000    38265602.065 7 201087016.08907      -519.684 7        44.331
R01        26.000    23248737.647 6 124277649.44006     -4915.707 6        40.443                                                                    23248747.762 6  96660340.34306     -3823.270 6        37.588
C07        27.000                                                                                                                                    38964895.034 6 202900412.21306      -271.276 6        40.682    38964894.442 7 156895456.86307      -209.777 7        44.652    38964891.760 6 164873182.79106      -220.451 6        40.984
R04        28.000    24039055.038 7 128728034.80207      3775.581 7        42.671                                                                    24039058.045 6 100121780.73306      2936.481 6        40.434
C40        29.000                                                                                                                                    38963000.354 7 202890553.86407      -290.499 7        43.623                                                                    38963002.028 7 164865195.82307      -235.995 7        43.295
G17        30.000    23525396.250 7 123626862.84707      2103.118 7        43.079                                    23525399.462 6  96332667.72406      1638.793 6        37.516    23525398.884 6  96332664.73606      1638.650 6        39.300
G14        31.000    20764810.532 7 109119809.87807     -1426.721 7        47.099                                    20764809.349 6  85028421.08606     -1111.731 6        39.339    20764809.492 7  85028407.09007     -1111.709 7        47.885
G23        32.000    24018034.869 6 126215572.13106      1772.505 6        40.706                                    24018035.009 4  98349770.91304      1381.177 4        26.216    24018035.086 6  98349765.91806      1381.078 6        41.681
I02        33.000    37484791.902 7 147098370.41407        39.764 7        42.599
E04        34.000    25414700.335 7 133555107.86607     -2807.523 7        43.890                                                                    25414704.390 8  99732697.97908     -2096.545 8        48.263    25414703.240 8 102334418.79008     -2151.225 8        48.393
R13        35.000    19920421.163 7 106373968.00607      1339.482 7        47.145
R12        36.000    19623450.930 8 104824930.74908     -2184.688 8        51.823                                                                    19623453.142 7  81530500.91207     -1699.168 7        47.884
C10        38.000                                                                                                                                    38869064.246 6 202401414.27506       104.305 6        41.957    38869065.120 7 156509612.97107        80.624 7        44.727    38869062.523 6 164467717.09006        84.804 6        41.232
C19        39.000                                                                                                                                    25782335.762 7 134255204.02407     -4003.791 7        42.464                                                                    25782340.336 7 109093289.10807     -3253.341 7        43.545
E34        40.000    28731996.689 6 150987591.76206     -2687.557 6        36.038                                                                    28732001.800 6 112750453.21406     -2007.113 6        38.090    28732001.004 6 115691771.52706     -2059.496 6        38.568
G05        41.000    23107384.722 7 121430032.89107     -3739.287 7        44.978                                    23107386.541 6  94620760.26806     -2913.727 6        40.658    23107387.441 6  94620769.25606     -2913.686 6        40.477
S44        42.000    41011734.546 6 215518148.22406      -513.112 6        37.270
C36        43.000                                                                                                                                    21703646.195 8 113016552.69308     -1271.430 8        50.943                                                                    21703652.713 8  91835220.47408     -1033.168 8        49.734
C05        44.000                                                                                                                                    39497802.058 6 205675339.89006      -571.748 6        37.263    39497806.621 7 159041211.99307      -442.116 7        43.431    39497805.494 6 167128139.17806      -464.493 6        39.057
R14        45.000    24515093.731 7 130679242.50807      3397.953 7        42.354                                                                    24515103.698 6 101639464.70706      2642.852 6        37.112
R11        47.000    23852992.480 7 127463006.96007     -4511.247 7        42.950                                                                    23852998.979 6  99137864.27806     -3508.771 6        38.411
C45        50.000                                                                                                                                    22885036.449 8 119168403.99508      1473.711 8        49.428                                                                    22885031.175 8  96834075.82808      1197.506 8        48.966
S48        51.000    77276998.456 6 406092563.71906      -509.006 6        37.754
E06        52.000    23826588.987 8 125209546.04608     -1801.850 8        48.585                                                                    23826592.193 8  93500631.90508     -1345.575 8        50.395    23826591.682 8  95939778.40108     -1380.696 8        50.976
C09        53.000                                                                                                                                    41236116.308 5 214727109.65805     -1130.297 5        35.695    41236124.289 6 166040564.82506      -874.006 6        40.458    41236118.882 5 174483306.78905      -918.280 5        35.167
C60        54.000                                                                                                                                    41011736.338 6 213558910.26106      -508.226 6        40.808                                                                    41011727.646 6 173534043.34406      -413.058 6        38.126
E31        55.000    23623919.046 8 124144535.60708       234.076 8        48.674                                                                    23623922.367 8  92705366.86508       174.833 8        50.435    23623921.769 8  95123763.88908       179.396 8        51.078
G07        56.000    25578879.128 6 134417714.25006     -3393.741 6        37.433                                    25578887.681 4 104741003.68004     -2644.465 4        26.024    25578888.182 5 104741012.63905     -2644.305 5        33.413
C02        57.000                                                                                                                                    41072944.654 5 213877474.60905      -556.754 5        32.796    41072951.046 6 165383577.93006      -430.727 6        37.425    41072950.500 5 173792933.66705      -453.260 5        31.298
I03        58.000    95209306.794 6 297836288.36806       852.930 6        40.930
C21        59.000                                                                                                                                    23485916.223 8 122297281.65608      1143.901 8        48.513                                                                    23485912.688 8  99376525.80908       929.524 8        48.371
C22        60.000                                                                                                                                    22248087.547 8 115851571.63908     -2100.041 8        51.704                                                                    22248083.501 8  94138855.66808     -1706.446 8        49.644
> 2025 01 02 09 00  5.0000000  0 53
E24         1.000    26541360.971 7 139475865.68507      2382.434 7        43.003                                                                    26541366.976 7 104154110.29907      1779.102 7        45.219    26541365.630 7 106871164.49007      1825.522 7        45.744
G15         2.000    20752844.352 7 109056888.67007      1224.341 7        47.957                                    20752843.005 7  84979370.38807       954.032 7        47.882    20752843.639 7  84979365.39007       954.047 7        44.707
E15         3.000    28545896.885 6 150009668.51806      -783.081 6        36.427                                                                    28545902.190 6 112020199.56906      -584.866 6        39.922    28545901.766 6 114942462.71106      -600.103 6        41.545
G08         4.000    25671049.678 3                     -3277.944 3        21.048                                                                                                    25671063.190 4                     -2553.396 4        25.519
S21         5.000    38564094.067 7 202655312.12507      -518.897 7        42.345
E05         6.000    24294691.960 7 127669427.02807      1817.621 7        43.082                                                                    24294695.682 7  95337533.12707      1357.260 7        46.430    24294694.947 7  97824598.75107      1392.692 7        46.993
G20         7.000    25153071.884 5 132180061.15505     -4101.869 5        33.407                                    25153079.984 1 102997373.34001     -3196.255 1         9.714
R02         8.000    19707215.386 8 105161424.53608     -2495.559 8        53.003                                                                    19707217.425 7  81792206.72107     -1941.026 7        46.799
R20         9.000    23847387.731 5 127522726.21005     -1186.833 5        31.064                                                                    23847395.572 6  99184363.11306      -923.062 6        41.197
G24        10.000    23761858.485 6 124869366.36406      2820.212 6        40.112                                    23761862.218 5  97300809.03605      2197.570 5        34.600    23761862.338 6  97300814.04906      2197.624 6        37.157
G30        11.000    22623670.487 7 118888129.26607     -3041.633 7        44.510                                    22623672.706 7  92640074.70807     -2370.102 7        42.461    22623673.238 6  92640082.70906     -2370.103 6        40.727
S27        12.000    39269263.329 6 206361252.13706      -551.253 6        36.170
G13        13.000    19968471.050 8 104934985.44008      -792.640 8        48.490                                    19968468.431 6  81767489.97006      -617.640 6        40.820
S36        14.000    38333543.415 7 201444589.76707      -519.406 7        44.429
I09        15.000    40387961.729 6 158490777.58506     -1050.697 6        39.868
E09        16.000    23544775.245 8 123728609.16708      -535.209 8        48.484                                                                    23544777.398 8  92394727.78008      -399.687 8        50.720    23544776.673 8  94805022.65108      -410.065 8        51.142
S45        17.000    63515218.013 6 333774789.08516      -567.232 6        36.291
R21        18.000    23933866.627 6 128074993.55906      1719.024 6        40.870                                                                    23933874.005 6  99613932.82406      1337.075 6        38.498
R03        21.000    20180610.485 8 108028349.48408      1813.975 8        52.277                                                                    20180610.906 7  84022039.96607      1410.830 7        47.293
I06        22.000    38223388.448 7 149996909.55607      -471.677 7        42.777
S28        23.000    41006664.768 5 215491333.78605      -528.332 5        34.924
S23        25.000    38266097.731 7 201089613.87907      -519.645 7        44.354
R01        26.000    23253335.361 6 124302230.03006     -4916.698 6        40.162                                                                    23253346.863 6  96679458.51806     -3823.907 6        37.739
C07        27.000                                                                                                                                    38965155.262 6 202901770.31606      -272.119 6        40.536    38965155.100 7 156896507.01507      -210.340 7        44.760    38965152.540 6 164874286.35406      -220.904 6        41.006
R04        28.000    24035530.478 7 128709157.24807      3775.373 7        42.827                                                                    24035532.609 6 100107098.14706      2936.465 6        40.443
C40        29.000                                                                                                                                    38963279.842 7 202892008.33307      -291.433 7        43.776                                                                    38963281.424 7 164866377.69407      -236.742 7        43.467
G17        30.000    23523395.468 7 123616350.97207      2101.566 7        42.916                                    23523398.997 6  96324476.66806      1637.575 6        37.633    23523398.697 6  96324473.67306      1637.577 6        39.054
G14        31.000    20766169.181 7 109126950.28107     -1429.581 7        47.358                                    20766168.118 6  85033985.03406     -1113.959 6        39.363    20766168.332 7  85033971.03507     -1114.023 7        47.743
G23        32.000    24016349.461 6 126206715.85906      1769.918 6        40.470                                    24016349.646 4  98342869.91604      1379.163 4        26.251    24016349.490 6  98342864.91206      1379.169 6        41.347
I02        33.000    37484741.065 7 147098172.54207        39.443 7        42.500
E04        34.000    25417372.447 7 133569148.01507     -2808.703 7        44.342                                                                    25417376.086 8  99743182.49608     -2097.416 8        48.191    25417375.115 8 102345176.82008     -2152.180 8        48.422
R13        35.000    19919168.338 7 106367277.75107      1336.460 7        47.358
R12        36.000    19625496.720 8 104835860.74708     -2187.500 8        51.653                                                                    19625499.282 8  81539002.02508     -1701.385 8        48.099
C10        38.000                                                                                                                                    38868964.391 6 202400894.60206       103.438 6        41.661    38868965.061 7 156509211.13007        80.036 7        44.763    38868962.647 6 164467294.81506        84.197 6        41.361
C19        39.000                                                                                                                                    25786180.343 6 134275223.90106     -4004.340 6        41.988                                                                    25786184.983 7 109109556.83207     -3253.719 7        43.697
E34        40.000    28734554.155 5 151001033.57305     -2689.139 5        35.590                                                                    28734560.017 6 112760490.90306     -2007.911 6        38.081    28734559.365 6 115702071.07006     -2060.515 6        38.529
G05        41.000    23110942.721 7 121448732.58707     -3740.791 7        44.334                                    23110945.004 6  94635331.42006     -2914.896 6        40.663    23110945.691 6  94635340.40206     -2914.872 6        40.908
S44        42.000    41012224.632 6 215520712.20106      -512.810 6        37.013
C36        43.000                                                                                                                                    21704867.729 8 113022914.12108     -1273.271 8        50.892                                                                    21704874.346 8  91840389.63808     -1034.456 8        49.914
C05        44.000                                                                                                                                    39498350.208 6 205678197.76806      -571.689 6        37.399    39498355.281 7 159043421.87407      -442.060 7        43.486    39498354.404 6 167130461.43106      -464.361 6        39.165
R14        45.000    24511906.822 7 130662253.78407      3397.518 7        42.525                                                                    24511916.819 6 101626251.24506      2642.627 6        37.388
R11        47.000    23857212.286 6 127485562.66706     -4511.245 6        41.802                                                                    23857220.215 6  99155407.60406     -3508.708 6        38.426
C45        50.000                                                                                                                                    22883622.180 8 119161038.87408      1472.189 8        49.413                                                                    22883616.757 8  96828091.07408      1196.380 8        49.056
S48        51.000    77277486.122 6 406095107.05306      -508.702 6        37.690
E06        52.000    23828304.345 8 125218559.22508     -1803.493 8        48.466                                                                    23828307.364 8  93507362.51608     -1346.814 8        50.551    23828306.810 8  95946684.59208     -1381.882 8        51.006
C09        53.000                                                                                                                                    41237199.928 5 214732759.98005     -1130.071 5        35.281    41237209.070 6 166044934.00506      -873.908 6        40.422    41237203.625 5 174487898.14605      -918.473 5        34.619
C60        54.000                                                                                                                                    41012224.089 6 213561450.95506      -508.246 6        40.744                                                                    41012215.527 6 173536107.83106      -412.826 6        38.144
E31        55.000    23623697.338 8 124143369.84608       232.005 8        48.660                                                                    23623700.561 8  92704496.33208       173.238 8        50.488    23623699.932 8  95122870.64308       177.774 8        51.068
G07        56.000    25582108.340 6 134434682.51106     -3393.781 6        37.966                                    25582116.778 4 104754225.66904     -2644.496 4        26.635    25582116.743 5 104754234.64705     -2644.606 5        34.067
C02        57.000                                                                                                                                    41073479.420 5 213880259.81805      -556.866 5        32.826    41073485.767 6 165385731.65006      -430.933 6        37.153    41073485.499 5 173795196.84205      -452.499 5        31.026
I03        58.000    95208220.296 6 297832024.30606       852.852 6        40.822
C21        59.000                                                                                                                                    23484818.714 8 122291567.52208      1141.534 8        48.381                                                                    23484815.280 8  99371882.60108       927.769 8        48.357
C22        60.000                                                                                                                                    22250104.984 8 115862077.56208     -2102.500 8        51.661                                                                    22250101.068 8  94147392.57408     -1708.339 8        49.671
> 2025 01 02 09 00 10.0000000  0 53
E24         1.000    26539094.677 7 139463955.73007      2381.347 7        42.885                                                                    26539100.611 7 104145216.50607      1778.199 7        45.168    26539099.308 7 106862038.68307      1824.647 7        45.895
G15         2.000    20751680.964 7 109050773.90807      1221.367 7        47.753                                    20751679.399 7  84974605.64407       951.713 7        47.963    20751679.709 7  84974600.65107       951.634 7        44.670
E15         3.000    28546643.530 6 150013590.51306      -785.644 6        36.057                                                                    28546648.616 6 112023128.33106      -586.849 6        39.826    28546647.833 6 114945467.86306      -602.104 6        41.533
G08         4.000    25674167.200 3                     -3280.289 3        20.857                                                                                                    25674183.470 4                     -2555.790 4        24.571
S21         5.000    38564587.739 7 202657906.47207      -519.313 7        42.265
E05         6.000    24292962.631 7 127660340.61407      1816.837 7        42.895                                                                    24292966.612 7  95330747.82007      1356.705 7        46.292    24292965.800 7  97817636.44107      1392.094 7        46.995
G20         7.000    25156975.383 5 132200570.66005     -4101.953 5        33.210                                    25156982.968 1 103013354.72901     -3196.318 1         9.048
R02         8.000    19709555.179 8 105173911.74008     -2499.485 8        52.666                                                                    19709557.467 7  81801918.97707     -1944.089 7        47.224
R20         9.000    23848497.839 5 127528671.19405     -1191.323 5        30.174                                                                    23848507.454 6  99188986.98206      -926.639 6        41.592
G24        10.000    23759173.789 6 124855266.10206      2819.524 6        39.892                                    23759178.989 5  97289821.81605      2197.030 5        34.681    23759179.896 6  97289826.83006      2197.092 6        36.499
G30        11.000    22626565.147 7 118903339.86707     -3042.775 7        44.364                                    22626567.210 7  92651927.11607     -2370.993 7        42.533    22626568.162 6  92651935.12606     -2370.987 6        40.841
S27        12.000    39269786.129 6 206364008.97106      -551.430 6        36.359
G13        13.000    19969226.377 8 104938955.43008      -795.574 8        48.739                                    19969223.894 6  81770583.46006      -619.926 6        40.813
S36        14.000    38334039.819 7 201447187.62607      -519.722 7        44.474
I09        15.000    40389300.736 6 158496031.23906     -1050.782 6        39.940
E09        16.000    23545285.306 8 123731289.54108      -537.125 8        48.463                                                                    23545287.433 8  92396729.35108      -401.137 8        50.630    23545286.714 8  94807076.43808      -411.577 8        51.184
S45        17.000    63515709.927 6 333777625.48706      -567.336 6        36.276
R21        18.000    23932261.789 6 128066405.59906      1715.872 6        41.802                                                                    23932269.642 6  99607253.41806      1334.422 6        39.607
R03        21.000    20178917.385 8 108019288.03408      1810.449 8        52.041                                                                    20178917.782 7  84014992.16907      1408.141 7        46.977
I06        22.000    38223989.484 7 149999268.31107      -471.907 7        43.007
S28        23.000    41007171.855 5 215493974.28605      -528.321 5        34.981
S23        25.000    38266591.362 7 201092211.82407      -519.720 7        44.250
R01        26.000    23257935.517 6 124326815.67806     -4917.872 6        40.246                                                                    23257946.634 6  96698580.63306     -3824.778 6        38.051
C07        27.000                                                                                                                                    38965417.170 6 202903132.51006      -272.985 6        40.443    38965416.785 7 156897560.34507      -211.051 7        44.841    38965414.271 6 164875393.25606      -221.813 6        41.042
R04        28.000    24032006.090 7 128690281.68007      3774.832 7        43.134                                                                    24032008.413 6 100092417.08806      2936.041 6        39.874
C40        29.000                                                                                                                                    38963559.960 7 202893467.93407      -292.538 7        43.729                                                                    38963561.723 7 164867563.74307      -237.767 7        43.211
G17        30.000    23521396.324 7 123605846.85007      2099.853 7        42.434                                    23521399.949 6  96316291.65406      1636.246 6        37.743    23521399.928 6  96316288.66906      1636.161 6        39.207
G14        31.000    20767530.825 7 109134105.12207     -1432.621 7        47.174                                    20767529.674 6  85039560.23306     -1116.327 6        39.402    20767529.779 7  85039546.21807     -1116.273 7        47.568
G23        32.000    24014666.715 6 126197872.74206      1767.175 6        40.274                                    24014666.876 4  98335979.17704      1377.024 4        26.228    24014666.835 6  98335974.18906      1377.064 6        40.865
I02        33.000    37484691.281 7 147097975.89907        39.237 7        42.544
E04        34.000    25420045.372 7 133583194.08007     -2810.000 7        44.531                                                                    25420048.941 8  99753671.42808     -2098.408 8        48.043    25420047.982 8 102355939.37308     -2153.068 8        48.419
R13        35.000    19917918.287 7 106360602.77907      1333.194 7        47.233
R12        36.000    19627545.739 8 104846804.94108     -2190.422 8        51.893                                                                    19627548.108 8  81547514.17408     -1703.655 8        48.367
C10        38.000                                                                                                                                    38868865.182 6 202400378.72806       102.681 6        41.931    38868865.897 7 156508812.24107        79.429 7        44.922    38868863.537 6 164466875.64806        83.295 6        41.356
C19        39.000                                                                                                                                    25790025.719 7 134295246.75807     -4005.031 7        42.064                                                                    25790030.087 7 109125826.98207     -3254.342 7        43.424
E34        40.000    28737113.777 5 151014482.22405     -2690.486 5        35.929                                                                    28737119.043 6 112770533.75106     -2009.309 6        37.686    28737118.759 6 115712375.90106     -2061.573 6        38.778
G05        41.000    23114503.094 7 121467440.14007     -3742.504 7        44.454                                    23114504.952 6  94649908.69506     -2916.229 6        40.617    23114505.424 6  94649917.68206     -2916.185 6        40.696
S44        42.000    41012707.214 6 215523276.20406      -512.830 6        37.074
C36        43.000                                                                                                                                    21706091.176 8 113029284.80008     -1275.225 8        50.845                                                                    21706097.715 8  91845566.34208     -1036.237 8        49.745
C05        44.000                                                                                                                                    39498899.046 6 205681055.77406      -571.888 6        37.233    39498904.204 7 159045631.84307      -442.179 7        43.628    39498903.157 6 167132783.78106      -464.689 6        39.210
R14        45.000    24508720.038 7 130645268.29007      3396.712 7        42.229                                                                    24508731.020 6 101613040.26806      2641.919 6        36.854
R11        47.000    23861432.789 6 127508118.35206     -4511.342 6        40.839                                                                    23861441.223 6  99172950.89806     -3508.792 6        39.381
C45        50.000                                                                                                                                    22882209.176 8 119153681.75408      1470.470 8        49.632                                                                    22882203.913 8  96822112.82808      1194.800 8        48.931
S48        51.000    77277975.541 6 406097650.76406      -508.838 6        37.679
E06        52.000    23830021.132 8 125227580.69108     -1805.275 8        48.568                                                                    23830024.137 8  93514099.31608     -1348.152 8        50.410    23830023.544 8  95953597.13708     -1383.279 8        50.979
C09        53.000                                                                                                                                    41238284.653 5 214738410.41905     -1130.386 5        35.581    41238294.285 6 166049303.25006      -873.893 6        40.768    41238288.793 5 174492489.58105      -918.369 5        34.638
C60        54.000                                                                                                                                    41012712.117 6 213563991.63506      -508.313 6        40.725                                                                    41012703.448 6 173538172.35606      -413.047 6        38.216
E31        55.000    23623477.720 8 124142215.07208       229.728 8        48.736                                                                    23623480.815 8  92703634.00208       171.517 8        50.399    23623480.168 8  95121985.82008       175.983 8        51.090
G07        56.000    25585337.191 6 134451651.64606     -3394.060 6        37.055                                    25585345.942 4 104767448.34604     -2644.715 4        26.168    25585346.571 5 104767457.35405     -2644.808 5        33.617
C02        57.000                                                                                                                                    41074014.396 5 213883045.05605      -557.616 5        32.748    41074020.609 6 165387885.32206      -430.690 6        37.297    41074020.166 5 173797460.05005      -452.361 5        31.313
I03        58.000    95207133.905 6 297827760.18706       852.684 6        40.951
C21        59.000                                                                                                                                    23483723.573 8 122285865.33108      1139.090 8        48.362                                                                    23483720.275 8  99367249.11908       925.564 8        48.278
C22        60.000                                                                                                                                    22252124.976 8 115872596.39708     -2105.212 8        51.798                                                                    22252121.176 8  94155939.98908     -1710.706 8        49.612
> 2025 01 02 09 00 15.0000000  0 53
E24         1.000    26536829.097 7 139452050.23007      2380.638 7        42.863                                                                    26536835.267 7 104136326.03807      1777.723 7        45.198    26536833.904 7 106852916.29907      1824.041 7        46.017
G15         2.000    20750520.329 7 109044673.44907      1218.678 7        47.621                                    20750518.508 7  84969852.04307       949.617 7        47.935    20750518.990 7  84969847.04807       949.591 7        44.898
E15         3.000    28547392.038 6 150017524.56306      -788.048 6        36.193                                                                    28547397.223 6 112026066.08506      -588.451 6        39.946    28547396.531 6 114948482.26606      -603.826 6        41.428
G08         4.000    25677294.254 3                     -3282.919 3        23.657                                                                                                    25677304.716 4                     -2559.070 4        24.211
S21         5.000    38565082.439 7 202660500.79407      -518.968 7        42.080
E05         6.000    24291234.099 7 127651257.61707      1816.309 7        42.995                                                                    24291238.077 7  95323965.07807      1356.188 7        46.409    24291237.383 7  97810676.74807      1391.602 7        47.106
G20         7.000    25160877.992 5 132221078.04405     -4101.379 5        33.623                                    25160885.554 1 103029334.36401     -3195.821 1         8.857
R02         8.000    19711898.706 8 105186418.05108     -2503.178 8        52.490                                                                    19711900.885 7  81811646.09707     -1946.961 7        47.169
R20         9.000    23849614.333 5 127534637.06505     -1194.965 5        30.460                                                                    23849622.696 6  99193627.14006      -929.748 6        40.610
G24        10.000    23756492.127 6 124841169.23006      2819.016 6        39.411                                    23756496.423 5  97278837.24505      2196.633 5        34.824    23756497.144 6  97278842.24406      2196.661 6        36.870
G30        11.000    22629460.380 7 118918555.16207     -3043.620 7        44.567                                    22629462.617 7  92663783.18307     -2371.652 7        42.472    22629462.968 6  92663791.18606     -2371.680 6        40.903
S27        12.000    39270310.713 6 206366765.65006      -551.546 6        36.155
G13        13.000    19969984.503 8 104942939.06308      -798.112 8        48.669                                    19969981.959 6  81773687.58406      -621.903 6        40.849
S36        14.000    38334534.022 7 201449785.03007      -519.451 7        44.238
I09        15.000    40390639.506 6 158501284.67806     -1050.611 6        40.014
E09        16.000    23545797.057 8 123733978.48908      -538.658 8        48.550                                                                    23545799.144 8  92398737.32208      -402.262 8        50.651    23545798.426 8  94809136.79408      -412.742 8        51.159
S45        17.000    63516205.616 6 333780461.63506      -567.040 6        36.340
R21        18.000    23930659.074 6 128057833.66206      1712.809 6        41.583                                                                    23930667.588 6  99600586.46406      1332.025 6        39.339
R03        21.000    20177227.633 8 108010242.94008      1807.372 8        52.252                                                                    20177228.707 7  84007957.10407      1405.741 7        47.246
I06        22.000    38224590.623 7 150001627.08707      -471.784 7        43.092
S28        23.000    41007673.580 5 215496614.96405      -528.284 5        34.395
S23        25.000    38267085.637 7 201094809.55207      -519.541 7        44.205
R01        26.000    23262535.687 6 124351406.07006     -4918.561 6        40.603                                                                    23262546.907 6  96717706.44906     -3825.442 6        38.177
C07        27.000                                                                                                                                    38965679.707 6 202904498.53806      -273.420 6        40.656    38965679.156 7 156898616.61707      -211.486 7        44.888    38965676.496 6 164876503.23206      -222.298 6        41.030
R04        28.000    24028481.685 7 128671407.84007      3774.504 7        42.806                                                                    24028483.614 6 100077737.40806      2935.674 6        41.173
C40        29.000                                                                                                                                    38963841.188 7 202894932.36607      -293.430 7        43.943                                                                    38963842.835 7 164868753.70507      -238.281 7        43.405
G17        30.000    23519398.917 7 123595350.15707      2098.652 7        42.631                                    23519402.314 6  96308112.44106      1635.305 6        37.728    23519402.339 6  96308109.45206      1635.261 6        39.366
G14        31.000    20768894.933 7 109141274.09907     -1435.244 7        47.405                                    20768893.890 6  85045146.44306     -1118.367 6        39.508    20768894.116 7  85045132.43507     -1118.351 7        47.933
G23        32.000    24012986.463 6 126189042.55606      1764.621 6        40.963                                    24012986.462 4  98329098.51304      1375.021 4        26.299    24012986.855 6  98329093.50806      1375.114 6        40.799
I02        33.000    37484641.481 7 147097780.36107        38.947 7        42.404
E04        34.000    25422718.959 7 133597245.75507     -2810.941 7        44.671                                                                    25422722.918 8  99764164.54308     -2099.088 8        48.048    25422721.984 8 102366706.22308     -2153.826 8        48.540
R13        35.000    19916671.032 7 106353942.91107      1330.503 7        46.987
R12        36.000    19629597.227 8 104857762.91008     -2192.994 8        51.651                                                                    19629599.309 8  81556037.03408     -1705.725 8        48.331
C10        38.000                                                                                                                                    38868766.833 6 202399866.41606       102.178 6        41.800    38868767.700 7 156508416.09407        78.935 7        44.772    38868765.137 6 164466459.34506        83.044 6        41.576
C19        39.000                                                                                                                                    25793871.291 7 134315272.29407     -4005.399 7        42.427                                                                    25793875.772 7 109142099.31307     -3254.652 7        43.162
E34        40.000    28739674.430 6 151027937.49806     -2691.818 6        36.268                                                                    28739679.490 6 112780581.51306     -2010.189 6        37.750    28739678.866 6 115722685.78506     -2062.538 6        38.513
G05        41.000    23118064.550 7 121486155.30207     -3743.896 7        44.330                                    23118066.358 6  94664491.89706     -2917.315 6        40.701    23118066.982 6  94664500.88906     -2917.181 6        40.613
S44        42.000    41013199.517 6 215525839.94306      -512.817 6        37.127
C36        43.000                                                                                                                                    21707316.454 8 113035664.46108     -1276.818 8        50.999                                                                    21707322.906 8  91850750.32408     -1037.445 8        49.873
C05        44.000                                                                                                                                    39499448.595 6 205683913.59006      -571.742 6        37.399    39499452.921 7 159047841.67007      -442.023 7        43.524    39499452.040 6 167135105.96906      -464.387 6        39.261
R14        45.000    24505534.270 7 130628285.73207      3396.184 7        42.263                                                                    24505545.116 6 101599831.61306      2641.491 6        37.043
R11        47.000    23865654.063 6 127530673.69106     -4511.144 6        40.377                                                                    23865662.528 6  99190493.88006     -3508.531 6        40.119
C45        50.000                                                                                                                                    22880797.906 8 119146332.32508      1469.091 8        49.747                                                                    22880792.536 8  96816140.83008      1193.783 8        49.038
S48        51.000    77278462.800 6 406100193.91006      -508.963 6        37.637
E06        52.000    23831739.440 8 125236610.14908     -1806.714 8        48.806                                                                    23831742.375 8  93520842.08108     -1349.195 8        50.405    23831741.769 8  95960515.80608     -1384.385 8        51.034
C09        53.000                                                                                                                                    41239370.024 5 214744060.67205     -1130.232 5        35.381    41239378.832 6 166053672.38406      -873.769 6        40.861    41239373.774 5 174497080.83705      -918.035 5        34.400
C60        54.000                                                                                                                                    41013200.231 6 213566532.07206      -508.161 6        40.822                                                                    41013191.392 6 173540236.64406      -412.632 6        38.264
E31        55.000    23623260.046 8 124141071.01208       227.716 8        48.692                                                                    23623263.154 8  92702779.66908       170.007 8        50.456    23623262.492 8  95121109.20008       174.436 8        51.157
G07        56.000    25588566.094 6 134468621.39406     -3394.070 6        37.130                                    25588575.200 4 104780671.49404     -2644.730 4        25.955    25588575.443 5 104780680.48705     -2644.588 5        33.850
C02        57.000                                                                                                                                    41074549.569 5 213885829.98805      -556.824 5        32.593    41074554.986 6 165390038.87006      -430.906 6        37.391    41074555.115 5 173799723.10005      -452.809 5        31.426
I03        58.000    95206047.106 6 297823495.81206       852.990 6        40.737
C21        59.000                                                                                                                                    23482630.966 8 122280174.83208      1136.866 8        48.477                                                                    23482627.485 8  99362625.10808       923.936 8        48.403
C22        60.000                                                                                                                                    22254147.639 8 115883127.85608     -2107.584 8        51.935                                                                    22254143.637 8  94164497.64108     -1712.509 8        49.719
> 2025 01 02 09 00 20.0000000  0 53
E24         1.000    26534564.289 7 139440149.27207      2379.895 7        43.111                                                                    26534570.669 7 104127438.96207      1777.146 7        45.231    26534569.112 7 106843797.37107      1823.572 7        45.591
G15         2.000    20749361.901 7 109038587.30307      1215.908 7        47.949                                    20749360.353 8  84965109.60008       947.458 8        48.000    20749360.760 7  84965104.60607       947.433 7        44.516
E15         3.000    28548142.876 5 150021470.74805      -790.335 5        35.962                                                                    28548148.223 6 112029012.90906      -590.258 6        40.031    28548147.447 6 114951505.96106      -605.670 6        41.263
G08         4.000    25680421.229 3                     -3283.747 3        23.619                                                                                                    25680423.883 3                     -2558.906 3        23.371
S21         5.000    38565577.466 6 202663095.18306      -518.865 6        41.902
E05         6.000    24289506.385 7 127642178.08307      1815.656 7        43.100                                                                    24289510.371 7  95317184.89707      1355.835 7        46.355    24289509.584 7  97803719.70007      1391.215 7        46.781
G20         7.000    25164779.102 5 132241583.30405     -4100.884 5        33.958                                    25164787.644 1 103045312.37801     -3195.451 1         9.048
R02         8.000    19714245.766 8 105198943.35808     -2506.850 8        52.411                                                                    19714248.502 7  81821387.98507     -1949.762 7        47.652
R20         9.000    23850735.199 4 127540624.05204     -1199.326 4        29.981                                                                    23850742.173 6  99198283.61406      -932.897 6        40.694
G24        10.000    23753810.151 6 124827075.78806      2818.542 6        40.319                                    23753814.598 5  97267855.34105      2196.264 5        34.862    23753815.580 6  97267860.37106      2196.090 6        37.554
G30        11.000    22632356.503 7 118933775.19507     -3044.289 7        44.649                                    22632358.913 7  92675642.93907     -2372.174 7        42.457    22632359.670 6  92675650.94406     -2372.208 6        40.818
S27        12.000    39270837.309 6 206369522.37006      -551.042 6        36.253
G13        13.000    19970745.041 8 104946936.43808      -800.749 8        48.764                                    19970742.631 6  81776802.41606      -623.963 6        40.865
S36        14.000    38335024.443 7 201452382.34507      -519.229 7        44.385
I09        15.000    40391977.702 6 158506537.96406     -1050.514 6        39.841
E09        16.000    23546310.418 8 123736676.07708      -540.285 8        48.525                                                                    23546312.491 8  92400751.74908      -403.458 8        50.568    23546311.802 8  94811203.77208      -413.976 8        50.986
S45        17.000    63516704.398 6 333783297.81106      -567.133 6        36.359
R21        18.000    23929060.392 7 128049277.83507      1709.735 7        42.398                                                                    23929068.109 6  99593932.01406      1329.574 6        38.871
R03        21.000    20175541.563 8 108001214.18508      1804.271 8        52.177                                                                    20175541.615 7  84000934.74107      1403.290 7        47.193
I06        22.000    38225191.832 7 150003985.93507      -471.606 7        43.081
S28        23.000    41008174.379 5 215499255.60905      -528.004 5        35.038
S23        25.000    38267580.002 7 201097407.22907      -519.426 7        44.150
R01        26.000    23267136.218 6 124376001.22406     -4919.468 6        40.825                                                                    23267147.665 6  96736835.95906     -3826.146 6        38.051
C07        27.000                                                                                                                                    38965943.205 6 202905868.39606      -274.246 6        40.577    38965942.145 7 156899675.86907      -212.023 7        45.020    38965939.663 6 164877616.35506      -222.784 6        41.213
R04        28.000    24024956.970 7 128652535.68507      3774.422 7        42.648                                                                    24024959.482 6 100063059.03806      2935.667 6        40.634
C40        29.000                                                                                                                                    38964123.490 7 202896401.69307      -294.276 7        43.856                                                                    38964125.069 7 164869947.65907      -239.251 7        43.318
G17        30.000    23517403.229 7 123584860.94507      2097.177 7        42.324                                    23517406.191 6  96299939.05606      1634.157 6        37.845    23517406.131 6  96299936.07206      1634.073 6        39.556
G14        31.000    20770261.934 7 109148457.26407     -1437.931 7        47.633                                    20770260.793 6  85050743.71306     -1120.465 6        39.486    20770261.152 7  85050729.71107     -1120.488 7        47.898
G23        32.000    24011308.512 6 126180225.33506      1762.244 6        41.704                                    24011308.531 4  98322227.95004      1373.174 4        26.407    24011309.134 6  98322222.94506      1373.055 6        40.865
I02        33.000    37484591.973 7 147097586.25607        38.827 7        42.578
E04        34.000    25425393.846 7 133611303.09507     -2811.896 7        44.569                                                                    25425398.007 7  99774661.88307     -2099.820 7        47.978    25425397.090 8 102377477.41308     -2154.552 8        48.294
R13        35.000    19915426.688 7 106347298.05907      1327.558 7        47.087
R12        36.000    19631650.885 8 104868734.79808     -2195.665 8        51.244                                                                    19631653.191 8  81564570.71608     -1707.769 8        48.218
C10        38.000                                                                                                                                    38868669.046 6 202399357.71306       101.507 6        41.969    38868670.299 7 156508022.75207        78.413 7        44.766    38868667.456 6 164466045.99106        82.493 6        41.406
C19        39.000                                                                                                                                    25797717.743 7 134335300.55607     -4005.762 7        42.449                                                                    25797721.834 7 109158373.86807     -3255.007 7        43.100
E34        40.000    28742235.539 6 151041399.38306     -2692.619 6        36.110                                                                    28742241.046 6 112790634.21906     -2010.855 6        37.459    28742240.587 6 115733000.72806     -2063.380 6        38.057
G05        41.000    23121627.403 7 121504877.99507     -3745.194 7        44.307                                    23121629.191 6  94679080.97206     -2918.326 6        40.629    23121629.874 6  94679089.97406     -2918.338 6        40.465
S44        42.000    41013687.684 6 215528403.44006      -512.646 6        36.945
C36        43.000                                                                                                                                    21708543.319 8 113042053.12608     -1278.502 8        51.066                                                                    21708549.746 8  91855941.63608     -1038.911 8        49.878
