     3.04           OBSERVATION DATA    M                   RINEX VERSION / TYPE
ssrcrin-15.6.1x                         20250102 010000 UTC PGM / RUN BY / DATE 
(00000000023479385599111004) Septentrio proprietary         COMMENT             
rref                                                        MARKER NAME         
01                                                          MARKER NUMBER       
geodetic                                                    MARKER TYPE         
NFB                 CLIMERS@TUW                             OBSERVER / AGENCY   
3297213             SEPT ASTERX SB3 PROB4.14.4              REC # / TYPE / VERS 
Unknown             Unknown                                 ANT # / TYPE        
  4127831.8095  1207193.1054  4695247.6604                  APPROX POSITION XYZ 
        0.0000        0.0000        0.0000                  ANTENNA: DELTA H/E/N
G   23 X1  C1C L1C D1C S1C C1W S1W C2W L2W D2W S2W C2L L2L  SYS / # / OBS TYPES 
       D2L S2L C5Q L5Q D5Q S5Q C1L L1L D1L S1L              SYS / # / OBS TYPES 
E   21 X1  C1C L1C D1C S1C C6C L6C D6C S6C C5Q L5Q D5Q S5Q  SYS / # / OBS TYPES 
       C7Q L7Q D7Q S7Q C8Q L8Q D8Q S8Q                      SYS / # / OBS TYPES 
S    9 X1  C1C L1C D1C S1C C5I L5I D5I S5I                  SYS / # / OBS TYPES 
R   17 X1  C1C L1C D1C S1C C2P L2P D2P S2P C2C L2C D2C S2C  SYS / # / OBS TYPES 
       C3Q L3Q D3Q S3Q                                      SYS / # / OBS TYPES 
C   25 X1  C1P L1P D1P S1P C5P L5P D5P S5P C2I L2I D2I S2I  SYS / # / OBS TYPES 
       C7I L7I D7I S7I C6I L6I D6I S6I C7D L7D D7D S7D      SYS / # / OBS TYPES 
J   17 X1  C1C L1C D1C S1C C2L L2L D2L S2L C5Q L5Q D5Q S5Q  SYS / # / OBS TYPES 
       C1L L1L D1L S1L                                      SYS / # / OBS TYPES 
I    5 X1  C5A L5A D5A S5A                                  SYS / # / OBS TYPES 
SEPTENTRIO RECEIVERS OUTPUT ALIGNED CARRIER PHASES.         COMMENT             
NO FURTHER PHASE SHIFT APPLIED IN THE RINEX ENCODER.        COMMENT             
G L1C                                                       SYS / PHASE SHIFT   
G L2W                                                       SYS / PHASE SHIFT   
G L2L  0.00000                                              SYS / PHASE SHIFT   
G L5Q  0.00000                                              SYS / PHASE SHIFT   
G L1L  0.00000                                              SYS / PHASE SHIFT   
E L1C  0.00000                                              SYS / PHASE SHIFT   
E L6C  0.00000                                              SYS / PHASE SHIFT   
E L5Q  0.00000                                              SYS / PHASE SHIFT   
E L7Q  0.00000                                              SYS / PHASE SHIFT   
E L8Q  0.00000                                              SYS / PHASE SHIFT   
S L1C                                                       SYS / PHASE SHIFT   
S L5I                                                       SYS / PHASE SHIFT   
R L1C                                                       SYS / PHASE SHIFT   
R L2P  0.00000                                              SYS / PHASE SHIFT   
R L2C                                                       SYS / PHASE SHIFT   
R L3Q  0.00000                                              SYS / PHASE SHIFT   
C L1P  0.00000                                              SYS / PHASE SHIFT   
C L5P  0.00000                                              SYS / PHASE SHIFT   
C L2I                                                       SYS / PHASE SHIFT   
C L7I                                                       SYS / PHASE SHIFT   
C L6I                                                       SYS / PHASE SHIFT   
C L7D                                                       SYS / PHASE SHIFT   
J L1C                                                       SYS / PHASE SHIFT   
J L2L  0.00000                                              SYS / PHASE SHIFT   
J L5Q  0.00000                                              SYS / PHASE SHIFT   
J L1L  0.00000                                              SYS / PHASE SHIFT   
I L5A                                                       SYS / PHASE SHIFT   
  2025     1     2     1     0    0.0000000     GPS         TIME OF FIRST OBS   
 C1C    0.000 C2C    0.000 C2P    0.000                     GLONASS COD/PHS/BIS 
DBHZ                                                        SIGNAL STRENGTH UNIT
    18                                                      LEAP SECONDS        
 24 R01  1 R02 -4 R03  5 R04  6 R05  1 R06 -4 R07  5 R08  6 GLONASS SLOT / FRQ #
    R09 -2 R10 -7 R11  0 R12 -1 R13 -2 R14 -7 R15  0 R16 -1 GLONASS SLOT / FRQ #
    R17  4 R18 -3 R19  3 R20  2 R21  4 R22 -3 R23  3 R24  2 GLONASS SLOT / FRQ #
                                                            END OF HEADER       
> 2025 01 02 01 00  0.0000000  0 53
G09         1.000    24527053.646 6 128890552.35206      3313.110 6        38.009                                    24527051.996 5 100434197.86505      2581.641 5        32.707    24527052.003 6 100434197.87606      2581.474 6        36.208
R15         4.000    23968568.971 7 128080773.82307      1681.796 7        43.700                                                                    23968569.232 6  99618366.06006      1308.169 6        38.868
S21         5.000    38618016.849 6 202938775.53606      -463.520 6        41.826
E10         6.000    27647360.896 6 145287866.07306      2283.932 6        38.775                                                                    27647359.994 7 108494180.66107      1705.669 7        42.354    27647360.117 7 111324463.31907      1749.997 7        43.209
G28         7.000    23326542.728 7 122581824.37807      -108.700 7        43.323                                    23326538.888 5  95518287.46405       -84.705 5        30.294    23326538.533 7  95518295.46407       -84.658 7        42.616
G03         8.000    20203366.884 8 106169508.09808       195.643 8        49.728                                    20203364.610 8  82729528.50308       152.448 8        51.737    20203365.444 7  82729526.49807       152.544 7        45.490
G02         9.000    21310090.804 8 111985336.96308     -1945.069 8        49.059                                    21310083.845 6  87261296.89506     -1515.641 6        40.939
G31        10.000    23074980.120 7 121259845.90407      1648.235 7        43.287                                    23074975.366 6  94488175.06506      1284.334 6        39.907    23074975.782 6  94488180.07406      1284.309 6        40.186
C30        11.000                                                                                                                                    22275904.301 8 115996496.96508     -1449.874 8        50.749                                                                    22275904.318 8  94256659.07708     -1178.166 8        48.720
S27        12.000    39259580.195 5 206310499.46905      -446.724 5        35.852
R20        13.000    23887942.236 3                     -4833.520 3        21.381                                                                    23887940.568 5  99353072.49505     -3757.915 5        34.681
S36        14.000    38385498.732 7 201717665.39507      -463.284 7        43.968
I09        15.000    37313636.067 7 146426724.23907      -418.523 7        43.168
G19        16.000    23267703.541 6 122272628.98206      1860.331 6        41.590                                    23267697.763 4  95277356.67404      1449.613 4        29.052
S45        17.000    63583891.918 6 334136408.82406      -504.329 6        37.251
E12        19.000    25776050.533 6 135454066.00106      1752.029 6        41.199                                                                    25776046.546 7 101150751.99307      1308.228 7        44.852    25776046.472 7 103789466.73907      1342.511 7        44.789
G17        20.000    22415978.251 7 117796786.00807      -193.078 7        46.018                                    22415973.430 7  91789693.95007      -150.450 7        43.964    22415973.471 7  91789692.94207      -150.396 7        42.157
E26        21.000    25995890.408 7 136609667.95307     -2905.829 7        42.768                                                                    25995888.334 7 102013908.72007     -2169.951 7        46.722    25995888.245 7 104675116.84907     -2226.499 7        47.308
I06        22.000    38369247.453 7 150569406.48807      -248.018 7        43.456
S28        23.000    41058216.821 5 215762395.63905      -456.602 5        34.062
S23        25.000    38335211.316 7 201452862.29507      -459.868 7        44.904
C13        26.000                                                                                                                                    41554681.528 5 216386314.62205     -1132.249 5        33.587    41554683.084 5 167323732.62805      -875.486 5        33.623    41554680.853 5 175831690.31105      -919.948 5        30.045
E24        27.000    29249218.350 5 153705720.75005     -2644.583 5        33.988                                                                    29249216.668 6 114780260.23206     -1975.080 6        36.681    29249215.760 6 117774524.23906     -2026.279 6        37.066
R21        29.000    19948769.649 8 106749900.94708     -2749.822 8        52.180                                                                    19948767.812 7  83027704.18207     -2138.740 7        46.576
E19        30.000    25040752.304 6 131590070.27406      2148.431 6        40.269                                                                    25040750.430 7  98265313.06907      1604.327 7        42.504    25040750.208 7 100828752.96307      1646.227 7        43.492
R05        31.000    23449930.687 7 125353351.78407     -4436.004 7        43.754                                                                    23449931.272 6  97497059.24306     -3450.201 6        39.180
R23        32.000    23844753.994 6 127553354.08706      3809.414 6        41.459
E29        33.000    23668806.367 8 124380502.62208        -8.736 8        48.278                                                                    23668804.415 8  92881559.61808        -6.539 8        51.156    23668804.220 8  95304551.26308        -6.721 8        51.316
C16        35.000                                                                                                                                    39046387.232 7 203324815.25307        58.721 7        42.366    39046386.343 7 157223656.80407        45.583 7        43.822    39046384.359 6 165218067.57106        47.934 6        39.724
C32        36.000                                                                                                                                    21979857.609 8 114454944.92508      -143.103 8        50.884                                                                    21979857.288 8  93004039.72708      -116.316 8        49.952
G32        37.000    24969443.514 6 131215345.80906     -3800.033 6        39.144                                    24969441.994 5 102245724.43005     -2961.072 5        32.509    24969442.841 6 102245733.41406     -2960.936 6        36.631
E07        38.000    25975385.296 7 136501590.07107     -2723.166 7        42.908                                                                    25975385.318 7 101933043.75107     -2033.616 7        45.836    25975385.131 7 104592158.97807     -2086.602 7        46.753
C41        39.000                                                                                                                                    23984007.345 7 124891050.16007     -2894.197 7        47.176                                                                    23984012.336 7 101484237.62807     -2351.796 7        47.851
C39        40.000                                                                                                                                    39067162.363 7 203432993.61407      -394.241 7        42.817                                                                    39067157.847 7 165305966.84707      -320.352 7        43.331
E33        41.000    23407937.328 8 123009630.55908      -815.650 8        48.205                                                                    23407934.944 8  91857874.77108      -609.019 8        51.028    23407934.491 8  94254162.98908      -624.897 8        51.092
S44        42.000    40772280.942 6 214259980.98306      -535.408 6        37.837
R06        43.000    19471486.191 6 103903641.36706     -1376.694 6        41.995
C05        44.000                                                                                                                                    39298713.116 6 204638755.18706      -460.356 6        38.027    39298708.038 7 158239691.96107      -355.888 7        43.991    39298710.081 6 166285855.67906      -374.086 6        40.157
C29        45.000                                                                                                                                    24087236.831 7 125428583.66307      1766.167 7        45.944                                                                    24087234.143 7 101920996.57107      1435.133 7        45.350
G04        46.000    22247448.605 7 116911160.76507      2646.090 7        45.591                                    22247445.219 5  91099590.88505      2061.887 5        34.310    22247445.314 7  91099592.88207      2061.878 7        43.723
E25        47.000    28693904.080 5 150787504.82305      -925.174 5        35.595                                                                    28693904.377 6 112601063.39706      -690.705 6        39.532    28693904.178 6 115538479.64406      -708.655 6        40.458
R22        48.000    20180436.984 8 107724570.67008      1752.182 8        52.083                                                                    20180434.843 8  83785774.88208      1362.905 8        48.244
C20        49.000                                                                                                                                    25008745.691 7 130227125.56107      2312.384 7        45.469                                                                    25008740.684 7 105820189.70307      1878.902 7        44.265
C06        50.000                                                                                                                                    38651050.918 6 201266197.18106       181.137 6        40.329    38651045.342 7 155631773.70707       140.146 7        44.625    38651045.317 6 163545252.20406       147.050 6        41.697
S48        51.000    77372277.589 6 406595586.54106      -464.936 6        37.482
G21        52.000    22570283.259 7 118607709.54907     -2976.226 7        44.438                                    22570277.986 5  92421613.03305     -2319.138 5        32.461
C09        53.000                                                                                                                                    39331099.852 6 204807375.29306       632.759 6        41.223    39331096.392 7 158370043.82407       489.149 7        45.834    39331094.500 6 166422747.74306       514.018 6        41.540
C60        54.000                                                                                                                                    40772281.267 6 212312182.54106      -530.610 6        39.697                                                                    40772264.500 6 172521011.57406      -431.275 6        40.076
C27        55.000                                                                                                                                    24308312.337 7 126579776.68107     -3677.139 7        44.640                                                                    24308311.116 7 102856440.29107     -2988.044 7        45.421
R14        56.000    24022754.947 7 128054813.35807     -1261.084 7        43.549                                                                    24022755.428 6  99598206.18806      -980.741 6        39.504
C02        57.000                                                                                                                                    40739347.718 5 212140540.43105      -506.146 5        34.114    40739341.678 6 164040519.74006      -391.345 6        41.116    40739345.305 6 172381572.17906      -411.310 6        37.059
I03        58.000   104238126.449 6 333267570.47806       929.800 6        41.273
R07        59.000    20608178.902 8 110317257.65308      2069.818 8        51.329                                                                    20608177.147 7  85802364.79207      1609.843 7        46.822
> 2025 01 02 01 00  5.0000000  0 53
G09         1.000    24523902.079 6 128873988.28506      3312.531 6        38.670                                    24523899.873 5 100421290.81005      2581.192 5        32.695    24523899.888 6 100421290.79906      2581.253 6        36.091
R15         4.000    23966997.171 7 128072372.05807      1678.763 7        43.636                                                                    23966996.744 6  99611831.33406      1305.933 6        38.150
S21         5.000    38618455.001 7 202941092.85107      -463.407 7        42.063
E10         6.000    27645187.939 6 145276446.38906      2283.882 6        38.748                                                                    27645186.903 7 108485652.96807      1705.573 7        42.573    27645186.847 7 111315713.17407      1749.877 7        43.384
G28         7.000    23326647.303 7 122582375.59307      -111.894 7        42.978                                    23326643.752 5  95518716.97705       -87.189 5        30.204    23326643.447 7  95518724.97607       -87.157 7        42.366
G03         8.000    20203181.401 8 106168534.53708       193.682 8        49.664                                    20203179.346 8  82728769.88608       150.921 8        51.633    20203179.964 7  82728767.89207       150.915 7        45.214
G02         9.000    21311942.608 8 111995067.52408     -1947.212 8        49.240                                    21311935.476 6  87268879.14806     -1517.307 6        40.896
G31        10.000    23073412.808 7 121251610.58507      1645.821 7        43.382                                    23073408.362 6  94481757.94006      1282.456 6        39.793    23073408.351 6  94481762.93806      1282.497 6        40.677
C30        11.000                                                                                                                                    22277297.552 8 116003752.63508     -1452.481 8        50.812                                                                    22277297.640 8  94262554.89508     -1180.285 8        48.614
S27        12.000    39260003.314 6 206312732.26606      -446.478 6        36.045
R20        13.000                                                                                                                                    23892457.483 5  99371864.61905     -3758.734 5        34.248
S36        14.000    38385938.816 7 201719981.47907      -463.072 7        44.188
I09        15.000    37314169.549 7 146428817.32907      -418.753 7        43.130
G19        16.000    23265934.860 6 122263333.73106      1857.771 6        41.149                                    23265928.923 4  95270113.61604      1447.609 4        28.758
S45        17.000    63584328.057 6 334138930.25906      -504.356 6        37.399
E12        19.000    25774383.661 6 135445307.59506      1751.194 6        41.094                                                                    25774379.832 7 101144211.62007      1307.784 7        44.790    25774379.757 7 103782755.75007      1341.930 7        44.808
G17        20.000    22416163.421 7 117797758.43507      -195.915 7        45.546                                    22416158.466 7  91790451.68507      -152.661 7        43.886    22416158.478 6  91790450.69606      -152.723 6        41.387
E26        21.000    25998655.447 7 136624199.27507     -2906.897 7        43.289                                                                    25998653.521 7 102024760.02907     -2170.680 7        46.608    25998653.524 7 104686251.23107     -2227.363 7        47.390
I06        22.000    38369563.637 7 150570646.66607      -247.930 7        43.526
S28        23.000    41058654.056 5 215764677.95405      -456.542 5        34.429
S23        25.000    38335649.289 7 201455161.52007      -459.835 7        45.002
C13        26.000                                                                                                                                    41555768.305 5 216391975.90705     -1132.395 5        33.599    41555770.694 5 167328110.31405      -875.565 5        33.251    41555768.569 4 175836290.55104      -920.062 4        29.981
E24        27.000    29251735.026 5 153718946.16205     -2645.634 5        33.497                                                                    29251732.881 6 114790136.37306     -1975.930 6        36.378    29251732.118 6 117784658.00806     -2027.106 6        36.991
R21        29.000    19951340.180 8 106763658.76908     -2753.431 8        51.455                                                                    19951338.897 7  83038404.70607     -2141.603 7        46.130
E19        30.000    25038708.750 6 131579330.77106      2147.448 6        40.133                                                                    25038706.684 7  98257293.32007      1603.589 7        42.430    25038706.605 7 100820524.00107      1645.240 7        43.462
R05        31.000    23454079.486 7 125375531.63607     -4436.074 7        43.429                                                                    23454080.019 6  97514310.24406     -3450.347 6        39.997
R23        32.000    23841192.221 6 127534307.30106      3809.192 6        40.799
E29        33.000    23668815.675 8 124380551.45108       -10.863 8        48.278                                                                    23668813.712 8  92881596.07508        -8.117 8        51.065    23668813.489 8  95304588.67408        -8.339 8        51.253
C16        35.000                                                                                                                                    39046330.946 7 203324522.77307        58.084 7        42.538    39046330.058 7 157223430.65307        44.849 7        43.452    39046328.264 6 165217829.92006        47.071 6        39.715
C32        36.000                                                                                                                                    21979995.963 8 114455665.16008      -145.017 8        51.049                                                                    21979995.587 8  93004624.97308      -117.899 8        49.858
G32        37.000    24973059.875 6 131234347.89206     -3800.617 6        39.751                                    24973058.146 5 102260531.24305     -2961.521 5        32.760    24973058.421 6 102260540.23506     -2961.513 6        36.631
E07        38.000    25977976.921 7 136515208.85207     -2724.390 7        42.874                                                                    25977976.955 7 101943213.61207     -2034.440 7        45.714    25977976.702 7 104602594.14107     -2087.457 7        46.588
C41        39.000                                                                                                                                    23986786.627 7 124905522.96907     -2895.044 7        47.326                                                                    23986791.680 7 101495997.96207     -2352.475 7        47.678
C39        40.000                                                                                                                                    39067541.352 7 203434966.80807      -395.145 7        43.081                                                                    39067536.863 7 165307570.22007      -321.087 7        43.446
E33        41.000    23408714.020 8 123013712.48108      -817.243 8        48.334                                                                    23408711.661 8  91860922.95508      -610.284 8        50.961    23408711.264 8  94257290.69508      -626.248 8        51.062
S44        42.000    40772791.092 6 214262657.82106      -535.486 6        37.917
R06        43.000    19472776.979 7 103910532.23007     -1379.769 7        42.076
C05        44.000                                                                                                                                    39299155.252 6 204641056.47506      -460.285 6        38.129    39299149.745 7 158241471.45707      -355.872 7        43.708    39299151.971 6 166287725.65206      -374.023 6        40.164
C29        45.000                                                                                                                                    24085541.862 7 125419757.26707      1764.318 7        46.214                                                                    24085539.083 7 101913824.39807      1433.631 7        45.356
G04        46.000    22244931.827 7 116897934.19607      2644.464 7        45.598                                    22244928.317 5  91089284.46605      2060.622 5        34.262    22244928.678 7  91089286.47507      2060.561 7        44.004
E25        47.000    28694784.920 5 150792134.89605      -927.251 5        35.581                                                                    28694785.395 6 112604520.91206      -692.408 6        39.261    28694785.426 6 115542027.37706      -710.473 6        40.620
R22        48.000    20178796.968 8 107715817.25208      1749.032 8        51.616                                                                    20178794.945 8  83778966.67508      1360.372 8        48.330
C20        49.000                                                                                                                                    25006525.878 7 130215565.57007      2311.542 7        44.978                                                                    25006520.704 7 105810796.25607      1878.304 7        44.169
C06        50.000                                                                                                                                    38650877.814 6 201265293.56706       180.267 6        40.644    38650871.673 7 155631074.97707       139.432 7        44.281    38650871.924 6 163544517.94606       146.442 6        41.697
S48        51.000    77372715.772 6 406597910.92606      -464.894 6        37.588
G21        52.000    22573115.811 7 118622593.56507     -2977.448 7        44.209                                    22573110.303 5  92433210.97105     -2320.093 5        32.335
C09        53.000                                                                                                                                    39330492.957 6 204804213.80106       631.938 6        41.182    39330488.996 7 158367599.15207       488.635 7        45.789    39330487.384 6 166420178.77306       513.467 6        41.495
C60        54.000                                                                                                                                    40772790.701 6 212314835.02206      -530.381 6        39.718                                                                    40772773.885 6 172523166.91506      -430.968 6        39.955
C27        55.000                                                                                                                                    24311843.298 7 126598164.90707     -3678.223 7        45.096                                                                    24311842.331 7 102871382.22307     -2988.856 7        45.290
R14        56.000    24023939.452 7 128061128.28307     -1264.862 7        42.770                                                                    24023940.269 6  99603117.78306      -983.698 6        39.222
C02        57.000                                                                                                                                    40739833.761 5 212143070.74405      -505.860 5        34.248    40739827.847 6 164042476.34606      -391.337 6        41.097    40739831.173 6 172383628.26006      -411.469 6        37.021
I03        58.000   104236941.439 6 333262921.32506       929.812 6        41.080
R07        59.000    20606246.554 8 110306914.95608      2067.306 8        51.228                                                                    20606244.749 7  85794320.47907      1607.854 7        46.377
> 2025 01 02 01 00 10.0000000  0 53
G09         1.000    24520750.666 6 128857426.93506      3311.882 6        38.465                                    24520748.318 5 100408385.86305      2580.685 5        32.946    24520748.204 6 100408385.86406      2580.668 6        36.318
R15         4.000    23965427.772 7 128063986.15007      1675.398 7        43.890                                                                    23965427.489 6  99605309.00406      1303.118 6        38.189
S21         5.000    38618895.228 7 202943410.39007      -463.674 7        42.317
E10         6.000    27643015.428 6 145265027.60606      2283.413 6        39.261                                                                    27643014.043 7 108477125.97307      1705.080 7        42.231    27643014.013 7 111306963.71807      1749.634 7        43.227
G28         7.000    23326755.730 7 122582943.10807      -115.364 7        43.263                                    23326751.751 5  95519159.20105       -89.890 5        30.226    23326751.333 7  95519167.20107       -89.790 7        42.770
G03         8.000    20202998.305 8 106167571.26608       191.384 8        49.622                                    20202996.041 8  82728019.28408       149.133 8        51.570    20202996.575 7  82728017.29107       149.111 7        45.546
G02         9.000    21313796.391 8 112004809.51808     -1949.732 8        48.798                                    21313789.304 6  87276470.30706     -1519.269 6        40.803
G31        10.000    23071848.365 7 121243388.38707      1642.871 7        43.183                                    23071843.853 6  94475351.03706      1280.157 6        39.778    23071844.218 6  94475356.04506      1280.152 6        41.166
C30        11.000                                                                                                                                    22278693.611 8 116011021.84308     -1455.380 8        50.743                                                                    22278693.612 8  94268461.71208     -1182.517 8        48.796
S27        12.000    39260431.476 6 206314965.31706      -446.892 6        36.287
R20        13.000                                                                                                                                    23896977.277 5  99390659.87505     -3759.610 5        34.033
S36        14.000    38386380.456 7 201722297.89407      -463.553 7        44.381
I09        15.000    37314703.168 7 146430911.31907      -419.062 7        43.118
G19        16.000    23264169.237 6 122254052.48306      1854.624 6        41.790                                    23264162.721 4  95262881.49204      1445.164 4        28.550
S45        17.000    63584764.219 6 334141451.78706      -504.484 6        37.629
E12        19.000    25772717.671 6 135436553.33906      1750.281 6        41.035                                                                    25772713.950 7 101137674.35407      1307.025 7        44.897    25772713.883 7 103776047.95107      1341.075 7        44.783
G17        20.000    22416350.957 7 117798746.24407      -199.295 7        45.183                                    22416346.426 7  91791221.41107      -155.293 7        43.831    22416346.546 6  91791220.40806      -155.177 6        41.924
E26        21.000    26001421.462 7 136638735.84907     -2908.016 7        43.382                                                                    26001419.656 7 102035615.26607     -2171.576 7        46.487    26001419.613 7 104697389.64707     -2228.155 7        47.476
I06        22.000    38369879.610 7 150571886.98507      -248.212 7        43.395
S28        23.000    41059081.584 5 215766960.79505      -456.756 5        34.390
S23        25.000    38336086.663 7 201457460.75207      -460.015 7        45.163
C13        26.000                                                                                                                                    41556855.504 5 216397637.26905     -1132.382 5        33.539    41556856.756 5 167332488.03905      -876.041 5        32.545    41556855.190 4 175840890.89204      -920.106 4        29.839
E24        27.000    29254252.682 5 153732177.23905     -2647.309 5        33.515                                                                    29254250.969 6 114800016.67606     -1976.484 6        36.699    29254249.771 6 117794796.08006     -2028.185 6        36.639
R21        29.000    19953914.785 8 106777435.10908     -2757.325 8        51.845                                                                    19953913.228 7  83049119.63007     -2144.605 7        46.231
E19        30.000    25036666.291 6 131568597.79706      2145.720 6        40.427                                                                    25036664.374 7  98249278.42507      1602.323 7        42.262    25036664.069 7 100812300.02007      1644.147 7        43.357
R05        31.000    23458229.294 7 125397712.44007     -4436.411 7        43.426                                                                    23458229.545 6  97531561.96706     -3450.510 6        40.439
R23        32.000    23837632.017 6 127515263.30706      3808.405 6        40.513
E29        33.000    23668827.180 8 124380611.28008       -13.329 8        48.415                                                                    23668825.083 8  92881640.75708        -9.926 8        51.042    23668824.919 8  95304634.51608       -10.158 8        51.246
C16        35.000                                                                                                                                    39046276.028 7 203324235.07707        56.850 7        42.643    39046274.576 7 157223208.17807        44.075 7        43.179    39046272.911 6 165217596.12706        46.348 6        39.892
C32        36.000                                                                                                                                    21980136.277 8 114456395.32208      -147.233 8        51.113                                                                    21980135.783 8  93005218.27308      -119.482 8        50.057
G32        37.000    24976676.312 6 131253353.35106     -3801.597 6        39.901                                    24976674.959 5 102275340.68505     -2962.285 5        33.144    24976675.213 6 102275349.68706     -2962.203 6        36.919
E07        38.000    25980569.426 7 136528833.96907     -2725.857 7        42.781                                                                    25980569.635 7 101953388.21607     -2035.549 7        45.713    25980569.334 7 104613034.16907     -2088.650 7        46.629
C41        39.000                                                                                                                                    23989566.874 7 124920000.16107     -2896.106 7        47.511                                                                    23989571.872 7 101507761.86007     -2353.226 7        47.830
C39        40.000                                                                                                                                    39067921.112 7 203436944.84207      -396.316 7        43.335                                                                    39067916.731 7 165309177.53007      -321.886 7        43.683
E33        41.000    23409492.406 8 123017803.29608      -819.197 8        48.360                                                                    23409490.089 8  91863977.78808      -611.784 8        50.877    23409489.718 8  94260425.21508      -627.685 8        51.020
S44        42.000    40773298.527 6 214265334.78006      -535.551 6        37.849
R06        43.000    19474071.401 7 103917438.56307     -1382.937 7        42.203
C05        44.000                                                                                                                                    39299597.196 6 204643357.94906      -460.477 6        38.294    39299591.908 7 158243251.11707      -356.134 7        43.655    39299593.955 6 166289595.79106      -374.089 6        40.543
C29        45.000                                                                                                                                    24083848.648 7 125410940.68207      1762.159 7        46.165                                                                    24083845.918 7 101906660.19607      1432.019 7        45.541
G04        46.000    22242416.680 7 116884716.32107      2642.522 7        45.645                                    22242413.038 5  91078984.82805      2059.117 5        34.167    22242413.232 7  91078986.82807      2059.075 7        43.666
E25        47.000    28695668.210 5 150796776.48105      -929.779 5        34.614                                                                    28695668.741 6 112607987.02106      -694.214 6        38.721    28695668.747 6 115545583.90606      -712.396 6        40.420
R22        48.000    20177160.003 8 107707080.28908      1745.545 8        51.739                                                                    20177158.089 8  83772171.26908      1357.615 8        48.396
C20        49.000                                                                                                                                    25004307.104 7 130204010.60907      2310.315 7        45.109                                                                    25004301.656 7 105801406.88407      1877.475 7        44.348
C06        50.000                                                                                                                                    38650705.801 6 201264394.76606       179.074 6        40.768    38650699.094 7 155630379.97307       138.467 7        44.271    38650699.329 6 163543787.59006       145.715 6        41.959
S48        51.000    77373152.498 6 406600235.37806      -464.973 6        37.800
G21        52.000    22575949.378 7 118637484.74807     -2979.141 7        43.644                                    22575943.979 5  92444814.48705     -2321.412 5        32.216
C09        53.000                                                                                                                                    39329886.894 6 204801056.36406       630.896 6        41.280    39329882.801 7 158365157.63307       487.829 7        45.801    39329880.999 6 166417613.09106       512.807 6        41.712
C60        54.000                                                                                                                                    40773300.019 6 212317487.65506      -530.808 6        39.847                                                                    40773283.337 6 172525322.39706      -431.164 6        40.091
C27        55.000                                                                                                                                    24315375.976 7 126616558.59207     -3679.506 7        45.732                                                                    24315374.543 7 102886328.60307     -2989.787 7        45.472
R14        56.000    24025127.507 7 128067463.21507     -1269.184 7        43.293                                                                    24025127.586 6  99608044.98106      -987.024 6        38.072
C02        57.000                                                                                                                                    40740320.734 5 212145601.28505      -506.276 5        34.129    40740313.939 6 164044433.11006      -391.508 6        40.880    40740317.118 6 172385684.51806      -411.224 6        37.168
I03        58.000   104235756.796 6 333258272.44406       929.624 6        41.120
R07        59.000    20604317.132 8 110296585.48608      2064.361 8        51.509                                                                    20604314.967 7  85786286.45007      1605.553 7        46.525
> 2025 01 02 01 00 15.0000000  0 54
G09         1.000    24517599.345 6 128840868.58706      3311.262 6        38.523                                    24517597.421 5 100395483.26505      2580.203 5        33.072    24517597.891 6 100395483.26206      2580.153 6        36.374
G06         2.000    25947954.354 5 136357420.22815      3081.370 5        34.181
R15         4.000    23963861.637 7 128055616.59107      1672.165 7        43.810                                                                    23963861.058 6  99598799.30206      1300.712 6        37.070
S21         5.000    38619334.623 7 202945728.49107      -463.810 7        42.064
E10         6.000    27640842.632 6 145253610.03106      2283.514 6        39.501                                                                    27640841.282 7 108468599.87007      1705.082 7        42.161    27640841.196 7 111298215.20407      1749.490 7        43.228
G28         7.000    23326866.828 7 122583527.24907      -118.632 7        43.291                                    23326862.920 5  95519614.38105       -92.437 5        30.196    23326862.710 7  95519622.38307       -92.496 7        42.609
G03         8.000    20202816.929 8 106166618.57108       189.275 8        49.586                                    20202814.744 8  82727276.92308       147.485 8        51.667    20202815.387 7  82727274.91707       147.481 7        45.460
G02         9.000    21315652.436 8 112014563.23708     -1952.040 8        48.513                                    21315645.354 6  87284070.60606     -1521.068 6        40.915
G31        10.000    23070286.479 7 121235179.60407      1640.278 7        43.769                                    23070281.915 6  94468954.58506      1278.137 6        39.826    23070281.646 6  94468959.59706      1278.153 6        41.006
C30        11.000                                                                                                                                    22280092.230 8 116018304.89008     -1458.160 8        50.884                                                                    22280092.251 8  94274379.78708     -1184.724 8        48.778
S27        12.000    39260853.924 6 206317198.63306      -446.847 6        36.008
R20        13.000    23901496.400 3                     -4833.737 3        23.105                                                                    23901497.152 5  99409458.51805     -3760.264 5        34.181
S36        14.000    38386822.073 7 201724614.76407      -463.495 7        44.322
I09        15.000    37315237.069 7 146433006.46507      -419.304 7        42.931
G19        16.000    23262406.039 6 122244785.54406      1851.722 6        41.352                                    23262399.234 4  95255660.49504      1442.898 4        28.749
S45        17.000    63585202.219 6 334143973.55306      -504.360 6        37.508
E12        19.000    25771052.685 6 135427803.55206      1749.310 6        41.128                                                                    25771048.926 7 101131140.41507      1306.376 7        44.587    25771048.761 7 103769343.56407      1340.458 7        44.856
G17        20.000    22416541.906 7 117799749.72607      -202.391 7        45.058                                    22416537.382 7  91792003.34607      -157.706 7        43.871    22416537.651 7  91792002.35607      -157.826 7        42.072
E26        21.000    26004188.612 7 136653278.01107     -2909.116 7        43.086                                                                    26004186.918 7 102046474.66207     -2172.372 7        46.198    26004186.743 7 104708532.33707     -2229.046 7        47.450
I06        22.000    38370195.798 7 150573127.67507      -248.291 7        43.302
S28        23.000    41059519.069 5 215769243.89105      -456.849 5        34.400
S23        25.000    38336525.155 7 201459760.32207      -460.086 7        45.153
C13        26.000                                                                                                                                    41557942.764 5 216403299.12905     -1132.552 5        33.611    41557944.100 5 167336866.16705      -876.055 5        31.887    41557942.579 4 175845491.61504      -920.426 4        29.318
E24        27.000    29256772.047 5 153745414.17905     -2648.156 5        33.144                                                                    29256769.679 6 114809901.41906     -1977.489 6        36.280    29256769.105 6 117804938.67906     -2028.995 6        36.393
R21        29.000    19956493.117 8 106791230.19908     -2761.022 8        52.196                                                                    19956491.212 7  83059849.14007     -2147.491 7        46.121
E19        30.000    25034625.328 6 131557871.61206      2144.290 6        40.424                                                                    25034623.233 7  98241268.61607      1601.360 7        42.197    25034622.927 7 100804081.25507      1643.163 7        43.354
R05        31.000    23462379.374 7 125419894.32807     -4436.660 7        43.640                                                                    23462378.538 6  97548814.53506     -3450.672 6        40.248
R23        32.000    23834073.647 6 127496222.31606      3807.697 6        41.228
E29        33.000    23668840.488 8 124380682.40408       -15.516 8        48.358                                                                    23668838.646 8  92881693.86808       -11.548 8        50.829    23668838.447 8  95304689.01408       -11.865 8        51.238
C16        35.000                                                                                                                                    39046221.987 7 203323952.41307        55.910 7        42.692    39046220.389 7 157222989.60607        43.308 7        42.885    39046218.810 6 165217366.42606        45.726 6        39.940
C32        36.000                                                                                                                                    21980278.468 8 114457135.72308      -149.229 8        51.177                                                                    21980277.983 8  93005819.91108      -121.103 8        49.974
G32        37.000    24980293.359 6 131272362.54606     -3802.369 6        40.224                                    24980292.444 5 102290153.03205     -2962.885 5        33.281    24980292.476 6 102290162.03706     -2962.898 6        36.567
E07        38.000    25983163.757 7 136542465.69507     -2727.117 7        42.743                                                                    25983163.668 7 101963567.75907     -2036.561 7        45.397    25983163.328 7 104623479.26407     -2089.633 7        46.577
C41        39.000                                                                                                                                    23992348.130 7 124934482.03407     -2896.948 7        47.713                                                                    23992352.891 7 101519529.57207     -2353.880 7        47.834
C39        40.000                                                                                                                                    39068301.678 7 203438928.03307      -397.314 7        43.401                                                                    39068297.464 7 165310789.04007      -322.746 7        43.481
E33        41.000    23410272.582 8 123021903.28508      -821.006 8        48.361                                                                    23410270.307 8  91867039.46708      -613.092 8        50.697    23410269.940 8  94263566.76808      -629.101 8        51.072
S44        42.000    40773811.024 6 214268012.21106      -535.751 6        37.936
R06        43.000    19475368.314 7 103924360.73107     -1386.096 7        42.212
C05        44.000                                                                                                                                    39300039.645 6 204645659.92006      -460.689 6        38.423    39300033.829 7 158245031.14207      -356.135 7        43.560    39300036.091 6 166291466.31906      -374.076 6        40.405
C29        45.000                                                                                                                                    24082157.084 7 125402134.21007      1760.092 7        46.285                                                                    24082154.786 7 101899504.21007      1430.408 7        45.440
G04        46.000    22239902.742 7 116871507.45307      2640.770 7        45.658                                    22239899.449 5  91068692.19905      2057.741 5        34.362    22239899.663 7  91068694.20007      2057.667 7        44.179
E25        47.000    28696553.832 5 150801429.89605      -931.899 5        34.938                                                                    28696554.314 6 112611461.97806      -695.951 6        38.733    28696554.297 6 115549149.50406      -714.207 6        40.434
R22        48.000    20175527.008 8 107698360.09008      1742.185 8        51.836                                                                    20175524.316 7  83765388.87007      1355.107 7        47.978
C20        49.000                                                                                                                                    25002089.459 7 130192460.92407      2309.254 7        44.948                                                                    25002083.688 7 105792021.81907      1876.719 7        44.343
C06        50.000                                                                                                                                    38650533.938 6 201263501.06606       178.175 6        40.865    38650527.621 7 155629688.90307       137.816 7        43.977    38650527.734 6 163543061.37906       144.926 6        41.602
S48        51.000    77373589.894 6 406600960.34516      -465.058 6        37.735
G21        52.000    22578784.413 7 118652383.35307     -2980.618 7        43.723                                    22578779.104 5  92456423.78705     -2322.552 5        32.293
C09        53.000                                                                                                                                    39329281.226 6 204797903.36806       630.149 6        41.433    39329277.664 7 158362719.53907       487.162 7        45.791    39329275.570 6 166415051.02006       512.106 6        41.452
C60        54.000                                                                                                                                    40773809.453 6 212320140.74006      -530.738 6        39.940                                                                    40773792.735 6 172527478.23206      -431.128 6        40.200
C27        55.000                                                                                                                                    24318909.640 7 126634958.04107     -3680.635 7        45.967                                                                    24318908.028 7 102901279.65807     -2990.622 7        45.300
R14        56.000    24026319.702 7 128073818.55107     -1273.265 7        42.882                                                                    24026319.847 6  99612987.99406      -990.126 6        37.773
C02        57.000                                                                                                                                    40740806.817 5 212148132.29805      -506.703 5        34.205    40740799.606 6 164046390.25506      -391.716 6        40.875    40740803.228 6 172387741.16606      -411.435 6        37.081
I03        58.000   104234572.394 6 333253624.05306       929.587 6        41.063
R07        59.000    20602390.615 8 110286269.77808      2061.683 8        51.492                                                                    20602388.449 7  85778263.11107      1603.538 7        46.740
> 2025 01 02 01 00 20.0000000  0 54
G09         1.000    24514449.082 6 128824313.09606      3310.774 6        38.429                                    24514447.109 5 100382582.89505      2579.821 5        33.000    24514447.020 6 100382582.92206      2579.575 6        36.563
G06         2.000    25945022.982 5 136342012.54805      3081.535 5        32.850                                                                                                    25945022.980 5 106240537.02115      2401.509 5        33.012
R15         4.000    23962298.214 7 128047263.07907      1668.985 7        43.354                                                                    23962297.274 6  99592302.12506      1298.380 6        37.036
S21         5.000    38619777.707 6 202948046.87406      -463.845 6        41.700
E10         6.000    27638670.272 6 145242193.52106      2283.118 6        39.871                                                                    27638668.770 7 108460074.54207      1705.040 7        42.199    27638668.871 7 111289467.48107      1749.436 7        43.543
G28         7.000    23326980.878 7 122584127.83807      -121.882 7        42.861                                    23326977.264 5  95520082.37205       -94.973 5        30.143    23326976.842 7  95520090.36807       -94.849 7        42.434
G03         8.000    20202637.796 8 106165676.30608       187.296 8        49.477                                    20202635.427 8  82726542.69208       145.943 8        51.581    20202636.051 7  82726540.69407       145.972 7        45.419
G02         9.000    21317510.751 8 112024328.50608     -1954.241 8        48.404                                    21317503.630 6  87291679.90406     -1522.784 6        40.770
G31        10.000    23068726.924 7 121226984.06707      1637.791 7        43.818                                    23068722.428 6  94462568.45706      1276.201 6        39.955    23068721.966 6  94462573.46506      1276.211 6        41.063
C30        11.000                                                                                                                                    22281493.477 8 116025601.59608     -1460.807 8        50.914                                                                    22281493.542 8  94280308.98108     -1186.954 8        48.816
S27        12.000    39261281.303 5 206319432.21105      -446.704 5        35.957
R20        13.000    23906019.012 3                     -4835.107 3        22.971                                                                    23906017.281 5  99428260.37705     -3760.723 5        33.251
S36        14.000    38387262.465 7 201726930.81307      -463.351 7        44.131
I09        15.000    37315771.122 7 146435102.64007      -419.328 7        42.997
G19        16.000    23260644.781 6 122235532.73906      1849.062 6        41.933                                    23260638.457 4  95248450.51504      1440.825 4        28.815
S45        17.000    63585637.348 6 334144895.57716      -504.579 6        37.607
E12        19.000    25769388.356 6 135419057.99706      1748.738 6        41.089                                                                    25769384.657 7 101124609.65007      1305.781 7        44.695    25769384.619 7 103762642.43307      1339.870 7        44.777
G17        20.000    22416735.987 7 117800768.71507      -205.430 7        45.369                                    22416731.285 7  91792797.35907      -160.076 7        43.837    22416731.393 7  91792796.36807      -160.165 7        42.159
E26        21.000    26006957.116 7 136667825.58207     -2910.183 7        42.457                                                                    26006955.256 7 102057338.09507     -2173.136 7        46.190    26006954.890 7 104719679.15907     -2229.764 7        47.364
I06        22.000    38370511.906 7 150574368.58107      -248.167 7        43.422
S28        23.000    41059956.747 5 215771527.34205      -456.897 5        34.376
S23        25.000    38336961.165 7 201462060.23107      -460.064 7        45.076
C13        26.000                                                                                                                                    41559029.863 5 216408961.13405     -1132.165 5        33.365    41559031.693 5 167341244.41105      -875.635 5        32.299    41559029.146 4 175850092.49604      -920.123 4        29.554
E24        27.000    29259292.536 5 153758656.85005     -2649.212 5        33.054                                                                    29259289.831 6 114819790.43806     -1978.388 6        36.219    29259289.268 6 117815085.68006     -2030.076 6        36.563
R21        29.000    19959074.511 8 106805043.98608     -2764.709 8        52.017                                                                    19959072.822 7  83070593.19207     -2150.297 7        46.549
E19        30.000    25032585.398 6 131547151.94406      2143.142 6        40.789                                                                    25032583.394 7  98233263.65507      1600.538 7        42.330    25032583.012 7 100795867.48007      1642.245 7        43.439
R05        31.000    23466529.582 7 125442077.27407     -4436.665 7        43.736                                                                    23466528.130 6  97566067.96306     -3450.843 6        40.644
R23        32.000    23830514.815 6 127477184.27006      3807.243 6        40.665
E29        33.000    23668856.249 8 124380764.63908       -17.615 8        48.382                                                                    23668854.289 8  92881755.27508       -13.124 8        50.964    23668854.086 8  95304752.02708       -13.512 8        51.236
C16        35.000                                                                                                                                    39046168.158 7 203323674.64007        55.061 7        42.821    39046167.110 7 157222774.81807        42.605 7        42.978    39046165.455 6 165217140.74406        44.798 6        39.985
C32        36.000                                                                                                                                    21980422.532 8 114457886.17108      -151.145 8        51.107                                                                    21980422.057 8  93006429.73508      -122.729 8        50.035
G32        37.000    24983911.753 6 131291375.21206     -3802.916 6        40.331                                    24983910.492 5 102304968.08805     -2963.309 5        33.245    24983910.185 6 102304977.09806     -2963.234 6        36.280
E07        38.000    25985759.311 7 136556103.86407     -2728.372 7        43.027                                                                    25985758.895 7 101973752.09307     -2037.309 7        45.604    25985758.609 7 104633929.27807     -2090.552 7        46.623
