     3.04           OBSERVATION DATA    M                   RINEX VERSION / TYPE
ssrcrin-15.6.1x                         20250102 221500 UTC PGM / RUN BY / DATE 
(00000000023479385599111004) Septentrio proprietary         COMMENT             
rref                                                        MARKER NAME         
01                                                          MARKER NUMBER       
geodetic                                                    MARKER TYPE         
NFB                 CLIMERS@TUW                             OBSERVER / AGENCY   
3297213             SEPT ASTERX SB3 PROB4.14.4              REC # / TYPE / VERS 
Unknown             Unknown                                 ANT # / TYPE        
  4127832.1620  1207193.3631  4695248.0798                  APPROX POSITION XYZ 
        0.0000        0.0000        0.0000                  ANTENNA: DELTA H/E/N
G   23 X1  C1C L1C D1C S1C C1W S1W C2W L2W D2W S2W C2L L2L  SYS / # / OBS TYPES 
       D2L S2L C5Q L5Q D5Q S5Q C1L L1L D1L S1L              SYS / # / OBS TYPES 
E   21 X1  C1C L1C D1C S1C C6C L6C D6C S6C C5Q L5Q D5Q S5Q  SYS / # / OBS TYPES 
       C7Q L7Q D7Q S7Q C8Q L8Q D8Q S8Q                      SYS / # / OBS TYPES 
S    9 X1  C1C L1C D1C S1C C5I L5I D5I S5I                  SYS / # / OBS TYPES 
R   17 X1  C1C L1C D1C S1C C2P L2P D2P S2P C2C L2C D2C S2C  SYS / # / OBS TYPES 
       C3Q L3Q D3Q S3Q                                      SYS / # / OBS TYPES 
C   25 X1  C1P L1P D1P S1P C5P L5P D5P S5P C2I L2I D2I S2I  SYS / # / OBS TYPES 
       C7I L7I D7I S7I C6I L6I D6I S6I C7D L7D D7D S7D      SYS / # / OBS TYPES 
J   17 X1  C1C L1C D1C S1C C2L L2L D2L S2L C5Q L5Q D5Q S5Q  SYS / # / OBS TYPES 
       C1L L1L D1L S1L                                      SYS / # / OBS TYPES 
I    5 X1  C5A L5A D5A S5A                                  SYS / # / OBS TYPES 
SEPTENTRIO RECEIVERS OUTPUT ALIGNED CARRIER PHASES.         COMMENT             
NO FURTHER PHASE SHIFT APPLIED IN THE RINEX ENCODER.        COMMENT             
G L1C                                                       SYS / PHASE SHIFT   
G L2W                                                       SYS / PHASE SHIFT   
G L2L  0.00000                                              SYS / PHASE SHIFT   
G L5Q  0.00000                                              SYS / PHASE SHIFT   
G L1L  0.00000                                              SYS / PHASE SHIFT   
E L1C  0.00000                                              SYS / PHASE SHIFT   
E L6C  0.00000                                              SYS / PHASE SHIFT   
E L5Q  0.00000                                              SYS / PHASE SHIFT   
E L7Q  0.00000                                              SYS / PHASE SHIFT   
E L8Q  0.00000                                              SYS / PHASE SHIFT   
S L1C                                                       SYS / PHASE SHIFT   
S L5I                                                       SYS / PHASE SHIFT   
R L1C                                                       SYS / PHASE SHIFT   
R L2P  0.00000                                              SYS / PHASE SHIFT   
R L2C                                                       SYS / PHASE SHIFT   
R L3Q  0.00000                                              SYS / PHASE SHIFT   
C L1P  0.00000                                              SYS / PHASE SHIFT   
C L5P  0.00000                                              SYS / PHASE SHIFT   
C L2I                                                       SYS / PHASE SHIFT   
C L7I                                                       SYS / PHASE SHIFT   
C L6I                                                       SYS / PHASE SHIFT   
C L7D                                                       SYS / PHASE SHIFT   
J L1C                                                       SYS / PHASE SHIFT   
J L2L  0.00000                                              SYS / PHASE SHIFT   
J L5Q  0.00000                                              SYS / PHASE SHIFT   
J L1L  0.00000                                              SYS / PHASE SHIFT   
I L5A                                                       SYS / PHASE SHIFT   
  2025     1     2    22    15    0.0000000     GPS         TIME OF FIRST OBS   
 C1C    0.000 C2C    0.000 C2P    0.000                     GLONASS COD/PHS/BIS 
DBHZ                                                        SIGNAL STRENGTH UNIT
    18                                                      LEAP SECONDS        
 24 R01  1 R02 -4 R03  5 R04  6 R05  1 R06 -4 R07  5 R08  6 GLONASS SLOT / FRQ #
    R09 -2 R10 -7 R11  0 R12 -1 R13 -2 R14 -7 R15  0 R16 -1 GLONASS SLOT / FRQ #
    R17  4 R18 -3 R19  3 R20  2 R21  4 R22 -3 R23  3 R24  2 GLONASS SLOT / FRQ #
                                                            END OF HEADER       
> 2025 01 02 22 15  0.0000000  0 53
G23         1.000    25030740.500 6 131537508.42406     -3835.968 6        36.900                                    25030737.037 2 102496781.91402     -2989.053 2        17.434    25030737.109 5 102496779.90505     -2989.015 5        35.790
G21         4.000    20734903.533 7 108962717.82207       454.213 7        45.437                                    20734898.620 6  84906019.48106       353.932 6        37.592
S21         5.000    38387053.175 7 201724992.40507      -354.044 7        42.256
E13         6.000    26697834.393 6 140298095.56406      1942.481 6        40.467                                                                    26697835.614 7 104768080.71507      1450.629 7        43.196    26697835.171 7 107501156.77007      1488.433 7        44.060
G10         7.000    21849451.814 7 114819711.89407     -2665.312 7        47.584                                    21849449.955 7  89469921.82207     -2076.866 7        47.082    21849450.211 7  89469915.82607     -2076.893 7        42.931
E15         8.000    23475278.740 8 123363534.54008       307.703 8        48.143                                                                    23475279.041 8  92122188.96208       229.735 8        51.127    23475278.742 8  94525364.25908       235.764 8        51.648
G27        10.000    22203016.257 7 116677787.26807     -3610.330 7        45.818                                    22203014.252 7  90917826.11707     -2813.245 7        46.071    22203015.016 7  90917828.12407     -2813.174 7        42.978
G14        11.000    24031707.300 6 126287480.67006       858.139 6        38.613                                    24031704.505 4  98405822.37704       668.682 4        24.692    24031705.047 6  98405826.37206       668.732 6        40.644
G32        12.000    22018085.361 8 115705847.21408       879.020 8        48.671                                    22018083.253 7  90160400.53107       684.952 7        47.737    22018083.734 7  90160373.52607       684.966 7        44.101
G03        13.000    24371681.378 6 128074075.25806      3326.666 6        38.093                                    24371681.070 5  99797989.55705      2592.209 5        31.230    24371681.242 6  99797994.57706      2592.165 6        36.144
S36        14.000    38155269.320 7 200507806.93407      -353.522 7        43.725
C13        15.000                                                                                                                                    39873437.027 6 207631506.21306     -1306.615 6        38.874    39873438.916 6 160553884.80006     -1010.237 6        40.136    39873436.948 6 168717628.78606     -1062.008 6        38.432
C16        17.000                                                                                                                                    41273152.539 6 214920137.17006      1584.204 6        36.113    41273153.618 6 166189885.62506      1224.917 6        37.278    41273150.666 5                      1287.043 5        33.695
E27        18.000    26027631.672 7 136776144.08007     -2368.326 7        42.557                                                                    26027631.802 7 102138033.20207     -1768.601 7        45.833    26027631.444 7 104802500.92807     -1814.692 7        46.067
E05        20.000    23713726.232 7 124616497.86507      -119.655 7        43.797                                                                    23713726.151 7  93057779.28107       -89.274 7        47.282    23713725.914 8  95485375.60708       -91.701 8        48.249
C41        21.000                                                                                                                                    26149730.086 6 136168508.68006      3151.436 6        40.534                                                                    26149736.036 6 110648091.85806      2560.711 6        41.824
I06        22.000    38401674.120 6 150696649.42706      -160.511 6        41.807
E03        23.000    25681834.308 7 134958962.76207      2283.974 7        42.897                                                                    25681834.859 7 100781070.95407      1705.567 7        46.818    25681834.475 7 103410139.16507      1749.974 7        47.894
R22        24.000    21697991.827 8 115825387.44608      2868.312 8        48.693                                                                    21697990.356 7  90086424.99807      2230.916 7        43.810
S23        25.000    38112068.823 7 200280259.71007      -351.891 7        44.128
S45        26.000    63362207.504 6 332971433.17806      -395.182 6        37.622
G02        27.000    22002512.432 7 115624028.67007      1674.404 7        45.989                                    22002505.967 5  90096635.00505      1304.728 5        35.881
S27        28.000    39072921.348 5 205329682.48205      -323.230 5        35.338
C39        29.000                                                                                                                                    40657950.433 6 211716623.70806      1429.864 6        38.060                                                                    40657947.118 6 172037092.28806      1161.722 6        39.790
E21        30.000    26742303.541 6 140531763.03506       157.095 6        40.698                                                                    26742303.930 7 104942556.25007       117.305 7        44.164    26742303.478 7 107680184.55407       120.368 7        44.400
C43        31.000                                                                                                                                    22571332.437 8 117534954.85708     -2379.530 8        49.733                                                                    22571330.862 8  95506820.64308     -1933.672 8        48.311
C42        32.000                                                                                                                                    22687470.262 8 118139634.77508     -1672.236 8        48.789                                                                    22687477.515 8  95998172.89508     -1358.950 8        49.849
C28        33.000                                                                                                                                    21973939.445 8 114424078.15808      1137.345 8        50.333                                                                    21973938.239 8  92978937.00908       924.061 8        48.606
R13        34.000    23209901.023 6 123939591.28906       240.051 6        39.973
E34        35.000    24543327.727 7 128976264.81907     -1922.760 7        46.087                                                                    24543327.742 8  96313555.29508     -1435.861 8        48.907    24543327.494 8  98826071.61308     -1473.356 8        49.801
C14        36.000                                                                                                                                    21974156.338 8 114425212.08908        67.562 8        48.704    21974151.807 8  88480820.06808        52.189 8        52.112    21974150.666 8  92979836.32808        54.777 8        49.849
R21        37.000    19306508.699 8 103313084.15708      -108.335 8        52.038                                                                    19306507.256 7  80354642.72307       -84.303 7        46.418
R06        38.000    19787481.973 7 105589821.23507      1880.244 7        42.626
R05        39.000    20927221.845 8 111868016.71308     -3175.109 8        49.035                                                                    20927220.711 7  87008466.68707     -2469.545 7        45.929
C27        40.000                                                                                                                                    25229406.257 7 131376157.25307      2651.376 7        42.453                                                                    25229405.517 6 106753900.84606      2154.409 6        41.921
S44        42.000    40437252.272 6 212499403.67206      -388.742 6        36.711
G08        43.000    20506352.572 8 107761706.21108     -1722.458 8        49.980                                    20506350.836 8  83970201.91608     -1342.175 8        50.490    20506351.691 7  83970199.92007     -1342.173 7        45.079
C05        44.000                                                                                                                                    39103564.168 6 203622554.51406      -309.826 6        38.625    39103558.156 7 157453899.96007      -239.483 7        42.313    39103560.320 6 165460108.51606      -251.838 6        39.625
C11        45.000                                                                                                                                    24145841.666 7 125733866.87407     -3028.051 7        42.853    24145838.332 7  97225460.44807     -2341.468 7        47.701    24145836.831 7 102169104.48707     -2460.706 7        45.476
E09        46.000    28024595.927 6 147270271.78006     -2541.566 6        36.820                                                                    28024596.481 6 109974566.09506     -1897.987 6        41.421    28024596.003 7 112843464.73007     -1947.502 7        42.011
C33        47.000                                                                                                                                    22628350.597 8 117831784.33608      1704.633 8        49.915                                                                    22628362.100 8  95748034.09508      1385.067 8        49.326
C21        48.000                                                                                                                                    26469665.177 6 137834519.72706     -3559.290 6        40.186                                                                    26469659.306 6 112001825.51306     -2892.243 6        40.074
R07        49.000    22884433.631 7 122502202.39407      4133.524 7        45.437                                                                    22884432.519 6  95279486.18306      3215.053 6        41.456
S48        51.000    77139492.135 6 405370962.76706      -377.824 6        37.248
C08        52.000                                                                                                                                    40617959.090 5 211508476.84605     -1437.543 5        34.933    40617953.667 6 163551800.55106     -1111.473 6        39.354    40617952.527 5 171867980.86305     -1168.077 5        35.476
C34        53.000                                                                                                                                    26343932.432 4 137180037.68204     -3490.891 4        28.351                                                                    26343932.201 4 111470132.17104     -2836.801 4        29.716
C60        54.000                                                                                                                                    40437256.496 6 210567610.36506      -385.170 6        40.222                                                                    40437240.109 6 171103401.90206      -313.059 6        40.725
R12        55.000    22900533.914 7 122330529.75107     -2528.288 7        45.559                                                                    22900534.452 6  95145967.51206     -1966.466 6        41.194
I09        56.000    37395978.153 7 146749885.22207        92.351 7        42.955
C02        57.000                                                                                                                                    40471142.733 5 210743913.42605      -341.363 5        33.545    40471136.958 6 162960556.43406      -264.074 6        39.979    40471140.316 6 171246696.09106      -277.356 6        36.431
I03        58.000    78211967.098 6 231135318.69506      1098.974 6        39.667
E30        59.000    28160957.356 6 147987024.42706     -3441.314 6        38.036                                                                    28160958.598 6 110509903.84606     -2569.757 6        40.930    28160957.935 6 113392754.98406     -2636.817 6        41.080
R20        60.000    21642272.355 6 115731155.82906     -3239.896 6        36.072                                                                    21642274.405 7  90013189.08507     -2519.893 7        43.994
> 2025 01 02 22 15  5.0000000  0 53
G23         1.000    25034390.438 6 131556689.89906     -3836.337 6        36.907                                    25034387.044 2 102511728.51702     -2989.349 2        17.358    25034387.000 6 102511726.49706     -2989.050 6        36.125
G21         4.000    20734472.745 7 108960452.02807       452.324 7        45.344                                    20734467.466 6  84904253.92606       352.460 6        37.664
S21         5.000    38387392.182 7 201726763.63907      -354.132 7        42.408
E13         6.000    26695986.808 6 140288384.93106      1942.013 6        40.763                                                                    26695987.758 7 104760829.27807      1450.219 7        43.213    26695987.381 7 107493716.16107      1488.094 7        43.979
G10         7.000    21851988.641 7 114833043.52607     -2667.093 7        47.841                                    21851986.895 7  89480310.10407     -2078.255 7        47.235    21851986.668 7  89480304.11407     -2078.345 7        43.111
E15         8.000    23474986.667 8 123361999.81308       306.462 8        48.154                                                                    23474987.016 8  92121042.89208       228.925 8        51.297    23474986.675 8  94524188.29608       234.880 8        51.510
G27        10.000    22206452.440 7 116695844.10507     -3612.187 7        45.106                                    22206450.475 7  90931896.38007     -2814.692 7        46.191    22206450.847 7  90931898.37407     -2814.643 7        43.304
G14        11.000    24030892.049 6 126283198.22106       855.005 6        39.225                                    24030889.663 4  98402485.40504       666.235 4        24.737    24030889.947 6  98402489.41206       666.375 6        41.082
G32        12.000    22017250.806 8 115701460.44808       875.796 8        48.196                                    22017248.513 7  90156982.27707       682.437 7        47.874    22017249.240 7  90156955.28307       682.366 7        44.114
G03        13.000    24368516.261 6 128057444.99406      3325.578 6        38.270                                    24368516.351 5  99785030.91405      2591.358 5        31.004    24368516.354 6  99785035.91506      2591.453 6        36.491
S36        14.000    38155603.766 7 200509575.42607      -353.654 7        43.587
C13        15.000                                                                                                                                    39874692.097 6 207638040.36906     -1306.603 6        39.021    39874693.843 6 160558937.42806     -1010.420 6        39.988    39874691.790 6 168722938.34006     -1062.029 6        38.405
C16        17.000                                                                                                                                    41271631.460 6 214912218.37606      1583.834 6        36.053    41271632.628 6 166183762.32706      1224.709 6        37.043    41271630.173 5 174633771.58315      1286.707 5        33.760
E27        18.000    26029886.366 7 136787991.22107     -2370.336 7        42.713                                                                    26029886.156 7 102146880.08507     -1770.001 7        46.045    26029885.883 7 104811578.60407     -1816.188 7        46.000
E05        20.000    23713841.551 7 124617103.38407      -122.310 7        44.102                                                                    23713841.420 7  93058231.45807       -91.299 7        47.582    23713841.188 8  95485839.57808       -93.703 8        48.264
C41        21.000                                                                                                                                    26146704.631 6 136152753.47006      3150.839 6        40.865                                                                    26146710.489 6 110635289.46606      2560.459 6        41.971
I06        22.000    38401879.167 6 150697453.27006      -160.791 6        41.735
E03        23.000    25679662.437 7 134947547.57707      2282.395 7        42.976                                                                    25679662.624 7 100772546.62607      1704.424 7        47.054    25679662.320 7 103401392.45907      1748.922 7        47.655
R22        24.000    21695306.201 8 115811048.70908      2867.418 8        49.103                                                                    21695304.198 7  90075272.66207      2230.144 7        44.495
S23        25.000    38112403.237 7 200282020.59307      -352.154 7        44.093
S45        26.000    63362539.119 6 332973410.85306      -395.498 6        37.905
G02        27.000    22000919.986 7 115615660.62007      1673.153 7        46.031                                    22000913.582 5  90090114.44905      1303.754 5        35.948
S27        28.000    39073229.805 5 205331299.39405      -323.381 5        35.190
C39        29.000                                                                                                                                    40656578.403 6 211709477.72406      1428.823 6        37.955                                                                    40656574.673 6 172031285.59906      1161.167 6        40.231
E21        30.000    26742155.434 6 140530984.65306       154.389 6        40.589                                                                    26742155.758 7 104941974.98907       115.385 7        44.396    26742155.402 7 107679588.13107       118.392 7        44.411
C43        31.000                                                                                                                                    22573617.980 8 117546857.69208     -2381.333 8        49.796                                                                    22573616.597 8  95516492.68608     -1935.067 8        48.424
C42        32.000                                                                                                                                    22689077.254 8 118148002.97608     -1674.841 8        48.745                                                                    22689084.576 8  96004972.75708     -1360.945 8        49.926
C28        33.000                                                                                                                                    21972848.508 8 114418396.66908      1135.486 8        50.305                                                                    21972847.146 8  92974320.34808       922.671 8        48.669
R13        34.000    23209679.310 6 123938402.94906       235.474 6        39.213
E34        35.000    24545157.873 7 128985881.94007     -1923.835 7        46.080                                                                    24545157.821 8  96320736.90708     -1436.571 8        49.052    24545157.609 8  98833440.57208     -1474.074 8        49.673
C14        36.000                                                                                                                                    21974093.039 8 114424882.66408        64.546 8        48.673    21974088.565 8  88480565.33808        49.908 8        52.043    21974087.415 8  92979568.65608        52.426 8        49.985
R21        37.000    19306611.452 8 103313633.94908      -111.263 8        51.991                                                                    19306609.590 7  80355070.34607       -86.558 7        46.729
R06        38.000    19785721.809 7 105580430.72107      1876.126 7        42.557
R05        39.000    20930193.060 8 111883901.85808     -3178.695 8        49.384                                                                    20930192.272 7  87020821.79407     -2472.299 7        45.753
C27        40.000                                                                                                                                    25226860.648 7 131362902.20807      2650.846 7        42.193                                                                    25226860.142 6 106743130.05806      2154.023 6        41.926
S44        42.000    40437621.874 6 212501348.42606      -388.805 6        36.968
G08        43.000    20507993.291 8 107770326.65408     -1725.479 8        49.930                                    20507991.251 8  83976919.14508     -1344.530 8        50.535    20507992.075 7  83976917.14207     -1344.406 7        45.421
C05        44.000                                                                                                                                    39103861.612 6 203624104.88306      -310.191 6        38.526    39103855.720 7 157455098.79807      -239.842 7        42.478    39103858.027 6 165461368.32206      -252.043 6        39.721
C11        45.000                                                                                                                                    24148749.347 7 125749010.84107     -3029.392 7        42.290    24148746.677 7  97237170.71207     -2342.424 7        47.708    24148745.165 7 102181410.19207     -2461.507 7        45.454
E09        46.000    28027015.119 5 147282984.79105     -2543.450 5        35.967                                                                    28027015.761 6 109984059.55806     -1899.290 6        41.688    28027015.152 6 112853205.86106     -1948.742 6        41.790
C33        47.000                                                                                                                                    22626715.167 8 117823267.81908      1702.170 8        50.033                                                                    22626726.633 8  95741113.74008      1383.188 8        49.334
C21        48.000                                                                                                                                    26473083.136 6 137852318.41406     -3560.002 6        40.029                                                                    26473077.215 6 112016288.41606     -2892.768 6        40.038
R07        49.000    22880572.778 7 122481538.01007      4132.314 7        44.692                                                                    22880571.739 6  95263413.89406      3214.095 6        40.870
S48        51.000    77139833.320 6 405372852.68206      -378.059 6        37.338
C08        52.000                                                                                                                                    40619339.323 5 211515664.38505     -1437.397 5        34.738    40619334.499 6 163557358.42406     -1111.276 6        39.183    40619332.635 5 171873821.35505     -1168.056 5        35.476
C34        53.000                                                                                                                                    26347284.423 4 137197494.61104     -3491.193 4        27.569                                                                    26347284.038 4 111484317.37804     -2837.497 4        28.682
C60        54.000                                                                                                                                    40437626.501 6 210569537.44806      -385.434 6        40.310                                                                    40437610.306 6 171104967.82906      -313.147 6        40.892
R12        55.000    22902902.359 7 122343180.66807     -2531.844 7        45.705                                                                    22902903.565 7  95155807.11407     -1969.183 7        42.002
I09        56.000    37395860.912 7 146749425.22507        91.946 7        42.857
C02        57.000                                                                                                                                    40471470.459 5 210745621.49605      -341.328 5        33.263    40471464.885 6 162961877.22206      -264.087 6        40.040    40471468.283 6 171248084.06106      -277.528 6        36.246
I03        58.000    78210567.199 6 231129824.87206      1098.890 6        39.333
E30        59.000    28164231.862 6 148004231.14906     -3441.258 6        38.339                                                                    28164232.887 6 110522753.01606     -2569.812 6        40.913    28164232.299 6 113405939.34806     -2636.762 6        40.844
R20        60.000    21645302.528 5 115747360.34405     -3241.708 5        35.938                                                                    21645304.332 7  90025792.59407     -2521.274 7        44.230
> 2025 01 02 22 15 10.0000000  0 53
G23         1.000    25038041.202 6 131575871.46706     -3836.306 6        36.624                                    25038036.867 2 102526675.19802     -2989.332 2        17.472    25038037.405 6 102526673.22206     -2989.377 6        36.000
G21         4.000    20734043.089 7 108958194.24107       450.760 7        45.473                                    20734037.801 6  84902494.61406       351.237 6        37.720
S21         5.000    38387727.531 7 201728534.92307      -354.273 7        42.070
E13         6.000    26694138.812 6 140278675.37406      1941.798 6        40.806                                                                    26694140.080 7 104753578.64007      1450.129 7        43.268    26694139.679 7 107486276.37807      1487.825 7        43.827
G10         7.000    21854527.263 7 114846382.77907     -2668.632 7        46.998                                    21854525.278 7  89490704.32507     -2079.456 7        47.249    21854525.537 7  89490698.32807     -2079.329 7        43.761
E15         8.000    23474695.653 8 123360469.88008       305.457 8        48.009                                                                    23474695.842 8  92119900.40608       228.155 8        51.021    23474695.569 8  94523016.00808       234.071 8        51.413
G27        10.000    22209890.092 7 116713908.89607     -3613.752 7        46.054                                    22209888.204 7  90945972.83507     -2815.913 7        46.165    22209888.370 7  90945974.83707     -2815.924 7        43.454
G14        11.000    24030080.346 6 126278930.47906       852.112 6        40.286                                    24030077.572 4  98399159.90104       663.977 4        24.992    24030077.296 6  98399163.87906       663.964 6        40.415
G32        12.000    22016418.497 8 115697088.30408       872.955 8        48.307                                    22016416.563 7  90153575.41207       680.224 7        47.902    22016417.351 7  90153548.40807       680.236 7        44.287
G03        13.000    24365352.305 6 128040817.82706      3325.049 6        38.850                                    24365352.302 5  99772074.70705      2590.942 5        31.358    24365352.610 6  99772079.69006      2591.041 6        36.805
S36        14.000    38155940.614 7 200511342.69307      -353.441 7        43.871
C13        15.000                                                                                                                                    39875946.790 6 207644573.56306     -1306.533 6        39.237    39875948.457 6 160563989.29806     -1010.253 6        39.919    39875946.303 6 168728247.09606     -1061.766 6        38.183
C16        17.000                                                                                                                                    41270111.215 5 214904301.24905      1583.248 5        35.724    41270112.381 6 166177640.29706      1224.173 6        37.123    41270109.929 5 174627338.28105      1286.523 5        34.200
E27        18.000    26032142.366 7 136799846.84107     -2371.944 7        42.523                                                                    26032142.359 7 102155733.30807     -1771.310 7        45.774    26032141.816 7 104820662.78607     -1817.470 7        45.765
E05        20.000    23713958.839 7 124617721.19907      -124.851 7        44.105                                                                    23713958.986 7  93058692.81507       -93.204 7        47.320    23713958.722 8  95486312.96808       -95.648 8        48.107
C41        21.000                                                                                                                                    26143678.823 6 136137000.08106      3150.533 6        40.708                                                                    26143685.290 7 110622488.61007      2559.921 7        42.045
I06        22.000    38402083.739 6 150698256.98306      -160.675 6        41.719
E03        23.000    25677491.423 7 134936138.55107      2281.159 7        42.603                                                                    25677491.511 7 100764026.91707      1703.453 7        46.883    25677491.072 7 103392650.49007      1747.904 7        47.347
R22        24.000    21692621.009 8 115796713.63108      2866.592 8        48.915                                                                    21692619.036 7  90064123.15107      2229.594 7        44.117
S23        25.000    38112737.670 7 200283781.35507      -352.095 7        44.191
S45        26.000    63362869.867 6 332975388.42806      -395.603 6        37.599
G02        27.000    21999328.220 7 115607297.66707      1672.099 7        46.225                                    21999322.123 6  90083597.86606      1302.936 6        36.019
S27        28.000    39073541.567 5 205332916.01005      -323.533 5        35.419
C39        29.000                                                                                                                                    40655206.793 6 211702334.62706      1428.374 6        38.237                                                                    40655203.013 6 172025481.27706      1160.617 6        40.074
E21        30.000    26742009.409 6 140530218.30106       151.933 6        40.710                                                                    26742009.897 7 104941402.71007       113.553 7        44.144    26742009.485 7 107679000.92607       116.443 7        44.257
C43        31.000                                                                                                                                    22575905.347 8 117558768.81608     -2383.035 8        50.093                                                                    22575903.974 8  95526171.47308     -1936.481 8        48.231
C42        32.000                                                                                                                                    22690686.748 8 118156383.34208     -1677.289 8        48.971                                                                    22690693.936 8  96011782.51508     -1363.014 8        49.765
C28        33.000                                                                                                                                    21971759.031 8 114412723.35408      1133.868 8        50.289                                                                    21971757.713 8  92969710.33408       921.342 8        48.591
R13        34.000    23209460.096 6 123937235.60906       231.466 6        39.712
E34        35.000    24546988.552 7 128995502.95207     -1924.654 7        46.075                                                                    24546988.551 8  96327921.43608     -1437.258 8        48.838    24546988.500 8  98840812.51908     -1474.705 8        49.623
C14        36.000                                                                                                                                    21974032.342 8 114424567.17008        61.707 8        48.573    21974027.905 8  88480321.37508        47.697 8        52.158    21974026.855 8  92979312.31108        50.077 8        49.820
R21        37.000    19306716.403 8 103314197.00108      -113.955 8        51.606                                                                    19306715.364 7  80355508.26807       -88.573 7        46.791
R06        38.000    19783965.708 7 105571059.76807      1872.220 7        42.487
R05        39.000    20933167.802 8 111899803.38108     -3181.980 8        49.014                                                                    20933167.356 7  87033189.64807     -2474.968 7        45.326
C27        40.000                                                                                                                                    25224315.763 7 131349648.56307      2650.619 7        42.368                                                                    25224314.973 6 106732360.42006      2153.808 6        41.952
S44        42.000    40437993.515 6 212503293.24806      -388.885 6        37.149
G08        43.000    20509636.489 8 107778961.53308     -1728.373 8        50.079                                    20509634.416 8  83983647.62408     -1346.785 8        50.669    20509635.465 7  83983645.62907     -1346.854 7        45.685
C05        44.000                                                                                                                                    39104159.225 6 203625655.24406      -310.027 6        38.222    39104153.611 7 157456297.63707      -239.828 7        42.339    39104155.886 6 165462628.14506      -252.000 6        39.835
C11        45.000                                                                                                                                    24151657.631 7 125764160.18907     -3030.382 7        42.487    24151656.020 8  97248885.15708     -2343.359 8        48.087    24151654.381 7 102193720.29207     -2462.486 7        45.186
E09        46.000    28029436.287 6 147295705.75806     -2545.012 6        36.223                                                                    28029436.389 6 109993558.99606     -1900.636 6        41.347    28029435.863 6 112862953.10106     -1950.109 6        41.716
C33        47.000                                                                                                                                    22625082.081 8 117814762.58108      1699.908 8        50.227                                                                    22625093.222 8  95734202.56508      1381.244 8        49.277
C21        48.000                                                                                                                                    26476502.004 6 137870120.37506     -3560.704 6        39.817                                                                    26476495.843 6 112030753.99806     -2893.315 6        39.682
R07        49.000    22876713.237 7 122460878.20407      4131.485 7        44.390                                                                    22876712.221 6  95247345.19206      3213.301 6        40.577
S48        51.000    77140178.981 6 405374742.72006      -377.941 6        38.006
C08        52.000                                                                                                                                    40620719.338 5 211522850.54405     -1437.122 5        35.057    40620713.959 6 163562915.20606     -1111.259 6        39.348    40620712.478 5 171879660.73005     -1167.978 5        35.210
C34        53.000                                                                                                                                    26350636.268 4 137214953.40504     -3491.224 4        27.317                                                                    26350636.655 4 111498504.11004     -2837.681 4        27.880
C60        54.000                                                                                                                                    40437996.581 6 210571464.57606      -385.404 6        40.164                                                                    40437980.279 6 171106533.78506      -313.112 6        40.551
R12        55.000    22905273.048 7 122355848.02307     -2535.103 7        45.348                                                                    22905274.663 6  95165659.49906     -1971.776 6        41.559
I09        56.000    37395744.158 7 146748966.44707        91.544 7        42.815
C02        57.000                                                                                                                                    40471798.765 5 210747329.71205      -341.788 5        33.204    40471793.173 6 162963198.10306      -264.159 6        40.238    40471796.477 6 171249472.14906      -277.789 6        36.174
I03        58.000    78209167.153 6 231124331.23406      1098.754 6        39.300
E30        59.000    28167505.550 6 148021436.88106     -3441.039 6        37.962                                                                    28167507.104 6 110535601.44706     -2569.759 6        40.791    28167506.462 6 113419122.95006     -2636.649 6        40.813
R20        60.000    21648334.162 5 115763572.98505     -3243.402 5        35.833                                                                    21648335.989 7  90038402.40407     -2522.549 7        44.269
> 2025 01 02 22 15 15.0000000  0 53
G23         1.000    25041691.302 6 131595052.80706     -3836.250 6        37.146                                    25041687.142 2 102541621.71002     -2989.292 2        17.509    25041687.542 5 102541619.71705     -2989.475 5        35.881
G21         4.000    20733615.021 7 108955944.15907       449.171 7        45.971                                    20733609.643 6  84900741.30406       350.003 6        37.750
S21         5.000    38388063.413 7 201730305.93007      -354.228 7        42.326
E13         6.000    26692291.081 6 140268966.60406      1941.514 6        40.810                                                                    26692292.609 7 104746328.58907      1449.846 7        43.128    26692292.151 7 107478837.18207      1487.721 7        43.784
G10         7.000    21857066.981 7 114859729.35507     -2670.033 7        46.966                                    21857065.070 7  89501104.25407     -2080.544 7        47.192    21857065.130 7  89501098.24807     -2080.519 7        44.065
E15         8.000    23474405.219 8 123358944.42808       304.633 8        48.213                                                                    23474405.586 8  92118761.28108       227.460 8        51.034    23474405.257 8  94521847.16108       233.392 8        51.378
G27        10.000    22213329.631 7 116731981.35707     -3615.304 7        46.295                                    22213327.343 7  90960055.27007     -2817.117 7        46.172    22213327.722 7  90960057.27707     -2817.122 7        43.329
G14        11.000    24029270.885 6 126274677.15506       849.216 6        40.567                                    24029268.204 4  98395845.60304       661.734 4        24.722    24029268.007 6  98395849.58006       661.821 6        40.207
G32        12.000    22015589.265 8 115692730.49108       870.100 8        48.416                                    22015587.332 7  90150179.71807       677.997 7        47.870    22015588.067 7  90150152.71807       678.079 7        44.528
G03        13.000    24362188.857 6 128024193.42306      3324.386 6        38.814                                    24362188.777 5  99759120.64405      2590.431 5        31.540    24362188.707 6  99759125.64406      2590.624 6        36.038
S36        14.000    38156276.343 7 200513108.62807      -353.042 7        43.619
C13        15.000                                                                                                                                    39877201.385 6 207651105.45806     -1306.218 6        39.282    39877202.534 6 160569040.17506     -1010.131 6        39.982    39877200.565 6 168733554.78306     -1061.403 6        38.165
C16        17.000                                                                                                                                    41268591.024 5 214896385.45805      1582.971 5        35.910    41268591.754 6 166171519.31606      1223.910 6        36.847    41268589.869 5 174620906.04705      1286.104 5        33.856
E27        18.000    26034399.870 7 136811710.61607     -2373.630 7        42.527                                                                    26034399.945 7 102164592.62507     -1772.560 7        45.794    26034399.431 7 104829753.21207     -1818.715 7        45.743
E05        20.000    23714078.705 7 124618350.98707      -127.155 7        43.735                                                                    23714078.804 7  93059163.10907       -94.980 7        47.316    23714078.531 8  95486795.53008       -97.446 8        48.156
C41        21.000                                                                                                                                    26140653.655 6 136121248.26606      3150.095 6        40.687                                                                    26140660.445 7 110609688.95407      2559.710 7        42.186
I06        22.000    38402288.548 6 150699060.35506      -160.660 6        41.573
E03        23.000    25675321.339 7 134924735.42307      2280.025 7        43.052                                                                    25675321.426 7 100755511.59407      1702.537 7        46.919    25675320.984 7 103383913.02007      1747.034 7        47.095
R22        24.000    21689935.589 8 115782381.91808      2865.928 8        49.047                                                                    21689934.217 7  90052976.28407      2229.056 7        44.689
S23        25.000    38113076.109 7 200285541.63707      -352.108 7        44.200
S45        26.000    63363204.913 6 332977365.51806      -395.246 6        37.709
G02        27.000    21997738.179 7 115598939.50107      1671.123 7        46.628                                    21997731.629 6  90077085.01606      1302.175 6        36.000
S27        28.000    39073841.456 5 205334532.19005      -323.201 5        35.419
C39        29.000                                                                                                                                    40653835.288 6 211695194.12006      1427.846 6        38.288                                                                    40653831.628 6 172019679.01806      1160.076 6        39.982
E21        30.000    26741865.526 6 140529463.69106       149.689 6        40.679                                                                    26741866.322 7 104940839.20207       111.752 7        44.197    26741865.924 7 107678422.71407       114.663 7        44.194
C43        31.000                                                                                                                                    22578194.461 8 117570687.91108     -2384.648 8        50.057                                                                    22578192.974 8  95535856.69708     -1937.830 8        48.078
C42        32.000                                                                                                                                    22692298.340 8 118164775.54408     -1679.648 8        48.776                                                                    22692305.592 8  96018601.84808     -1365.015 8        49.742
C28        33.000                                                                                                                                    21970670.993 8 114407057.91408      1132.253 8        50.163                                                                    21970669.672 8  92965106.68908       919.935 8        48.522
R13        34.000    23209244.888 6 123936088.97506       227.212 6        39.144
E34        35.000    24548820.215 7 129005127.53807     -1925.240 7        46.230                                                                    24548820.045 8  96335108.62508     -1437.707 8        48.770    24548819.946 8  98848187.20408     -1475.228 8        49.519
C14        36.000                                                                                                                                    21973973.942 8 114424265.27108        59.062 8        48.501    21973969.812 8  88480087.92808        45.618 8        52.259    21973968.902 8  92979066.98208        47.844 8        49.700
R21        37.000    19306823.988 8 103314773.02508      -116.593 8        51.671                                                                    19306822.722 7  80355956.28507       -90.608 7        46.530
R06        38.000    19782213.908 7 105561708.02707      1868.234 7        42.468
R05        39.000    20936145.137 8 111915720.88208     -3185.050 8        48.780                                                                    20936144.848 7  87045569.91307     -2477.316 7        45.546
C27        40.000                                                                                                                                    25221770.524 7 131336396.04307      2650.347 7        42.351                                                                    25221769.758 6 106721591.66106      2153.455 6        41.681
S44        42.000    40438361.248 6 212505237.76706      -388.846 6        36.941
G08        43.000    20511282.313 8 107787610.54208     -1731.210 8        50.086                                    20511280.272 8  83990387.11108     -1348.995 8        50.508    20511281.087 7  83990385.10207     -1348.988 7        45.719
C05        44.000                                                                                                                                    39104457.339 6 203627205.30806      -309.818 6        38.592    39104451.161 7 157457496.24507      -239.686 7        42.476    39104453.477 6 165463887.68706      -252.304 6        39.715
C11        45.000                                                                                                                                    24154569.095 7 125779314.55907     -3031.316 7        43.012    24154566.528 8  97260603.47608     -2344.089 8        48.462    24154564.428 7 102206034.45907     -2463.445 7        44.894
E09        46.000    28031858.762 6 147308434.38606     -2546.353 6        36.624                                                                    28031858.496 6 110003064.12306     -1901.550 6        41.268    28031857.881 6 112872706.19506     -1951.201 6        41.516
C33        47.000                                                                                                                                    22623450.674 8 117806268.30708      1697.751 8        49.998                                                                    22623461.986 8  95727300.26108      1379.365 8        49.130
C21        48.000                                                                                                                                    26479921.002 6 137887925.28506     -3561.248 6        39.664                                                                    26479915.078 6 112045221.94706     -2893.957 6        39.468
R07        49.000    22872854.395 7 122440222.74707      4130.551 7        45.451                                                                    22872854.141 6  95231279.82606      3212.750 6        41.666
S48        51.000    77140517.402 6 405376632.15506      -377.790 6        37.769
C08        52.000                                                                                                                                    40622100.161 5 211530035.08305     -1436.868 5        35.233    40622093.489 6 163568470.75506     -1111.103 6        39.796    40622092.398 5 171885498.73005     -1167.668 5        34.957
C34        53.000                                                                                                                                    26353990.601 4 137232413.65104     -3492.038 4        27.054
C60        54.000                                                                                                                                    40438366.103 6 210573391.42006      -385.472 6        39.811                                                                    40438350.185 6 171108099.50906      -313.343 6        40.253
R12        55.000    22907648.152 7 122368531.50607     -2538.390 7        46.025                                                                    22907648.728 7  95175524.42507     -1974.253 7        42.032
I09        56.000    37395627.431 7 146748508.65007        91.319 7        42.914
C02        57.000                                                                                                                                    40472126.830 5 210749037.63705      -341.295 5        32.719    40472121.059 6 162964518.80906      -264.177 6        40.000    40472124.596 6 171250859.98806      -277.836 6        36.200
I03        58.000    78207767.390 6 231118837.51706      1098.653 6        39.724
E30        59.000    28170779.662 6 148038641.27106     -3440.767 6        37.958                                                                    28170780.917 6 110548448.86506     -2569.495 6        40.782    28170780.534 6 113432305.53606     -2636.496 6        40.722
R20        60.000    21651368.905 6 115779793.52106     -3244.844 6        36.378                                                                    21651369.313 7  90051018.38707     -2523.800 7        44.197
> 2025 01 02 22 15 20.0000000  0 53
G23         1.000    25045341.167 6 131614234.66206     -3836.415 6        37.316                                    25045337.350 2 102556568.63802     -2989.406 2        17.245    25045338.358 5 102556566.64205     -2989.384 5        35.738
G21         4.000    20733188.304 7 108953702.53207       447.396 7        45.789                                    20733183.051 6  84898994.58506       348.620 6        37.766
S21         5.000    38388400.940 7 201732077.20407      -354.310 7        42.163
E13         6.000    26690443.684 6 140259259.29606      1941.240 6        41.213                                                                    26690445.396 7 104739079.64407      1449.583 7        43.024    26690444.854 7 107471399.14207      1487.433 7        43.816
G10         7.000    21859608.500 7 114873083.95607     -2671.748 7        47.558                                    21859606.392 7  89511510.43207     -2081.883 7        47.280    21859606.063 7  89511504.44007     -2081.910 7        43.818
E15         8.000    23474115.914 8 123357424.21508       303.468 8        48.058                                                                    23474116.314 8  92117626.05408       226.634 8        51.038    23474115.948 8  94520682.32408       232.528 8        51.399
G27        10.000    22216770.164 7 116750062.17307     -3617.063 7        46.574                                    22216768.010 7  90974144.21907     -2818.489 7        46.190    22216768.061 7  90974146.21707     -2818.442 7        43.534
G14        11.000    24028463.999 6 126270438.99906       845.984 6        40.293                                    24028461.729 4  98392543.13704       659.215 4        24.617    24028462.185 6  98392547.13306       659.356 6        40.751
G32        12.000    22014762.866 8 115688387.74208       867.004 8        48.445                                    22014760.945 7  90146795.76307       675.587 7        47.922    22014761.413 7  90146768.76307       675.579 7        44.727
G03        13.000    24359026.085 6 128007572.53306      3323.591 6        39.015                                    24359025.891 5  99746169.30505      2589.809 5        31.313    24359026.125 6  99746174.29706      2589.816 6        36.178
S36        14.000    38156611.084 7 200514875.08607      -353.487 7        43.627
C13        15.000                                                                                                                                    39878455.535 6 207657636.77706     -1306.312 6        39.462    39878457.110 6 160574090.59206     -1009.970 6        40.060    39878454.904 6 168738862.04006     -1061.565 6        38.096
C16        17.000                                                                                                                                    41267071.622 6 214888471.72406      1582.346 6        36.586    41267071.786 6 166165399.89906      1223.678 6        37.096    41267070.020 5 174614475.49205      1285.832 5        34.048
E27        18.000    26036658.789 7 136823583.29207     -2375.511 7        42.554                                                                    26036659.210 7 102173458.57807     -1774.006 7        45.741    26036658.679 7 104838850.44607     -1820.187 7        45.907
E05        20.000    23714201.028 7 124618993.46907      -129.813 7        44.120                                                                    23714201.043 7  93059642.88407       -96.927 7        47.302    23714200.755 8  95487287.82008       -99.444 8        48.189
C41        21.000                                                                                                                                    26137628.873 6 136105498.67106      3149.778 6        40.141                                                                    26137635.855 7 110596891.16907      2559.312 7        42.140
I06        22.000    38402493.351 6 150699863.91006      -160.659 6        41.669
E03        23.000    25673152.848 7 134913338.91107      2278.668 7        43.494                                                                    25673152.786 7 100747001.21107      1701.524 7        46.907    25673152.346 7 103375180.62907      1745.998 7        47.204
R22        24.000    21687251.295 8 115768054.31908      2865.038 8        48.470                                                                    21687250.354 7  90041832.62307      2228.325 7        44.185
S23        25.000    38113409.393 7 200287302.16807      -352.163 7        44.122
S45        26.000    63363534.860 6 332977743.12816      -395.533 6        37.603
G02        27.000    21996148.431 7 115590586.85607      1669.881 7        46.601                                    21996142.182 6  90070576.46606      1301.209 6        36.068
S27        28.000    39074155.154 5 205336148.83705      -323.294 5        35.200
