     3.04           OBSERVATION DATA    M                   RINEX VERSION / TYPE
ssrcrin-15.6.1x                         20250102 134500 UTC PGM / RUN BY / DATE 
(00000000023479385599111004) Septentrio proprietary         COMMENT             
rref                                                        MARKER NAME         
01                                                          MARKER NUMBER       
geodetic                                                    MARKER TYPE         
NFB                 CLIMERS@TUW                             OBSERVER / AGENCY   
3297213             SEPT ASTERX SB3 PROB4.14.4              REC # / TYPE / VERS 
Unknown             Unknown                                 ANT # / TYPE        
  4127831.5813  1207193.0765  4695247.5530                  APPROX POSITION XYZ 
        0.0000        0.0000        0.0000                  ANTENNA: DELTA H/E/N
G   23 X1  C1C L1C D1C S1C C1W S1W C2W L2W D2W S2W C2L L2L  SYS / # / OBS TYPES 
       D2L S2L C5Q L5Q D5Q S5Q C1L L1L D1L S1L              SYS / # / OBS TYPES 
E   21 X1  C1C L1C D1C S1C C6C L6C D6C S6C C5Q L5Q D5Q S5Q  SYS / # / OBS TYPES 
       C7Q L7Q D7Q S7Q C8Q L8Q D8Q S8Q                      SYS / # / OBS TYPES 
S    9 X1  C1C L1C D1C S1C C5I L5I D5I S5I                  SYS / # / OBS TYPES 
R   17 X1  C1C L1C D1C S1C C2P L2P D2P S2P C2C L2C D2C S2C  SYS / # / OBS TYPES 
       C3Q L3Q D3Q S3Q                                      SYS / # / OBS TYPES 
C   25 X1  C1P L1P D1P S1P C5P L5P D5P S5P C2I L2I D2I S2I  SYS / # / OBS TYPES 
       C7I L7I D7I S7I C6I L6I D6I S6I C7D L7D D7D S7D      SYS / # / OBS TYPES 
J   17 X1  C1C L1C D1C S1C C2L L2L D2L S2L C5Q L5Q D5Q S5Q  SYS / # / OBS TYPES 
       C1L L1L D1L S1L                                      SYS / # / OBS TYPES 
I    5 X1  C5A L5A D5A S5A                                  SYS / # / OBS TYPES 
SEPTENTRIO RECEIVERS OUTPUT ALIGNED CARRIER PHASES.         COMMENT             
NO FURTHER PHASE SHIFT APPLIED IN THE RINEX ENCODER.        COMMENT             
G L1C                                                       SYS / PHASE SHIFT   
G L2W                                                       SYS / PHASE SHIFT   
G L2L  0.00000                                              SYS / PHASE SHIFT   
G L5Q  0.00000                                              SYS / PHASE SHIFT   
G L1L  0.00000                                              SYS / PHASE SHIFT   
E L1C  0.00000                                              SYS / PHASE SHIFT   
E L6C  0.00000                                              SYS / PHASE SHIFT   
E L5Q  0.00000                                              SYS / PHASE SHIFT   
E L7Q  0.00000                                              SYS / PHASE SHIFT   
E L8Q  0.00000                                              SYS / PHASE SHIFT   
S L1C                                                       SYS / PHASE SHIFT   
S L5I                                                       SYS / PHASE SHIFT   
R L1C                                                       SYS / PHASE SHIFT   
R L2P  0.00000                                              SYS / PHASE SHIFT   
R L2C                                                       SYS / PHASE SHIFT   
R L3Q  0.00000                                              SYS / PHASE SHIFT   
C L1P  0.00000                                              SYS / PHASE SHIFT   
C L5P  0.00000                                              SYS / PHASE SHIFT   
C L2I                                                       SYS / PHASE SHIFT   
C L7I                                                       SYS / PHASE SHIFT   
C L6I                                                       SYS / PHASE SHIFT   
C L7D                                                       SYS / PHASE SHIFT   
J L1C                                                       SYS / PHASE SHIFT   
J L2L  0.00000                                              SYS / PHASE SHIFT   
J L5Q  0.00000                                              SYS / PHASE SHIFT   
J L1L  0.00000                                              SYS / PHASE SHIFT   
I L5A                                                       SYS / PHASE SHIFT   
  2025     1     2    13    45    0.0000000     GPS         TIME OF FIRST OBS   
 C1C    0.000 C2C    0.000 C2P    0.000                     GLONASS COD/PHS/BIS 
DBHZ                                                        SIGNAL STRENGTH UNIT
    18                                                      LEAP SECONDS        
 24 R01  1 R02 -4 R03  5 R04  6 R05  1 R06 -4 R07  5 R08  6 GLONASS SLOT / FRQ #
    R09 -2 R10 -7 R11  0 R12 -1 R13 -2 R14 -7 R15  0 R16 -1 GLONASS SLOT / FRQ #
    R17  4 R18 -3 R19  3 R20  2 R21  4 R22 -3 R23  3 R24  2 GLONASS SLOT / FRQ #
                                                            END OF HEADER       
> 2025 01 02 13 45  0.0000000  0 54
E24         1.000    24700697.521 7 129803156.27507     -2061.410 7        46.257                                                                    24700700.276 8  96930995.74208     -1539.338 8        48.877    24700699.286 8  99459619.39208     -1579.504 8        50.090
E11         2.000    26494731.829 6 139230852.39206      2479.998 6        37.399                                                                    26494736.641 6 103971185.37606      1852.012 6        41.428    26494735.861 7 106683466.99407      1900.203 7        42.277
E03         3.000    25401763.458 7 133487158.84907     -2137.200 7        44.017                                                                    25401770.309 7  99681978.62507     -1596.050 7        46.753    25401769.332 8 102282379.37608     -1637.698 8        48.177
G19         4.000    24540355.411 6 128960558.02306     -4074.992 6        38.739                                    24540356.255 3 100488768.53303     -3175.358 3        21.714
S21         5.000    38415333.926 7 201873504.52307      -510.843 7        43.255
E05         6.000    25743669.626 6 135283740.15606     -3628.600 6        39.144                                                                    25743682.270 6 101023511.45106     -2709.507 6        41.926    25743680.550 7 103658910.98607     -2780.167 7        43.354
G25         7.000    20148743.777 8 105882511.92108       806.843 8        49.089                                    20148745.414 8  82505932.51608       628.703 8        49.906    20148746.202 7  82505933.51907       628.743 7        44.889
C29         8.000                                                                                                                                    24072098.804 7 125349756.00707     -2870.285 7        45.691                                                                    24072101.014 7 101856960.39107     -2332.393 7        45.001
R05         9.000    23072447.827 7 123335439.57407     -4189.030 7        44.567                                                                    23072458.063 6  95927596.94506     -3258.056 6        41.087
G24        10.000    22918047.128 7 120435111.07007     -4059.743 7        43.321                                    22918051.148 6  93845545.70206     -3163.431 6        41.819    22918051.646 6  93845550.70206     -3163.425 6        41.054
C14        11.000                                                                                                                                    26620252.276 6 138618547.58406     -3131.992 6        37.883    26620262.268 7 107188655.60107     -2421.669 7        42.457    26620256.834 6 112638915.54406     -2544.935 6        38.766
S27        12.000    39207212.993 6 206035314.43606      -523.804 6        36.076
E08        13.000    26579112.077 6 139674280.20406       466.161 6        40.949                                                                    26579119.210 7 104302313.48507       348.103 7        44.150    26579117.700 7 107023231.38507       357.198 7        44.919
S36        14.000    38186524.000 7 200671954.75207      -511.129 7        45.047
G06        15.000    23076108.301 7 121265876.86807     -1647.777 7        42.931                                    23076112.257 6  94492962.84006     -1283.987 6        39.408    23076113.038 6  94492964.83606     -1283.920 6        40.803
G12        17.000    20475087.020 8 107597486.45808     -1742.374 8        49.125                                    20475085.278 8  83842280.75408     -1357.694 8        50.002    20475085.772 7  83842277.75307     -1357.706 7        45.482
G32        18.000    22908623.002 7 120385666.78507     -1294.768 7        45.145                                    22908627.618 7  93807063.58207     -1008.907 7        42.787    22908628.003 6  93807067.57506     -1008.858 6        41.990
E02        19.000    26805830.437 6 140865627.41306      1815.408 6        40.234                                                                    26805841.450 7 105191929.12307      1355.752 7        42.366    26805839.706 7 107936056.75407      1390.972 7        43.295
E10        21.000    25699187.513 7 135050296.80707      1575.855 7        43.410                                                                    25699192.899 7 100849362.35007      1176.858 7        47.291    25699192.026 8 103480202.50408      1207.491 8        48.250
I06        22.000    38526369.637 6 151185851.38706      -475.841 6        41.280
S28        23.000    40889054.164 5 214873302.62905      -517.025 5        35.686
S23        25.000    38128835.807 7 200368250.86707      -515.999 7        45.506
S45        26.000    63383456.436 6 333082582.53506      -575.219 6        37.055
C07        27.000                                                                                                                                    40835925.541 6 212643309.91006     -1422.064 6        36.106    40835926.203 6 164429271.87106     -1099.492 6        39.742    40835923.693 6 172790075.99706     -1155.582 6        36.370
R18        28.000    23987401.626 5 128046389.84905      4173.959 5        34.286                                                                    23987420.055 5  99591715.66205      3246.366 5        34.690
C44        30.000                                                                                                                                    23941362.345 7 124669081.51207      2683.300 7        45.476                                                                    23941365.720 7 101303905.61807      2180.474 7        44.685
E12        31.000    25798445.153 6 135571871.01406       386.686 6        40.627                                                                    25798447.712 7 101238829.53607       288.768 7        43.810    25798447.028 7 103879827.50007       296.301 7        44.417
G11        32.000    22583097.760 7 118675132.99407       781.293 7        46.030                                    22583098.668 5  92474217.26605       608.800 5        33.725    22583099.260 7  92474208.26707       608.865 7        43.084
I02        33.000    37159014.645 7 145819944.79607      -635.522 7        42.762
R15        34.000    19486137.035 8 104128133.92508       643.776 8        52.238                                                                    19486139.711 7  80988614.16007       500.723 7        47.504
R07        35.000    24210333.367 6 129599769.43006      2205.249 6        41.366                                                                    24210339.741 6 100799813.85406      1715.081 6        40.133
G29        36.000    22663415.159 7 119097259.58307      2688.653 7        45.520                                    22663416.619 7  92803147.66507      2095.049 7        42.698    22663416.681 6  92803157.67406      2095.046 6        40.629
C10        38.000                                                                                                                                    39710657.839 6 206783771.89906     -1240.234 6        37.928    39710661.320 7 159898319.77307      -958.935 7        42.201    39710657.822 6 168028733.47806     -1007.821 6        38.955
E25        39.000    23483213.508 8 123405296.01208       232.363 8        48.456                                                                    23483217.501 8  92153424.34708       173.520 8        50.773    23483216.531 8  94557412.27808       178.061 8        51.400
R23        41.000    24029751.991 6 128543038.23806     -4722.081 6        39.264
S44        42.000    40703757.565 6 213899745.36506      -431.284 6        38.222
G28        43.000    23606909.871 6 124055241.40506      2749.623 6        41.762                                    23606914.142 4  96666487.31504      2142.556 4        27.365    23606914.560 6  96666487.34106      2142.541 6        41.630
C05        44.000                                                                                                                                    39437088.808 6 205359198.25506      -493.373 6        38.625    39437090.773 7 158796754.74007      -381.516 7        43.187    39437090.599 6 166871251.06106      -400.867 6        39.114
R14        45.000    20517031.761 8 109367424.73308     -2726.459 8        50.717                                                                    20517035.391 7  85063632.54407     -2120.595 7        47.070
R16        46.000    22797595.928 7 121780726.63007      2944.047 7        45.977                                                                    22797606.195 6  94718420.47106      2289.809 6        41.011
R17        47.000    20505632.862 8 109729970.49208      2711.673 8        50.939                                                                    20505635.421 7  85345652.67207      2109.081 7        45.585
C35        48.000                                                                                                                                    22004957.112 8 114585721.86608       502.103 8        51.294                                                                    22004958.143 8  93110343.84008       408.000 8        49.127
C24        49.000                                                                                                                                    22815335.626 8 118805457.12008      1690.967 8        48.435                                                                    22815336.500 8  96539176.04908      1374.021 8        48.896
C45        50.000                                                                                                                                    24757428.258 7 128918392.68007     -3285.175 7        43.810                                                                    24757425.394 7 104756730.04407     -2669.507 7        44.281
S48        51.000    77124377.801 6 405292577.49406      -527.512 6        38.228
C33        52.000                                                                                                                                    26322297.417 6 137067061.89106     -2406.996 6        40.894                                                                    26322319.737 6 111378287.23106     -1956.014 6        40.508
E33        53.000    27489557.635 6 144458725.97006     -2322.214 6        37.792                                                                    27489564.738 6 107875104.03306     -1734.110 6        41.602    27489563.702 7 110689224.99207     -1779.382 7        42.546
C60        54.000                                                                                                                                    40703757.845 6 211955220.48306      -427.330 6        39.988                                                                    40703748.515 6 172230920.97406      -347.395 6        39.934
E31        55.000    28659219.146 5 150605111.45205     -2973.750 5        34.310                                                                    28659230.456 6 112464856.76006     -2220.325 6        37.664    28659229.118 6 115398722.36706     -2278.483 6        38.844
C26        56.000                                                                                                                                    21655645.418 8 112766722.50308      -983.891 8        50.923                                                                    21655646.671 8  91632242.96708      -799.521 8        49.194
C02        57.000                                                                                                                                    40895998.905 5 212956105.19205      -445.785 5        33.419    40896001.545 6 164671125.86606      -344.766 6        37.282    40896002.841 5 173044252.90005      -362.277 5        33.599
I03        58.000    89359133.084 5 274878995.15205      1003.178 5        33.629
R06        59.000    22615428.878 6 120680322.75606      -757.975 6        36.828
R24        60.000    20160367.079 8 107806683.90908     -1599.435 8        50.647                                                                    20160370.009 7  83849711.19807     -1243.999 7        46.232
> 2025 01 02 13 45  5.0000000  0 55
E24         1.000    24702658.788 7 129813464.29407     -2061.822 7        46.035                                                                    24702661.844 8  96938693.28008     -1539.613 8        48.890    24702660.873 8  99467517.73508     -1579.829 8        50.100
E11         2.000    26492372.477 6 139218453.27906      2479.735 6        37.403                                                                    26492377.293 6 103961926.31506      1851.760 6        41.516    26492376.318 7 106673966.40107      1899.937 7        42.254
E03         3.000    25403798.041 7 133497849.57107     -2138.944 7        43.835                                                                    25403804.692 7  99689961.93707     -1597.269 7        46.828    25403803.704 8 102290570.94608     -1638.910 8        48.175
G19         4.000    24544233.144 6 128980933.38506     -4075.195 6        38.595                                    24544233.420 3 100504645.46403     -3175.476 3        21.643
S21         5.000    38415818.252 7 201876057.95007      -510.399 7        43.037
E05         6.000    25747121.912 6 135301881.94006     -3628.350 6        38.934                                                                    25747134.601 6 101037058.83006     -2709.437 6        41.862    25747132.777 7 103672811.78407     -2780.135 7        43.412
G25         7.000    20147976.772 8 105878482.13208       805.110 8        49.255                                    20147978.558 8  82502792.42708       627.358 8        49.904    20147979.326 7  82502793.42907       627.311 7        44.972
C29         8.000                                                                                                                                    24074855.800 7 125364111.05707     -2871.666 7        45.627                                                                    24074857.807 7 101868625.06007     -2333.590 7        45.096
R05         9.000    23076368.160 7 123356388.15107     -4190.359 7        44.999                                                                    23076376.619 6  95943890.25506     -3259.215 6        41.042
G24        10.000    22921909.989 7 120455411.94807     -4060.621 7        43.441                                    22921914.156 6  93861364.54906     -3164.117 6        41.383    22921914.309 6  93861369.54206     -3164.062 6        40.963
C14        11.000                                                                                                                                    26623260.359 6 138634208.03606     -3132.275 6        37.819    26623270.098 7 107200765.22207     -2422.086 7        43.238    26623264.186 6 112651640.95206     -2545.280 6        38.817
S27        12.000    39207711.543 6 206037931.70406      -523.279 6        36.439
E08        13.000    26578669.204 6 139671954.23606       464.268 6        41.347                                                                    26578676.574 7 104300576.57107       346.683 7        44.292    26578675.100 7 107021449.16007       355.733 7        45.112
S36        14.000    38187010.790 7 200674509.76507      -510.725 7        44.977
G06        15.000    23077677.535 7 121274122.71707     -1650.607 7        43.452                                    23077681.327 6  94499388.18406     -1286.188 6        39.384    23077682.194 6  94499390.19206     -1286.293 6        40.687
G12        17.000    20476745.447 8 107606202.44708     -1743.967 8        49.578                                    20476743.874 8  83849072.43208     -1358.937 8        50.012    20476744.436 7  83849069.44107     -1359.050 7        45.750
G32        18.000    22909856.235 7 120392147.52307     -1297.420 7        46.332                                    22909860.847 7  93812113.50007     -1010.976 7        42.914    22909861.222 7  93812117.49607     -1011.093 7        42.112
E02        19.000    26804103.625 6 140856550.35006      1815.497 6        39.441                                                                    26804114.135 7 105185150.84307      1355.678 7        42.510    26804112.386 7 107929101.64407      1391.040 7        43.454
E10        21.000    25697688.800 7 135042421.19907      1574.348 7        43.331                                                                    25697694.280 7 100843481.26207      1175.651 7        47.362    25697693.348 8 103474167.98808      1206.272 8        48.260
I06        22.000    38526976.136 6 151188230.36106      -475.678 6        41.337
S28        23.000    40889548.596 5 214875888.07605      -516.726 5        35.352
S23        25.000    38129326.210 7 200370829.91107      -515.605 7        45.577
S45        26.000    63383952.258 6 333085458.12606      -574.927 6        36.665
C07        27.000                                                                                                                                    40837291.669 6 212650418.83806     -1421.448 6        36.208    40837291.961 6 164434768.95906     -1099.265 6        39.817    40837289.019 6 172795852.60506     -1155.266 6        36.374
R18        28.000    23983490.816 5 128025520.06305      4174.149 5        33.958                                                                    23983511.473 5  99575483.76005      3246.503 5        35.219
C38        29.000                                                                                                                                    41114410.545 6 214093522.83916      1548.274 6        38.165                                                                    41114414.902 6 173968543.31716      1258.101 6        38.820
C44        30.000                                                                                                                                    23938786.111 7 124655666.90407      2682.568 7        45.636                                                                    23938789.714 7 101293005.17607      2179.801 7        44.945
E12        31.000    25798078.409 6 135569942.88806       384.720 6        40.558                                                                    25798080.835 7 101237389.71207       287.246 7        43.831    25798080.088 7 103878350.10707       294.627 7        44.552
G11        32.000    22582355.558 7 118671233.14007       778.642 7        45.166                                    22582356.365 5  92471178.42905       606.729 5        33.569    22582357.036 7  92471169.43507       606.660 7        43.126
I02        33.000    37159824.186 7 145823121.58707      -635.151 7        42.815
R15        34.000    19485535.247 8 104124919.48708       641.957 8        52.293                                                                    19485538.592 8  80986114.05008       499.238 8        48.076
R07        35.000    24208275.076 6 129588750.03306      2202.507 6        41.228                                                                    24208281.576 6 100791243.17306      1713.115 6        40.083
G29        36.000    22660857.331 7 119083819.07707      2687.530 7        46.182                                    22660858.873 7  92792674.57107      2094.171 7        42.696    22660859.381 6  92792684.57706      2094.276 6        40.770
C10        38.000                                                                                                                                    39711848.259 6 206789971.57806     -1239.792 6        38.300    39711851.668 7 159903113.77107      -958.688 7        42.461    39711848.449 6 168033771.25406     -1007.383 6        39.267
E25        39.000    23482992.710 8 123404135.67908       231.714 8        48.428                                                                    23482996.655 8  92152557.86608       173.048 8        50.837    23482995.748 8  94556523.19408       177.547 8        51.476
R23        41.000    24034166.954 6 128566651.65206     -4723.129 6        38.928
S44        42.000    40704167.470 6 213901900.96406      -430.982 6        38.177
G28        43.000    23604294.403 7 124041495.69207      2748.853 7        42.339                                    23604298.292 4  96655776.41404      2141.953 4        27.629    23604298.623 6  96655776.43706      2141.780 6        41.764
C05        44.000                                                                                                                                    39437562.393 6 205361664.20906      -493.021 6        38.583    39437564.291 7 158798661.55407      -381.174 7        43.342    39437564.085 6 166873254.85106      -400.656 6        39.318
R14        45.000    20519589.724 8 109381061.06808     -2728.060 8        50.742                                                                    20519593.700 7  85074238.56607     -2121.813 7        46.946
R16        46.000    22794841.214 7 121766006.22807      2944.124 7        46.154                                                                    22794850.113 7  94706971.31407      2289.861 7        42.172
R17        47.000    20503099.979 8 109716419.46708      2708.823 8        49.895                                                                    20503103.341 7  85335113.03607      2106.804 7        45.911
C35        48.000                                                                                                                                    22004475.981 8 114583217.36408       499.771 8        51.289                                                                    22004477.207 8  93108308.76008       405.988 8        49.217
C24        49.000                                                                                                                                    22813712.327 8 118797003.97608      1690.303 8        48.630                                                                    22813713.224 8  96532307.20508      1373.385 8        49.027
C45        50.000                                                                                                                                    24760583.392 7 128934820.02707     -3285.655 7        43.956                                                                    24760580.205 7 104770078.61907     -2670.005 7        44.423
S48        51.000    77124866.398 6 405295214.20806      -527.146 6        38.342
C33        52.000                                                                                                                                    26324609.851 6 137079100.99706     -2408.591 6        41.116                                                                    26324631.645 6 111388069.95806     -1957.074 6        40.636
E33        53.000    27491768.124 6 144470341.20806     -2323.790 6        38.156                                                                    27491775.054 6 107883777.75706     -1735.401 6        41.666    27491773.625 7 110698124.98007     -1780.612 7        42.411
C60        54.000                                                                                                                                    40704167.982 6 211957356.47806      -426.989 6        40.176                                                                    40704158.634 6 172232656.67706      -347.165 6        39.952
E31        55.000    28662048.023 5 150619978.29005     -2973.219 5        33.916                                                                    28662059.433 6 112475958.65806     -2220.210 6        37.308    28662058.016 6 115410113.86706     -2278.072 6        38.727
C26        56.000                                                                                                                                    21656590.799 8 112771645.84808      -985.468 8        50.972                                                                    21656592.141 8  91636243.61208      -800.887 8        49.317
C02        57.000                                                                                                                                    40896427.273 5 212958333.81105      -445.343 5        33.880    40896429.828 6 164672849.19706      -344.493 6        37.543    40896430.699 5 173046063.86405      -361.985 5        33.910
I03        58.000    89357853.677 5 274873977.99205      1003.763 5        32.928
R06        59.000    22616141.820 6 120684122.51306      -761.796 6        36.420
R24        60.000    20161864.725 8 107814691.27708     -1603.499 8        50.419                                                                    20161867.334 7  83855939.15207     -1247.191 7        46.487
> 2025 01 02 13 45 10.0000000  0 55
E24         1.000    24704621.105 7 129823776.67407     -2062.785 7        45.755                                                                    24704624.264 8  96946394.08608     -1540.424 8        48.920    24704623.247 8  99475419.42508     -1580.599 8        50.138
E11         2.000    26490013.919 6 139206058.54206      2478.686 6        37.569                                                                    26490018.706 6 103952670.53806      1850.985 6        41.590    26490017.517 7 106664469.16107      1899.184 7        42.292
E03         3.000    25405834.309 7 133508550.89707     -2141.158 7        44.011                                                                    25405841.054 7  99697953.17507     -1598.993 7        46.806    25405840.008 8 102298770.65308     -1640.652 8        48.323
G19         4.000    24548111.242 6 129001311.90806     -4075.921 6        38.700                                    24548111.198 3 100520524.88503     -3176.071 3        21.429
S21         5.000    38416303.861 7 201878611.70807      -510.718 7        42.910
E05         6.000    25750574.663 6 135320025.17106     -3628.753 6        39.012                                                                    25750587.126 6 101050607.31706     -2709.787 6        41.981    25750585.463 7 103686713.69207     -2780.359 7        43.488
G25         7.000    20147211.954 8 105874463.02808       802.732 8        49.119                                    20147213.750 8  82499660.66408       625.506 8        49.986    20147214.687 7  82499661.67007       625.514 7        45.201
C29         8.000                                                                                                                                    24077614.661 7 125378475.58607     -2873.760 7        45.199                                                                    24077616.449 7 101880297.40007     -2335.351 7        45.192
R05         9.000    23080288.593 7 123377345.21807     -4192.152 7        44.187                                                                    23080297.505 6  95960190.15206     -3260.549 6        40.164
G24        10.000    22925774.207 7 120475719.27107     -4061.984 7        43.285                                    22925778.371 6  93877188.42006     -3165.173 6        41.249    22925778.703 6  93877193.42806     -3165.213 6        40.889
C14        11.000                                                                                                                                    26626268.947 6 138649873.11606     -3133.423 6        37.611    26626278.160 7 107212878.41507     -2422.874 7        43.043    26626272.531 6 112664370.08506     -2546.349 6        38.763
S27        12.000    39208213.317 6 206040549.73706      -523.453 6        36.480
E08        13.000    26578228.845 6 139669640.36506       461.628 6        40.901                                                                    26578236.303 7 104298848.69907       344.694 7        44.170    26578234.790 7 107019676.21407       353.712 7        45.157
S36        14.000    38187496.725 7 200677065.56307      -511.161 7        44.974
G06        15.000    23079249.645 7 121282385.26407     -1654.113 7        43.029                                    23079253.589 6  94505826.53206     -1288.920 6        39.565    23079254.329 6  94505828.53106     -1288.862 6        40.982
G12        17.000    20478406.189 8 107614928.71508     -1746.151 8        49.455                                    20478404.425 8  83855872.12008     -1360.636 8        50.072    20478405.147 7  83855869.12307     -1360.636 7        45.622
G32        18.000    22911093.111 7 120398644.04507     -1300.711 7        46.056                                    22911097.094 7  93817175.72607     -1013.539 7        42.938    22911097.852 6  93817179.73206     -1013.634 6        41.907
E02        19.000    26802376.545 6 140847475.27306      1814.813 6        40.119                                                                    26802387.128 7 105178374.02407      1355.249 7        42.432    26802385.331 7 107922148.02107      1390.723 7        43.604
E10        21.000    25696191.988 7 135034555.32807      1572.321 7        43.117                                                                    25696197.473 7 100837607.43107      1174.136 7        47.299    25696196.406 8 103468140.92308      1204.747 8        48.296
I06        22.000    38527582.620 6 151190609.54706      -475.786 6        41.249
S28        23.000    40890042.540 5 214878473.59105      -517.181 5        35.210
S23        25.000    38129818.281 7 200373409.38007      -515.809 7        45.479
S45        26.000    63384441.892 6 333088334.21006      -575.112 6        36.594
C07        27.000                                                                                                                                    40838655.936 5 212657527.75105     -1421.757 5        35.876    40838656.772 6 164440266.03406     -1099.187 6        40.076    40838653.863 6 172801629.19006     -1155.270 6        36.408
R18        28.000    23979583.048 5 128004651.05605      4173.511 5        34.314                                                                    23979601.163 5  99559252.44905      3246.395 5        35.210
C38        29.000                                                                                                                                    41112924.107 6 214085783.18506      1547.932 6        38.123                                                                    41112928.558 6 173962254.25106      1257.477 6        39.303
C44        30.000                                                                                                                                    23936211.002 7 124642258.30907      2681.294 7        45.333                                                                    23936214.687 7 101282109.60807      2178.604 7        44.971
E12        31.000    25797713.830 6 135568027.50506       381.839 6        40.491                                                                    25797716.310 7 101235959.39907       285.184 7        43.846    25797715.602 7 103876882.47507       292.705 7        44.679
G11        32.000    22581616.520 7 118667348.72007       775.366 7        45.362                                    22581617.090 5  92468151.63305       604.177 5        33.533    22581618.431 7  92468142.63507       604.277 7        43.788
I02        33.000    37160633.828 7 145826299.15307      -635.522 7        42.775
R15        34.000    19484935.939 8 104121716.67208       639.542 8        52.258                                                                    19484939.219 7  80983622.98007       497.419 7        47.969
R07        35.000    24206218.754 6 129577746.31106      2199.182 6        40.076                                                                    24206225.559 6 100782684.66506      1710.526 6        39.871
G29        36.000    22658301.598 7 119070386.67207      2685.760 7        45.872                                    22658302.679 7  92782207.78707      2092.794 7        42.724    22658303.198 6  92782217.80406      2092.710 6        41.020
C10        38.000                                                                                                                                    39713039.135 6 206796171.68906     -1239.944 6        38.339    39713042.740 7 159907908.07607      -958.680 7        42.487    39713038.989 6 168038809.34606     -1007.706 6        39.171
E25        39.000    23482772.911 8 123402980.85808       230.521 8        48.414                                                                    23482776.888 8  92151695.51208       172.134 8        50.786    23482776.028 8  94555638.34108       176.608 8        51.578
R23        41.000    24038581.797 6 128590271.92606     -4724.610 6        38.595
S44        42.000    40704578.493 6 213904056.94606      -431.170 6        38.045
G28        43.000    23601679.918 6 124027756.21106      2747.336 6        41.788                                    23601683.748 4  96645070.36504      2140.765 4        27.737    23601683.965 6  96645070.38806      2140.879 6        41.263
C05        44.000                                                                                                                                    39438036.385 6 205364130.43406      -493.126 6        38.520    39438038.194 7 158800568.59507      -381.346 7        43.316    39438037.635 6 166875258.86606      -400.852 6        39.339
R14        45.000    20522149.851 8 109394708.08208     -2730.341 8        50.733                                                                    20522153.786 7  85084852.90807     -2123.651 7        46.953
R16        46.000    22792085.675 7 121751287.33307      2943.762 7        46.732                                                                    22792095.350 7  94695523.36007      2289.561 7        42.612
R17        47.000    20500570.454 8 109702884.83508      2705.390 8        50.872                                                                    20500574.342 7  85324586.11407      2104.215 7        45.788
C35        48.000                                                                                                                                    22003997.616 8 114580726.77108       496.821 8        51.334                                                                    22003998.900 8  93106284.95108       403.593 8        49.236
C24        49.000                                                                                                                                    22812090.439 8 118788556.69408      1688.982 8        48.479                                                                    22812090.971 8  96525443.11008      1372.291 8        49.061
C45        50.000                                                                                                                                    24763738.937 7 128951252.12907     -3286.793 7        43.257                                                                    24763735.948 7 104783431.02907     -2670.855 7        44.611
S48        51.000    77125355.450 6 405297851.78206      -527.547 6        38.411
C33        52.000                                                                                                                                    26326923.960 6 137091149.87506     -2410.676 6        41.268                                                                    26326945.664 6 111397860.66306     -1958.928 6        40.510
E33        53.000    27493980.282 6 144481966.91506     -2326.071 6        38.252                                                                    27493987.399 6 107892459.28606     -1736.968 6        41.685    27493985.818 7 110707032.98407     -1782.315 7        42.487
C60        54.000                                                                                                                                    40704578.263 6 211959492.87206      -427.185 6        39.940                                                                    40704568.865 6 172234392.68106      -347.334 6        40.024
E31        55.000    28664877.324 5 150634845.63505     -2973.500 5        34.100                                                                    28664888.530 6 112487060.90106     -2220.565 6        38.021    28664887.372 6 115421505.73906     -2278.525 6        39.165
C26        56.000                                                                                                                                    21657538.322 8 112776579.35308      -987.619 8        51.009                                                                    21657539.575 8  91640252.48108      -802.600 8        49.387
C02        57.000                                                                                                                                    40896854.916 5 212960562.71905      -445.613 5        33.701    40896857.843 6 164674572.76006      -344.762 6        37.418    40896858.553 5 173047875.06605      -362.404 5        33.377
I03        58.000    89356576.393 5 274868960.99105      1002.965 5        33.072
R06        59.000    22616857.203 6 120687944.51206      -766.507 6        36.442
R24        60.000    20163366.327 8 107822721.30708     -1608.170 8        50.051                                                                    20163369.161 7  83862184.72707     -1250.813 7        46.265
> 2025 01 02 13 45 15.0000000  0 55
E24         1.000    24706584.542 7 129834093.14107     -2063.637 7        45.875                                                                    24706587.401 8  96954097.93508     -1541.089 8        48.926    24706586.466 8  99483324.24908     -1581.248 8        50.112
E11         2.000    26487656.229 6 139193667.92906      2477.860 6        37.701                                                                    26487660.718 6 103943417.83006      1850.223 6        41.585    26487659.433 7 106654975.06507      1898.547 7        42.055
E03         3.000    25407872.562 7 133519262.53907     -2143.352 7        43.970                                                                    25407879.457 7  99705952.11707     -1600.500 7        46.770    25407878.379 8 102306978.26408     -1642.242 8        48.122
G19         4.000    24551989.279 6 129021693.34406     -4076.664 6        38.030                                    24551989.758 3 100536406.53403     -3176.627 3        21.405
S21         5.000    38416786.917 7 201881165.84007      -510.780 7        42.836
E05         6.000    25754027.580 6 135338169.54606     -3629.067 6        39.033                                                                    25754040.095 7 101064156.63907     -2709.927 7        42.195    25754038.473 7 103700616.49707     -2780.671 7        43.439
G25         7.000    20146449.037 8 105870454.28408       800.770 8        49.217                                    20146450.913 8  82496536.97308       623.976 8        49.872    20146451.793 7  82496537.97107       624.070 7        44.921
C29         8.000                                                                                                                                    24080374.766 7 125392849.27007     -2875.608 7        45.174                                                                    24080376.898 7 101891977.18807     -2336.576 7        45.115
R05         9.000    23084210.517 7 123398310.54507     -4193.947 7        44.492                                                                    23084220.201 6  95976496.46506     -3261.936 6        40.980
G24        10.000    22929640.031 7 120496032.74607     -4063.281 7        44.238                                    22929643.829 6  93893017.08506     -3166.190 6        41.385    22929644.655 6  93893022.09006     -3166.262 6        41.094
C14        11.000                                                                                                                                    26629277.131 6 138665542.46106     -3134.264 6        36.775    26629286.652 7 107224994.92107     -2423.558 7        42.277    26629281.965 6 112677102.67806     -2546.739 6        39.120
S27        12.000    39208709.180 6 206043167.96206      -523.585 6        36.389
E08        13.000    26577790.599 6 139667338.33106       459.257 6        40.532                                                                    26577798.195 7 104297129.66107       343.012 7        44.265    26577796.658 7 107017912.33007       351.992 7        45.058
S36        14.000    38187982.889 7 200679621.52807      -511.235 7        44.879
G06        15.000    23080824.661 7 121290664.21507     -1657.393 7        42.679                                    23080829.023 6  94512277.66306     -1291.476 6        39.508    23080830.178 6  94512279.65506     -1291.347 6        41.139
G12        17.000    20480068.385 8 107623665.00908     -1748.253 8        49.048                                    20480066.885 8  83862679.62008     -1362.272 8        49.940    20480067.250 7  83862676.61807     -1362.254 7        45.348
G32        18.000    22912331.782 7 120405156.06707     -1303.959 7        45.962                                    22912336.288 7  93822250.02407     -1016.067 7        42.883    22912336.894 6  93822254.02106     -1016.034 6        41.392
E02        19.000    26800650.431 6 140838401.84506      1814.579 6        40.226                                                                    26800660.319 7 105171598.45507      1354.949 7        42.309    26800658.718 7 107915195.69607      1390.358 7        43.488
E10        21.000    25694696.948 7 135026698.91707      1570.250 7        43.217                                                                    25694702.400 7 100831740.66907      1172.633 7        47.371    25694701.338 8 103462121.10208      1203.278 8        48.122
I06        22.000    38528188.737 6 151192988.72306      -475.738 6        41.299
S28        23.000    40890529.647 5 214881059.52505      -516.957 5        34.967
S23        25.000    38130308.411 7 200375988.81507      -515.832 7        45.415
S45        26.000    63384933.234 6 333091210.38406      -575.151 6        36.669
C07        27.000                                                                                                                                    40840020.910 5 212664636.38905     -1421.745 5        35.510    40840022.286 6 164445762.90806     -1099.324 6        39.937    40840019.037 6 172807405.55206     -1155.219 6        36.514
R18        28.000    23975670.982 5 127983782.39405      4173.746 5        34.586                                                                    23975692.035 5  99543021.46205      3246.183 5        35.710
C38        29.000                                                                                                                                    41111438.324 6 214078045.85706      1547.368 6        38.012                                                                    41111442.729 6 173955967.04406      1257.461 6        38.955
C44        30.000                                                                                                                                    23933637.031 7 124628855.45807      2679.990 7        44.828                                                                    23933640.590 7 101271218.68907      2177.862 7        44.858
E12        31.000    25797351.498 6 135566124.52106       379.415 6        40.441                                                                    25797354.193 7 101234538.34007       283.291 7        43.799    25797353.429 7 103875424.35007       290.709 7        44.594
G11        32.000    22580880.651 7 118663479.46207       772.344 7        45.500                                    22580880.748 5  92465136.64705       601.824 5        33.491    22580881.705 7  92465127.65007       601.840 7        43.759
I02        33.000    37161444.089 7 145829477.56507      -635.777 7        42.679
R15        34.000    19484338.843 8 104118524.89308       637.258 8        52.345                                                                    19484341.477 7  80981140.48207       495.650 7        47.493
R07        35.000    24204166.807 6 129566757.88706      2196.356 6        40.114                                                                    24204173.035 6 100774138.06806      1708.247 6        38.721
G29        36.000    22655746.577 7 119056962.05107      2684.173 7        46.195                                    22655747.979 7  92771747.07207      2091.561 7        42.599    22655748.307 6  92771757.07806      2091.624 6        40.846
C10        38.000                                                                                                                                    39714230.109 6 206802371.90006     -1240.097 6        38.264    39714233.255 7 159912702.47407      -958.789 7        42.665    39714229.698 6 168043847.52306     -1007.688 6        39.321
E25        39.000    23482554.119 8 123401831.27808       229.419 8        48.351                                                                    23482558.150 8  92150837.06308       171.355 8        50.801    23482557.233 8  94554757.49408       175.836 8        51.540
R23        41.000    24042998.782 6 128613898.90406     -4726.039 6        38.261
S44        42.000    40704988.469 6 213906213.04106      -431.165 6        37.879
G28        43.000    23599066.123 7 124014022.71007      2746.250 7        42.087                                    23599070.313 4  96634368.97904      2139.930 4        27.353    23599070.489 6  96634368.99706      2139.890 6        41.364
C05        44.000                                                                                                                                    39438509.823 6 205366596.72506      -493.258 6        38.270    39438511.502 7 158802475.66407      -381.421 7        43.198    39438511.408 6 166877262.89206      -400.727 6        39.231
R14        45.000    20524711.993 8 109408365.37408     -2732.441 8        50.796                                                                    20524716.144 7  85095475.24607     -2125.194 7        47.658
R16        46.000    22789330.677 7 121736569.85007      2943.437 7        46.215                                                                    22789339.516 7  94684076.49207      2289.404 7        42.013
R17        47.000    20498044.436 8 109689366.46708      2702.102 8        51.032                                                                    20498048.008 7  85314071.85107      2101.613 7        46.747
C35        48.000                                                                                                                                    22003522.004 8 114578249.80608       494.077 8        51.251                                                                    22003523.175 8  93104272.21408       401.601 8        49.247
C24        49.000                                                                                                                                    22810469.045 8 118780114.99508      1687.890 8        48.321                                                                    22810469.765 8  96518583.54908      1371.559 8        49.040
C45        50.000                                                                                                                                    24766895.164 7 128967688.69707     -3287.814 7        42.677                                                                    24766892.602 7 104796787.04907     -2671.465 7        44.789
S48        51.000    77125840.773 6 405300489.66206      -527.509 6        38.492
C33        52.000                                                                                                                                    26329238.827 6 137103208.29706     -2412.521 6        40.274                                                                    26329261.293 6 111407659.06306     -1960.202 6        40.679
E33        53.000    27496194.622 6 144493602.76006     -2328.112 6        38.336                                                                    27496201.481 6 107901148.40606     -1738.473 6        41.518    27496200.101 7 110715948.78507     -1783.952 7        42.188
C60        54.000                                                                                                                                    40704988.655 6 211961629.36606      -427.224 6        39.889                                                                    40704979.262 6 172236128.74806      -347.087 6        39.952
E31        55.000    28667706.554 5 150649713.13105     -2973.623 5        34.133                                                                    28667717.812 6 112498163.25106     -2220.377 6        38.084    28667716.515 6 115432897.71606     -2278.374 6        39.150
C26        56.000                                                                                                                                    21658487.489 8 112781522.72408      -989.628 8        50.866                                                                    21658488.842 8  91644269.36508      -804.026 8        49.338
C02        57.000                                                                                                                                    40897282.712 5 212962791.67005      -446.060 5        33.503    40897285.473 6 164676296.30806      -344.877 6        37.478    40897286.738 5 173049686.25005      -362.171 5        33.449
I03        58.000    89355296.277 5 274863943.83505      1003.816 5        33.281
R06        59.000    22617578.143 6 120691788.49806      -770.752 6        36.147
R24        60.000    20164872.072 8 107830773.54608     -1612.664 8        50.600                                                                    20164874.904 7  83868447.58207     -1254.223 7        46.735
> 2025 01 02 13 45 20.0000000  0 55
E24         1.000    24708548.553 7 129844413.70607     -2064.706 7        46.222                                                                    24708551.328 8  96961804.84508     -1541.790 8        49.009    24708550.464 8  99491232.21008     -1582.058 8        50.149
E11         2.000    26485299.411 6 139181281.45606      2476.793 6        38.144                                                                    26485303.592 6 103934168.20306      1849.634 6        41.862    26485302.338 6 106645484.14406      1897.831 6        41.976
E03         3.000    25409912.796 7 133529984.54307     -2145.590 7        44.289                                                                    25409919.835 7  99713958.79807     -1602.253 7        46.891    25409918.719 8 102315193.81708     -1644.012 8        48.243
G19         4.000    24555867.733 6 129042077.68906     -4077.273 6        37.353                                    24555868.833 3 100552290.48303     -3177.125 3        20.690
S21         5.000    38417273.514 7 201883720.32907      -511.113 7        42.760
E05         6.000    25757480.561 6 135356315.11406     -3629.198 6        39.294                                                                    25757493.276 7 101077706.84907     -2710.252 7        42.360    25757491.658 7 103714520.20507     -2781.065 7        43.462
G25         7.000    20145688.279 8 105866455.94908       798.492 8        49.218                                    20145690.053 8  82493421.39508       622.198 8        49.949    20145690.480 7  82493422.40407       622.281 7        44.576
C29         8.000                                                                                                                                    24083136.976 7 125407232.17307     -2877.664 7        45.583                                                                    24083138.887 7 101903664.48007     -2338.262 7        44.956
R05         9.000    23088133.704 7 123419284.32107     -4195.760 7        44.707                                                                    23088143.631 6  95992809.39206     -3263.296 6        40.625
G24        10.000    22933507.004 7 120516352.41507     -4064.684 7        44.459                                    22933510.629 6  93908850.57906     -3167.285 6        41.943    22933511.526 6  93908855.57506     -3167.340 6        41.185
C14        11.000                                                                                                                                    26632286.140 6 138681216.15306     -3135.441 6        37.236    26632296.776 7 107237114.77907     -2424.456 7        42.372    26632291.749 6 112689838.82306     -2547.634 6        39.024
S27        12.000    39209209.429 6 206045786.11306      -524.004 6        36.423
E08        13.000    26577354.339 6 139665048.19106       456.743 6        41.237                                                                    26577362.411 7 104295419.50407       341.101 7        44.399    26577360.808 7 107016157.56407       349.889 7        45.180
S36        14.000    38188468.829 7 200682177.29607      -511.657 7        44.823
G06        15.000    23082403.484 7 121298959.59807     -1660.915 7        43.105                                    23082407.631 6  94518741.59906     -1294.218 6        39.628    23082409.079 6  94518743.60006     -1294.241 6        41.118
G12        17.000    20481732.890 8 107632411.37708     -1750.399 8        49.371                                    20481731.258 8  83869494.97008     -1363.947 8        50.024    20481731.880 7  83869491.97507     -1363.937 7        45.342
G32        18.000    22913573.569 7 120411683.63207     -1307.286 7        45.708                                    22913578.451 7  93827336.42807     -1018.664 7        43.018    22913578.700 6  93827340.42706     -1018.667 6        41.077
E02        19.000    26798923.811 6 140829330.15506      1813.968 6        40.527                                                                    26798933.988 7 105164824.17407      1354.566 7        42.415    26798932.406 7 107908244.69507      1389.932 7        43.503
E10        21.000    25693203.858 7 135018851.99107      1568.282 7        43.579                                                                    25693209.087 7 100825881.00007      1171.097 7        47.507    25693208.104 8 103456108.56808      1201.643 8        48.092
I06        22.000    38528794.974 6 151195367.94306      -475.929 6        41.058
S28        23.000    40891028.761 5 214883645.89905      -517.445 5        34.886
S23        25.000    38130800.008 7 200378568.54807      -516.162 7        45.478
S45        26.000    63385432.415 6 333094086.84306      -575.372 6        36.567
