     3.04           OBSERVATION DATA    M                   RINEX VERSION / TYPE
ssrcrin-15.6.1x                         20250102 143000 UTC PGM / RUN BY / DATE 
(00000000023479385599111004) Septentrio proprietary         COMMENT             
rref                                                        MARKER NAME         
01                                                          MARKER NUMBER       
geodetic                                                    MARKER TYPE         
NFB                 CLIMERS@TUW                             OBSERVER / AGENCY   
3297213             SEPT ASTERX SB3 PROB4.14.4              REC # / TYPE / VERS 
Unknown             Unknown                                 ANT # / TYPE        
  4127831.7617  1207193.1381  4695247.6898                  APPROX POSITION XYZ 
        0.0000        0.0000        0.0000                  ANTENNA: DELTA H/E/N
G   23 X1  C1C L1C D1C S1C C1W S1W C2W L2W D2W S2W C2L L2L  SYS / # / OBS TYPES 
       D2L S2L C5Q L5Q D5Q S5Q C1L L1L D1L S1L              SYS / # / OBS TYPES 
E   21 X1  C1C L1C D1C S1C C6C L6C D6C S6C C5Q L5Q D5Q S5Q  SYS / # / OBS TYPES 
       C7Q L7Q D7Q S7Q C8Q L8Q D8Q S8Q                      SYS / # / OBS TYPES 
S    9 X1  C1C L1C D1C S1C C5I L5I D5I S5I                  SYS / # / OBS TYPES 
R   17 X1  C1C L1C D1C S1C C2P L2P D2P S2P C2C L2C D2C S2C  SYS / # / OBS TYPES 
       C3Q L3Q D3Q S3Q                                      SYS / # / OBS TYPES 
C   25 X1  C1P L1P D1P S1P C5P L5P D5P S5P C2I L2I D2I S2I  SYS / # / OBS TYPES 
       C7I L7I D7I S7I C6I L6I D6I S6I C7D L7D D7D S7D      SYS / # / OBS TYPES 
J   17 X1  C1C L1C D1C S1C C2L L2L D2L S2L C5Q L5Q D5Q S5Q  SYS / # / OBS TYPES 
       C1L L1L D1L S1L                                      SYS / # / OBS TYPES 
I    5 X1  C5A L5A D5A S5A                                  SYS / # / OBS TYPES 
SEPTENTRIO RECEIVERS OUTPUT ALIGNED CARRIER PHASES.         COMMENT             
NO FURTHER PHASE SHIFT APPLIED IN THE RINEX ENCODER.        COMMENT             
G L1C                                                       SYS / PHASE SHIFT   
G L2W                                                       SYS / PHASE SHIFT   
G L2L  0.00000                                              SYS / PHASE SHIFT   
G L5Q  0.00000                                              SYS / PHASE SHIFT   
G L1L  0.00000                                              SYS / PHASE SHIFT   
E L1C  0.00000                                              SYS / PHASE SHIFT   
E L6C  0.00000                                              SYS / PHASE SHIFT   
E L5Q  0.00000                                              SYS / PHASE SHIFT   
E L7Q  0.00000                                              SYS / PHASE SHIFT   
E L8Q  0.00000                                              SYS / PHASE SHIFT   
S L1C                                                       SYS / PHASE SHIFT   
S L5I                                                       SYS / PHASE SHIFT   
R L1C                                                       SYS / PHASE SHIFT   
R L2P  0.00000                                              SYS / PHASE SHIFT   
R L2C                                                       SYS / PHASE SHIFT   
R L3Q  0.00000                                              SYS / PHASE SHIFT   
C L1P  0.00000                                              SYS / PHASE SHIFT   
C L5P  0.00000                                              SYS / PHASE SHIFT   
C L2I                                                       SYS / PHASE SHIFT   
C L7I                                                       SYS / PHASE SHIFT   
C L6I                                                       SYS / PHASE SHIFT   
C L7D                                                       SYS / PHASE SHIFT   
J L1C                                                       SYS / PHASE SHIFT   
J L2L  0.00000                                              SYS / PHASE SHIFT   
J L5Q  0.00000                                              SYS / PHASE SHIFT   
J L1L  0.00000                                              SYS / PHASE SHIFT   
I L5A                                                       SYS / PHASE SHIFT   
  2025     1     2    14    30    0.0000000     GPS         TIME OF FIRST OBS   
 C1C    0.000 C2C    0.000 C2P    0.000                     GLONASS COD/PHS/BIS 
DBHZ                                                        SIGNAL STRENGTH UNIT
    18                                                      LEAP SECONDS        
 24 R01  1 R02 -4 R03  5 R04  6 R05  1 R06 -4 R07  5 R08  6 GLONASS SLOT / FRQ #
    R09 -2 R10 -7 R11  0 R12 -1 R13 -2 R14 -7 R15  0 R16 -1 GLONASS SLOT / FRQ #
    R17  4 R18 -3 R19  3 R20  2 R21  4 R22 -3 R23  3 R24  2 GLONASS SLOT / FRQ #
                                                            END OF HEADER       
> 2025 01 02 14 30  0.0000000  0 56
E24         1.000    25563861.704 7 134339110.53807     -2457.005 7        44.387                                                                    25563864.786 7 100318233.11307     -1834.809 7        47.167    25563863.921 8 102935219.62108     -1882.686 8        48.039
E11         2.000    25076504.491 6 131778059.47106      1786.211 6        41.349                                                                    25076505.732 7  98405800.91707      1333.782 7        44.557    25076504.953 7 100972897.08807      1368.642 7        44.545
E03         3.000    26445871.925 6 138973959.60306     -3014.998 6        41.938                                                                    26445880.908 7 103779256.81107     -2251.631 7        44.158    26445879.834 7 106486544.01207     -2310.332 7        45.004
C41         4.000                                                                                                                                    26926802.418 6 140214898.43706     -1642.801 6        37.868                                                                    26926817.872 6 113936155.61606     -1334.976 6        40.460
S21         5.000    38377761.953 7 201676089.96207      -509.687 7        42.991
G25         7.000    19733100.805 8 103698308.68308      -381.445 8        49.568                                    19733101.848 8  80803959.50108      -297.231 8        50.449    19733102.550 7  80803960.50707      -297.282 7        45.099
C29         8.000                                                                                                                                    25466320.688 7 132609826.21207     -3572.639 7        42.231                                                                    25466323.295 6 107756360.41106     -2903.066 6        41.619
E36         9.000    27962340.562 6 146943091.67306      2810.464 6        37.051                                                                    27962355.381 6 109730317.54906      2098.851 6        41.211    27962353.645 7 112592841.46507      2153.620 7        42.089
G24        10.000    24821341.946 6 130436938.61406     -4418.878 6        37.667                                    24821349.562 5 101639163.52905     -3443.275 5        32.473    24821350.472 6 101639168.50506     -3443.172 6        37.255
G20        11.000    24994132.025 6 131345069.20106      1979.850 6        38.162                                    24994134.796 3 102346843.13203      1542.750 3        18.328
S27        12.000    39174557.207 6 205863662.83206      -515.627 6        36.541
E08        13.000    26375582.281 6 138604744.89806      -850.602 6        41.747                                                                    26375588.175 7 103503640.40107      -635.263 7        44.230    26375586.975 7 106203722.66207      -651.788 7        44.975
S36        14.000    38149051.101 7 200475047.73107      -509.553 7        44.802
G06        15.000    24036629.171 6 126313445.59806     -3167.900 6        40.143                                    24036633.322 5  98426132.41405     -2468.494 5        34.186    24036634.570 6  98426134.42006     -2468.459 6        37.437
G12        17.000    21328376.226 7 112081549.05707     -2712.991 7        47.824                                    21328374.775 7  87336354.88607     -2114.019 7        47.052    21328375.164 7  87336351.89107     -2113.952 7        43.926
G32        18.000    23660508.740 7 124336829.28907     -2703.138 7        43.575                                    23660514.624 6  96885885.58706     -2106.337 6        37.977    23660515.392 6  96885889.58306     -2106.323 6        38.787
E02        19.000    25620194.988 7 134635135.45007      1621.841 7        43.126                                                                    25620200.377 7 100539308.89107      1211.085 7        45.792    25620199.209 7 103162061.49607      1242.634 7        46.422
E10        21.000    24881986.744 7 130755903.76607       381.907 7        45.968                                                                    24881990.206 8  97642518.10608       285.215 8        48.640    24881989.523 8 100189700.54808       292.583 8        49.299
I06        22.000    38549133.076 6 151275189.59506      -460.931 6        41.919
S28        23.000    40854246.642 5 214690395.81405      -513.959 5        34.910
S23        25.000    38093877.811 7 200184559.41807      -514.638 7        45.360
S45        26.000    63349598.517 6 332905671.20106      -574.193 6        36.113
C07        27.000                                                                                                                                    41259695.943 5 214850021.08905     -1365.958 5        35.800    41259693.688 6 166135650.22606     -1056.284 6        40.038    41259690.780 6 174583217.06306     -1110.084 6        36.575
R18        28.000    21665787.112 8 115653645.42708      3654.408 8        48.595                                                                    21665793.005 7  89952964.14707      2842.386 7        44.691
C38        29.000                                                                                                                                    40087760.594 6 208747520.29806      1234.336 6        41.323                                                                    40087763.478 6 169624485.15906      1002.999 6        40.577
C44        30.000                                                                                                                                    22447983.679 8 116892708.62208      1845.940 8        49.272                                                                    22447984.855 7  94984974.53307      1499.930 7        47.940
E12        31.000    25651715.846 6 134800813.80806      -989.411 6        40.863                                                                    25651717.304 7 100663043.52707      -738.794 7        43.312    25651716.700 7 103289020.58407      -758.185 7        44.352
G11        32.000    22326284.891 7 117325585.05907      -979.497 7        45.627                                    22326284.982 5  91422625.10605      -763.244 5        34.329    22326284.573 7  91422616.10507      -763.265 7        44.575
I02        33.000    37317962.070 6 146443691.52606      -697.014 6        41.959
R15        34.000    19196432.321 8 102580051.07208      -746.256 8        52.261                                                                    19196434.138 7  79784552.67207      -580.432 7        47.567
R07        35.000    23279461.358 7 124616728.99807       191.303 7        44.011                                                                    23279469.139 7  96924112.40607       148.936 7        42.231
G29        36.000    21229538.990 8 111562231.20808      1664.708 8        48.440                                    21229538.184 8  86931707.12008      1297.171 8        48.354    21229538.699 7  86931717.12507      1297.217 7        43.816
G31        37.000    23935631.613 6 125782691.98906      2859.473 6        41.278                                    23935635.985 5  98012553.29105      2228.149 5        33.838    23935636.191 6  98012559.30806      2228.090 6        37.932
C10        38.000                                                                                                                                    40049899.208 6 208550302.09806     -1220.501 6        36.953    40049902.345 6 161264314.90306      -943.848 6        40.894    40049898.936 6 169464185.54306      -991.990 6        37.471
E25        39.000    23208069.766 8 121959418.37208      -336.085 8        48.192                                                                    23208073.061 8  91073713.80008      -251.028 8        50.727    23208072.450 8  93449534.98108      -257.559 8        51.243
C12        40.000                                                                                                                                    24532282.368 6 127746125.69006      2753.883 6        41.933    24532284.789 8  98781476.99708      2129.432 8        48.245    24532282.470 7 103804242.39907      2237.747 7        45.111
E07        41.000    28581117.794 5 150194763.27105      1398.697 5        35.476                                                                    28581127.397 6 112158437.80906      1044.348 6        40.114    28581126.106 6 115084306.94906      1071.438 6        40.427
S44        42.000    40624548.826 6 213483515.60406      -427.518 6        37.096
G28        43.000    22112438.706 7 116201799.70507      1788.738 7        44.900                                    22112438.952 5  90546937.31205      1393.819 5        33.689    22112439.052 7  90546937.32307      1393.858 7        44.409
C05        44.000                                                                                                                                    39389402.383 6 205110897.57406      -478.902 6        37.875    39389404.143 7 158604756.28407      -370.429 7        43.340    39389404.053 6 166669489.16706      -389.224 6        39.658
R14        45.000    21861599.090 7 116534707.40307     -3730.453 7        47.804                                                                    21861604.960 7  90638180.65907     -2901.472 7        45.428
R16        46.000    21076834.309 8 112588804.00308      2594.334 8        50.067                                                                    21076838.860 7  87569168.23707      2017.856 7        46.170
R17        47.000    19344157.210 8 103514709.36508       592.838 8        52.171                                                                    19344159.004 7  80511567.44107       461.078 7        46.981
C35        48.000                                                                                                                                    21826676.535 8 113657378.08108      -963.089 8        50.699                                                                    21826677.461 8  92355990.26708      -782.628 8        49.178
C24        49.000                                                                                                                                    21822046.271 8 113633164.99908       921.879 8        50.806                                                                    21822045.539 8  92336270.73808       749.037 8        50.232
C45        50.000                                                                                                                                    26264478.339 6 136765963.28906     -3647.638 6        38.604                                                                    26264477.463 6 111133516.96106     -2964.166 6        41.709
S48        51.000    77088933.507 6 405106301.58406      -532.242 6        37.716
C08        52.000                                                                                                                                    40357645.558 6 210152854.83806      1716.122 6        36.601    40357646.670 6 162503521.21006      1326.907 6        41.142    40357644.465 6 170766405.75406      1394.530 6        38.616
E33        53.000    28623244.868 4 150416374.86004     -3180.020 4        28.739                                                                    28623246.256 5 112324021.75805     -2374.454 5        34.176    28623245.164 5 115254198.63105     -2436.520 5        33.275
C60        54.000                                                                                                                                    40624548.789 6 211542774.79506      -423.747 6        38.571                                                                    40624538.939 6 171895778.23106      -344.296 6        40.663
C25        55.000                                                                                                                                    25948649.667 6 135121493.93206      2612.612 6        39.853                                                                    25948657.808 6 109797336.65806      2122.860 6        39.997
C26        56.000                                                                                                                                    22142254.930 8 115300627.12608     -2050.210 8        50.737                                                                    22142256.264 8  93691248.13308     -1666.001 8        48.792
C02        57.000                                                                                                                                    40823802.184 5 212580178.61705      -432.218 5        32.581    40823803.630 6 164380440.99606      -334.228 6        39.471    40823805.114 5 172738786.16905      -351.360 5        35.181
I03        58.000    88361003.565 6 270962150.27606      1026.489 6        36.654
R06        59.000    23256986.767 5 124103769.03405     -2853.311 5        34.114
R24        60.000    21212748.493 8 113434230.71208     -3614.359 8        49.113                                                                    21212751.255 7  88226690.46407     -2811.109 7        44.111
> 2025 01 02 14 30  5.0000000  0 56
E24         1.000    25566199.853 7 134351397.38907     -2457.881 7        44.212                                                                    25566202.959 7 100327408.35107     -1835.422 7        47.224    25566202.111 8 102944634.21708     -1883.296 8        48.084
E11         2.000    25074805.934 6 131769133.23606      1784.252 6        41.261                                                                    25074807.176 7  98399135.23507      1332.419 7        44.634    25074806.360 7 100966057.51407      1367.215 7        44.510
E03         3.000    26448741.593 6 138989038.20906     -3016.323 6        41.802                                                                    26448750.336 7 103790516.78607     -2252.447 7        44.296    26448749.171 7 106498097.73307     -2311.260 7        45.067
C41         4.000                                                                                                                                    26928380.082 6 140223118.28906     -1645.187 6        38.832                                                                    26928396.401 6 113942834.92906     -1336.952 6        40.677
S21         5.000    38378247.764 7 201678638.57307      -509.790 7        42.952
G25         7.000    19733464.882 8 103700221.68908      -383.831 8        49.614                                    19733465.878 8  80805450.15908      -299.089 8        50.334    19733466.741 7  80805451.16007      -299.083 7        45.317
C29         8.000                                                                                                                                    25469751.375 7 132627691.45107     -3573.580 7        42.368                                                                    25469754.138 6 107770877.38906     -2903.723 6        41.366
E36         9.000    27959666.055 6 146929038.01706      2810.732 6        37.066                                                                    27959680.922 6 109719823.06706      2098.800 6        41.292    27959679.268 7 112582073.19307      2153.647 7        42.099
G24        10.000    24825546.248 6 130459033.15706     -4419.258 6        37.372                                    24825554.081 5 101656380.01305     -3443.570 5        32.090    24825554.441 6 101656385.00806     -3443.410 6        37.777
G20        11.000    24992249.486 6 131335173.07606      1978.487 6        38.087                                    24992251.590 3 102339131.90203      1541.701 3        18.090
S27        12.000    39175046.326 6 205866241.89606      -515.923 6        36.507
E08        13.000    26376392.416 6 138609004.13306      -853.188 6        41.981                                                                    26376398.679 7 103506820.98607      -637.152 7        44.248    26376397.405 7 106206986.22407      -653.732 7        44.965
S36        14.000    38149536.012 7 200477596.16807      -509.770 7        44.758
G06        15.000    24039644.498 6 126329290.85106     -3170.323 6        39.634                                    24039648.707 5  98438479.36705     -2470.380 5        34.148    24039650.117 6  98438481.37906     -2470.379 6        37.807
G12        17.000    21330958.243 7 112095118.25707     -2714.694 7        47.513                                    21330956.913 7  87346928.28107     -2115.344 7        46.950    21330957.545 7  87346925.29107     -2115.409 7        44.283
G32        18.000    23663082.107 7 124350350.76907     -2705.443 7        43.706                                    23663087.645 6  96896421.78406     -2108.131 6        38.075    23663088.480 6  96896425.78006     -2108.066 6        39.009
E02        19.000    25618651.827 7 134627027.49707      1621.304 7        43.029                                                                    25618657.418 7 100533254.27107      1210.719 7        46.006    25618656.288 7 103155848.93207      1242.188 7        46.319
E10        21.000    24881624.350 7 130754000.75707       379.301 7        45.729                                                                    24881628.083 8  97641097.03908       283.204 8        48.799    24881627.380 8 100188242.40808       290.599 8        49.243
I06        22.000    38549720.393 6 151277493.89906      -460.918 6        41.962
S28        23.000    40854736.938 5 214692965.92005      -514.118 5        34.886
S23        25.000    38094367.007 7 200187132.63507      -514.724 7        45.290
S45        26.000    63350089.001 6 332908541.91706      -574.241 6        36.181
C07        27.000                                                                                                                                    41261007.047 5 214856851.61605     -1365.822 5        35.367    41261004.974 6 166140932.04106     -1056.455 6        40.098    41261002.625 6 174588767.46006     -1110.230 6        36.465
R18        28.000    21662365.430 8 115635378.20908      3652.398 8        48.172                                                                    21662370.812 7  89938756.37307      2840.771 7        44.640
C38        29.000                                                                                                                                    40086575.405 6 208741350.10106      1233.668 6        40.970                                                                    40086578.456 6 169619471.39406      1002.290 6        40.451
C44        30.000                                                                                                                                    22446212.236 8 116883484.11508      1843.805 8        49.457                                                                    22446213.407 7  94977478.89007      1498.252 7        47.809
E12        31.000    25652658.195 6 134805767.18306      -992.033 6        40.749                                                                    25652659.946 7 100666742.49707      -740.963 7        43.494    25652659.210 7 103292816.03607      -760.183 7        44.259
G11        32.000    22327218.474 7 117330491.28407      -983.064 7        45.952                                    22327218.679 5  91426448.13605      -766.026 5        34.229    22327218.159 7  91426439.14507      -765.961 7        44.071
I02        33.000    37318849.872 7 146447177.06907      -697.397 7        42.017
R15        34.000    19197132.032 8 102583789.75608      -749.304 8        52.369                                                                    19197133.906 7  79787460.53607      -582.808 7        47.423
R07        35.000    23279284.495 7 124615782.74807       186.906 7        43.954                                                                    23279292.620 7  96923376.43207       145.421 7        42.218
G29        36.000    21227956.249 8 111553913.43708      1662.351 8        48.594                                    21227955.372 8  86925225.75108      1295.335 8        48.255    21227955.845 7  86925235.75607      1295.355 7        44.009
G31        37.000    23932911.482 6 125768397.61306      2858.176 6        40.946                                    23932915.745 5  98001414.87605      2227.134 5        33.742    23932915.779 6  98001420.91506      2227.046 6        38.474
C10        38.000                                                                                                                                    40051071.912 6 208556405.47106     -1220.739 6        37.641    40051074.684 6 161269034.42006      -944.163 6        40.796    40051071.088 6 169469145.04206      -992.083 6        37.406
E25        39.000    23208390.319 8 121961101.84408      -337.350 8        48.272                                                                    23208393.415 8  91074970.94108      -251.916 8        50.812    23208392.789 8  93450824.92008      -258.477 8        51.196
C12        40.000                                                                                                                                    24529637.340 6 127732358.88006      2752.739 6        41.554    24529641.118 8  98770831.67908      2128.527 8        48.254    24529638.473 7 103793055.78107      2236.824 7        44.772
E07        41.000    28579788.033 6 150187775.20506      1396.745 6        36.174                                                                    28579797.764 6 112153219.35706      1042.994 6        40.546    28579796.379 6 115078952.37506      1070.220 6        40.608
S44        42.000    40624951.612 6 213485654.08906      -427.956 6        36.752
G28        43.000    22110737.764 7 116192862.13207      1786.234 7        44.612                                    22110738.161 5  90539972.98105      1391.866 5        33.647    22110738.298 7  90539972.98907      1391.835 7        44.281
C05        44.000                                                                                                                                    39389861.910 6 205113292.29906      -478.864 6        38.006    39389863.911 7 158606608.04407      -370.464 7        43.263    39389864.053 6 166671435.08806      -389.266 6        39.282
R14        45.000    21865099.132 7 116553363.70807     -3732.147 7        47.817                                                                    21865104.155 7  90652691.10107     -2902.826 7        44.492
R16        46.000    21074406.784 8 112575835.14508      2593.060 8        50.668                                                                    21074411.196 7  87559081.36407      2016.806 7        46.213
R17        47.000    19343605.646 8 103511756.29908       588.316 8        52.143                                                                    19343606.803 7  80509270.61507       457.556 7        46.799
C35        48.000                                                                                                                                    21827602.670 8 113662200.19708      -965.803 8        50.833                                                                    21827603.465 8  92359908.64308      -784.851 8        49.001
C24        49.000                                                                                                                                    21821162.238 8 113628560.21508       919.981 8        51.086                                                                    21821161.227 8  92332528.98608       747.499 8        50.086
C45        50.000                                                                                                                                    26267981.423 6 136784203.21206     -3648.284 6        38.853                                                                    26267980.395 6 111148338.38406     -2964.596 6        41.828
S48        51.000    77089423.620 6 405108962.15006      -532.472 6        37.887
C08        52.000                                                                                                                                    40355998.543 6 210144276.20506      1715.426 6        36.681    40355999.516 6 162496887.68806      1326.398 6        40.942    40355996.915 6 170759434.93706      1393.913 6        38.634
E33        53.000    28626271.006 4 150432275.77104     -3181.070 4        29.479                                                                    28626271.919 5 112335895.94705     -2375.517 5        34.629    28626270.723 5 115266382.55305     -2437.231 5        33.419
C60        54.000                                                                                                                                    40624955.594 6 211544893.83706      -424.052 6        38.577                                                                    40624945.781 6 171897500.13606      -344.407 6        40.522
C25        55.000                                                                                                                                    25946141.271 6 135108431.41206      2612.236 6        39.399                                                                    25946149.296 6 109786722.35906      2122.730 6        40.164
C26        56.000                                                                                                                                    22144224.556 8 115310883.09208     -2052.273 8        50.892                                                                    22144225.836 8  93699581.95308     -1667.691 8        48.689
C02        57.000                                                                                                                                    40824217.159 5 212582339.70405      -432.345 5        32.521    40824218.865 6 164382112.10706      -334.291 6        39.583    40824220.094 5 172740542.23805      -351.111 5        34.738
I03        58.000    88359695.488 6 270957018.29506      1026.347 6        36.420
R06        59.000    23259660.492 5 124118043.50405     -2856.713 5        34.348
R24        60.000    21216129.628 8 113452309.79508     -3617.362 8        49.916                                                                    21216132.648 7  88240751.96207     -2813.524 7        44.728
> 2025 01 02 14 30 10.0000000  0 56
E24         1.000    25568538.583 7 134363687.19607     -2457.949 7        44.147                                                                    25568541.620 7 100336585.79807     -1835.482 7        47.143    25568540.797 7 102954051.07207     -1883.358 7        47.910
E11         2.000    25073108.900 6 131760215.28206      1783.095 6        41.483                                                                    25073110.191 7  98392475.73607      1331.557 7        44.828    25073109.259 7 100959224.29907      1366.258 7        44.432
E03         3.000    26451611.574 6 139004122.18906     -3017.151 6        41.294                                                                    26451620.808 7 103801780.76507     -2253.026 7        44.334    26451619.493 7 106509655.55807     -2311.776 7        44.865
C41         4.000                                                                                                                                    26929960.949 6 140231349.39106     -1646.968 6        38.550                                                                    26929977.330 6 113949523.34506     -1338.412 6        41.030
S21         5.000    38378732.219 7 201681186.80007      -509.243 7        43.050
G25         7.000    19733831.092 8 103702145.89808      -385.661 8        49.807                                    19733832.032 8  80806949.54908      -300.518 8        50.297    19733832.750 7  80806950.55307      -300.510 7        45.556
C29         8.000                                                                                                                                    25473183.140 7 132645560.22807     -3573.832 7        42.423                                                                    25473185.527 6 107785397.24206     -2904.184 6        41.480
E36         9.000    27956991.253 6 146914983.34006      2811.167 6        36.790                                                                    27957006.275 6 109709327.77906      2099.321 6        41.197    27957004.726 7 112571304.11307      2154.055 7        42.076
G24        10.000    24829751.399 6 130481127.90506     -4418.861 6        37.282                                    24829758.605 5 101673596.66305     -3443.255 5        31.887    24829759.059 6 101673601.63206     -3443.178 6        37.905
G20        11.000    24990367.137 6 131325281.99306      1978.067 6        38.258                                    24990369.310 3 102331424.61103      1541.321 3        18.239
S27        12.000    39175535.723 6 205868820.44406      -515.561 6        36.544
E08        13.000    26377205.339 6 138613275.08706      -854.943 6        41.819                                                                    26377211.488 7 103510010.33707      -638.591 7        44.289    26377210.233 7 106210258.76707      -655.165 7        44.831
S36        14.000    38150022.494 7 200480144.29007      -509.164 7        44.731
G06        15.000    24042662.233 6 126345146.91706     -3172.024 6        39.634                                    24042666.024 5  98450834.74805     -2471.706 5        33.952    24042667.554 6  98450836.74506     -2471.758 6        38.294
G12        17.000    21333541.674 7 112108695.04507     -2715.846 7        47.676                                    21333540.518 7  87357507.59107     -2116.239 7        46.887    21333541.114 7  87357504.59207     -2116.277 7        44.412
G32        18.000    23665656.896 7 124363881.85407     -2706.915 7        43.907                                    23665662.598 6  96906965.46906     -2109.282 6        38.141    23665663.441 6  96906969.46006     -2109.348 6        39.772
E02        19.000    25617109.573 7 134618921.22707      1621.409 7        43.198                                                                    25617114.877 7 100527200.90707      1210.787 7        45.956    25617113.717 7 103149637.64107      1242.438 7        46.236
E10        21.000    24881264.711 7 130752109.68507       377.297 7        45.619                                                                    24881268.217 8  97639684.87408       281.735 8        48.830    24881267.567 8 100186793.40008       289.131 8        49.224
I06        22.000    38550307.433 7 151279797.71807      -460.467 7        42.093
S28        23.000    40855222.565 5 214695535.13705      -513.758 5        34.862
S23        25.000    38094855.295 7 200189705.49107      -514.097 7        45.329
S45        26.000    63350581.031 6 332909712.07916      -573.820 6        36.261
C07        27.000                                                                                                                                    41262317.352 5 214863681.04005     -1365.493 5        34.648    41262316.017 6 166146213.01506     -1055.916 6        39.916    41262313.962 6 174594316.94706     -1109.625 6        36.526
R18        28.000    21658944.348 7 115617119.94107      3651.020 7        47.666                                                                    21658950.237 7  89924555.53907      2839.690 7        44.173
C38        29.000                                                                                                                                    40085390.672 6 208735183.08606      1233.304 6        40.741                                                                    40085394.178 6 169614460.18406      1002.116 6        40.717
C44        30.000                                                                                                                                    22444442.498 8 116874268.85908      1842.398 8        49.718                                                                    22444443.673 7  94969990.74807      1497.001 7        47.970
E12        31.000    25653603.453 6 134810732.77606      -994.100 6        40.648                                                                    25653604.820 7 100670450.55607      -742.333 7        43.414    25653604.141 7 103296620.83007      -761.687 7        44.269
G11        32.000    22328155.280 7 117335413.74907      -985.854 7        45.874                                    22328155.471 5  91430283.82005      -768.200 5        34.214    22328155.339 7  91430274.81307      -768.165 7        44.072
I02        33.000    37319738.098 7 146450663.09407      -697.042 7        42.131
R15        34.000    19197833.882 8 102587542.42408      -751.598 8        52.247                                                                    19197836.206 7  79790379.28607      -584.594 7        47.715
R07        35.000    23279111.941 7 124614857.13207       183.294 7        44.477                                                                    23279119.394 7  96922656.48707       142.543 7        42.578
G29        36.000    21226375.530 8 111545606.22508      1660.681 8        48.906                                    21226374.578 8  86918752.61508      1294.033 8        48.212    21226374.990 7  86918762.62107      1294.046 7        44.169
G31        37.000    23930192.054 6 125754109.18106      2857.454 6        40.951                                    23930196.646 5  97990281.09005      2226.573 5        33.677    23930197.386 6  97990287.11206      2226.414 6        37.845
C10        38.000                                                                                                                                    40052244.656 6 208562508.06306     -1220.213 6        38.126    40052246.390 6 161273753.33206      -943.496 6        40.901    40052243.162 6 169474103.90706      -991.484 6        37.732
E25        39.000    23208711.617 8 121962790.35808      -337.881 8        48.316                                                                    23208714.737 8  91076231.85408      -252.368 8        50.784    23208714.105 8  93452118.72808      -258.961 8        51.138
C12        40.000                                                                                                                                    24526994.577 7 127718596.71307      2752.382 7        42.036    24526998.225 8  98760189.93908      2128.188 8        48.372    24526995.285 7 103781872.92907      2236.313 7        44.790
E07        41.000    28578459.764 5 150180795.51105      1395.544 5        35.967                                                                    28578469.832 6 112148007.18906      1041.921 6        40.639    28578468.306 6 115073604.23506      1069.242 6        40.887
S44        42.000    40625358.270 6 213487792.05506      -427.416 6        36.741
G28        43.000    22109039.172 7 116183936.08907      1784.394 7        44.880                                    22109039.579 5  90533017.64005      1390.431 5        33.665    22109039.970 7  90533017.65507      1390.376 7        44.591
C05        44.000                                                                                                                                    39390322.044 6 205115686.48506      -478.562 6        37.928    39390324.063 7 158608459.35907      -370.019 7        43.115    39390323.723 6 166673380.53706      -388.739 6        39.580
R14        45.000    21868600.478 8 116572027.75508     -3733.204 8        48.015                                                                    21868605.824 7  90667207.57607     -2903.666 7        44.560
R16        46.000    21071980.157 8 112562871.76808      2592.427 8        50.352                                                                    21071984.122 7  87548998.74407      2016.378 7        46.290
R17        47.000    19343058.101 8 103508824.86108       584.481 8        52.203                                                                    19343059.369 7  80506990.61607       454.577 7        47.517
C35        48.000                                                                                                                                    21828531.224 8 113667034.91508      -967.903 8        50.792                                                                    21828531.876 8  92363837.23708      -786.535 8        49.177
C24        49.000                                                                                                                                    21820279.625 8 113623963.82008       918.755 8        51.175                                                                    21820278.566 8  92328794.04508       746.491 8        50.207
C45        50.000                                                                                                                                    26271484.760 6 136802444.94106     -3648.197 6        38.820                                                                    26271483.495 7 111163161.28507     -2964.559 7        42.161
S48        51.000    77089912.252 6 405111622.04006      -531.695 6        37.815
C08        52.000                                                                                                                                    40354351.238 6 210135699.56306      1715.598 6        36.646    40354352.570 6 162490255.70306      1326.569 6        40.787    40354349.917 6 170752465.73406      1393.883 6        38.865
E33        53.000    28629297.575 4 150448181.93104     -3181.942 4        29.422                                                                    28629298.770 5 112347773.99805     -2375.671 5        34.719    28629297.866 5 115278570.48205     -2437.759 5        33.108
C60        54.000                                                                                                                                    40625362.423 6 211547012.37406      -423.470 6        38.751                                                                    40625352.600 6 171899221.61906      -344.080 6        40.622
C25        55.000                                                                                                                                    25943633.908 6 135095369.07306      2612.814 6        40.064                                                                    25943641.068 6 109776108.20806      2122.990 6        40.553
C26        56.000                                                                                                                                    22146195.972 8 115321148.35608     -2053.726 8        50.954                                                                    22146197.214 8  93707923.31108     -1668.853 8        48.809
C02        57.000                                                                                                                                    40824632.059 5 212584500.22705      -431.687 5        32.940    40824634.028 6 164383782.76706      -333.893 6        39.399    40824635.209 5 172742297.85005      -350.859 5        35.181
I03        58.000    88358387.474 6 270951885.73706      1026.738 6        36.669
R06        59.000    23262337.474 5 124132333.20805     -2858.895 5        33.964
R24        60.000    21219512.721 8 113470402.73408     -3619.732 8        49.308                                                                    21219515.584 7  88254824.21707     -2815.265 7        44.734
> 2025 01 02 14 30 15.0000000  0 56
E24         1.000    25570877.780 7 134375980.22607     -2458.817 7        44.307                                                                    25570880.783 7 100345765.65607     -1836.193 7        47.310    25570880.106 8 102963470.40708     -1884.043 8        48.035
E11         2.000    25071413.739 7 131751305.87507      1781.084 7        42.231                                                                    25071414.709 7  98385822.62207      1330.131 7        44.742    25071413.943 7 100952397.61207      1364.802 7        44.546
E03         3.000    26454483.276 6 139019211.68106     -3018.383 6        41.521                                                                    26454492.261 7 103813048.88207     -2253.935 7        44.337    26454490.914 7 106521217.62107     -2312.635 7        44.810
C41         4.000                                                                                                                                    26931543.401 6 140239591.90606     -1649.647 6        38.826                                                                    26931560.479 6 113956221.04506     -1340.474 6        40.746
S21         5.000    38379215.544 7 201683734.84007      -509.379 7        42.948
G25         7.000    19734199.592 8 103704081.46208      -388.176 8        49.707                                    19734200.351 8  80808457.78308      -302.474 8        50.252    19734200.948 7  80808458.78807      -302.492 7        45.236
C29         8.000                                                                                                                                    25476615.409 7 132663432.71307     -3574.847 7        42.339                                                                    25476617.731 6 107799920.08606     -2904.800 6        41.218
E36         9.000    27954316.625 6 146900927.78106      2811.189 6        37.040                                                                    27954331.418 6 109698831.84506      2099.422 6        41.337    27954329.893 7 112560534.36507      2154.083 7        42.023
G24        10.000    24833955.792 6 130503222.97406     -4418.762 6        37.267                                    24833963.205 5 101690813.55705     -3443.184 5        31.834    24833963.692 6 101690818.54706     -3443.362 6        37.629
G20        11.000    24988485.653 6 131315396.17906      1976.753 6        38.907                                    24988488.045 3 102323721.41003      1540.302 3        18.806
S27        12.000    39176026.435 6 205871398.67006      -515.750 6        36.612
E08        13.000    26378020.454 7 138617557.96807      -857.594 7        42.045                                                                    26378026.491 7 103513208.58207      -640.422 7        44.373    26378025.206 7 106213540.45907      -657.130 7        44.950
S36        14.000    38150506.815 7 200482692.34707      -509.511 7        44.767
G06        15.000    24045681.197 6 126361013.99606     -3174.340 6        39.901                                    24045685.366 5  98463198.71005     -2473.515 5        33.784    24045686.497 6  98463200.72606     -2473.717 6        37.796
G12        17.000    21336126.874 7 112122279.56407     -2717.600 7        47.920                                    21336125.590 7  87368092.91907     -2117.608 7        46.842    21336126.006 7  87368089.92207     -2117.570 7        44.163
G32        18.000    23668233.320 7 124377422.75807     -2709.045 7        43.312                                    23668239.424 6  96917516.79706     -2110.945 6        38.132    23668240.142 6  96917520.78506     -2110.887 6        39.471
E02        19.000    25615567.139 7 134610816.83607      1620.716 7        43.109                                                                    25615572.596 7 100521148.93807      1210.394 7        46.063    25615571.465 7 103143427.80407      1241.897 7        46.238
E10        21.000    24880907.532 7 130750230.74407       374.648 7        45.792                                                                    24880910.707 8  97638281.76908       279.812 8        48.912    24880910.033 8 100185353.69608       287.111 8        49.270
I06        22.000    38550894.509 7 151282101.17207      -460.503 7        42.125
S28        23.000    40855711.819 5 214698104.02105      -513.548 5        34.814
S23        25.000    38095347.562 7 200192278.03907      -514.372 7        45.395
S45        26.000    63351072.140 6 332912581.93806      -573.836 6        36.140
C07        27.000                                                                                                                                    41263627.856 5 214870509.67705     -1365.682 5        34.405    41263627.341 6 166151493.36506     -1055.925 6        39.553    41263625.211 6 174599865.76006     -1109.626 6        36.348
R18        28.000    21655525.590 7 115598870.89107      3649.062 7        47.567                                                                    21655531.639 7  89910361.88107      2838.153 7        43.953
C38        29.000                                                                                                                                    40084207.081 6 208729019.42706      1232.414 6        40.451                                                                    40084210.600 6 169609451.71206      1001.509 6        40.741
C44        30.000                                                                                                                                    22442674.343 8 116865063.04808      1840.299 8        49.547                                                                    22442675.778 7  94962510.27307      1495.340 7        47.871
E12        31.000    25654550.723 6 134815710.73306      -996.757 6        40.679                                                                    25654551.999 7 100674167.85407      -744.238 7        43.642    25654551.494 7 103300435.10607      -763.666 7        44.277
G11        32.000    22329094.879 7 117340352.64107      -989.337 7        45.970                                    22329095.303 5  91434132.29905      -770.908 5        34.290    22329095.405 7  91434123.29607      -770.899 7        44.349
I02        33.000    37320626.844 7 146454149.36307      -697.188 7        42.178
R15        34.000    19198538.807 8 102591309.30108      -754.702 8        52.095                                                                    19198541.124 7  79793309.06907      -586.953 7        47.258
R07        35.000    23278943.371 7 124613952.03607       178.913 7        44.048                                                                    23278950.192 7  96921952.48707       139.288 7        42.351
G29        36.000    21224796.912 8 111537309.75508      1658.360 8        49.015                                    21224795.804 8  86912287.84408      1292.225 8        48.203    21224796.393 7  86912297.85107      1292.260 7        43.937
G31        37.000    23927474.381 6 125739826.81906      2855.973 6        40.713                                    23927478.615 5  97979152.03105      2225.423 5        33.808    23927479.180 6  97979158.06206      2225.290 6        37.573
C10        38.000                                                                                                                                    40053416.900 6 208568610.13506     -1220.261 6        38.228    40053418.410 6 161278471.84706      -943.543 6        41.213    40053414.984 6 169479062.33006      -991.598 6        37.452
E25        39.000    23209033.857 8 121964484.13808      -339.224 8        48.425                                                                    23209037.050 8  91077496.68608      -253.223 8        50.877    23209036.400 8  93453416.54908      -259.833 8        51.188
C12        40.000                                                                                                                                    24524353.947 7 127704839.39707      2751.024 7        42.734    24524356.281 8  98749551.94508      2127.297 8        48.322    24524353.404 7 103770694.00207      2235.403 7        44.877
E07        41.000    28577132.860 6 150173824.34406      1393.396 6        36.151                                                                    28577143.210 6 112142801.35506      1040.653 6        40.636    28577141.915 6 115068262.60006      1067.710 6        40.672
S44        42.000    40625767.509 6 213489929.76406      -427.449 6        36.904
G28        43.000    22107343.085 7 116175021.78607      1781.762 7        45.001                                    22107343.207 5  90526071.44305      1388.379 5        33.653    22107343.715 7  90526071.45107      1388.416 7        44.361
C05        44.000                                                                                                                                    39390781.673 6 205118080.24206      -478.553 6        37.837    39390783.764 7 158610310.36207      -370.058 7        43.179    39390783.423 6 166675325.65406      -388.915 6        39.559
R14        45.000    21872103.174 8 116590699.79108     -3735.058 8        48.038                                                                    21872109.099 7  90681730.24607     -2905.061 7        44.977
R16        46.000    21069554.035 8 112549913.74008      2591.114 8        50.315                                                                    21069558.419 7  87538920.30507      2015.277 7        46.445
R17        47.000    19342513.864 8 103505915.16408       579.826 8        51.902                                                                    19342515.259 7  80504727.52307       451.015 7        46.614
C35        48.000                                                                                                                                    21829462.103 8 113671882.42108      -970.694 8        50.780                                                                    21829462.790 8  92367776.22508      -788.867 8        49.128
C24        49.000                                                                                                                                    21819398.502 8 113619376.03808       916.809 8        51.089                                                                    21819397.515 8  92325066.09608       744.930 8        50.130
C45        50.000                                                                                                                                    26274988.397 6 136820688.68606     -3648.866 6        38.682                                                                    26274987.138 7 111177985.81307     -2965.104 7        42.220
S48        51.000    77090402.842 6 405114281.81006      -532.051 6        38.009
C08        52.000                                                                                                                                    40352704.857 6 210127125.15806      1714.697 6        36.544    40352705.603 6 162483625.45606      1325.933 6        40.739    40352703.202 6 170745498.34306      1393.367 6        38.898
E33        53.000    28632325.309 4 150464093.42704     -3182.350 4        29.223                                                                    28632326.577 5 112359656.10405     -2376.855 5        34.652    28632325.258 5 115290762.54905     -2438.852 5        33.024
C60        54.000                                                                                                                                    40625769.229 6 211549130.62906      -423.398 6        38.441                                                                    40625759.402 6 171900942.89306      -344.260 6        40.584
C25        55.000                                                                                                                                    25941125.004 6 135082307.16806      2612.297 6        40.017                                                                    25941132.525 6 109765494.38806      2122.810 6        40.408
C26        56.000                                                                                                                                    22148169.285 8 115331423.09708     -2055.778 8        50.878                                                                    22148170.387 8  93716272.37008     -1670.546 8        48.741
C02        57.000                                                                                                                                    40825046.681 5 212586660.34405      -431.918 5        32.677    40825048.883 6 164385453.11006      -333.926 6        39.432    40825049.992 5 172744053.12305      -351.022 5        34.781
I03        58.000    88357079.420 6 270946752.78806      1026.618 6        36.813
R06        59.000    23265020.051 5 124146638.44805     -2862.526 5        34.057
R24        60.000    21222898.091 8 113488509.67608     -3622.667 8        49.381                                                                    21222901.051 7  88268907.39607     -2817.645 7        43.956
> 2025 01 02 14 30 20.0000000  0 56
E24         1.000    25573217.912 7 134388276.83307     -2459.583 7        44.336                                                                    25573220.807 7 100354948.19207     -1836.700 7        47.172    25573220.055 8 102972892.48608     -1884.612 8        48.145
E11         2.000    25069720.156 7 131742405.39507      1779.303 7        42.258                                                                    25069720.766 7  98379176.17507      1328.636 7        44.721    25069720.152 7 100945577.78407      1363.341 7        44.597
E03         3.000    26457355.988 6 139034307.14406     -3019.604 6        41.280                                                                    26457364.841 7 103824321.46107     -2254.915 7        44.278    26457363.377 7 106532784.27107     -2313.688 7        44.837
C41         4.000                                                                                                                                    26933128.962 6 140247846.26906     -1652.053 6        38.069                                                                    26933145.545 6 113962928.36406     -1342.360 6        40.996
S21         5.000    38379701.971 7 201686283.14707      -509.611 7        43.151
G25         7.000    19734569.913 8 103706028.80508      -390.563 8        49.665                                    19734570.910 8  80809975.19708      -304.334 8        50.205    19734571.773 7  80809976.20707      -304.386 7        45.383
C29         8.000                                                                                                                                    25480048.618 7 132681309.31907     -3575.595 7        42.218                                                                    25480050.620 6 107814446.32706     -2905.635 6        41.280
