     3.04           OBSERVATION DATA    M                   RINEX VERSION / TYPE
ssrcrin-15.6.1x                         20250102 093000 UTC PGM / RUN BY / DATE 
(00000000023479385599111004) Septentrio proprietary         COMMENT             
rref                                                        MARKER NAME         
01                                                          MARKER NUMBER       
geodetic                                                    MARKER TYPE         
NFB                 CLIMERS@TUW                             OBSERVER / AGENCY   
3297213             SEPT ASTERX SB3 PROB4.14.4              REC # / TYPE / VERS 
Unknown             Unknown                                 ANT # / TYPE        
  4127831.8946  1207193.0664  4695248.6569                  APPROX POSITION XYZ 
        0.0000        0.0000        0.0000                  ANTENNA: DELTA H/E/N
G   23 X1  C1C L1C D1C S1C C1W S1W C2W L2W D2W S2W C2L L2L  SYS / # / OBS TYPES 
       D2L S2L C5Q L5Q D5Q S5Q C1L L1L D1L S1L              SYS / # / OBS TYPES 
E   21 X1  C1C L1C D1C S1C C6C L6C D6C S6C C5Q L5Q D5Q S5Q  SYS / # / OBS TYPES 
       C7Q L7Q D7Q S7Q C8Q L8Q D8Q S8Q                      SYS / # / OBS TYPES 
S    9 X1  C1C L1C D1C S1C C5I L5I D5I S5I                  SYS / # / OBS TYPES 
R   17 X1  C1C L1C D1C S1C C2P L2P D2P S2P C2C L2C D2C S2C  SYS / # / OBS TYPES 
       C3Q L3Q D3Q S3Q                                      SYS / # / OBS TYPES 
C   25 X1  C1P L1P D1P S1P C5P L5P D5P S5P C2I L2I D2I S2I  SYS / # / OBS TYPES 
       C7I L7I D7I S7I C6I L6I D6I S6I C7D L7D D7D S7D      SYS / # / OBS TYPES 
J   17 X1  C1C L1C D1C S1C C2L L2L D2L S2L C5Q L5Q D5Q S5Q  SYS / # / OBS TYPES 
       C1L L1L D1L S1L                                      SYS / # / OBS TYPES 
I    5 X1  C5A L5A D5A S5A                                  SYS / # / OBS TYPES 
SEPTENTRIO RECEIVERS OUTPUT ALIGNED CARRIER PHASES.         COMMENT             
NO FURTHER PHASE SHIFT APPLIED IN THE RINEX ENCODER.        COMMENT             
G L1C                                                       SYS / PHASE SHIFT   
G L2W                                                       SYS / PHASE SHIFT   
G L2L  0.00000                                              SYS / PHASE SHIFT   
G L5Q  0.00000                                              SYS / PHASE SHIFT   
G L1L  0.00000                                              SYS / PHASE SHIFT   
E L1C  0.00000                                              SYS / PHASE SHIFT   
E L6C  0.00000                                              SYS / PHASE SHIFT   
E L5Q  0.00000                                              SYS / PHASE SHIFT   
E L7Q  0.00000                                              SYS / PHASE SHIFT   
E L8Q  0.00000                                              SYS / PHASE SHIFT   
S L1C                                                       SYS / PHASE SHIFT   
S L5I                                                       SYS / PHASE SHIFT   
R L1C                                                       SYS / PHASE SHIFT   
R L2P  0.00000                                              SYS / PHASE SHIFT   
R L2C                                                       SYS / PHASE SHIFT   
R L3Q  0.00000                                              SYS / PHASE SHIFT   
C L1P  0.00000                                              SYS / PHASE SHIFT   
C L5P  0.00000                                              SYS / PHASE SHIFT   
C L2I                                                       SYS / PHASE SHIFT   
C L7I                                                       SYS / PHASE SHIFT   
C L6I                                                       SYS / PHASE SHIFT   
C L7D                                                       SYS / PHASE SHIFT   
J L1C                                                       SYS / PHASE SHIFT   
J L2L  0.00000                                              SYS / PHASE SHIFT   
J L5Q  0.00000                                              SYS / PHASE SHIFT   
J L1L  0.00000                                              SYS / PHASE SHIFT   
I L5A                                                       SYS / PHASE SHIFT   
  2025     1     2     9    30    0.0000000     GPS         TIME OF FIRST OBS   
 C1C    0.000 C2C    0.000 C2P    0.000                     GLONASS COD/PHS/BIS 
DBHZ                                                        SIGNAL STRENGTH UNIT
    18                                                      LEAP SECONDS        
 24 R01  1 R02 -4 R03  5 R04  6 R05  1 R06 -4 R07  5 R08  6 GLONASS SLOT / FRQ #
    R09 -2 R10 -7 R11  0 R12 -1 R13 -2 R14 -7 R15  0 R16 -1 GLONASS SLOT / FRQ #
    R17  4 R18 -3 R19  3 R20  2 R21  4 R22 -3 R23  3 R24  2 GLONASS SLOT / FRQ #
                                                            END OF HEADER       
> 2025 01 02 09 30  0.0000000  0 53
E24         1.000    25490695.986 7 133954609.45407      1994.594 7        44.385                                                                    25490699.936 7 100031101.98407      1489.500 7        47.568    25490698.997 8 102640598.54008      1528.346 8        48.512
G15         2.000    20222477.575 8 106269792.51508        96.082 8        49.061                                    20222475.762 8  82807607.51508        74.873 8        49.933    20222475.961 7  82807602.51207        74.828 7        45.314
E15         3.000    28658253.512 6 150600098.49206     -1612.682 6        36.019                                                                    28658259.981 6 112461102.24706     -1204.446 6        39.153    28658259.271 6 115394867.51506     -1235.869 6        40.408
G19         4.000    24039150.933 6 126326676.03006      2841.521 6        41.383                                    24039153.784 4  98436384.10304      2214.161 4        27.629
S21         5.000    38440185.670 7 202004177.05607      -508.790 7        42.011
E05         6.000    23424516.328 7 123096627.76007      1498.555 7        44.354                                                                    23424519.896 8  91922781.53508      1119.115 8        48.376    23424519.177 8  94320766.55508      1148.327 8        49.056
S45         7.000    63466715.745 5 333521378.29505      -558.242 5        35.995
R02         8.000    20464449.481 8 109202151.70708     -3740.827 8        51.781                                                                    20464453.088 7  84934989.04807     -2909.510 7        46.930
R20         9.000    24188213.360 5 129345277.33005     -2587.719 5        30.166                                                                    24188222.177 6 100601902.17606     -2012.497 6        40.746
G24        10.000    22547832.223 7 118489642.45907      2512.512 7        42.552                                    22547835.140 6  92329601.76006      1957.799 6        40.677    22547835.427 6  92329606.78206      1957.740 6        40.436
G30        11.000    23415616.214 6 123049800.99106     -3333.793 6        41.936                                    23415619.770 6  95882928.37406     -2597.753 6        37.837    23415620.732 6  95882936.35906     -2597.818 6        38.535
S27        12.000    39156548.337 6 205768892.07606      -541.685 6        36.533
G13        13.000    20108699.647 8 105671888.38408     -1781.835 8        49.241                                    20108697.352 6  82341699.01806     -1388.438 6        40.839
S36        14.000    38209895.490 7 200794802.84407      -509.526 7        44.438
I09        15.000    40564743.254 6 159184467.75406     -1028.909 6        36.253
E09        16.000    23536871.346 8 123687070.90708     -1180.330 8        48.415                                                                    23536873.566 8  92363708.24808      -881.395 8        50.988    23536872.886 8  94773193.99808      -904.400 8        51.500
G12        17.000    25915654.776 5 136187687.15905      3396.439 5        35.257                                    25915664.899 4 106120314.16004      2646.563 4        24.436    25915664.985 5 106120311.15805      2646.626 5        33.054
R21        18.000    23271691.724 7 124531581.57107       389.262 7        43.372                                                                    23271698.672 6  96857950.57506       302.701 6        40.808
R22        19.000    24304468.633 6 129738913.46706      2885.975 6        39.333                                                                    24304477.067 6 100908024.07006      2244.601 6        37.713
R03        21.000    19490910.015 8 104336329.97208       456.695 8        52.322                                                                    19490910.538 7  81150469.24007       355.153 7        47.283
I06        22.000    38140094.833 7 149670044.28207      -472.912 7        43.609
S28        23.000    40886075.612 5 214857627.18005      -518.677 5        34.810
S23        25.000    38142569.108 7 200440463.44207      -510.183 7        44.023
C07        27.000                                                                                                                                    38805539.441 6 202070596.30406      -535.529 6        41.056    38805538.093 7 156253789.11107      -414.048 7        44.418    38805535.882 6 164198888.26706      -435.200 6        41.924
R04        28.000    22512615.336 7 120554001.48807      3454.371 7        46.114                                                                    22512617.517 7  93764196.54707      2686.813 7        43.249
C40        29.000                                                                                                                                    38822889.187 7 202160954.25307      -626.953 7        43.937                                                                    38822891.155 7 164272335.36407      -509.404 7        43.054
G17        30.000    22616296.885 7 118849563.83707      1402.883 7        44.832                                    22616297.046 7  92610109.07707      1093.156 7        42.082    22616297.609 6  92610106.08406      1093.134 6        40.973
G14        31.000    21118320.459 7 110977511.11107     -2352.268 7        46.619                                    21118319.632 6  86475978.98706     -1832.936 6        37.350    21118320.024 7  86475964.98107     -1832.945 7        46.449
G23        32.000    23284476.795 7 122360694.02107       726.014 7        42.222                                    23284476.754 4  95345968.72904       565.723 4        28.749    23284476.915 6  95345963.72906       565.769 6        41.342
I02        33.000    37186724.801 7 145928687.41207       -45.561 7        43.107
E04        34.000    26142117.160 6 137377680.04106     -3174.854 6        40.474                                                                    26142122.607 7 102587208.31707     -2370.885 7        46.404    26142121.773 7 105263395.52707     -2432.741 7        46.973
R13        35.000    19353167.072 7 103344870.42907       249.527 7        46.773
R12        36.000    20210369.319 8 107960135.61308     -3022.127 8        50.996                                                                    20210372.035 7  83968991.48107     -2350.568 7        47.162
C42        37.000                                                                                                                                    26110369.937 6 135963536.23506      2444.935 6        39.697                                                                    26110382.025 7 110481552.87707      1986.718 7        42.493
C10        38.000                                                                                                                                    38577506.372 7 200883188.76807      -148.391 7        42.047    38577507.390 7 155335623.04807      -114.767 7        44.999    38577504.565 6 163234033.17306      -120.611 6        41.723
C19        39.000                                                                                                                                    26887331.135 3                     -4084.841 3        19.522                                                                    26887335.233 3                     -3315.523 3        20.500
C30        40.000                                                                                                                                    25745909.719 6 134065713.54806      1788.452 6        41.831                                                                    25745917.319 6 108939408.06506      1453.292 6        40.515
G05        41.000    24160520.798 6 126964230.38406     -4094.640 6        41.771                                    24160527.267 5  98933104.19305     -3190.615 5        35.138    24160527.205 6  98933113.17206     -3190.681 6        37.645
S44        42.000    40884484.666 5 214849482.36605      -492.345 5        35.643
C36        43.000                                                                                                                                    21948250.895 8 114290270.04108     -1854.959 8        50.048                                                                    21948257.724 8  92870219.28208     -1507.246 8        50.278
C05        44.000                                                                                                                                    39393560.827 6 205132531.91206      -557.128 6        37.879    39393563.351 7 158621479.97207      -431.021 7        42.561    39393564.147 6 166687064.48606      -452.573 6        40.093
R14        45.000    23114834.458 7 123215090.70207      3091.524 7        45.544                                                                    23114844.206 6  95834017.64606      2404.529 6        41.156
C45        50.000                                                                                                                                    22174372.503 8 115467804.56408       900.401 8        50.416                                                                    22174366.815 8  93827038.33208       731.714 8        49.921
S48        51.000    77151837.400 6 405435149.50106      -500.307 6        37.709
E06        52.000    24241923.912 7 127392132.34107     -2366.510 7        46.911                                                                    24241928.021 8  95130481.37608     -1767.237 8        49.632    24241927.596 8  97612146.13508     -1813.299 8        50.518
C09        53.000                                                                                                                                    41326415.147 5 215197308.41705     -1128.714 5        34.433    41326424.036 6 166404148.26706      -872.665 6        39.604    41326419.175 5 174865378.54305      -916.824 5        35.148
C60        54.000                                                                                                                                    40884492.069 6 212896323.24406      -487.875 6        39.829                                                                    40884483.588 6 172995637.96606      -396.320 6        38.526
E31        55.000    23375335.800 7 122838224.75807      -525.273 7        47.720                                                                    23375338.918 8  91729876.00108      -392.302 8        51.068    23375338.164 8  94122825.31708      -402.531 8        51.248
C26        56.000                                                                                                                                    26507704.975 6 138032554.75806      2455.958 6        39.919                                                                    26507711.586 6 112162777.65706      1995.876 6        39.246
C02        57.000                                                                                                                                    40962719.650 5 213303496.15705      -537.616 5        31.623    40962724.437 6 164939740.71606      -415.373 6        36.904    40962724.137 5 173326528.56805      -436.221 5        30.823
I03        58.000    94514395.881 6 295109307.81406       871.888 6        38.138
C21        59.000                                                                                                                                    22946754.291 8 119489721.81808       216.080 8        49.549                                                                    22946751.073 8  97095152.81908       175.619 8        49.242
C22        60.000                                                                                                                                    22823163.994 8 118846130.63508     -2930.867 8        50.169                                                                    22823160.749 8  96572177.04908     -2381.517 8        49.005
> 2025 01 02 09 30  5.0000000  0 53
E24         1.000    25488798.533 7 133944639.61607      1993.449 7        44.528                                                                    25488802.748 7 100023657.02207      1488.536 7        47.696    25488801.784 8 102632959.35808      1527.387 8        48.612
G15         2.000    20222387.960 8 106269320.85008        92.651 8        48.837                                    20222386.017 8  82807239.98008        72.197 8        49.818    20222386.469 7  82807234.97507        72.245 7        45.272
E15         3.000    28659789.347 6 150608168.32206     -1614.922 6        36.053                                                                    28659795.927 6 112467128.40406     -1206.094 6        39.550    28659794.701 6 115401050.87406     -1237.445 6        40.126
G19         4.000    24036447.901 6 126312470.23906      2840.986 6        40.939                                    24036450.429 4  98425314.71604      2213.742 4        27.485
S21         5.000    38440674.289 7 202006720.55507      -508.567 7        42.523
E05         6.000    23423090.873 7 123089137.58007      1497.491 7        44.310                                                                    23423094.558 8  91917188.22508      1118.277 8        48.376    23423093.828 8  94315027.33408      1147.448 8        49.042
S45         7.000    63467201.667 6 333522570.33216      -558.099 6        36.310
R02         8.000    20467956.278 8 109220863.77708     -3743.832 8        51.712                                                                    20467959.945 7  84949542.88407     -2911.956 7        46.739
R20         9.000    24190636.665 5 129358223.09505     -2590.885 5        30.098                                                                    24190642.046 6 100611971.09806     -2015.034 6        39.108
G24        10.000    22545441.717 7 118477082.94407      2511.325 7        42.705                                    22545445.133 6  92319815.14006      1956.873 6        40.579    22545445.253 6  92319820.14406      1956.955 6        40.427
G30        11.000    23418788.348 6 123066471.81006     -3334.438 6        41.750                                    23418792.167 6  95895918.59906     -2598.258 6        37.732    23418793.282 6  95895926.59606     -2598.361 6        38.495
S27        12.000    39157063.254 6 205771600.09506      -541.610 6        36.537
G13        13.000    20110396.207 8 105680804.62508     -1784.628 8        48.806                                    20110394.087 6  82348646.73706     -1390.617 6        40.739
S36        14.000    38210379.806 7 200797349.34607      -509.186 7        44.507
I09        15.000    40566054.585 5 159189611.57105     -1028.911 5        35.971
E09        16.000    23537995.197 8 123692977.41608     -1182.224 8        48.684                                                                    23537997.560 8  92368118.95508      -882.861 8        51.021    23537996.829 8  94777719.76708      -905.827 8        51.448
G12        17.000    25912423.807 6 136170705.82406      3396.325 6        36.060                                    25912433.472 4 106107081.96804      2646.487 4        24.391    25912433.608 5 106107078.96505      2646.276 5        32.856
R21        18.000    23271329.525 7 124529645.87507       384.997 7        43.856                                                                    23271337.049 6  96856445.03006       299.471 6        40.098
R22        19.000    24301765.413 6 129724487.06406      2884.812 6        40.205                                                                    24301774.922 6 100896803.51206      2243.724 6        37.626
R03        21.000    19490485.604 8 104334057.68108       452.348 8        52.340                                                                    19490486.040 7  81148701.89807       351.799 7        47.511
I06        22.000    38140697.131 7 149672408.88007      -472.958 7        43.598
S28        23.000    40886570.160 5 214860221.20905      -518.562 5        34.895
S23        25.000    38143056.654 7 200443014.54107      -510.189 7        44.299
C07        27.000                                                                                                                                    38806054.031 6 202073276.09206      -536.379 6        41.287    38806052.631 7 156255861.29307      -414.636 7        44.206    38806050.470 6 164201065.77206      -435.822 6        41.540
R04        28.000    22509390.125 7 120536733.86907      3452.842 7        46.735                                                                    22509393.052 7  93750766.21207      2685.480 7        43.769
C40        29.000                                                                                                                                    38823491.384 7 202164091.32307      -627.808 7        43.966                                                                    38823493.562 7 164274884.47507      -510.159 7        42.779
G17        30.000    22614962.958 7 118842555.75007      1400.430 7        44.491                                    22614963.514 7  92604648.24307      1091.243 7        42.021    22614963.832 6  92604645.25506      1091.334 6        41.692
G14        31.000    21120559.652 7 110989278.71207     -2354.601 7        46.287                                    21120558.972 6  86485148.54006     -1834.755 6        37.327    21120558.862 7  86485134.53707     -1834.778 7        46.147
G23        32.000    23283787.851 7 122357071.99207       722.748 7        42.243                                    23283787.556 4  95343146.37904       563.180 4        28.758    23283788.001 6  95343141.37506       563.272 6        41.664
I02        33.000    37186783.195 7 145928916.07607       -45.908 7        43.156
E04        34.000    26145138.431 6 137393557.32306     -3175.930 6        40.393                                                                    26145143.931 7 102599064.70107     -2371.629 7        46.290    26145143.049 7 105275561.21507     -2433.550 7        46.850
R13        35.000    19352934.501 7 103343630.74307       246.487 7        46.624
R12        36.000    20213198.984 8 107975251.43508     -3024.018 8        51.215                                                                    20213201.336 7  83980748.21907     -2352.007 7        46.771
C42        37.000                                                                                                                                    26108023.542 6 135951315.37606      2443.475 6        40.603                                                                    26108035.218 7 110471622.40807      1985.647 7        42.303
C10        38.000                                                                                                                                    38577649.156 7 200883933.05107      -149.188 7        42.009    38577650.202 7 155336198.56707      -115.384 7        44.840    38577647.391 6 163234637.92806      -121.178 6        41.340
C19        39.000                                                                                                                                    26891245.669 3                     -4088.226 3        19.194                                                                    26891260.253 3                     -3320.886 3        21.024
C30        40.000                                                                                                                                    25744193.139 7 134056775.20307      1787.138 7        42.087                                                                    25744200.700 6 108932144.81906      1452.110 6        40.138
G05        41.000    24164417.172 7 126984704.62907     -4095.096 7        42.267                                    24164423.401 5  98949058.09005     -3190.973 5        35.176    24164423.957 6  98949067.06806     -3190.864 6        38.018
S44        42.000    40884957.558 6 214851944.07406      -492.398 6        36.147
C36        43.000                                                                                                                                    21950032.997 8 114299548.89308     -1856.455 8        50.203                                                                    21950039.590 8  92877759.09808     -1508.516 8        49.989
C05        44.000                                                                                                                                    39394095.902 6 205135318.55306      -557.379 6        37.887    39394098.716 7 158623634.77107      -430.937 7        42.557    39394099.195 6 166689328.81806      -452.729 6        39.736
R14        45.000    23111935.014 7 123199635.96507      3090.440 7        45.845                                                                    23111944.080 6  95821997.26106      2403.711 6        40.737
C45        50.000                                                                                                                                    22173508.867 8 115463306.95708       898.702 8        50.368                                                                    22173503.115 8  93823383.64308       730.322 8        49.623
S48        51.000    77152324.105 6 405437650.88006      -500.375 6        38.408
E06        52.000    24244176.433 7 127403968.90907     -2368.033 7        47.299                                                                    24244180.443 8  95139320.37108     -1768.354 8        49.671    24244179.950 8  97621215.71608     -1814.477 8        50.455
C09        53.000                                                                                                                                    41327499.029 5 215202951.60405     -1128.455 5        34.281    41327507.993 6 166408511.93906      -872.592 6        39.501    41327503.080 5 174869964.09505      -917.038 5        34.729
C60        54.000                                                                                                                                    40884961.138 6 212898762.57706      -487.804 6        40.131                                                                    40884952.250 6 172997620.13106      -396.311 6        38.381
E31        55.000    23375836.488 7 122840856.96907      -527.425 7        47.978                                                                    23375839.826 8  91731841.60908      -393.872 8        51.115    23375839.043 8  94124842.20808      -404.132 8        51.225
C26        56.000                                                                                                                                    26505346.375 6 138020275.84206      2455.586 6        40.117                                                                    26505353.187 6 112152800.03706      1995.482 6        38.805
C02        57.000                                                                                                                                    40963235.447 5 213306182.50005      -537.348 5        31.419    40963240.864 6 164941817.96906      -415.216 6        36.363    40963240.260 5                      -436.635 5        30.898
I03        58.000    94513284.962 6 295104947.77306       871.997 6        38.072
C21        59.000                                                                                                                                    22946548.163 8 119488648.64708       213.283 8        49.606                                                                    22946544.965 8  97094280.75908       173.348 8        48.998
C22        60.000                                                                                                                                    22825979.408 8 118860790.43908     -2932.926 8        50.218                                                                    22825976.020 8  96584089.31808     -2383.214 8        48.790
> 2025 01 02 09 30 10.0000000  0 53
E24         1.000    25486902.637 7 133934675.88107      1992.104 7        44.880                                                                    25486906.694 7 100016216.61707      1487.550 7        47.620    25486905.721 8 102625324.84308      1526.362 8        48.649
G15         2.000    20222301.292 8 106268865.85808        89.215 8        48.954                                    20222299.451 8  82806885.43408        69.521 8        49.845    20222299.850 7  82806880.42907        69.573 7        45.332
E15         3.000    28661326.983 5 150616248.79405     -1617.279 5        35.900                                                                    28661333.468 6 112473162.54906     -1207.726 6        39.474    28661332.105 6 115407242.43706     -1239.312 6        40.024
G19         4.000    24033744.099 6 126298266.80706      2840.378 6        41.170                                    24033747.467 4  98414247.15604      2213.277 4        27.473
S21         5.000    38441157.108 7 202009263.61707      -508.564 7        42.176
E05         6.000    23421666.380 7 123081652.78207      1496.316 7        44.609                                                                    23421670.253 8  91911598.93808      1117.355 8        48.355    23421669.530 8  94309292.23708      1146.519 8        49.078
S45         7.000    63467687.853 6 333525361.99906      -558.360 6        36.136
R02         8.000    20471465.361 8 109239590.93308     -3746.968 8        51.273                                                                    20471469.322 7  84964108.43207     -2914.264 7        46.970
R20         9.000    24193060.935 5 129371186.21405     -2594.276 5        30.340                                                                    24193066.577 6 100622053.53606     -2017.732 6        39.093
G24        10.000    22543053.049 7 118464528.51207      2510.303 7        42.506                                    22543056.102 6  92310032.48406      1956.080 6        40.543    22543056.285 6  92310037.49106      1956.022 6        40.727
G30        11.000    23421961.359 6 123083145.95906     -3335.279 6        41.282                                    23421965.306 6  95908911.41306     -2598.908 6        37.766    23421966.193 6  95908919.41006     -2598.909 6        38.733
S27        12.000    39157578.161 6 205774307.47106      -541.935 6        36.522
G13        13.000    20112095.636 8 105689734.34008     -1787.375 8        48.941                                    20112093.371 6  82355604.95306     -1392.761 6        40.768
S36        14.000    38210865.675 7 200799895.25007      -509.210 7        44.376
I09        15.000    40567364.709 6 159194754.83606     -1028.719 6        36.412
E09        16.000    23539120.891 8 123698893.05208     -1184.065 8        48.585                                                                    23539123.255 8  92372536.47908      -884.240 8        51.061    23539122.549 8  94782252.53008      -907.294 8        51.522
G12        17.000    25909192.129 6 136153724.34806      3396.041 6        36.019                                    25909201.946 4 106093849.62804      2646.254 4        24.361    25909201.986 5 106093846.58705      2646.742 5        32.497
R21        18.000    23270972.298 7 124527730.55107       381.037 7        42.955                                                                    23270979.171 6  96854955.34806       296.258 6        39.562
R22        19.000    24299064.044 6 129710067.06606      2883.289 6        40.815                                                                    24299073.570 6 100885587.92406      2242.573 6        37.146
R03        21.000    19490064.677 8 104331806.44808       448.101 8        52.162                                                                    19490065.603 7  81146950.93607       348.556 7        47.897
I06        22.000    38141299.804 7 149674773.36607      -472.930 7        43.458
S28        23.000    40887060.334 5 214862814.94805      -518.756 5        34.638
S23        25.000    38143542.393 7 200445565.30307      -510.131 7        44.123
C07        27.000                                                                                                                                    38806569.806 6 202075959.24506      -537.011 6        41.104    38806567.973 7 156257936.08207      -415.333 7        44.331    38806565.885 6 164203246.06906      -436.433 6        41.692
R04        28.000    22506167.345 7 120519473.61407      3451.208 7        46.697                                                                    22506169.527 7  93737341.55707      2684.279 7        43.363
C40        29.000                                                                                                                                    38824094.949 7 202167232.71807      -628.709 7        43.805                                                                    38824096.698 7 164277437.11507      -510.840 7        43.024
G17        30.000    22613631.605 7 118835559.36907      1398.015 7        45.366                                    22613632.299 7  92599196.52407      1089.363 7        42.180    22613632.826 6  92599193.52806      1089.374 6        41.845
G14        31.000    21122801.202 7 111001057.52207     -2356.921 7        46.487                                    21122800.377 6  86494326.82706     -1836.562 6        37.255    21122800.524 7  86494312.82107     -1836.600 7        46.236
G23        32.000    23283100.966 7 122353465.68807       719.555 7        42.635                                    23283101.457 4  95340336.26904       560.691 4        28.758    23283101.962 7  95340331.27307       560.600 7        42.157
I02        33.000    37186841.426 7 145929145.63907       -46.046 7        43.198
E04        34.000    26148160.356 6 137409438.95406     -3176.756 6        40.732                                                                    26148166.058 7 102610924.34507     -2372.278 7        46.247    26148165.052 7 105287730.23307     -2434.190 7        46.842
R13        35.000    19352705.309 7 103342405.93907       243.357 7        46.800
R12        36.000    20216030.899 8 107990376.48608     -3025.985 8        51.393                                                                    20216033.132 7  83992512.12807     -2353.478 7        46.952
C42        37.000                                                                                                                                    26105677.681 6 135939100.21406      2442.345 6        40.689                                                                    26105689.689 7 110461696.60607      1984.567 7        42.665
C10        38.000                                                                                                                                    38577793.002 6 200884680.57106      -149.861 6        41.921    38577793.620 7 155336776.61407      -115.906 7        45.004    38577791.033 6 163235245.37506      -121.787 6        41.490
C19        39.000                                                                                                                                    26895164.461 3                     -4085.734 3        19.134                                                                    26895181.472 3                     -3313.463 3        20.429
C30        40.000                                                                                                                                    25742477.787 7 134047843.46307      1785.642 7        42.510                                                                    25742485.537 6 108924886.94606      1451.135 6        40.126
G05        41.000    24168313.981 6 127005180.99106     -4095.468 6        41.979                                    24168320.017 5  98965013.63005     -3191.266 5        35.300    24168320.570 6  98965022.61806     -3191.255 6        38.207
S44        42.000    40885424.136 6 214854405.34506      -492.369 6        36.510
C36        43.000                                                                                                                                    21951816.469 8 114308834.79408     -1857.947 8        50.195                                                                    21951822.851 8  92885304.65108     -1509.647 8        50.168
C05        44.000                                                                                                                                    39394631.311 6 205138104.81406      -557.326 6        37.766    39394633.835 7 158625789.26007      -430.917 7        42.624    39394634.488 6 166691592.90006      -452.828 6        39.931
R14        45.000    23109036.434 7 123184186.59807      3089.210 7        45.875                                                                    23109046.300 6  95809981.09706      2402.743 6        41.428
C45        50.000                                                                                                                                    22172646.897 8 115458817.33008       897.050 8        50.449                                                                    22172640.942 8  93819735.46108       728.987 8        49.798
S48        51.000    77152795.597 6 405440151.34206      -499.842 6        37.527
E06        52.000    24246430.158 7 127415812.88407     -2369.570 7        47.389                                                                    24246434.257 8  95148164.90108     -1769.528 8        49.645    24246433.748 8  97630290.97508     -1815.665 8        50.483
C09        53.000                                                                                                                                    41328583.197 5 215208594.75705     -1128.589 5        34.562    41328592.044 6 166412875.57606      -872.866 6        39.901    41328586.678 5 174874549.62005      -917.185 5        34.824
C60        54.000                                                                                                                                    40885429.009 6 212901201.46206      -487.840 6        40.303                                                                    40885420.322 6 172999601.94406      -396.273 6        38.366
E31        55.000    23376339.389 7 122843499.24107      -529.509 7        47.788                                                                    23376342.602 8  91733814.74508      -395.444 8        51.114    23376341.853 8  94126866.81608      -405.778 8        51.307
C26        56.000                                                                                                                                    26502988.654 6 138007998.56506      2455.344 6        40.067                                                                    26502995.465 6 112142823.78106      1995.167 6        38.910
C02        57.000                                                                                                                                    40963750.726 5 213308868.40805      -537.249 5        31.404    40963756.465 6 164943894.87506      -415.557 6        36.650    40963756.344 5                      -436.484 5        31.275
I03        58.000    94512173.849 6 295100587.30406       872.120 6        38.117
C21        59.000                                                                                                                                    22946344.798 8 119487589.20608       210.424 8        49.626                                                                    22946341.514 8  97093419.88708       171.041 8        49.062
C22        60.000                                                                                                                                    22828796.457 8 118875460.31008     -2935.053 8        50.071                                                                    22828793.265 8  96596009.79308     -2384.946 8        48.856
> 2025 01 02 09 30 15.0000000  0 53
E24         1.000    25485007.828 7 133924718.28007      1990.712 7        45.064                                                                    25485011.864 7 100008780.78707      1486.494 7        47.754    25485010.747 8 102617695.03308      1525.283 8        48.626
G15         2.000    20222217.875 8 106268427.62008        85.764 8        49.224                                    20222216.059 8  82806543.94708        66.830 8        49.743    20222216.381 7  82806538.94407        66.896 7        45.443
E15         3.000    28662866.855 6 150624339.94206     -1619.519 6        36.219                                                                    28662873.126 6 112479204.63906     -1209.421 6        39.468    28662871.758 6 115413442.13806     -1240.943 6        39.952
G19         4.000    24031041.935 6 126284065.75606      2839.799 6        41.476                                    24031044.935 4  98403181.46004      2212.820 4        27.413
S21         5.000    38441642.350 7 202011806.31507      -508.622 7        42.157
E05         6.000    23420243.215 7 123074173.39007      1495.187 7        44.760                                                                    23420246.979 8  91906013.68008      1116.519 8        48.356    23420246.235 8  94303561.27008      1145.704 8        49.107
S45         7.000    63468175.336 6 333528153.46506      -558.477 6        36.389
R02         8.000    20474977.761 8 109258333.10308     -3750.204 8        51.324                                                                    20474981.492 7  84978685.65607     -2916.746 7        46.850
R20         9.000    24195487.883 5 129384166.67805     -2597.825 5        30.430                                                                    24195493.500 6 100632149.44906     -2020.724 6        39.054
G24        10.000    22540665.106 7 118451979.17907      2509.324 7        42.254                                    22540668.023 6  92300253.80206      1955.312 6        40.417    22540668.348 6  92300258.81806      1955.162 6        40.675
G30        11.000    23425135.242 6 123099823.43406     -3336.053 6        41.294                                    23425139.103 6  95921906.82006     -2599.514 6        37.588    23425139.788 6  95921914.79206     -2599.518 6        39.180
S27        12.000    39158094.665 6 205777014.88106      -541.504 6        36.503
G13        13.000    20113797.634 8 105698677.58708     -1790.202 8        49.246                                    20113795.208 6  82362573.71406     -1394.964 6        40.613
S36        14.000    38211351.155 7 200802441.28107      -509.396 7        44.504
I09        15.000    40568674.661 6 159199897.59106     -1028.523 6        36.284
E09        16.000    23540248.415 8 123704817.84408     -1186.064 8        48.680                                                                    23540250.655 8  92376960.83408      -885.708 8        51.082    23540250.019 8  94786792.30708      -908.808 8        51.522
G12        17.000    25905960.102 6 136136742.61906      3396.316 6        36.314                                    25905970.488 4 106080617.11604      2646.476 4        24.602    25905970.203 5 106080614.12805      2646.326 5        32.748
R21        18.000    23270618.576 7 124525835.68507       376.777 7        44.176                                                                    23270624.845 6  96853481.55906       293.187 6        39.988
R22        19.000    24296363.891 6 129695653.53706      2881.873 6        41.027                                                                    24296373.160 6 100874377.38006      2241.359 6        36.181
R03        21.000    19489648.155 8 104329576.10208       443.774 8        52.222                                                                    19489648.669 7  81145216.22007       345.156 7        47.541
I06        22.000    38141902.349 7 149677137.74407      -473.101 7        43.809
S28        23.000    40887555.942 5 214865407.93705      -518.735 5        34.829
S23        25.000    38144025.914 7 200448115.64907      -510.180 7        44.057
C07        27.000                                                                                                                                    38807086.122 6 202078645.74206      -537.857 6        41.166    38807084.088 7 156260013.43707      -415.894 7        44.152    38807081.704 6 164205429.07106      -437.178 6        41.862
R04        28.000    22502946.500 7 120502220.70207      3449.660 7        46.323                                                                    22502947.687 7  93723922.62607      2683.007 7        42.883
C40        29.000                                                                                                                                    38824699.037 7 202170378.45007      -629.803 7        43.953                                                                    38824700.981 7 164279993.27307      -511.765 7        43.010
G17        30.000    22612302.851 7 118828574.75907      1395.601 7        45.497                                    22612303.297 7  92593753.97707      1087.482 7        42.227    22612303.327 6  92593751.00106      1087.415 6        41.838
G14        31.000    21125044.844 7 111012847.57007     -2359.348 7        46.457                                    21125043.951 6  86503513.86706     -1838.454 6        37.164    21125044.342 7  86503499.86407     -1838.400 7        46.209
G23        32.000    23282417.811 7 122349875.15307       716.253 7        42.707                                    23282418.229 4  95337538.45704       558.121 4        28.597    23282418.152 6  95337533.44706       558.286 6        41.659
I02        33.000    37186900.217 7 145929376.50507       -46.529 7        43.183
E04        34.000    26151183.470 6 137425324.94206     -3177.764 6        41.528                                                                    26151189.116 7 102622787.24507     -2373.125 7        46.244    26151188.031 7 105299902.60507     -2434.971 7        46.838
R13        35.000    19352478.524 7 103341195.76907       240.382 7        46.728
R12        36.000    20218864.084 8 108005510.73008     -3027.979 8        51.630                                                                    20218866.310 7  84004283.19707     -2355.076 7        46.885
C42        37.000                                                                                                                                    26103332.018 6 135926890.79506      2441.109 6        39.907                                                                    26103344.932 7 110451775.44407      1983.506 7        42.773
C10        38.000                                                                                                                                    38577936.996 6 200885431.44106      -150.606 6        41.743    38577938.087 7 155337357.25107      -116.498 7        45.136    38577935.109 6 163235855.54706      -122.551 6        41.311
C19        39.000                                                                                                                                    26899092.419 3                     -4087.143 3        19.701                                                                    26899096.333 3                     -3312.120 3        19.582
C30        40.000                                                                                                                                    25740763.951 7 134038918.32207      1784.243 7        42.233                                                                    25740771.723 6 108917634.45006      1449.755 6        40.203
G05        41.000    24172210.684 6 127025659.49906     -4096.091 6        40.765                                    24172217.045 5  98980970.85005     -3191.739 5        34.914    24172217.131 6  98980979.83606     -3191.867 6        37.898
S44        42.000    40885890.813 6 214856866.15706      -492.191 6        36.204
C36        43.000                                                                                                                                    21953601.054 8 114318127.76208     -1859.493 8        50.269                                                                    21953607.510 8  92892855.95808     -1511.094 8        50.104
C05        44.000                                                                                                                                    39395166.574 6 205140890.73206      -557.369 6        38.003    39395168.521 7 158627943.49607      -430.969 7        42.411    39395169.603 6 166693856.66306      -452.994 6        40.079
R14        45.000    23106140.045 7 123168742.57307      3088.135 7        46.226                                                                    23106148.626 6  95797969.06806      2401.837 6        40.334
C45        50.000                                                                                                                                    22171786.227 8 115454335.70708       895.297 8        50.466                                                                    22171780.258 8  93816093.78208       727.440 8        49.792
S48        51.000    77153273.390 6 405442651.65506      -500.505 6        37.089
E06        52.000    24248685.603 7 127427664.30807     -2371.283 7        47.627                                                                    24248689.477 8  95157014.98508     -1770.747 8        49.644    24248689.037 8  97639371.93108     -1816.886 8        50.457
C09        53.000                                                                                                                                    41329666.958 5 215214237.94805     -1129.045 5        34.595    41329675.453 6 166417239.21706      -872.895 6        40.145    41329670.424 5 174879135.15405      -917.343 5        34.624
C60        54.000                                                                                                                                    40885897.165 6 212903639.92506      -487.797 6        40.029                                                                    40885888.809 6 173001583.41206      -396.485 6        38.429
E31        55.000    23376844.208 7 122846151.60807      -531.635 7        47.864                                                                    23376847.355 8  91735795.41408      -397.047 8        51.121    23376846.602 8  94128899.15008      -407.385 8        51.295
C26        56.000                                                                                                                                    26500631.574 6 137995722.98806      2454.742 6        39.652                                                                    26500638.340 6 112132848.90206      1994.585 6        39.030
C02        57.000                                                                                                                                    40964267.310 5                      -537.438 5        31.774    40964271.931 6 164945971.46406      -415.343 6        36.336    40964271.837 5 173333076.16715      -436.828 5        31.109
I03        58.000    94511062.418 6 295096226.43606       872.216 6        38.237
C21        59.000                                                                                                                                    22946143.794 8 119486543.54208       207.583 8        49.474                                                                    22946140.701 8  97092570.20408       168.578 8        49.032
C22        60.000                                                                                                                                    22831615.372 8 118890140.27408     -2937.205 8        50.013                                                                    22831612.440 8  96607938.45308     -2386.796 8        48.887
> 2025 01 02 09 30 20.0000000  0 53
E24         1.000    25483114.142 7 133914766.84207      1989.587 7        44.715                                                                    25483118.071 7 100001349.55707      1485.800 7        47.619    25483117.035 8 102610069.94308      1524.544 8        48.714
G15         2.000    20222137.942 8 106268006.17908        82.592 8        49.647                                    20222135.865 8  82806215.54808        64.359 8        49.716    20222136.304 7  82806210.55007        64.333 7        45.427
E15         3.000    28664408.338 5 150632441.77405     -1621.310 5        35.667                                                                    28664414.686 6 112485254.68606     -1210.762 6        39.345    28664413.620 6 115419650.02206     -1242.419 6        40.102
G19         4.000    24028340.692 6 126269867.11006      2839.425 6        41.211                                    24028343.091 4  98392117.61604      2212.537 4        27.222
S21         5.000    38442129.829 7 202014348.99507      -508.731 7        42.438
E05         6.000    23418821.088 7 123066699.43507      1494.246 7        44.673                                                                    23418824.715 8  91900432.48608      1115.824 8        48.273    23418824.021 8  94297834.48508      1144.890 8        49.145
S45         7.000    63468659.448 5 333530944.75805      -558.433 5        35.819
R02         8.000    20478493.410 8 109277090.31808     -3752.969 8        52.019                                                                    20478496.450 7  84993274.59507     -2918.976 7        46.338
R20         9.000    24197918.862 5 129397164.54005     -2601.237 5        30.694                                                                    24197926.086 6 100642258.89706     -2023.146 6        39.544
G24        10.000    22538278.595 7 118439435.03107      2508.260 7        42.457                                    22538280.923 6  92290479.15806      1954.488 6        40.431    22538281.541 6  92290484.18106      1954.496 6        41.015
G30        11.000    23428309.441 6 123116504.25606     -3336.528 6        41.712                                    23428313.535 6  95934904.82506     -2599.885 6        37.656    23428314.082 6  95934912.81906     -2599.960 6        38.961
S27        12.000    39158607.797 6 205779721.58106      -541.636 6        36.435
G13        13.000    20115502.275 8 105707634.37308     -1792.725 8        49.069                                    20115499.607 6  82369553.02706     -1396.929 6        40.579
S36        14.000    38211832.753 7 200804986.75507      -509.090 7        44.221
I09        15.000    40569985.677 6 159205039.87706     -1028.644 6        36.412
E09        16.000    23541377.706 8 123710751.82308     -1187.729 8        48.613                                                                    23541379.898 8  92381392.05208      -886.933 8        50.913    23541379.198 8  94791339.11708      -910.054 8        51.510
G12        17.000    25902729.145 6 136119760.79106      3395.938 6        36.374                                    25902738.887 4 106067384.51404      2646.195 4        25.158    25902738.709 5 106067381.49805      2646.613 5        33.509
R21        18.000    23270267.966 7 124523961.28607       372.778 7        43.714                                                                    23270274.416 6  96852023.70206       290.058 6        40.091
R22        19.000    24293665.085 6 129681246.48206      2880.639 6        40.563                                                                    24293674.149 6 100863171.84606      2240.636 6        36.102
R03        21.000    19489235.447 8 104327366.81008       439.736 8        52.500                                                                    19489236.037 7  81143497.87407       341.980 7        47.539
I06        22.000    38142504.720 7 149679502.03607      -472.917 7        43.628
S28        23.000    40888051.349 5 214868001.19705      -518.619 5        34.452
S23        25.000    38144510.315 7 200450665.68507      -509.881 7        43.884
C07        27.000                                                                                                                                    38807602.891 6 202081335.65506      -538.280 6        41.144    38807600.477 7 156262093.44707      -416.257 7        44.150    38807598.192 6 164207614.85306      -437.494 6        41.704
R04        28.000    22499724.022 7 120484975.25307      3448.331 7        46.133                                                                    22499727.332 7  93710509.51507      2682.160 7        42.747
C40        29.000                                                                                                                                    38825303.733 7 202173528.52707      -630.546 7        43.915                                                                    38825305.808 7 164282552.98707      -512.378 7        43.075
G17        30.000    22610975.895 7 118821601.93007      1393.406 7        46.088                                    22610976.477 7  92588320.61507      1085.769 7        42.330    22610976.173 6  92588317.61906      1085.826 6        41.645
G14        31.000    21127290.518 7 111024648.86007     -2361.395 7        46.563                                    21127289.680 6  86512709.67406     -1840.047 6        37.074    21127290.082 7  86512695.67007     -1840.025 7        46.410
G23        32.000    23281737.767 7 122346300.42207       713.391 7        42.243                                    23281737.952 4  95334752.95004       555.888 4        28.578    23281737.832 7  95334747.96407       555.814 7        42.004
I02        33.000    37186959.374 7 145929608.39307       -46.447 7        43.164
E04        34.000    26154207.322 6 137441215.33606     -3178.504 6        41.528                                                                    26154212.967 7 102634653.41107     -2373.580 7        46.173    26154211.996 7 105312078.33007     -2435.431 7        46.967
R13        35.000    19352255.011 7 103340000.76107       237.536 7        46.824
R12        36.000    20221698.534 8 108020654.21008     -3029.598 8        51.245                                                                    20221701.410 7  84016061.45207     -2356.357 7        46.806
C42        37.000                                                                                                                                    26100988.217 6 135914687.14406      2440.173 6        39.198                                                                    26101001.162 7 110441858.99407      1982.738 7        42.707
