     3.04           OBSERVATION DATA    M                   RINEX VERSION / TYPE
ssrcrin-15.6.1x                         20250102 234500 UTC PGM / RUN BY / DATE 
(00000000023479385599111004) Septentrio proprietary         COMMENT             
rref                                                        MARKER NAME         
01                                                          MARKER NUMBER       
geodetic                                                    MARKER TYPE         
NFB                 CLIMERS@TUW                             OBSERVER / AGENCY   
3297213             SEPT ASTERX SB3 PROB4.14.4              REC # / TYPE / VERS 
Unknown             Unknown                                 ANT # / TYPE        
  4127831.8640  1207193.2773  4695247.8382                  APPROX POSITION XYZ 
        0.0000        0.0000        0.0000                  ANTENNA: DELTA H/E/N
G   23 X1  C1C L1C D1C S1C C1W S1W C2W L2W D2W S2W C2L L2L  SYS / # / OBS TYPES 
       D2L S2L C5Q L5Q D5Q S5Q C1L L1L D1L S1L              SYS / # / OBS TYPES 
E   21 X1  C1C L1C D1C S1C C6C L6C D6C S6C C5Q L5Q D5Q S5Q  SYS / # / OBS TYPES 
       C7Q L7Q D7Q S7Q C8Q L8Q D8Q S8Q                      SYS / # / OBS TYPES 
S    9 X1  C1C L1C D1C S1C C5I L5I D5I S5I                  SYS / # / OBS TYPES 
R   17 X1  C1C L1C D1C S1C C2P L2P D2P S2P C2C L2C D2C S2C  SYS / # / OBS TYPES 
       C3Q L3Q D3Q S3Q                                      SYS / # / OBS TYPES 
C   25 X1  C1P L1P D1P S1P C5P L5P D5P S5P C2I L2I D2I S2I  SYS / # / OBS TYPES 
       C7I L7I D7I S7I C6I L6I D6I S6I C7D L7D D7D S7D      SYS / # / OBS TYPES 
J   17 X1  C1C L1C D1C S1C C2L L2L D2L S2L C5Q L5Q D5Q S5Q  SYS / # / OBS TYPES 
       C1L L1L D1L S1L                                      SYS / # / OBS TYPES 
I    5 X1  C5A L5A D5A S5A                                  SYS / # / OBS TYPES 
SEPTENTRIO RECEIVERS OUTPUT ALIGNED CARRIER PHASES.         COMMENT             
NO FURTHER PHASE SHIFT APPLIED IN THE RINEX ENCODER.        COMMENT             
G L1C                                                       SYS / PHASE SHIFT   
G L2W                                                       SYS / PHASE SHIFT   
G L2L  0.00000                                              SYS / PHASE SHIFT   
G L5Q  0.00000                                              SYS / PHASE SHIFT   
G L1L  0.00000                                              SYS / PHASE SHIFT   
E L1C  0.00000                                              SYS / PHASE SHIFT   
E L6C  0.00000                                              SYS / PHASE SHIFT   
E L5Q  0.00000                                              SYS / PHASE SHIFT   
E L7Q  0.00000                                              SYS / PHASE SHIFT   
E L8Q  0.00000                                              SYS / PHASE SHIFT   
S L1C                                                       SYS / PHASE SHIFT   
S L5I                                                       SYS / PHASE SHIFT   
R L1C                                                       SYS / PHASE SHIFT   
R L2P  0.00000                                              SYS / PHASE SHIFT   
R L2C                                                       SYS / PHASE SHIFT   
R L3Q  0.00000                                              SYS / PHASE SHIFT   
C L1P  0.00000                                              SYS / PHASE SHIFT   
C L5P  0.00000                                              SYS / PHASE SHIFT   
C L2I                                                       SYS / PHASE SHIFT   
C L7I                                                       SYS / PHASE SHIFT   
C L6I                                                       SYS / PHASE SHIFT   
C L7D                                                       SYS / PHASE SHIFT   
J L1C                                                       SYS / PHASE SHIFT   
J L2L  0.00000                                              SYS / PHASE SHIFT   
J L5Q  0.00000                                              SYS / PHASE SHIFT   
J L1L  0.00000                                              SYS / PHASE SHIFT   
I L5A                                                       SYS / PHASE SHIFT   
  2025     1     2    23    45    0.0000000     GPS         TIME OF FIRST OBS   
 C1C    0.000 C2C    0.000 C2P    0.000                     GLONASS COD/PHS/BIS 
DBHZ                                                        SIGNAL STRENGTH UNIT
    18                                                      LEAP SECONDS        
 24 R01  1 R02 -4 R03  5 R04  6 R05  1 R06 -4 R07  5 R08  6 GLONASS SLOT / FRQ #
    R09 -2 R10 -7 R11  0 R12 -1 R13 -2 R14 -7 R15  0 R16 -1 GLONASS SLOT / FRQ #
    R17  4 R18 -3 R19  3 R20  2 R21  4 R22 -3 R23  3 R24  2 GLONASS SLOT / FRQ #
                                                            END OF HEADER       
> 2025 01 02 23 45  0.0000000  0 52
G28         1.000    24393819.001 6 128190385.55306      2247.538 6        38.544                                    24393815.840 3  99888600.24403      1751.331 3        23.219    24393815.997 6  99888601.22906      1751.280 6        40.200
E08         2.000    25675370.607 7 134925001.61807      2590.151 7        43.503                                                                    25675368.817 7 100755686.57007      1934.203 7        46.377    25675368.169 7 103384094.84307      1984.663 7        47.484
G21         4.000    20892445.384 7 109790607.73007     -1362.415 7        44.769                                    20892439.786 6  85551129.39506     -1061.622 6        37.376
S21         5.000    38420918.480 7 201902940.31907      -274.163 7        42.419
E13         6.000    24565460.674 7 129092414.12907      1553.701 7        45.714                                                                    24565460.468 8  96400207.12808      1160.220 8        48.480    24565460.046 8  98914990.19008      1190.500 8        49.500
G10         7.000    24802656.988 6 130338902.61306     -3384.020 6        38.300                                    24802654.969 5 101562796.45805     -2636.898 5        31.011    24802654.935 5 101562790.47105     -2636.906 5        35.876
E15         8.000    23435724.091 7 123155675.71807      -863.989 7        47.863                                                                    23435724.058 8  91966970.62608      -645.160 8        50.751    23435723.590 8  94366096.64508      -661.976 8        51.467
G14        11.000    24473926.246 6 128611355.35006     -2110.854 6        37.493                                    24473923.549 3 100216633.03903     -1644.782 3        19.642    24473923.751 6 100216637.05506     -1644.864 6        36.231
G32        12.000    22499350.767 7 118234919.12207     -2282.711 7        47.590                                    22499349.048 7  92131106.86507     -1778.736 7        45.285    22499349.094 7  92131079.86807     -1778.742 7        42.770
G03        13.000    21221771.368 7 111521218.13507      2036.978 7        46.793                                    21221769.735 7  86899666.80207      1587.258 7        47.301    21221769.890 7  86899671.79807      1587.245 7        44.305
S36        14.000    38188511.912 7 200682508.28107      -273.349 7        43.736
C13        15.000                                                                                                                                    40787260.014 6 212390022.53206     -1016.682 6        36.922    40787261.856 6 164233471.60006      -786.052 6        37.641    40787259.931 6 172584313.15606      -825.944 6        36.374
G17        16.000    23407079.399 7 123005042.00407      2230.561 7        43.583                                    23407075.115 6  95848061.38806      1738.096 6        38.733    23407074.909 6  95848063.39806      1738.011 6        39.120
C16        17.000                                                                                                                                    39593168.242 6 206172033.70506      1013.790 6        40.298    39593167.971 6 159425301.41806       783.924 6        41.375    39593165.503 6 167531659.05106       823.790 6        38.024
E27        18.000    28727345.873 6 150963208.29406     -3085.336 6        36.246                                                                    28727347.726 6 112732261.31106     -2304.042 6        38.501    28727346.610 6 115673101.14106     -2364.053 6        38.210
E05        20.000    24802211.500 6 130336529.09606     -2394.205 6        40.934                                                                    24802211.287 7  97329231.73207     -1787.792 7        43.873    24802211.367 7  99868257.17907     -1834.463 7        45.589
C41        21.000                                                                                                                                    23068126.929 8 120121820.10008      1979.373 8        48.686                                                                    23068131.828 8  97608848.43708      1608.521 8        48.804
I06        22.000    38289196.236 7 150255265.97507       -98.102 7        42.965
E03        23.000    23989116.693 7 126063679.86407       239.367 7        47.254                                                                    23989116.133 8  94138492.38908       178.800 8        49.906    23989115.664 8  96594275.60808       183.468 8        50.871
R22        24.000    19295597.862 8 103001258.46108       848.893 8        51.860                                                                    19295595.812 8  80112105.82008       660.331 8        48.394
S23        25.000    38143451.479 7 200445150.37607      -271.135 7        44.635
S45        26.000    63390383.693 6 333119150.04606      -315.121 6        37.009
G02        27.000    20693694.945 8 108746154.85808       133.322 8        50.459                                    20693687.942 7  84737254.78007       103.885 7        43.498
S27        28.000    39078213.343 5 205357439.89605      -249.813 5        35.438
C39        29.000                                                                                                                                    39265406.751 7 204465295.27607       631.662 7        42.002                                                                    39265403.125 7 166144796.16307       513.357 7        42.334
E21        30.000    27552213.854 6 144787872.32506     -2145.761 6        38.670                                                                    27552214.381 6 108120819.99006     -1602.131 6        40.536    27552213.798 6 110941359.48206     -1643.933 6        41.459
C43        31.000                                                                                                                                    25489889.357 7 132732646.35507     -3608.293 7        42.085                                                                    25489888.864 7 107856188.79107     -2931.966 7        42.148
C42        32.000                                                                                                                                    25129591.729 7 130856399.39807     -3255.296 7        42.447                                                                    25129599.046 7 106331585.37607     -2645.041 7        44.334
C28        33.000                                                                                                                                    21610050.011 8 112529214.34708     -1148.277 8        51.117                                                                    21610048.625 8  91439205.69608      -932.946 8        48.689
E34        35.000    26619632.037 6 139887309.39006     -2664.646 6        40.810                                                                    26619632.251 7 104461411.00507     -1989.806 7        43.869    26619632.449 7 107186480.34407     -2041.782 7        45.571
C14        36.000                                                                                                                                    23000965.319 7 119772071.78407     -2375.508 7        46.475    23000959.861 8  92615351.22708     -1836.897 8        50.201    23000959.097 8  97324597.84608     -1930.167 8        48.515
R21        37.000    20677454.083 8 110649290.43008     -3184.295 8        50.382                                                                    20677453.498 7  86060580.34407     -2476.689 7        45.722
R06        38.000    19839377.827 6 105866752.36806     -2403.603 6        40.703
C27        40.000                                                                                                                                    22594338.398 8 117654691.01508      1573.543 8        48.487                                                                    22594336.989 8  95604090.02708      1278.795 8        48.097
C06        41.000                                                                                                                                    39295410.558 6 204621524.35006      1126.164 6        37.917    39295404.799 7 158226322.95907       870.731 7        42.466    39295404.481 6 166271727.59606       915.165 6        39.649
S44        42.000    40520164.628 6 212935104.04206      -333.316 6        38.270
G08        43.000    23261401.403 7 122239579.00807     -3821.712 7        42.743                                    23261399.601 6  95251659.83206     -2977.959 6        38.378    23261400.501 6  95251657.85506     -2978.020 6        39.462
C05        44.000                                                                                                                                    39106522.544 6 203637961.23706      -253.402 6        38.417    39106516.559 7 157465814.44007      -195.897 7        43.111    39106518.124 6 165472628.48806      -205.641 6        39.838
G04        45.000    24968779.274 6 131211826.15406      3578.074 6        36.246                                    24968776.816 2 102242966.33602      2788.085 2        17.962    24968777.454 6 102242968.36006      2788.004 6        37.074
C33        47.000                                                                                                                                    21919901.847 8 114142711.18708      -894.240 8        50.831                                                                    21919913.168 8  92750361.04208      -726.511 8        49.941
C09        48.000                                                                                                                                    40284244.420 6 209770642.66906      1406.934 6        39.015    40284241.691 7 162207957.45707      1088.014 7        42.550    40284239.326 6 170455808.78206      1143.318 6        38.486
R07        49.000    19496938.451 8 104368693.77408      1497.311 8        53.084                                                                    19496936.825 7  81175650.28007      1164.610 7        47.369
R15        50.000    24513296.583 5 130991631.21105      2131.233 5        35.852                                                                    24513296.511 5 101882358.10005      1657.207 5        30.641
S48        51.000    77175118.017 6 405559307.20306      -285.358 6        37.312
R14        53.000    23812020.790 7 126931480.05607      -625.773 7        42.978                                                                    23812020.821 6  98724424.35506      -486.669 6        40.064
C60        54.000                                                                                                                                    40520166.115 6 210999349.85106      -330.242 6        39.360                                                                    40520150.368 6 171454226.30806      -268.336 6        39.577
R08        55.000    22929724.087 7 122787653.59107      3867.439 7        42.512                                                                    22929721.832 6  95501555.75206      3008.044 6        40.605
I09        56.000    37123152.489 7 145679264.55207      -109.262 7        43.424
C02        57.000                                                                                                                                    40512953.477 5 210961634.31205      -295.396 5        33.790    40512947.402 6 163128912.99106      -228.558 6        40.708    40512950.626 6 171423612.94106      -240.204 6        36.329
I03        58.000    76404709.025 6 224043254.85506      1108.222 6        40.567
R23        59.000    22125920.905 7 118358773.06407      3504.708 7        44.582
C30        60.000                                                                                                                                    26727687.832 6 139178087.10406      2980.709 6        37.425                                                                    26727689.857 6 113093603.07906      2422.303 6        39.556
> 2025 01 02 23 45  5.0000000  0 52
G28         1.000    24391681.629 6 128179151.30106      2246.000 6        39.775                                    24391677.957 3  99879846.28103      1750.142 3        23.695    24391678.199 6  99879847.27606      1750.114 6        39.721
E08         2.000    25672906.724 7 134912053.47207      2589.089 7        43.697                                                                    25672904.840 7 100746017.49907      1933.443 7        46.191    25672904.287 7 103374173.53807      1983.877 7        47.282
G21         4.000    20893742.619 7 109797423.87907     -1364.203 7        45.308                                    20893736.860 6  85556440.68306     -1063.016 6        37.422
S21         5.000    38421180.777 7 201904310.22407      -274.089 7        42.717
E13         6.000    24563982.366 7 129084647.03607      1553.028 7        45.395                                                                    24563982.465 8  96394407.02008      1159.804 8        48.275    24563982.056 8  98909038.77708      1190.004 8        49.379
G10         7.000    24805876.586 6 130355822.94906     -3384.040 6        37.936                                    24805874.814 5 101575981.13405     -2636.919 5        31.162    24805875.128 6 101575975.15206     -2637.170 6        36.416
E15         8.000    23436546.588 7 123159998.40107      -865.179 7        47.681                                                                    23436546.644 8  91970198.60408      -646.080 8        50.579    23436546.164 8  94369408.83208      -662.938 8        51.368
G14        11.000    24475935.853 6 128621914.28606     -2112.585 6        37.603                                    24475932.828 3 100224860.77903     -1646.167 3        19.313    24475933.067 6 100224864.77106     -1646.232 6        36.960
G32        12.000    22501523.880 7 118246338.26007     -2285.010 7        47.299                                    22501522.019 7  92140004.89707     -1780.528 7        45.412    22501522.135 7  92139977.89907     -1780.593 7        42.741
G03        13.000    21219833.829 7 111511037.24007      2035.303 7        46.673                                    21219832.373 7  86891733.63907      1585.950 7        47.450    21219832.647 7  86891738.64707      1586.050 7        44.128
S36        14.000    38188770.801 7 200683874.20607      -273.004 7        43.524
C13        15.000                                                                                                                                    40788236.171 6 212395104.62006     -1016.522 6        36.801    40788237.639 6 164237401.38406      -785.778 6        37.161    40788236.011 6 172588442.78506      -825.931 6        36.541
G17        16.000    23404958.171 7 122993893.44507      2228.782 7        43.369                                    23404953.616 6  95839374.20706      1736.714 6        38.847    23404954.421 6  95839376.20006      1736.685 6        39.504
C16        17.000                                                                                                                                    39592194.269 6 206166966.49106      1013.169 6        40.229    39592194.494 6 159421383.14006       783.354 6        41.838    39592192.274 6 167527541.53106       823.233 6        37.754
E27        18.000    28730281.038 5 150978633.87505     -3085.026 5        35.386                                                                    28730283.175 6 112743780.37806     -2303.675 6        37.115    28730281.863 6 115684920.72006     -2363.756 6        37.750
E05        20.000    24804489.943 6 130348503.22706     -2395.651 6        40.574                                                                    24804490.004 7  97338173.45307     -1788.886 7        43.752    24804489.914 7  99877432.16707     -1835.665 7        45.326
C41        21.000                                                                                                                                    23066227.268 8 120111927.05108      1977.758 8        48.848                                                                    23066232.005 8  97600809.54308      1606.989 8        48.817
I06        22.000    38289321.474 7 150255756.81607       -98.112 7        42.732
E03        23.000    23988889.976 7 126062488.19507       237.215 7        46.979                                                                    23988889.373 8  94137602.51508       177.077 8        49.675    23988888.935 8  96593362.51808       181.690 8        50.748
R22        24.000    19294803.931 8 102997021.19308       845.907 8        51.958                                                                    19294802.042 8  80108810.16708       657.928 8        48.276
S23        25.000    38143709.491 7 200446505.70607      -271.061 7        44.370
S45        26.000    63390639.104 6 333120725.03106      -314.825 6        37.206
G02        27.000    20693569.007 8 108745492.64408       131.495 8        50.324                                    20693561.923 7  84736738.76907       102.463 7        43.566
S27        28.000    39078447.835 5 205358688.51405      -249.480 5        35.881
C39        29.000                                                                                                                                    39264800.611 6 204462139.15206       630.766 6        41.843                                                                    39264796.903 7 166142231.57007       512.462 7        42.404
E21        30.000    27554255.760 6 144798603.42806     -2147.081 6        38.363                                                                    27554256.299 6 108128833.47306     -1603.288 6        40.408    27554255.774 6 110949582.02706     -1645.194 6        41.425
C43        31.000                                                                                                                                    25493354.662 7 132750689.32807     -3608.988 7        42.089                                                                    25493353.992 7 107870850.20407     -2932.730 7        42.455
C42        32.000                                                                                                                                    25132717.438 7 130872676.67507     -3255.686 7        42.499                                                                    25132724.969 7 106344812.01807     -2645.673 7        44.311
C28        33.000                                                                                                                                    21611153.808 8 112534961.36708     -1150.568 8        51.127                                                                    21611152.211 8  91443875.63408      -935.086 8        48.678
E34        35.000    26622167.669 6 139900634.49806     -2665.317 6        40.999                                                                    26622167.970 7 104471361.58307     -1990.445 7        43.517    26622167.855 7 107196690.49407     -2042.327 7        45.357
C14        36.000                                                                                                                                    23003246.560 7 119783952.81207     -2376.936 7        46.459    23003241.835 8  92624538.38908     -1838.026 8        50.381    23003240.738 8  97334252.17008     -1931.615 8        48.569
R21        37.000    20680431.083 8 110665218.36208     -3186.896 8        50.234                                                                    20680429.634 7  86072968.74007     -2478.719 7        45.371
R06        38.000    19841631.414 6 105878777.03106     -2406.461 6        40.343
C27        40.000                                                                                                                                    22592828.345 8 117646827.48308      1571.808 8        48.662                                                                    22592826.855 8  95597700.28808      1277.109 8        48.158
C06        41.000                                                                                                                                    39294330.457 6 204615895.70306      1125.322 6        38.477    39294323.738 6 158221970.51806       870.265 6        41.976    39294323.793 6 166267153.86406       914.252 6        39.330
S44        42.000    40520480.262 6 212936770.13206      -333.143 6        38.435
G08        43.000    23265038.026 7 122258689.69207     -3822.515 7        42.529                                    23265036.081 6  95266551.27706     -2978.582 6        38.279    23265037.176 6  95266549.29306     -2978.621 6        40.021
C05        44.000                                                                                                                                    39106765.416 6 203639227.32606      -253.129 6        38.432    39106759.739 7 157466793.47307      -195.895 7        42.921    39106761.188 6 165473657.34006      -206.052 6        40.212
G04        45.000    24965374.775 6 131193936.35806      3577.925 6        36.363                                    24965372.574 2 102229026.24802      2787.967 2        17.962    24965373.261 6 102229028.25806      2787.956 6        36.677
C33        47.000                                                                                                                                    21920761.689 8 114147187.57108      -896.457 8        50.956                                                                    21920772.819 8  92753998.48608      -728.500 8        49.962
C09        48.000                                                                                                                                    40282893.727 6 209763608.70006      1406.465 6        38.541    40282890.827 7 162202518.36707      1087.597 7        42.758    40282888.762 6 170450093.13506      1142.847 6        38.685
R07        49.000    19495541.395 8 104361215.84408      1493.818 8        52.914                                                                    19495539.736 7  81169834.12607      1161.860 7        47.568
R15        50.000    24511304.573 6 130980980.50606      2129.050 6        36.159                                                                    24511303.880 5 101874074.14405      1655.489 5        31.260
S48        51.000    77175383.162 6 405560733.44106      -285.506 6        37.535
R14        53.000    23812609.413 7 126934618.65607      -629.671 7        44.173                                                                    23812609.992 6  98726865.48706      -489.786 6        40.577
C60        54.000                                                                                                                                    40520483.265 6 211001000.78906      -330.129 6        39.907                                                                    40520467.303 6 171455567.85806      -268.381 6        39.832
R08        55.000    22926112.671 7 122768318.30907      3866.528 7        42.466                                                                    22926110.821 6  95486517.20006      3007.260 6        40.713
I09        56.000    37123292.035 7 145679811.01307      -109.449 7        43.369
C02        57.000                                                                                                                                    40513238.096 5 210963112.14905      -295.635 5        34.148    40513230.970 6 163130055.74706      -228.564 6        40.269    40513234.471 6 171424813.79806      -240.253 6        36.340
I03        58.000    76403297.029 6 224037713.76106      1108.192 6        41.213
R23        59.000    22122646.407 7 118341252.15307      3503.831 7        45.050
C30        60.000                                                                                                                                    26724826.721 6 139163183.03406      2980.644 6        38.682                                                                    26724827.118 6 113081492.30406      2422.015 6        38.748
> 2025 01 02 23 45 10.0000000  0 52
G28         1.000    24389545.175 6 128167924.06706      2245.039 6        38.790                                    24389541.559 3  99871097.78403      1749.378 3        23.581    24389541.824 6  99871098.79906      1749.234 6        39.847
E08         2.000    25670443.460 7 134899110.18807      2588.398 7        43.471                                                                    25670441.803 7 100736352.06907      1932.858 7        46.369    25670441.163 7 103364255.96507      1983.262 7        47.260
G21         4.000    20895041.306 7 109804248.45207     -1365.666 7        44.886                                    20895035.562 6  85561758.53506     -1064.155 6        37.467
S21         5.000    38421437.068 7 201905679.32807      -273.412 7        42.370
E13         6.000    24562505.077 7 129076883.02807      1552.660 7        45.156                                                                    24562505.016 8  96388609.22908      1159.432 8        48.549    24562504.586 8  98903089.73608      1189.686 8        49.359
G10         7.000    24809096.639 6 130372743.15406     -3383.910 6        38.676                                    24809094.655 5 101589165.70905     -2636.808 5        31.509    24809094.851 6 101589159.72806     -2637.109 6        36.435
E15         8.000    23437370.378 7 123164327.21807      -866.186 7        47.357                                                                    23437370.335 8  91973431.16508      -646.834 8        50.815    23437369.888 8  94372725.71908      -663.716 8        51.362
G14        11.000    24477946.532 6 128632482.79106     -2114.504 6        38.300                                    24477944.025 3 100233095.97603     -1647.678 3        19.194    24477943.908 6 100233099.99106     -1647.486 6        36.363
G32        12.000    22503699.180 7 118257768.96807     -2287.107 7        46.820                                    22503697.173 7  92148911.94107     -1782.161 7        45.484    22503697.649 7  92148884.93307     -1782.191 7        42.650
G03        13.000    21217898.179 7 111500864.52607      2033.886 7        46.507                                    21217896.558 7  86883806.85507      1584.851 7        47.518    21217896.859 7  86883811.85707      1584.915 7        44.262
S36        14.000    38189032.136 7 200685239.50407      -272.786 7        43.759
C13        15.000                                                                                                                                    40789212.580 6 212400185.21606     -1015.495 6        37.338    40789213.094 6 164241330.05306      -785.377 6        37.588    40789211.468 6 172592571.21006      -825.634 6        36.575
G17        16.000    23402837.867 7 122982753.87407      2227.275 7        42.855                                    23402833.799 6  95830694.02506      1735.536 6        38.805    23402834.399 6  95830696.03706      1735.336 6        40.155
C16        17.000                                                                                                                                    39591222.205 6 206161902.68806      1012.717 6        40.083    39591222.494 6 159417467.49006       783.055 6        41.793    39591219.986 6 167523426.79106       822.786 6        37.898
E27        18.000    28733216.116 5 150994057.43305     -3084.268 5        35.086                                                                    28733218.021 6 112755297.95806     -2303.264 6        37.879    28733217.293 6 115696738.78006     -2363.196 6        37.834
E05        20.000    24806769.937 6 130360484.57506     -2396.831 6        40.253                                                                    24806769.994 7  97347120.57707     -1789.828 7        44.026    24806769.739 7  99886612.68707     -1836.462 7        45.248
C41        21.000                                                                                                                                    23064328.746 8 120102042.24908      1976.339 8        48.827                                                                    23064333.724 8  97592777.33008      1605.905 8        48.702
I06        22.000    38289446.454 7 150256247.20907       -97.913 7        43.012
E03        23.000    23988665.410 7 126061307.78207       235.152 7        46.867                                                                    23988664.766 8  94136721.03308       175.579 8        49.967    23988664.287 8  96592458.04108       180.171 8        50.757
R22        24.000    19294013.137 8 102992799.42108       842.993 8        51.987                                                                    19294010.924 8  80105526.56608       655.717 8        48.463
S23        25.000    38143963.314 7 200447860.39607      -270.688 7        44.530
S45        26.000    63390895.860 6 333122299.35106      -314.659 6        37.452
G02        27.000    20693444.696 8 108744839.77208       129.777 8        50.191                                    20693437.688 7  84736230.03807       101.127 7        43.651
S27        28.000    39078684.196 5 205359936.16305      -249.483 5        35.805
C39        29.000                                                                                                                                    39264195.671 6 204458987.19406       630.167 6        41.976                                                                    39264191.536 7 166139670.33807       512.004 7        42.279
E21        30.000    27556299.841 6 144809341.95006     -2148.343 6        38.291                                                                    27556299.869 6 108136852.51706     -1604.217 6        40.608    27556299.254 6 110957810.23606     -1646.048 6        41.564
C43        31.000                                                                                                                                    25496820.211 7 132768734.57407     -3609.097 7        42.095                                                                    25496819.446 7 107885513.42107     -2932.581 7        42.210
C42        32.000                                                                                                                                    25135844.467 7 130888956.36507     -3255.988 7        42.233                                                                    25135851.326 7 106358040.58507     -2645.733 7        44.202
C28        33.000                                                                                                                                    21612259.701 8 112540720.09608     -1152.742 8        51.219                                                                    21612258.138 8  91448555.06508      -936.674 8        48.558
E34        35.000    26624703.807 6 139913962.43006     -2665.829 6        40.346                                                                    26624704.349 7 104481314.24707     -1990.591 7        43.809    26624704.343 7 107206902.79607     -2042.561 7        45.416
C14        36.000                                                                                                                                    23005529.102 7 119795841.10207     -2378.215 7        46.363    23005524.776 8  92633731.17108     -1838.972 8        50.304    23005523.703 8  97343912.36708     -1932.500 8        48.536
R21        37.000    20683409.913 8 110681158.93208     -3189.222 8        50.628                                                                    20683408.437 7  86085366.95407     -2480.576 7        45.800
R06        38.000    19843887.869 6 105890816.83506     -2409.219 6        40.446
C27        40.000                                                                                                                                    22591320.232 8 117638972.99008      1570.162 8        48.884                                                                    22591318.460 8  95591317.86608      1275.867 8        48.040
C06        41.000                                                                                                                                    39293249.846 6 204610270.32506      1124.912 6        37.981    39293243.187 6 158217620.62806       869.813 6        41.943    39293243.160 6 166262582.79006       914.085 6        39.273
S44        42.000    40520800.439 6 212938435.65106      -332.890 6        38.123
G08        43.000    23268675.307 7 122277803.96907     -3823.026 7        42.311                                    23268673.433 6  95281445.51906     -2978.982 6        38.369    23268675.153 6  95281443.52606     -2979.014 6        40.563
C05        44.000                                                                                                                                    39107008.301 6 203640492.90206      -252.910 6        38.604    39107003.049 7 157467772.08807      -195.573 7        43.386    39107004.636 6 165474685.70806      -205.561 6        40.067
G04        45.000    24961970.312 5 131176045.81805      3578.054 5        35.938                                    24961968.140 2 102215085.57802      2788.102 2        17.585    24961968.312 6 102215087.57406      2788.087 6        36.926
C33        47.000                                                                                                                                    21921623.441 8 114151674.67208      -898.306 8        51.064                                                                    21921634.510 8  92757644.61408      -729.941 8        49.880
C09        48.000                                                                                                                                    40281543.470 6 209756576.74306      1406.143 6        38.919    40281540.100 7 162197080.80307      1087.518 7        42.707    40281538.217 6 170444379.07606      1142.835 6        38.504
R07        49.000    19494147.875 8 104353755.51408      1490.468 8        52.749                                                                    19494146.027 7  81164031.64107      1159.287 7        47.392
R15        50.000    24509313.007 5 130970343.60405      2126.069 5        35.614                                                                    24509314.251 5 101865800.97805      1653.739 5        31.396
S48        51.000    77175639.368 6 405562159.07506      -285.192 6        37.176
R14        53.000    23813202.518 7 126937776.77107      -633.337 7        43.581                                                                    23813202.482 6  98729321.83706      -492.699 6        40.789
C60        54.000                                                                                                                                    40520800.370 6 211002651.16706      -329.892 6        39.402                                                                    40520784.341 6 171456908.90406      -268.027 6        39.700
R08        55.000    22922503.700 7 122748988.69307      3865.520 7        43.380                                                                    22922501.846 6  95471483.04706      3006.661 6        40.479
I09        56.000    37123431.576 7 145680358.04507      -109.341 7        43.293
C02        57.000                                                                                                                                    40513522.312 5 210964589.36605      -295.349 5        34.248    40513514.547 6 163131198.02606      -228.245 6        40.398    40513518.120 5 171426014.15105      -239.860 5        35.990
I03        58.000    76401885.520 6 224032172.37106      1108.450 6        40.696
R23        59.000    22119372.368 7 118323735.10107      3503.313 7        44.883
C30        60.000                                                                                                                                    26721964.664 6 139148279.57106      2980.732 6        40.639                                                                    26721964.594 6 113069381.97106      2422.320 6        38.162
> 2025 01 02 23 45 15.0000000  0 52
G28         1.000    24387409.420 6 128156703.17206      2243.438 6        38.162                                    24387406.328 3  99862354.22903      1748.137 3        22.781    24387406.419 6  99862355.23206      1748.242 6        39.631
E08         2.000    25667981.247 7 134886171.04707      2587.200 7        43.300                                                                    25667979.521 7 100726689.72007      1932.018 7        46.488    25667978.905 7 103354341.55507      1982.406 7        47.170
G21         4.000    20896341.393 7 109811080.74507     -1367.390 7        44.835                                    20896335.718 6  85567082.40006     -1065.502 6        37.338
S21         5.000    38421698.684 7 201907046.95707      -273.764 7        42.493
E13         6.000    24561027.808 7 129069121.35207      1551.922 7        45.144                                                                    24561028.075 8  96382813.17408      1158.912 8        48.564    24561027.599 8  98897142.48208      1189.102 8        49.351
G10         7.000    24812316.081 6 130389662.47906     -3383.890 6        38.207                                    24812314.313 5 101602349.59805     -2636.789 5        31.411    24812314.757 6 101602343.57106     -2636.628 6        36.480
E15         8.000    23438195.217 7 123168661.42607      -867.576 7        47.527                                                                    23438195.104 8  91976667.74508      -647.858 8        50.807    23438194.706 8  94376046.73108      -664.742 8        51.356
G14        11.000    24479959.322 6 128643060.14106     -2116.692 6        37.750                                    24479956.917 3 100241338.06803     -1649.365 3        18.866    24479957.307 6 100241342.08306     -1649.355 6        36.533
G32        12.000    22505876.429 7 118269210.48507     -2289.485 7        46.597                                    22505874.379 7  92157827.40907     -1784.014 7        45.296    22505874.500 7  92157800.41907     -1784.128 7        42.866
G03        13.000    21215963.908 7 111490699.22807      2032.126 7        46.341                                    21215962.161 7  86875885.84307      1583.473 7        47.369    21215962.666 7  86875890.83907      1583.560 7        44.597
S36        14.000    38189290.229 7 200686603.95207      -272.923 7        43.403
C13        15.000                                                                                                                                    40790187.543 6 212405263.67706     -1015.745 6        36.998    40790188.254 6 164245257.01506      -785.314 6        38.306    40790186.820 6 172596697.81706      -825.206 6        36.174
G17        16.000    23400719.729 7 122971622.51107      2225.292 7        43.137                                    23400715.578 6  95822020.24406      1733.993 6        38.748    23400715.519 6  95822022.24806      1733.841 6        40.262
C16        17.000                                                                                                                                    39590250.403 6 206156841.56806      1011.735 6        40.153    39590250.295 7 159413553.90207       782.414 7        42.015    39590248.251 6 167519314.19406       822.174 6        37.546
E27        18.000    28736150.651 5 151009478.27505     -3084.089 5        34.786                                                                    28736152.964 6 112766813.49606     -2303.067 6        37.251    28736151.616 6 115708554.71506     -2363.094 6        38.255
E05        20.000    24809051.320 6 130372472.41706     -2398.488 6        40.088                                                                    24809051.046 7  97356072.52507     -1791.009 7        43.926    24809050.832 7  99895798.17407     -1837.700 7        45.211
C41        21.000                                                                                                                                    23062431.893 8 120092164.95608      1974.531 8        48.817                                                                    23062436.871 8  97584751.20708      1604.582 8        48.732
I06        22.000    38289571.355 7 150256736.52107       -97.794 7        43.191
E03        23.000    23988442.577 7 126060137.86607       232.798 7        46.822                                                                    23988442.120 8  94135847.39708       173.803 8        49.980    23988441.643 8  96591561.61408       178.328 8        50.751
R22        24.000    19293225.023 8 102988592.40808       839.719 8        51.687                                                                    19293222.993 8  80102254.45408       653.145 8        48.506
S23        25.000    38144221.613 7 200449213.61207      -270.579 7        44.691
S45        26.000    63391153.036 6 333123872.24906      -314.612 6        37.059
G02        27.000    20693322.106 8 108744195.46808       127.851 8        50.124                                    20693315.090 7  84735727.98307        99.624 7        43.515
S27        28.000    39078918.124 5 205361182.06605      -249.129 5        35.795
C39        29.000                                                                                                                                    39263591.173 7 204455838.64307       629.280 7        42.224                                                                    39263586.872 7 166137111.87707       511.370 7        42.453
E21        30.000    27558344.027 6 144820087.13506     -2149.844 6        38.351                                                                    27558344.672 6 108144876.51006     -1605.405 6        40.560    27558344.070 6 110966043.56106     -1647.277 6        41.497
C43        31.000                                                                                                                                    25500285.712 7 132786781.34307     -3609.607 7        42.155                                                                    25500284.804 6 107900177.89306     -2932.927 6        41.785
C42        32.000                                                                                                                                    25138970.684 7 130905237.70507     -3256.555 7        42.324                                                                    25138978.101 7 106371270.49107     -2646.145 7        44.278
C28        33.000                                                                                                                                    21613367.675 8 112546489.79808     -1155.185 8        51.314                                                                    21613366.152 8  91453243.41108      -938.595 8        48.610
E34        35.000    26627240.538 6 139927292.38906     -2666.353 6        40.913                                                                    26627240.882 7 104491268.44207     -1991.080 7        43.712    26627240.967 7 107217116.66607     -2043.029 7        45.404
C14        36.000                                                                                                                                    23007813.090 7 119807735.87207     -2379.717 7        46.399    23007809.037 8  92642928.95908     -1840.172 8        50.526    23007807.897 8  97353577.83308     -1933.664 8        48.541
R21        37.000    20686391.024 8 110697111.35408     -3191.832 8        50.365                                                                    20686389.408 7  86097774.39407     -2482.513 7        45.141
R06        38.000    19846146.581 6 105902870.98206     -2412.510 6        40.489
C27        40.000                                                                                                                                    22589813.441 8 117631126.80808      1568.237 8        48.961                                                                    22589811.754 8  95584942.19208      1274.436 8        48.130
C06        41.000                                                                                                                                    39292169.921 6 204604647.52506      1124.024 6        38.532    39292163.769 7 158213272.71607       869.206 7        42.591    39292163.557 6 166258013.79506       913.492 6        39.715
S44        42.000    40521114.588 6 212940099.79806      -332.708 6        38.096
G08        43.000    23272313.304 7 122296921.09807     -3823.784 7        42.311                                    23272311.455 6  95296341.98106     -2979.569 6        38.483    23272312.777 6  95296339.96606     -2979.580 6        40.830
C05        44.000                                                                                                                                    39107251.522 6 203641757.15006      -252.831 6        39.051    39107245.778 7 157468749.68007      -195.578 7        43.632    39107247.494 6 165475712.99106      -205.305 6        40.081
G04        45.000    24958565.496 6 131158153.80406      3578.528 6        36.563                                    24958563.442 2 102201143.75902      2788.457 2        17.547    24958563.746 6 102201145.77606      2788.290 6        36.945
C33        47.000                                                                                                                                    21922486.981 8 114156171.74208      -900.556 8        51.314                                                                    21922498.113 8  92761298.84708      -731.732 8        49.985
C09        48.000                                                                                                                                    40280193.192 6 209749546.10806      1405.684 6        38.832    40280190.081 7 162191644.28207      1087.083 7        42.586    40280187.986 6 170438666.10706      1142.512 6        38.739
R07        49.000    19492757.473 8 104346312.09008      1486.839 8        52.697                                                                    19492755.558 7  81158242.31707      1156.393 7        47.337
R15        50.000    24507324.610 5 130959719.78505      2122.997 5        34.671                                                                    24507322.800 5 101857538.00505      1651.234 5        31.977
S48        51.000    77175902.500 6 405563583.26606      -284.914 6        37.924
R14        53.000    23813797.680 7 126940953.80307      -637.521 7        44.108                                                                    23813798.127 6  98731792.86806      -495.735 6        40.682
C60        54.000                                                                                                                                    40521117.086 6 211004300.21706      -329.865 6        40.319                                                                    40521101.348 6 171458248.87306      -268.141 6        40.336
R08        55.000    22918896.273 7 122729663.77807      3864.441 7        44.260                                                                    22918892.533 6  95456452.53406      3005.716 6        40.565
I09        56.000    37123570.742 7 145680905.11907      -109.418 7        43.380
C02        57.000                                                                                                                                    40513804.637 5 210966065.30605      -295.072 5        34.238    40513798.263 6 163132339.32606      -228.178 6        41.070    40513801.621 6 171427213.47206      -239.708 6        36.378
I03        58.000    76400472.802 6 224026630.15406      1108.372 6        40.620
R23        59.000    22116097.619 7 118306221.12107      3502.388 7        44.767
C30        60.000                                                                                                                                    26719102.847 6 139133375.99106      2980.407 6        40.250                                                                    26719102.452 6 113057271.57806      2421.920 6        38.282
> 2025 01 02 23 45 20.0000000  0 52
G28         1.000    24385275.836 6 128145489.48806      2242.139 6        38.357                                    24385272.335 3  99853616.29903      1747.111 3        22.552    24385272.708 6  99853617.30206      1747.062 6        39.946
E08         2.000    25665520.158 7 134873236.94307      2586.402 7        43.378                                                                    25665518.164 7 100717031.15007      1931.408 7        46.375    25665517.752 7 103344431.01507      1981.841 7        47.219
G21         4.000    20897642.874 7 109817921.61507     -1368.929 7        44.734                                    20897637.506 6  85572412.94606     -1066.696 6        37.270
S21         5.000    38421963.539 7 201908413.97707      -272.964 7        42.809
E13         6.000    24559551.628 7 129061362.92607      1551.456 7        45.305                                                                    24559551.640 8  96377019.55208      1158.565 8        48.478    24559551.214 8  98891197.71908      1188.776 8        49.217
G10         7.000    24815535.659 6 130406581.79006     -3383.641 6        38.919                                    24815534.020 5 101615533.46405     -2636.605 5        31.426    24815534.139 6 101615527.47906     -2636.493 6        36.355
E15         8.000    23439020.940 7 123173001.92307      -868.594 7        47.476                                                                    23439021.130 8  91979909.02408      -648.633 8        50.754    23439020.656 8  94379372.57208      -665.574 8        51.277
G14        11.000    24481974.556 6 128653647.16606     -2118.365 6        37.588                                    24481971.450 3 100249587.70303     -1650.664 3        19.075    24481971.740 6 100249591.69806     -1650.637 6        36.628
G32        12.000    22508055.650 7 118280663.73907     -2291.726 7        46.893                                    22508053.817 7  92166752.02107     -1785.759 7        45.135    22508054.789 7  92166725.01807     -1785.715 7        43.520
G03        13.000    21214031.133 7 111480542.26607      2030.646 7        46.420                                    21214029.343 7  86867971.32807      1582.325 7        47.299    21214030.040 7  86867976.33107      1582.270 7        44.581
S36        14.000    38189545.747 7 200687968.65907      -272.933 7        43.225
C13        15.000                                                                                                                                    40791162.205 6 212410340.71106     -1015.282 6        36.405    40791163.334 6 164249182.91806      -785.182 6        38.087    40791161.611 6 172600823.35706      -824.887 6        36.495
G17        16.000    23398603.367 7 122960500.30707      2223.640 7        43.118                                    23398599.118 6  95813353.59906      1732.707 6        38.673    23398598.742 6  95813355.58906      1732.727 6        39.925
C16        17.000                                                                                                                                    39589279.546 6 206151783.99406      1011.180 6        40.038    39589279.157 6 159409643.07406       781.810 6        41.666    39589276.808 6 167515204.51006       821.783 6        37.747
E27        18.000    28739084.344 5 151024897.22005     -3083.502 5        35.462                                                                    28739086.662 6 112778327.61106     -2302.536 6        37.323    28739085.742 6 115720369.21406     -2362.656 6        37.936
E05        20.000    24811333.842 6 130384467.63606     -2399.673 6        40.095                                                                    24811333.702 7  97365030.00207     -1791.952 7        43.850    24811333.453 7  99904989.31107     -1838.708 7        45.059
C41        21.000                                                                                                                                    23060536.540 8 120082296.04608      1973.092 8        48.783                                                                    23060541.707 8  97576731.93508      1603.266 8        48.835
I06        22.000    38289695.732 7 150257225.49107       -97.644 7        42.868
E03        23.000    23988222.280 7 126058979.35807       230.645 7        46.765                                                                    23988221.675 8  94134982.27708       172.221 8        49.816    23988221.172 8  96590673.92808       176.733 8        50.641
R22        24.000    19292439.782 8 102984401.09908       836.877 8        52.082                                                                    19292437.786 8  80098994.54408       650.806 8        48.938
S23        25.000    38144478.351 7 200450566.25407      -270.400 7        44.650
S45        26.000    63391400.737 6 333125444.63006      -314.448 6        36.907
G02        27.000    20693201.356 8 108743560.64208       126.146 8        50.290                                    20693194.284 7  84735233.31107        98.297 7        43.378
S27        28.000    39079157.946 6 205362427.61206      -249.170 6        36.310
C39        29.000                                                                                                                                    39262987.545 7 204452694.43207       628.450 7        42.106                                                                    39262983.156 7 166134556.95907       510.752 7        42.677
E21        30.000    27560390.419 6 144830839.85206     -2151.253 6        38.550                                                                    27560390.953 6 108152906.13306     -1606.389 6        40.532    27560390.293 6 110974282.66006     -1648.212 6        41.244
C43        31.000                                                                                                                                    25503752.322 7 132804830.51407     -3609.881 7        42.068                                                                    25503751.117 6 107914844.35706     -2933.420 6        41.948
