     3.04           OBSERVATION DATA    M                   RINEX VERSION / TYPE
ssrcrin-15.6.1x                         20250102 224500 UTC PGM / RUN BY / DATE 
(00000000023479385599111004) Septentrio proprietary         COMMENT             
rref                                                        MARKER NAME         
01                                                          MARKER NUMBER       
geodetic                                                    MARKER TYPE         
NFB                 CLIMERS@TUW                             OBSERVER / AGENCY   
3297213             SEPT ASTERX SB3 PROB4.14.4              REC # / TYPE / VERS 
Unknown             Unknown                                 ANT # / TYPE        
  4127832.1945  1207193.4486  4695247.9475                  APPROX POSITION XYZ 
        0.0000        0.0000        0.0000                  ANTENNA: DELTA H/E/N
G   23 X1  C1C L1C D1C S1C C1W S1W C2W L2W D2W S2W C2L L2L  SYS / # / OBS TYPES 
       D2L S2L C5Q L5Q D5Q S5Q C1L L1L D1L S1L              SYS / # / OBS TYPES 
E   21 X1  C1C L1C D1C S1C C6C L6C D6C S6C C5Q L5Q D5Q S5Q  SYS / # / OBS TYPES 
       C7Q L7Q D7Q S7Q C8Q L8Q D8Q S8Q                      SYS / # / OBS TYPES 
S    9 X1  C1C L1C D1C S1C C5I L5I D5I S5I                  SYS / # / OBS TYPES 
R   17 X1  C1C L1C D1C S1C C2P L2P D2P S2P C2C L2C D2C S2C  SYS / # / OBS TYPES 
       C3Q L3Q D3Q S3Q                                      SYS / # / OBS TYPES 
C   25 X1  C1P L1P D1P S1P C5P L5P D5P S5P C2I L2I D2I S2I  SYS / # / OBS TYPES 
       C7I L7I D7I S7I C6I L6I D6I S6I C7D L7D D7D S7D      SYS / # / OBS TYPES 
J   17 X1  C1C L1C D1C S1C C2L L2L D2L S2L C5Q L5Q D5Q S5Q  SYS / # / OBS TYPES 
       C1L L1L D1L S1L                                      SYS / # / OBS TYPES 
I    5 X1  C5A L5A D5A S5A                                  SYS / # / OBS TYPES 
SEPTENTRIO RECEIVERS OUTPUT ALIGNED CARRIER PHASES.         COMMENT             
NO FURTHER PHASE SHIFT APPLIED IN THE RINEX ENCODER.        COMMENT             
G L1C                                                       SYS / PHASE SHIFT   
G L2W                                                       SYS / PHASE SHIFT   
G L2L  0.00000                                              SYS / PHASE SHIFT   
G L5Q  0.00000                                              SYS / PHASE SHIFT   
G L1L  0.00000                                              SYS / PHASE SHIFT   
E L1C  0.00000                                              SYS / PHASE SHIFT   
E L6C  0.00000                                              SYS / PHASE SHIFT   
E L5Q  0.00000                                              SYS / PHASE SHIFT   
E L7Q  0.00000                                              SYS / PHASE SHIFT   
E L8Q  0.00000                                              SYS / PHASE SHIFT   
S L1C                                                       SYS / PHASE SHIFT   
S L5I                                                       SYS / PHASE SHIFT   
R L1C                                                       SYS / PHASE SHIFT   
R L2P  0.00000                                              SYS / PHASE SHIFT   
R L2C                                                       SYS / PHASE SHIFT   
R L3Q  0.00000                                              SYS / PHASE SHIFT   
C L1P  0.00000                                              SYS / PHASE SHIFT   
C L5P  0.00000                                              SYS / PHASE SHIFT   
C L2I                                                       SYS / PHASE SHIFT   
C L7I                                                       SYS / PHASE SHIFT   
C L6I                                                       SYS / PHASE SHIFT   
C L7D                                                       SYS / PHASE SHIFT   
J L1C                                                       SYS / PHASE SHIFT   
J L2L  0.00000                                              SYS / PHASE SHIFT   
J L5Q  0.00000                                              SYS / PHASE SHIFT   
J L1L  0.00000                                              SYS / PHASE SHIFT   
I L5A                                                       SYS / PHASE SHIFT   
  2025     1     2    22    45    0.0000000     GPS         TIME OF FIRST OBS   
 C1C    0.000 C2C    0.000 C2P    0.000                     GLONASS COD/PHS/BIS 
DBHZ                                                        SIGNAL STRENGTH UNIT
    18                                                      LEAP SECONDS        
 24 R01  1 R02 -4 R03  5 R04  6 R05  1 R06 -4 R07  5 R08  6 GLONASS SLOT / FRQ #
    R09 -2 R10 -7 R11  0 R12 -1 R13 -2 R14 -7 R15  0 R16 -1 GLONASS SLOT / FRQ #
    R17  4 R18 -3 R19  3 R20  2 R21  4 R22 -3 R23  3 R24  2 GLONASS SLOT / FRQ #
                                                            END OF HEADER       
> 2025 01 02 22 45  0.0000000  0 53
E08         2.000    27906281.772 6 146648509.53806      2919.397 6        38.219                                                                    27906280.629 6 109510251.30106      2180.017 6        40.932    27906280.305 7 112367039.86307      2236.921 7        42.963
G21         4.000    20680203.055 7 108675266.50807      -136.636 7        44.641                                    20680197.622 6  84682032.04806      -106.468 6        37.172
S21         5.000    38506987.565 7 202355261.09407      -341.715 7        42.076
E13         6.000    26047266.686 7 136879349.16507      1855.002 7        42.614                                                                    26047267.433 7 102215123.33407      1385.174 7        45.064    26047266.931 7 104881600.18407      1421.314 7        45.582
G10         7.000    22843861.310 7 120045367.20007     -3100.604 7        45.341                                    22843859.028 7  93541860.82107     -2416.055 7        42.235    22843859.191 6  93541854.83306     -2416.040 6        40.741
E15         8.000    23430964.691 8 123130662.80108       -50.670 8        48.536                                                                    23430964.620 8  91948291.78408       -37.917 8        50.883    23430964.211 8  94346930.56708       -38.869 8        51.497
G27        10.000    23522967.509 7 123614175.72707     -4047.482 7        43.010                                    23522965.804 6  96322803.57906     -3153.883 6        39.126    23522965.741 6  96322805.60106     -3153.985 6        40.150
G14        11.000    23924160.635 6 125722317.18606      -233.402 6        39.964                                    23924157.816 4  97965434.87604      -181.853 4        24.421    23924157.585 6  97965438.89006      -182.153 6        40.434
G32        12.000    21904753.849 8 115110288.37308      -228.248 8        48.559                                    21904751.648 8  89696329.47808      -177.856 8        48.837    21904752.199 7  89696302.48107      -177.861 7        45.846
G03        13.000    23279944.197 6 122336974.53806      3024.627 6        41.795                                    23279943.134 6  95327525.13106      2356.851 6        37.316    23279943.673 6  95327530.13206      2356.866 6        39.420
S36        14.000    38274990.624 7 201136966.68407      -341.310 7        43.674
C13        15.000                                                                                                                                    40311830.114 6 209914337.42506     -1223.476 6        37.206    40311832.388 6 162319115.09306      -946.267 6        38.724    40311830.426 6 170572616.43706      -994.417 6        38.261
G17        16.000    25559234.350 6 134314688.47806      3004.470 6        38.282                                    25559229.662 4 104660772.21904      2341.148 4        28.891    25559230.199 5 104660774.24105      2340.688 5        35.271
C16        17.000                                                                                                                                    40749686.510 6 212194318.90006      1438.179 6        36.964    40749687.630 6 164082111.43006      1112.086 6        39.207    40749684.910 5 172425256.76605      1168.504 5        35.676
E27        18.000    26930922.788 6 141522965.39706     -2863.330 6        41.330                                                                    26930922.975 7 105682736.27107     -2138.231 7        42.955    26930922.401 7 108439674.64907     -2193.964 7        44.084
E05        20.000    23905681.402 7 125625231.52907      -991.760 7        44.048                                                                    23905681.224 7  93811054.99807      -740.624 7        46.540    23905681.151 7  96258301.92207      -759.865 7        47.711
C41        21.000                                                                                                                                    25094788.192 7 130675165.58707      2923.224 7        43.081                                                                    25094793.881 7 106184303.65507      2375.181 7        44.650
I06        22.000    38473391.070 7 150978084.70207      -148.986 7        42.381
E03        23.000    24987693.013 7 131311229.36607      1739.818 7        45.514                                                                    24987692.939 7  98057115.38307      1299.199 7        47.925    24987692.664 8 100615123.73708      1333.037 8        48.726
R22        24.000    20788873.400 8 110972459.37808      2484.570 8        50.250                                                                    20788871.565 7  86311927.14107      1932.318 7        46.565
S23        25.000    38231287.458 7 200906740.54707      -339.557 7        44.430
S45        26.000    63480272.215 6 333591828.30106      -383.234 6        37.301
G02        27.000    21497181.051 8 112968499.47308      1263.399 8        48.566                                    21497174.723 6  88027392.51306       984.465 6        39.279
S27        28.000    39182621.227 6 205906154.36506      -312.630 6        36.155
C39        29.000                                                                                                                                    40203109.600 6 209348151.80806      1196.725 6        40.572                                                                    40203105.678 6 170112515.94806       972.330 6        41.297
E21        30.000    26837973.564 6 141034516.68106      -710.322 6        40.670                                                                    26837974.497 7 105317989.49607      -530.380 7        43.454    26837974.084 7 108065411.68007      -544.296 7        44.212
C43        31.000                                                                                                                                    23492271.500 7 122330523.77207     -2929.230 7        47.890                                                                    23492269.600 7  99403612.85507     -2380.324 7        46.149
C42        32.000                                                                                                                                    23405255.787 7 121877333.03207     -2441.002 7        47.370                                                                    23405263.264 8  99035358.89008     -1983.570 8        48.330
C28        33.000                                                                                                                                    21691489.889 8 112953292.08908       475.657 8        50.659                                                                    21691488.505 8  91783803.40508       386.506 8        48.799
R13        34.000    23384067.509 6 124869619.81906     -1257.078 6        40.565
E34        35.000    25249318.767 7 132686271.40007     -2193.728 7        44.724                                                                    25249318.858 7  99084014.37907     -1638.182 7        47.678    25249318.617 8 101668803.59308     -1680.918 8        48.451
C14        36.000                                                                                                                                    22121391.078 7 115191906.63707      -903.271 7        46.732    22121387.129 8  89073677.21208      -698.501 8        52.430    22121386.036 8  93602838.68608      -734.033 8        50.011
R21        37.000    19511302.449 8 104408980.63408     -1124.575 8        51.452                                                                    19511301.354 7  81207006.98607      -874.711 7        46.384
R06        38.000    19402932.625 6 103537793.71506       377.980 6        41.933
R05        39.000    22167561.701 7 118498341.82507     -4107.286 7        45.856                                                                    22167560.165 7  92165385.95607     -3194.635 7        43.365
C27        40.000                                                                                                                                    24339430.580 7 126741831.48007      2474.161 7        44.594                                                                    24339429.377 7 102988133.79607      2010.250 7        44.218
C36        41.000                                                                                                                                    27140169.623 6 141325986.23706      -478.798 6        36.480                                                                    27140174.663 6 114838961.52406      -389.299 6        39.282
S44        42.000    40570697.590 6 213200672.75406      -385.659 6        37.471
G08        43.000    21266088.126 8 111754139.84308     -2680.103 8        48.805                                    21266085.926 8  87081188.92108     -2088.390 8        48.413    21266086.464 7  87081186.91607     -2088.275 7        44.832
C05        44.000                                                                                                                                    39210618.394 6 204180022.03806      -305.085 6        37.422    39210613.857 7 157884969.81107      -235.916 7        43.151    39210615.717 6 165913097.00706      -248.120 6        39.961
C11        45.000                                                                                                                                    25253907.694 6 131503855.34606     -3361.953 6        39.862    25253904.599 7 101687181.42107     -2599.677 7        46.922    25253902.545 7 106857692.65607     -2732.025 7        43.238
E09        46.000    28981848.135 4 152300649.46404     -3008.879 4        28.673                                                                    28981848.068 5 113731013.51905     -2246.681 5        30.891    28981848.252 5 116697906.83405     -2305.333 5        31.585
C33        47.000                                                                                                                                    22186413.096 8 115530501.71208       839.921 8        50.930                                                                    22186424.209 8  93878054.04208       682.496 8        49.598
R07        49.000    21573353.773 8 115483896.79908      3599.699 8        49.256                                                                    21573352.209 7  89820806.24307      2799.778 7        44.816
S48        51.000    77260490.803 6 406007106.13106      -361.494 6        37.463
C08        52.000                                                                                                                                    41097453.615 5 214005324.97505     -1331.197 5        34.243    41097446.134 6 165482522.40806     -1029.441 6        38.306    41097445.795 5 173896874.92505     -1081.944 5        34.671
R14        53.000    24623242.370 4 131255726.48004      2026.586 4        29.744                                                                    24623241.281 5 102087723.62405      1575.964 5        30.453
C60        54.000                                                                                                                                    40570703.070 6 211262504.31206      -382.277 6        39.601                                                                    40570686.732 6 171668060.59306      -310.600 6        40.491
R12        55.000    23926226.161 7 127809584.86307     -3474.116 7        43.469                                                                    23926227.010 6  99407453.59806     -2702.084 6        38.129
I09        56.000    37373276.263 7 146660800.02507        10.494 7        42.942
C02        57.000                                                                                                                                    40589862.779 5 211362123.96505      -341.038 5        32.527    40589856.977 6 163438596.58406      -263.603 6        40.093    40589860.799 6 171749043.27406      -277.353 6        36.140
I03        58.000    77710468.998 6 229167334.70906      1091.193 6        40.982
R20        60.000    22825632.023 5 122059112.16805     -3767.555 5        35.186                                                                    22825634.176 6  94934932.29106     -2930.302 6        41.030
> 2025 01 02 22 45  5.0000000  0 53
E08         2.000    27903504.065 6 146633913.14106      2919.032 6        38.138                                                                    27903503.062 6 109499351.40006      2179.909 6        40.894    27903502.827 7 112355855.62007      2236.695 7        43.041
G21         4.000    20680334.146 7 108675954.42207      -138.594 7        44.709                                    20680328.493 6  84682568.09006      -107.998 6        37.217
S21         5.000    38507312.813 7 202356970.31507      -341.998 7        42.013
E13         6.000    26045502.036 7 136870075.78807      1854.326 7        42.614                                                                    26045502.895 7 102208198.41907      1384.763 7        45.067    26045502.337 7 104874494.61907      1420.868 7        45.767
G10         7.000    22846812.049 7 120060873.26207     -3101.794 7        45.217                                    22846809.637 7  93553943.46507     -2416.980 7        42.447    22846810.204 6  93553937.46006     -2416.897 6        41.406
E15         8.000    23431013.401 8 123130919.77708       -52.063 8        48.465                                                                    23431013.521 8  91948483.68008       -38.940 8        50.889    23431013.087 8  94347127.46708       -39.909 8        51.659
G27        10.000    23526819.805 7 123634416.03807     -4048.584 7        42.736                                    23526817.226 6  96338575.25406     -3154.745 6        39.258    23526817.207 6  96338577.26706     -3154.780 6        39.754
G14        11.000    23924385.226 6 125723494.23006      -236.840 6        39.904                                    23924381.750 4  97966352.05804      -184.543 4        24.556    23924381.924 6  97966356.06106      -184.714 6        40.403
G32        12.000    21904972.518 8 115111438.14208      -231.706 8        48.007                                    21904970.467 8  89697225.40008      -180.550 8        48.891    21904970.707 7  89697198.39907      -180.584 7        45.723
G03        13.000    23277066.914 6 122321854.94006      3023.175 6        40.739                                    23277066.016 6  95315743.63506      2355.717 6        37.403    23277066.919 6  95315748.64506      2355.788 6        40.393
S36        14.000    38275316.073 7 201138673.81807      -341.590 7        43.613
C13        15.000                                                                                                                                    40313005.224 6 209920455.86306     -1223.907 6        37.206    40313007.540 6 162323846.24306      -946.240 6        39.072    40313005.542 6 170577588.14706      -994.247 6        38.441
G17        16.000    25556375.999 6 134299668.49906      3003.642 6        38.868                                    25556371.445 4 104649068.35204      2340.493 4        29.043    25556371.953 5 104649070.36905      2340.479 5        35.957
C16        17.000                                                                                                                                    40748305.837 6 212187130.03606      1437.426 6        36.926    40748306.873 6 164076552.55806      1111.513 6        39.096    40748304.462 5 172419415.19805      1168.208 5        35.586
E27        18.000    26933647.345 6 141537285.35606     -2864.636 6        40.882                                                                    26933647.892 7 105693429.73007     -2139.237 7        42.823    26933647.300 7 108450647.07607     -2194.908 7        44.241
E05        20.000    23906626.292 7 125630196.62107      -994.293 7        43.761                                                                    23906626.067 7  93814762.69907      -742.533 7        46.568    23906625.919 7  96262106.34607      -761.877 7        47.834
C41        21.000                                                                                                                                    25091982.046 7 130660552.56607      2922.168 7        43.081                                                                    25091987.424 7 106172429.37007      2374.572 7        44.722
I06        22.000    38473581.013 7 150978829.85207      -149.148 7        42.154
E03        23.000    24986038.745 7 131302535.56407      1737.703 7        45.451                                                                    24986038.584 7  98050623.25807      1297.617 7        47.978    24986038.331 8 100608462.24808      1331.443 8        48.882
R22        24.000    20786547.293 8 110960041.15408      2482.793 8        50.312                                                                    20786545.209 7  86302268.52707      1931.031 7        46.606
S23        25.000    38231610.605 7 200908438.66107      -339.765 7        44.597
S45        26.000    63480597.136 6 333593744.58006      -383.476 6        37.297
G02        27.000    21495979.504 8 112962186.24808      1261.829 8        48.376                                    21495973.355 6  88022473.12106       983.244 6        39.339
S27        28.000    39182919.708 6 205907718.76206      -313.310 6        36.019
C39        29.000                                                                                                                                    40201960.488 6 209342170.69906      1195.649 6        40.322                                                                    40201956.993 6 170107655.78706       971.813 6        41.430
E21        30.000    26838650.879 6 141038074.42506      -712.840 6        40.560                                                                    26838651.450 7 105320646.26107      -532.344 7        43.606    26838651.193 7 108068137.75607      -546.326 7        44.418
C43        31.000                                                                                                                                    23495084.836 7 122345174.15807     -2930.955 7        47.792                                                                    23495083.282 7  99415517.47707     -2381.504 7        46.317
C42        32.000                                                                                                                                    23407600.840 7 121889543.22907     -2443.110 7        47.368                                                                    23407608.067 8  99045280.66308     -1985.138 8        48.399
C28        33.000                                                                                                                                    21691034.346 8 112950919.33208       473.408 8        50.817                                                                    21691032.932 8  91781875.34308       384.789 8        48.856
R13        34.000    23385245.715 6 124875915.56406     -1261.295 6        39.880
E34        35.000    25251406.496 7 132697242.57607     -2194.752 7        44.761                                                                    25251406.614 7  99092207.13707     -1638.987 7        47.659    25251406.353 8 101677210.07708     -1681.730 8        48.632
C14        36.000                                                                                                                                    22122260.197 7 115196429.85607      -906.039 7        46.839    22122255.802 8  89077174.85708      -700.647 8        52.297    22122254.680 8  93606514.16208      -736.119 8        50.029
R21        37.000    19512354.894 8 104414612.09008     -1127.955 8        51.481                                                                    19512353.723 7  81211387.01707      -877.232 7        47.020
R06        38.000    19402580.703 6 103535915.69806       373.228 6        41.592
R05        39.000    22171404.030 7 118518883.76807     -4109.495 7        46.164                                                                    22171403.170 7  92181363.02007     -3196.272 7        43.043
C27        40.000                                                                                                                                    24337055.447 7 126729463.29407      2473.140 7        44.783                                                                    24337054.087 7 102978083.61107      2009.679 7        44.203
C36        41.000                                                                                                                                    27140630.846 5 141328387.95305      -481.649 5        35.762                                                                    27140636.058 6 114840913.08406      -391.367 6        39.414
S44        42.000    40571068.399 6 213202601.99206      -386.058 6        37.951
G08        43.000    21268639.058 8 111767546.81408     -2682.706 8        48.375                                    21268637.202 8  87091635.91308     -2090.417 8        48.464    21268637.941 7  87091633.91307     -2090.428 7        44.664
C05        44.000                                                                                                                                    39210911.326 6 204181548.00106      -305.303 6        37.611    39210906.852 7 157886149.78907      -236.123 7        42.973    39210908.770 6 165914336.96606      -248.030 6        39.865
C11        45.000                                                                                                                                    25257136.481 6 131520667.87906     -3363.080 6        38.919    25257133.076 7 101700181.91707     -2600.501 7        46.585    25257131.143 7 106871354.20307     -2732.683 7        43.166
E09        46.000    28984711.333 4 152315695.38904     -3010.138 4        28.227                                                                    28984711.345 5 113742249.17505     -2247.922 5        31.170    28984711.061 5 116709435.55205     -2306.191 5        31.275
C33        47.000                                                                                                                                    22185607.838 8 115526308.91708       837.149 8        51.100                                                                    22185619.047 8  93874647.04408       680.333 8        49.686
R07        49.000    21569991.809 8 115465904.13908      3597.353 8        49.003                                                                    21569991.041 7  89806811.97807      2797.840 7        45.154
S48        51.000    77260817.482 6 406008914.54206      -361.767 6        37.520
C08        52.000                                                                                                                                    41098730.519 5 214011981.18005     -1331.374 5        34.224    41098724.813 6 165487669.40206     -1029.505 6        38.042    41098723.942 5 173902283.59205     -1081.625 5        34.576
R14        53.000    24621340.792 4 131245601.88704      2023.311 4        28.521                                                                    24621343.421 5 102079848.96405      1573.753 5        31.238
C60        54.000                                                                                                                                    40571070.132 6 211264415.99206      -382.397 6        39.622                                                                    40571053.692 6 171669613.98306      -310.679 6        40.534
R12        55.000    23929479.142 7 127826960.98707     -3476.219 7        44.035                                                                    23929479.436 6  99420968.37106     -2703.876 6        38.904
I09        56.000    37373263.043 7 146660748.89207         9.945 7        42.749
C02        57.000                                                                                                                                    40590190.982 5 211363829.11505      -341.155 5        32.766    40590184.814 6 163439915.12706      -263.891 6        40.043    40590188.390 6 171750428.83806      -277.183 6        36.170
I03        58.000    77709078.906 6 229161879.70906      1090.853 6        40.901
R20        60.000    22829155.425 5 122077953.78405     -3769.273 5        35.081                                                                    22829157.590 6  94949586.86106     -2931.434 6        41.142
> 2025 01 02 22 45 10.0000000  0 53
E08         2.000    27900726.388 6 146619315.95606      2919.802 6        38.123                                                                    27900725.147 6 109488450.92406      2180.286 6        40.801    27900725.123 7 112344670.78107      2237.161 7        42.792
G21         4.000    20680466.484 7 108676650.31607      -139.760 7        44.524                                    20680460.902 6  84683110.34406      -108.904 6        37.100
S21         5.000    38507638.557 7 202358678.97507      -341.498 7        42.009
E13         6.000    26043737.707 7 136860803.36507      1854.673 7        42.984                                                                    26043738.383 7 102201274.22107      1384.916 7        45.025    26043737.849 7 104867389.79507      1421.062 7        45.546
G10         7.000    22849763.462 7 120076383.38607     -3102.210 7        45.103                                    22849761.131 7  93566029.27907     -2417.307 7        42.307    22849761.529 6  93566023.26706     -2417.267 6        41.640
E15         8.000    23431063.137 8 123131181.49808       -52.606 8        48.535                                                                    23431063.305 8  91948679.11608       -39.281 8        50.829    23431062.891 8  94347328.00708       -40.276 8        51.436
G27        10.000    23530671.720 7 123654660.00407     -4048.946 7        42.954                                    23530669.287 6  96354349.77506     -3155.020 6        39.327    23530670.048 6  96354351.77406     -3154.899 6        39.847
G14        11.000    23924611.521 6 125724686.09206      -239.789 6        40.038                                    23924608.542 4  97967280.79504      -186.825 4        24.526    23924608.739 6  97967284.78706      -186.731 6        39.937
G32        12.000    21905194.586 8 115112603.22008      -234.251 8        48.400                                    21905192.206 8  89698133.25708      -182.533 8        48.797    21905192.510 7  89698106.26607      -182.537 7        45.451
G03        13.000    23274190.676 6 122306740.17206      3022.643 6        40.639                                    23274189.855 6  95303965.89906      2355.304 6        37.293    23274190.328 6  95303970.92006      2355.145 6        39.973
S36        14.000    38275644.116 7 201140380.67407      -341.187 7        43.795
C13        15.000                                                                                                                                    40314180.661 6 209926572.58706     -1222.914 6        37.622    40314182.325 6 162328576.10006      -945.755 6        39.198    40314180.223 6 170582558.53906      -994.014 6        38.183
G17        16.000    25553518.328 6 134284649.99806      3003.868 6        39.438                                    25553513.368 4 104637365.64804      2340.673 4        28.900    25553513.825 5 104637367.66305      2340.390 5        34.790
C16        17.000                                                                                                                                    40746925.889 6 212179943.13306      1437.407 6        37.198    40746926.021 6 164070995.21606      1111.357 6        39.171    40746924.042 5 172413575.28605      1168.086 5        35.319
E27        18.000    26936373.383 6 141551610.04206     -2865.248 6        41.232                                                                    26936373.700 7 105704126.73907     -2139.619 7        42.718    26936373.284 7 108461623.13907     -2195.455 7        44.131
E05        20.000    23907573.427 7 125635172.99307      -996.168 7        43.892                                                                    23907572.988 7  93818478.82307      -743.933 7        46.597    23907572.892 7  96265919.41107      -763.289 7        47.714
C41        21.000                                                                                                                                    25089176.985 7 130645943.59707      2921.638 7        43.228                                                                    25089181.881 7 106160558.41207      2373.961 7        44.731
I06        22.000    38473771.043 7 150979574.45607      -148.752 7        42.444
E03        23.000    24984385.931 7 131293850.16207      1736.489 7        45.541                                                                    24984385.778 7  98044137.41007      1296.728 7        47.955    24984385.535 8 100601807.20208      1330.594 8        48.685
R22        24.000    20784222.144 8 110947629.64008      2481.861 8        50.513                                                                    20784220.461 7  86292615.11907      1930.302 7        46.555
S23        25.000    38231933.594 7 200910136.27807      -339.259 7        44.451
S45        26.000    63480917.658 6 333595660.32006      -382.860 6        37.403
G02        27.000    21494779.394 8 112955878.95108      1261.128 8        48.170                                    21494773.095 6  88017558.34706       982.701 6        39.183
S27        28.000    39183217.813 6 205909283.49206      -312.611 6        36.068
C39        29.000                                                                                                                                    40200812.353 6 209336192.67506      1195.559 6        40.524                                                                    40200808.937 6 170102798.19506       971.325 6        41.449
E21        30.000    26839330.569 6 141041643.53706      -714.667 6        40.479                                                                    26839330.622 7 105323311.52007      -533.777 7        43.615    26839330.329 7 108070872.52907      -547.684 7        44.211
C43        31.000                                                                                                                                    23497899.572 7 122359830.97807     -2931.790 7        47.375                                                                    23497898.281 7  99427427.36707     -2382.393 7        46.542
C42        32.000                                                                                                                                    23409947.228 7 121901762.06307     -2444.440 7        47.249                                                                    23409954.557 8  99055209.48308     -1986.330 8        48.375
C28        33.000                                                                                                                                    21690580.656 8 112948556.30808       471.858 8        50.653                                                                    21690579.098 8  91779955.21508       383.339 8        48.908
R13        34.000    23386427.799 6 124882230.70906     -1264.598 6        40.970
E34        35.000    25253494.793 7 132708216.95107     -2194.918 7        44.767                                                                    25253494.948 7  99100402.28607     -1639.037 7        47.621    25253494.783 8 101685619.00808     -1681.798 8        48.508
C14        36.000                                                                                                                                    22123131.065 7 115200965.43807      -908.048 7        46.557    22123126.796 8  89080682.05508      -702.243 8        52.374    22123125.693 8  93610199.71708      -737.966 8        50.076
R21        37.000    19513409.882 8 104420257.83508     -1130.349 8        51.540                                                                    19513408.799 7  81215778.15207      -879.166 7        46.516
R06        38.000    19402232.439 6 103534058.80906       369.552 6        41.859
R05        39.000    22175247.946 7 118539434.72707     -4110.888 7        46.042                                                                    22175248.089 7  92197347.11107     -3197.346 7        43.045
C27        40.000                                                                                                                                    24334680.573 7 126717098.28507      2473.004 7        44.566                                                                    24334679.633 7 102968036.06107      2009.446 7        44.262
C36        41.000                                                                                                                                    27141094.900 6 141330801.64106      -483.868 6        36.068                                                                    27141099.468 6 114842874.42106      -393.149 6        39.210
S44        42.000    40571437.496 6 213204530.67606      -385.624 6        37.701
G08        43.000    21271192.405 8 111780965.24108     -2684.667 8        48.577                                    21271190.663 8  87102091.82508     -2091.949 8        48.282    21271191.424 7  87102089.82707     -2091.955 7        44.727
C05        44.000                                                                                                                                    39211204.123 6 204183073.39806      -304.780 6        37.603    39211199.747 7 157887329.30907      -235.657 7        42.963    39211201.697 6 165915576.47606      -247.649 6        40.002
C11        45.000                                                                                                                                    25260365.079 6 131537483.79606     -3363.228 6        38.766    25260362.407 7 101713185.04507     -2600.691 7        46.607    25260360.667 7 106885018.52007     -2732.979 7        43.426
E09        46.000    28987575.262 4 152330745.85204     -3010.550 4        28.408                                                                    28987575.235 5 113753488.11205     -2247.961 5        30.121    28987575.240 5 116720967.69705     -2306.512 5        30.709
C33        47.000                                                                                                                                    22184805.032 8 115522128.21408       835.183 8        51.037                                                                    22184816.182 8  93871249.90208       678.566 8        49.772
R07        49.000    21566632.300 8 115447921.18708      3595.872 8        49.102                                                                    21566631.283 7  89792825.23707      2796.754 7        44.597
S48        51.000    77261142.041 6 406010722.29506      -361.268 6        37.667
C08        52.000                                                                                                                                    41100009.294 5 214018635.28905     -1330.382 5        34.214    41100002.706 6 165492814.80306     -1028.901 6        38.105    41100001.775 5 173907690.64405     -1081.197 5        34.871
R14        53.000    24619444.387 4 131235492.08404      2020.631 4        29.175                                                                    24619446.487 5 102071985.78505      1571.680 5        32.120
C60        54.000                                                                                                                                    40571437.467 6 211266327.13506      -381.988 6        39.462                                                                    40571420.754 6 171671166.96906      -310.508 6        40.503
R12        55.000    23932733.575 7 127844346.21507     -3477.792 7        45.193                                                                    23932733.765 6  99434490.21106     -2704.878 6        38.102
I09        56.000    37373250.339 7 146660698.49807        10.170 7        42.923
C02        57.000                                                                                                                                    40590517.156 5 211365533.78605      -340.723 5        32.683    40590512.007 6 163441233.25806      -263.332 6        40.217    40590515.771 6 171751814.02506      -277.179 6        36.325
I03        58.000    77707689.015 6 229156424.44606      1091.124 6        41.204
R20        60.000    22832680.918 5 122096801.18205     -3769.804 5        34.290                                                                    22832682.066 6  94964245.99206     -2932.135 6        40.851
> 2025 01 02 22 45 15.0000000  0 53
E08         2.000    27897948.284 6 146604718.26006      2919.550 6        37.482                                                                    27897947.356 6 109477550.04006      2180.369 6        40.825    27897947.202 7 112333485.52707      2237.097 7        42.641
G21         4.000    20680600.682 7 108677354.42607      -141.558 7        44.653                                    20680594.881 6  84683659.00506      -110.306 6        37.093
S21         5.000    38507958.940 6 202360387.23406      -341.601 6        41.700
E13         6.000    26041973.229 7 136851532.20307      1854.099 7        43.073                                                                    26041974.097 7 102194350.95207      1384.624 7        45.013    26041973.600 7 104860285.92107      1420.647 7        45.648
G10         7.000    22852715.717 7 120091897.83207     -3103.246 7        45.077                                    22852713.565 7  93578118.45507     -2418.114 7        42.373    22852713.872 6  93578112.45306     -2418.097 6        41.559
E15         8.000    23431113.919 8 123131448.21708       -53.820 8        48.452                                                                    23431114.048 8  91948878.29008       -40.152 8        50.855    23431113.678 8  94347532.38008       -41.224 8        51.455
G27        10.000    23534524.727 7 123674907.87907     -4049.826 7        43.192                                    23534522.239 6  96370127.34606     -3155.711 6        39.607    23534523.626 6  96370129.35806     -3155.754 6        40.298
G14        11.000    23924841.318 6 125725892.94506      -242.914 6        40.784                                    23924838.039 4  97968221.20404      -189.293 4        24.602    23924838.731 6  97968225.20606      -189.392 6        39.997
G32        12.000    21905419.253 8 115113783.88908      -237.599 8        48.877                                    21905416.932 8  89699053.26108      -185.143 8        48.821    21905417.063 7  89699026.26607      -185.170 7        45.070
G03        13.000    23271316.144 6 122291630.46906      3021.548 6        40.982                                    23271314.593 6  95292192.11506      2354.455 6        37.335    23271314.495 6  95292197.12206      2354.347 6        39.703
S36        14.000    38275967.531 7 201142087.37607      -341.325 7        43.903
C13        15.000                                                                                                                                    40315355.020 6 209932687.82506     -1222.909 6        37.550    40315356.432 6 162333304.79006      -945.547 6        39.306    40315354.490 6 170587527.63306      -993.586 6        38.264
G17        16.000    25550660.322 6 134269633.25406      3003.353 6        40.160                                    25550655.648 4 104625664.30504      2340.274 4        28.701    25550656.416 5 104625666.30005      2340.296 5        34.614
C16        17.000                                                                                                                                    40745546.666 6 212172758.46406      1436.862 6        36.953    40745546.640 6 164065439.56606      1111.062 6        39.135    40745544.609 5 172407737.15805      1167.401 5        35.790
E27        18.000    26939100.300 6 141565939.70806     -2866.468 6        40.486                                                                    26939100.527 7 105714827.45607     -2140.467 7        42.808    26939100.253 7 108472603.00507     -2196.344 7        44.038
E05        20.000    23908522.420 7 125640160.88807      -998.645 7        43.738                                                                    23908522.117 7  93822203.55807      -745.749 7        46.539    23908522.070 7  96269741.31507      -765.184 7        47.664
C41        21.000                                                                                                                                    25086372.141 7 130631338.92307      2920.593 7        43.721                                                                    25086377.517 7 106148690.91407      2373.165 7        44.730
I06        22.000    38473960.617 7 150980318.70907      -148.718 7        42.279
E03        23.000    24982734.950 7 131285173.42907      1734.603 7        45.527                                                                    24982734.600 7  98037658.03507      1295.272 7        47.871    24982734.380 8 100595158.80908      1329.013 8        48.678
R22        24.000    20781898.078 8 110935225.11608      2480.266 8        49.920                                                                    20781896.804 7  86282967.17807      1929.092 7        46.715
S23        25.000    38232255.435 7 200911833.44807      -339.350 7        44.321
S45        26.000    63481232.411 6 333597575.53306      -383.081 6        37.565
G02        27.000    21493580.372 8 112949577.87208      1259.632 8        48.106                                    21493574.052 6  88012648.42006       981.530 6        39.216
S27        28.000    39183514.331 6 205910847.17506      -312.835 6        36.310
C39        29.000                                                                                                                                    40199665.175 6 209330218.05506      1194.643 6        40.296                                                                    40199661.550 6 170097943.31206       970.643 6        41.459
E21        30.000    26840011.653 6 141045224.28406      -717.239 6        40.522                                                                    26840012.044 7 105325985.45407      -535.646 7        43.412    26840011.776 7 108073616.22107      -549.632 7        44.167
C43        31.000                                                                                                                                    23500715.277 7 122374494.48507     -2933.314 7        46.917                                                                    23500714.178 7  99439342.64507     -2383.649 7        46.485
C42        32.000                                                                                                                                    23412295.355 7 121913989.76607     -2446.363 7        47.796                                                                    23412302.767 8  99065145.48408     -1987.852 8        48.378
C28        33.000                                                                                                                                    21690128.540 8 112946203.26608       469.727 8        50.558                                                                    21690127.236 8  91778043.15708       381.664 8        48.896
R13        34.000    23387615.304 6 124888565.65006     -1268.927 6        40.579
E34        35.000    25255583.741 7 132719194.79807     -2195.818 7        44.886                                                                    25255583.972 7  99108600.02307     -1639.774 7        47.555    25255583.783 8 101694030.60308     -1682.592 8        48.445
C14        36.000                                                                                                                                    22124004.024 7 115205513.60507      -910.836 7        46.610    22124000.029 8  89084198.99108      -704.329 8        52.348    22123999.169 8  93613895.45908      -740.156 8        50.007
R21        37.000    19514467.850 8 104425918.13208     -1133.489 8        51.463                                                                    19514466.414 7  81220180.61507      -881.632 7        46.534
R06        38.000    19401888.713 6 103532223.29706       365.049 6        41.933
R05        39.000    22179094.250 7 118559995.06207     -4112.929 7        45.779                                                                    22179094.329 7  92213338.46907     -3198.971 7        42.845
C27        40.000                                                                                                                                    24332306.430 7 126704736.74007      2471.998 7        44.507                                                                    24332305.631 7 102957991.27307      2008.703 7        44.260
C36        41.000                                                                                                                                    27141560.567 6 141333227.54206      -486.167 6        36.291                                                                    27141565.228 6 114844845.64906      -395.195 6        39.456
S44        42.000    40571799.979 6 213206459.01706      -385.517 6        37.898
G08        43.000    21273748.199 8 111794395.35408     -2687.125 8        48.213                                    21273746.348 8  87112556.84908     -2093.865 8        48.318    21273747.314 7  87112554.85207     -2093.839 7        44.321
C05        44.000                                                                                                                                    39211497.059 6 204184598.44506      -304.836 6        37.569    39211492.661 7 157888508.58407      -235.786 7        42.919    39211494.454 6 165916815.70606      -247.944 6        40.091
C11        45.000                                                                                                                                    25263594.782 6 131554303.36406     -3364.137 6        39.354    25263592.265 7 101726191.01707     -2601.462 7        46.533    25263590.740 7 106898685.79607     -2733.653 7        43.371
E09        46.000    28990440.813 4 152345801.04904     -3011.685 4        28.114                                                                    28990440.138 5 113764730.61605     -2248.580 5        30.385    28990440.199 5 116732503.51005     -2307.400 5        30.875
C33        47.000                                                                                                                                    22184004.483 8 115517959.84008       832.513 8        50.993                                                                    22184015.714 8  93867862.74208       676.450 8        49.596
R07        49.000    21563274.953 8 115429948.28308      3593.620 8        49.225                                                                    21563273.901 7  89778846.31607      2795.102 7        44.309
S48        51.000    77261468.063 6 406012529.64106      -361.414 6        37.660
C08        52.000                                                                                                                                    41101285.831 5 214025287.66005     -1330.163 5        34.238    41101280.062 6 165497958.80406     -1028.351 6        37.769    41101279.596 5 173913096.21505     -1080.898 5        34.586
R14        53.000    24617549.728 4 131225397.01204      2017.567 4        29.166                                                                    24617551.830 5 102064134.14305      1568.994 5        33.144
C60        54.000                                                                                                                                    40571804.189 6 211268237.95406      -382.069 6        39.697                                                                    40571787.852 6 171672719.66006      -310.516 6        40.517
R12        55.000    23935989.997 7 127861740.86807     -3479.867 7        43.464                                                                    23935989.751 6  99448019.39006     -2706.601 6        37.327
I09        56.000    37373237.913 7 146660649.02207         9.864 7        43.139
C02        57.000                                                                                                                                    40590844.622 5 211367238.13405      -340.719 5        32.599    40590839.455 6 163442551.18106      -263.564 6        40.081    40590842.942 6 171753198.92306      -277.110 6        36.333
I03        58.000    77706298.726 6 229150969.08206      1091.073 6        41.299
R20        60.000    22836207.324 5 122115654.84105     -3771.173 5        34.300                                                                    22836207.553 6  94978909.93806     -2933.189 6        41.271
> 2025 01 02 22 45 20.0000000  0 53
E08         2.000    27895170.486 6 146590120.35906      2919.375 6        37.482                                                                    27895169.526 6 109466649.02706      2180.185 6        40.989    27895169.201 7 112322300.13907      2237.012 7        42.768
G21         4.000    20680736.103 7 108678067.06507      -143.399 7        44.569                                    20680730.487 6  84684214.31306      -111.738 6        37.130
S21         5.000    38508280.597 6 202362095.33706      -341.671 6        41.428
E13         6.000    26040209.438 7 136842262.56607      1853.635 7        42.819                                                                    26040210.159 7 102187428.82307      1384.246 7        45.034    26040209.529 7 104853183.20807      1420.336 7        45.687
G10         7.000    22855669.009 7 120107416.89107     -3104.300 7        44.539                                    22855666.857 7  93590211.23107     -2418.934 7        42.457    22855666.842 6  93590205.23506     -2419.031 6        41.225
E15         8.000    23431165.868 8 123131720.25308       -54.995 8        48.626                                                                    23431165.835 8  91949081.43808       -41.112 8        51.002    23431165.439 8  94347740.82108       -42.131 8        51.584
G27        10.000    23538378.493 7 123695159.98607     -4050.969 7        42.102                                    23538376.169 6  96385908.20706     -3156.595 6        39.700    23538377.541 6  96385910.20006     -3156.576 6        40.465
G14        11.000    23925073.801 6 125727115.19706      -245.985 6        39.700                                    23925070.563 4  97969173.60604      -191.694 4        24.707    23925070.896 6  97969177.58306      -191.663 6        39.159
G32        12.000    21905646.965 8 115114980.43408      -240.992 8        48.539                                    21905644.667 8  89699985.63508      -187.785 8        48.885    21905644.882 7  89699958.64407      -187.832 7        45.148
G03        13.000    23268441.770 6 122276526.18806      3020.261 6        41.044                                    23268440.337 6  95280422.55506      2353.452 6        37.388    23268441.046 6  95280427.55906      2353.379 6        39.315
S36        14.000    38276291.178 7 201143794.13407      -341.280 7        43.907
C13        15.000                                                                                                                                    40316528.569 6 209938801.87306     -1222.838 6        37.928    40316530.275 6 162338032.55206      -945.563 6        39.240    40316528.828 6 170592495.82706      -993.937 6        37.928
G17        16.000    25547803.093 6 134254618.58206      3002.492 6        39.553                                    25547798.393 4 104613964.56804      2339.606 4        28.474    25547799.164 5 104613966.55805      2339.571 5        34.343
C16        17.000                                                                                                                                    40744167.247 6 212165576.30406      1436.143 6        37.406    40744167.794 6 164059885.88806      1110.430 6        39.480    40744165.460 5 172401901.10605      1166.691 5        35.524
E27        18.000    26941827.978 6 141580274.64506     -2867.510 6        40.572                                                                    26941828.442 7 105725532.12007     -2141.457 7        42.798    26941828.123 7 108483586.91407     -2197.241 7        44.110
E05        20.000    23909473.953 7 125645160.63607     -1001.201 7        43.797                                                                    23909473.505 7  93825937.13207      -747.716 7        46.576    23909473.470 7  96273572.28407      -767.163 7        47.737
C41        21.000                                                                                                                                    25083567.466 7 130616738.89207      2919.420 7        43.484                                                                    25083573.732 7 106136827.20107      2372.199 7        44.691
I06        22.000    38474149.968 7 150981062.87407      -148.906 7        42.163
E03        23.000    24981085.758 7 131276505.69507      1732.596 7        46.087                                                                    24981085.236 7  98031185.37107      1293.787 7        47.999    24981084.986 8 100588517.29108      1327.539 8        48.767
R22        24.000    20779575.594 8 110922827.94808      2478.616 8        50.071                                                                    20779574.103 7  86273324.93107      1927.785 7        46.411
S23        25.000    38232579.466 7 200913530.54507      -339.469 7        44.375
S45        26.000    63481553.755 6 333597890.65416      -383.082 6        37.456
G02        27.000    21492382.525 8 112943283.35808      1258.144 8        48.206                                    21492376.220 6  88007743.60906       980.371 6        39.258
S27        28.000    39183811.524 6 205912410.59006      -312.747 6        36.110
