     3.04           OBSERVATION DATA    M                   RINEX VERSION / TYPE
ssrcrin-15.6.1x                         20250102 120000 UTC PGM / RUN BY / DATE 
(00000000023479385599111004) Septentrio proprietary         COMMENT             
rref                                                        MARKER NAME         
01                                                          MARKER NUMBER       
geodetic                                                    MARKER TYPE         
NFB                 CLIMERS@TUW                             OBSERVER / AGENCY   
3297213             SEPT ASTERX SB3 PROB4.14.4              REC # / TYPE / VERS 
Unknown             Unknown                                 ANT # / TYPE        
  4127831.4471  1207192.7063  4695248.5425                  APPROX POSITION XYZ 
        0.0000        0.0000        0.0000                  ANTENNA: DELTA H/E/N
G   23 X1  C1C L1C D1C S1C C1W S1W C2W L2W D2W S2W C2L L2L  SYS / # / OBS TYPES 
       D2L S2L C5Q L5Q D5Q S5Q C1L L1L D1L S1L              SYS / # / OBS TYPES 
E   21 X1  C1C L1C D1C S1C C6C L6C D6C S6C C5Q L5Q D5Q S5Q  SYS / # / OBS TYPES 
       C7Q L7Q D7Q S7Q C8Q L8Q D8Q S8Q                      SYS / # / OBS TYPES 
S    9 X1  C1C L1C D1C S1C C5I L5I D5I S5I                  SYS / # / OBS TYPES 
R   17 X1  C1C L1C D1C S1C C2P L2P D2P S2P C2C L2C D2C S2C  SYS / # / OBS TYPES 
       C3Q L3Q D3Q S3Q                                      SYS / # / OBS TYPES 
C   25 X1  C1P L1P D1P S1P C5P L5P D5P S5P C2I L2I D2I S2I  SYS / # / OBS TYPES 
       C7I L7I D7I S7I C6I L6I D6I S6I C7D L7D D7D S7D      SYS / # / OBS TYPES 
J   17 X1  C1C L1C D1C S1C C2L L2L D2L S2L C5Q L5Q D5Q S5Q  SYS / # / OBS TYPES 
       C1L L1L D1L S1L                                      SYS / # / OBS TYPES 
I    5 X1  C5A L5A D5A S5A                                  SYS / # / OBS TYPES 
SEPTENTRIO RECEIVERS OUTPUT ALIGNED CARRIER PHASES.         COMMENT             
NO FURTHER PHASE SHIFT APPLIED IN THE RINEX ENCODER.        COMMENT             
G L1C                                                       SYS / PHASE SHIFT   
G L2W                                                       SYS / PHASE SHIFT   
G L2L  0.00000                                              SYS / PHASE SHIFT   
G L5Q  0.00000                                              SYS / PHASE SHIFT   
G L1L  0.00000                                              SYS / PHASE SHIFT   
E L1C  0.00000                                              SYS / PHASE SHIFT   
E L6C  0.00000                                              SYS / PHASE SHIFT   
E L5Q  0.00000                                              SYS / PHASE SHIFT   
E L7Q  0.00000                                              SYS / PHASE SHIFT   
E L8Q  0.00000                                              SYS / PHASE SHIFT   
S L1C                                                       SYS / PHASE SHIFT   
S L5I                                                       SYS / PHASE SHIFT   
R L1C                                                       SYS / PHASE SHIFT   
R L2P  0.00000                                              SYS / PHASE SHIFT   
R L2C                                                       SYS / PHASE SHIFT   
R L3Q  0.00000                                              SYS / PHASE SHIFT   
C L1P  0.00000                                              SYS / PHASE SHIFT   
C L5P  0.00000                                              SYS / PHASE SHIFT   
C L2I                                                       SYS / PHASE SHIFT   
C L7I                                                       SYS / PHASE SHIFT   
C L6I                                                       SYS / PHASE SHIFT   
C L7D                                                       SYS / PHASE SHIFT   
J L1C                                                       SYS / PHASE SHIFT   
J L2L  0.00000                                              SYS / PHASE SHIFT   
J L5Q  0.00000                                              SYS / PHASE SHIFT   
J L1L  0.00000                                              SYS / PHASE SHIFT   
I L5A                                                       SYS / PHASE SHIFT   
  2025     1     2    12     0    0.0000000     GPS         TIME OF FIRST OBS   
 C1C    0.000 C2C    0.000 C2P    0.000                     GLONASS COD/PHS/BIS 
DBHZ                                                        SIGNAL STRENGTH UNIT
    18                                                      LEAP SECONDS        
 24 R01  1 R02 -4 R03  5 R04  6 R05  1 R06 -4 R07  5 R08  6 GLONASS SLOT / FRQ #
    R09 -2 R10 -7 R11  0 R12 -1 R13 -2 R14 -7 R15  0 R16 -1 GLONASS SLOT / FRQ #
    R17  4 R18 -3 R19  3 R20  2 R21  4 R22 -3 R23  3 R24  2 GLONASS SLOT / FRQ #
                                                            END OF HEADER       
> 2025 01 02 12 00  0.0000000  0 54
E24         1.000    23526123.486 8 123630738.80508      -771.531 8        48.432                                                                    23526125.863 8  92321725.75708      -576.198 8        50.933    23526124.931 8  94730107.25308      -591.219 8        51.458
G15         2.000    23817726.946 7 125162826.56507     -4365.694 7        42.330                                    23817733.170 6  97529419.75006     -3401.829 6        36.053    23817733.408 6  97529414.73806     -3401.868 6        38.456
E03         3.000    25188211.093 7 132364950.91907       802.805 7        44.147                                                                    25188217.171 7  98843970.67607       599.499 7        47.246    25188216.259 8 101422509.82608       615.138 8        48.137
G19         4.000    21355202.414 7 112222508.45307     -1655.003 7        46.449                                    21355200.936 6  87446142.92106     -1289.613 6        36.741
S21         5.000    38396489.144 7 201774481.54107      -511.029 7        43.505
E05         6.000    22688913.037 7 119230989.57207     -2045.057 7        47.439                                                                    22688917.830 8  89036098.77008     -1527.183 8        49.786    22688916.955 8  91358779.59508     -1567.035 8        50.479
G25         7.000    23006989.394 6 120902634.25106      2746.497 6        40.665                                    23006995.116 6  94209908.38506      2140.121 6        36.541    23006995.609 6  94209909.39006      2140.195 6        38.793
C29         8.000                                                                                                                                    23031066.038 8 119928831.35508       381.113 8        48.489                                                                    23031067.874 7  97452016.31407       309.692 7        47.267
R05         9.000    21104772.218 8 112817169.53808       500.064 8        50.060                                                                    21104776.271 7  87746742.31107       388.821 7        45.169
G24        10.000    20097636.065 8 105613796.72308     -1290.186 8        50.551                                    20097637.471 8  82296480.92608     -1005.341 8        53.150    20097637.871 7  82296485.92407     -1005.307 7        46.756
C14        11.000                                                                                                                                    24750811.806 7 128883993.41707      -490.987 7        42.777    24750813.902 7  99661309.68607      -379.781 7        47.187    24750811.386 7 104728816.13507      -399.005 7        44.670
S27        12.000    39164893.481 6 205812756.75706      -536.750 6        37.040
S36        14.000    38167272.377 7 200570792.16007      -511.525 7        44.977
G06        15.000    24101352.120 6 126653497.12006      2022.425 6        38.991                                    24101361.941 5  98691089.34805      1575.902 5        35.062    24101361.964 6  98691091.37606      1575.955 6        39.381
E09        16.000    27224814.712 6 143067208.79406     -3727.573 6        39.147                                                                    27224827.473 7 106835848.39607     -2783.477 7        42.959    27224825.733 7 109622872.98807     -2856.056 7        44.277
G12        17.000    20612153.661 8 108317772.23208      1038.255 8        50.007                                    20612152.484 8  84403541.06208       809.030 8        50.012    20612152.961 7  84403538.06507       808.999 7        45.398
G32        18.000    24271149.656 7 127545761.20207      2305.810 7        42.212                                    24271155.839 6  99386350.15206      1796.732 6        36.601    24271156.807 6  99386354.15406      1796.799 6        39.387
R22        19.000    23356155.928 7 124676763.91907     -3446.103 7        43.274                                                                    23356165.055 6  96970798.27106     -2680.299 6        40.074
R03        21.000    23650666.133 7 126603637.59307     -5068.236 7        44.104                                                                    23650678.239 6  98469437.82906     -3942.018 6        39.649
I06        22.000    38339311.113 6 150451777.86106      -492.815 6        41.607
S28        23.000    40860274.649 5 214721970.43905      -520.980 5        35.690
S23        25.000    38104121.641 7 200238352.92407      -515.490 7        45.613
S45        26.000    63356041.329 6 332939491.39106      -571.692 6        36.866
C07        27.000                                                                                                                                    39696895.587 6 206712056.60606     -1386.511 6        38.883    39696897.906 6 159842844.31706     -1072.164 6        41.754    39696894.884 6 167970441.82806     -1126.718 6        39.640
R04        28.000    20882432.420 8 111824436.97908     -3330.697 8        50.410                                                                    20882434.154 7  86974533.55707     -2590.530 7        45.633
C40        29.000                                                                                                                                    40089046.341 6 208754081.03906     -1670.319 6        40.636                                                                    40089052.333 6 169629773.27106     -1357.199 6        39.417
G17        30.000    23745130.427 7 124781572.66907     -3464.284 7        42.413                                    23745134.558 6  97232440.18006     -2699.439 6        36.250    23745134.239 6  97232437.16906     -2699.437 6        38.931
E12        31.000    28293819.348 5 148685017.39805      2335.664 5        33.036                                                                    28293831.150 6 111031075.42106      1743.799 6        38.144    28293829.149 6 113927527.78606      1789.346 6        37.539
I02        33.000    36870137.263 7 144686320.54707      -452.328 7        42.614
R15        34.000    22063366.612 7 117900012.42307      2429.694 7        47.233                                                                    22063372.259 7  91700061.45007      1889.748 7        42.580
R13        35.000    21606754.117 7 115378831.83507     -3333.991 7        42.500
C42        37.000                                                                                                                                    24358526.064 7 126841210.47907     -1921.100 7        45.153                                                                    24358538.629 7 103068913.13407     -1560.978 7        45.887
C10        38.000                                                                                                                                    38855404.193 6 202330245.09306     -1095.466 6        41.080    38855407.314 7 156454570.78007      -847.200 7        43.742    38855404.056 6 164409878.52106      -890.086 6        40.858
E25        39.000    25108285.133 7 131945074.85807      1478.573 7        44.670                                                                    25108290.894 7  98530523.39007      1104.089 7        47.364    25108289.912 8 101100871.41808      1132.891 8        48.256
C30        40.000                                                                                                                                    25290511.755 7 131694334.93507     -2572.953 7        42.324                                                                    25290519.265 6 107012468.50506     -2090.593 6        41.528
R23        41.000    21159508.161 7 113189190.02607      -389.124 7        46.465
S44        42.000    40771354.064 6 214254918.81206      -449.140 6        38.501
C36        43.000                                                                                                                                    25754138.385 6 134108388.57106     -3269.720 6        40.424                                                                    25754152.861 7 108974034.83007     -2656.844 7        42.627
C05        44.000                                                                                                                                    39414639.126 6 205242258.85406      -524.889 6        38.441    39414643.599 7 158706320.14407      -405.968 7        43.270    39414643.045 6 166776220.47806      -426.644 6        39.742
R14        45.000    19449088.546 8 103674696.37808       -89.245 8        52.543                                                                    19449092.254 8  80635957.10308       -69.426 8        48.162
E26        46.000    28259059.351 5 148502386.04405     -1550.487 5        35.219                                                                    28259072.077 6 110894701.91106     -1157.964 6        40.341    28259070.141 6 113787596.93706     -1188.254 6        41.089
G10        47.000    24883482.950 6 130763480.12706     -2299.383 6        39.733                                    24883491.462 5 101893604.16605     -1791.719 5        30.309    24883491.665 5 101893605.15005     -1791.566 5        35.195
C35        48.000                                                                                                                                    24871898.681 7 129514544.13807      2800.333 7        43.500                                                                    24871904.798 7 105241214.69007      2275.458 7        44.029
C45        50.000                                                                                                                                    22183286.400 8 115514203.27408     -1857.770 8        50.310                                                                    22183281.592 8  93864737.29708     -1509.557 8        50.076
S48        51.000    77103678.812 6 405182695.51306      -515.238 6        38.631
C33        52.000                                                                                                                                    25881840.810 7 134773538.49507       855.532 7        42.275                                                                    25881859.919 7 109514622.57207       695.144 7        42.493
E33        53.000    27076426.632 6 142287678.48606       691.410 6        38.799                                                                    27076436.452 7 106253857.68007       516.310 7        42.112    27076435.460 7 109025686.37907       529.608 7        43.416
C60        54.000                                                                                                                                    40771357.903 6 212307164.47206      -444.980 6        40.894                                                                    40771351.667 6 172516890.17506      -361.458 6        38.673
E31        55.000    25750146.324 7 135317872.63207     -2785.750 7        43.048                                                                    25750153.837 7 101049074.47807     -2080.228 7        45.401    25750152.762 7 103685135.54207     -2134.529 7        46.460
C26        56.000                                                                                                                                    22376612.717 8 116520977.48108      1031.878 8        49.534                                                                    22376614.885 8  94682880.12808       838.512 8        49.194
C02        57.000                                                                                                                                    40928564.131 5                      -482.797 5        31.441    40928571.641 6 164802184.84306      -373.944 6        37.267    40928570.840 5 173181980.07005      -392.733 5        31.034
I03        58.000    91517606.529 5 283349235.29005       945.470 5        32.946
C21        59.000                                                                                                                                    25691526.517 7 133782338.96107     -3692.998 7        43.016                                                                    25691529.767 7 108709047.35707     -3000.779 7        42.952
R24        60.000    22069468.326 7 118015437.79607      3279.767 7        46.715                                                                    22069475.140 7  91789836.16407      2550.925 7        44.146
> 2025 01 02 12 00  5.0000000  0 54
E24         1.000    23526858.403 8 123634599.92208      -773.034 8        48.337                                                                    23526860.627 8  92324609.04808      -577.215 8        50.926    23526859.652 8  94733065.76308      -592.282 8        51.417
G15         2.000    23821880.966 7 125184655.73907     -4366.079 7        42.404                                    23821887.133 6  97546429.44006     -3402.128 6        36.019    23821887.541 6  97546424.43206     -3402.205 6        37.928
E03         3.000    25187448.321 7 132360941.82507       800.689 7        44.220                                                                    25187454.287 7  98840976.88407       597.843 7        47.216    25187453.316 8 101419437.93008       613.497 8        48.079
G19         4.000    21356778.713 7 112230791.01507     -1658.175 7        46.411                                    21356777.031 6  87452596.85706     -1292.083 6        36.783
S21         5.000    38396975.330 7 201777036.96207      -511.219 7        43.412
E05         6.000    22690859.827 7 119241220.13207     -2047.263 7        47.470                                                                    22690864.679 8  89043738.46308     -1528.789 8        49.786    22690863.742 8  91366618.59008     -1568.727 8        50.429
G25         7.000    23004376.791 6 120888903.68206      2745.481 6        41.535                                    23004382.347 6  94199209.23606      2139.336 6        36.548    23004382.559 6  94199210.24906      2139.300 6        38.333
C29         8.000                                                                                                                                    23030701.386 8 119926932.61108       378.318 8        48.414                                                                    23030703.286 7  97450473.44107       307.303 7        47.014
R05         9.000    21104306.781 8 112814680.21508       495.527 8        50.126                                                                    21104310.749 7  87744806.14907       385.455 7        45.120
G24        10.000    20098864.964 8 105620254.62408     -1293.100 8        50.425                                    20098866.358 8  82301513.05108     -1007.609 8        53.190    20098866.725 7  82301518.05707     -1007.662 7        46.601
C14        11.000                                                                                                                                    24751284.228 7 128886455.79107      -494.076 7        42.845    24751286.984 7  99663213.74207      -381.939 7        47.320    24751284.269 7 104730817.01007      -401.407 7        44.473
S27        12.000    39165405.866 6 205815439.85906      -536.756 6        36.915
S36        14.000    38167756.314 7 200573350.11607      -511.713 7        44.864
G06        15.000    24099428.731 6 126643388.54306      2020.650 6        39.841                                    24099438.120 5  98683212.58605      1574.526 5        35.038    24099438.491 6  98683214.59506      1574.700 6        39.342
E09        16.000    27228361.422 6 143085846.47906     -3727.822 6        39.288                                                                    27228374.106 7 106849766.08707     -2783.765 7        42.923    27228372.629 7 109637153.74607     -2856.259 7        44.299
G12        17.000    20611166.810 8 108312586.47308      1035.949 8        49.750                                    20611165.668 8  84399500.21208       807.232 8        50.051    20611165.986 7  84399497.21307       807.226 7        45.263
G32        18.000    24268956.273 7 127534236.99907      2303.902 7        42.256                                    24268962.892 6  99377370.27306      1795.243 6        36.609    24268963.576 6  99377374.28206      1795.162 6        38.856
R22        19.000    23359384.287 7 124694001.76307     -3449.161 7        43.365                                                                    23359393.606 6  96984205.48806     -2682.815 6        39.012
R03        21.000    23655400.528 7 126628978.64307     -5068.322 7        44.181                                                                    23655412.237 6  98489147.43606     -3942.146 6        39.378
I06        22.000    38339938.750 6 150454241.43606      -492.677 6        41.597
S28        23.000    40860764.457 5 214724574.98605      -520.977 5        35.414
S23        25.000    38104611.677 7 200240930.51107      -515.663 7        45.691
S45        26.000    63356531.070 6 332942349.34306      -571.853 6        36.919
C07        27.000                                                                                                                                    39698227.809 6 206718989.39806     -1386.626 6        38.742    39698229.306 6 159848205.19406     -1072.441 6        41.850    39698226.222 6 167976075.27106     -1126.839 6        39.306
R04        28.000    20885542.878 8 111841099.16308     -3334.292 8        50.096                                                                    20885546.059 7  86987493.02107     -2593.333 7        45.303
C40        29.000                                                                                                                                    40090650.388 6 208762432.88306     -1670.524 6        40.496                                                                    40090656.190 6 169636559.82006     -1357.293 6        39.111
G17        30.000    23748427.380 7 124798897.94707     -3465.949 7        42.296                                    23748431.396 6  97245940.37406     -2700.734 6        36.246    23748431.124 6  97245937.35706     -2700.575 6        38.369
E12        31.000    28291597.312 5 148673341.91805      2335.023 5        33.317                                                                    28291609.405 6 111022356.72106      1743.617 6        38.039    28291607.384 6 113918581.62506      1789.138 6        37.543
I02        33.000    36870713.631 7 144688582.60207      -452.622 7        42.464
R15        34.000    22061093.638 8 117887865.82508      2428.794 8        48.032                                                                    22061099.418 7  91690614.12207      1889.050 7        43.115
R13        35.000    21609875.278 7 115395504.08807     -3335.122 7        42.372
C42        37.000                                                                                                                                    24360371.908 7 126850822.16307     -1923.640 7        45.515                                                                    24360384.457 7 103076723.42107     -1563.193 7        45.687
C10        38.000                                                                                                                                    38856456.185 6 202335723.19106     -1095.913 6        41.020    38856459.391 7 156458806.77807      -847.343 7        43.841    38856456.071 6 164414329.92006      -890.439 6        40.598
E25        39.000    25106878.661 7 131937684.31207      1477.588 7        44.858                                                                    25106884.562 7  98525004.47007      1103.400 7        47.381    25106883.548 8 101095208.53408      1132.137 8        48.204
C30        40.000                                                                                                                                    25292983.164 7 131707204.75107     -2575.156 7        42.411                                                                    25292990.687 6 107022926.28406     -2092.427 6        40.958
R23        41.000    21159873.249 7 113191147.18307      -393.866 7        46.004
S44        42.000    40771783.362 6 214257164.06506      -449.253 6        38.489
C36        43.000                                                                                                                                    25757279.103 6 134124737.82606     -3270.101 6        40.656                                                                    25757292.661 7 108987319.91307     -2657.145 7        42.356
C05        44.000                                                                                                                                    39415142.939 6 205244883.72706      -525.241 6        38.513    39415147.368 7 158708349.85307      -405.994 7        43.247    39415147.122 6 166778353.39106      -426.593 6        39.486
R14        45.000    19449173.490 8 103675147.33308       -91.346 8        52.545                                                                    19449177.221 8  80636307.85008       -71.060 8        48.179
E26        46.000    28260535.750 5 148510145.20005     -1553.044 5        35.252                                                                    28260548.724 6 110900496.11906     -1159.784 6        40.460    28260546.679 6 113793542.29806     -1190.089 6        40.791
G10        47.000    24885671.364 6 130774982.76906     -2301.655 6        39.081                                    24885680.384 5 101902567.23405     -1793.492 5        30.408    24885680.864 5 101902568.22505     -1793.375 5        34.881
C35        48.000                                                                                                                                    24869210.644 7 129500544.28307      2799.462 7        44.143                                                                    24869216.055 7 105229838.69707      2274.832 7        43.676
C45        50.000                                                                                                                                    22185071.088 8 115523495.54408     -1859.202 8        50.332                                                                    22185066.115 8  93872288.03008     -1510.729 8        49.864
S48        51.000    77104167.547 6 405185271.49806      -515.127 6        38.649
C33        52.000                                                                                                                                    25881020.152 7 134769267.30907       852.864 7        42.320                                                                    25881039.848 7 109511151.90307       692.915 7        42.360
E33        53.000    27075770.396 6 142284227.31106       689.062 6        39.030                                                                    27075779.691 7 106251280.52207       514.454 7        42.136    27075778.692 7 109023041.98207       527.950 7        43.498
C60        54.000                                                                                                                                    40771785.328 6 212309389.30806      -445.035 6        40.834                                                                    40771778.797 6 172518698.05306      -361.618 6        38.568
E31        55.000    25752796.835 7 135331801.61107     -2786.021 7        43.058                                                                    25752804.452 7 101059475.98507     -2080.526 7        45.245    25752803.385 7 103695808.38507     -2134.777 7        46.289
C26        56.000                                                                                                                                    22375622.539 8 116515821.17108      1030.600 8        49.392                                                                    22375624.629 8  94678690.21908       837.445 8        48.919
C02        57.000                                                                                                                                    40929026.626 5                      -483.419 5        31.117    40929035.393 6 164804052.68206      -373.820 6        37.380    40929035.003 5 173183942.87405      -392.402 5        30.981
I03        58.000    91516401.304 5 283344508.26405       945.594 5        33.132
C21        59.000                                                                                                                                    25695073.075 7 133800805.12007     -3693.580 7        42.929                                                                    25695076.207 7 108724052.57207     -3001.253 7        42.766
R24        60.000    22066402.815 7 117999043.67007      3277.697 7        47.107                                                                    22066409.030 7  91777085.19307      2549.292 7        43.501
> 2025 01 02 12 00 10.0000000  0 54
E24         1.000    23527594.513 8 123638468.04008      -774.078 8        48.365                                                                    23527596.719 8  92327497.56508      -578.005 8        50.985    23527595.756 8  94736029.63808      -593.088 8        51.262
G15         2.000    23826035.551 7 125206487.23607     -4366.180 7        42.595                                    23826041.477 5  97563440.93805     -3402.209 5        35.881    23826042.407 6  97563435.91806     -3402.305 6        37.985
E03         3.000    25186687.568 7 132356943.57307       798.800 7        44.086                                                                    25186693.440 7  98837991.17007       596.537 7        47.286    25186692.508 8 101416374.33508       612.078 8        48.010
G19         4.000    21358358.005 7 112239089.67207     -1661.052 7        46.516                                    21358356.234 6  87459063.33806     -1294.324 6        36.760
S21         5.000    38397461.888 7 201779592.48607      -510.819 7        43.613
E05         6.000    22692808.688 7 119251461.58407     -2049.086 7        47.462                                                                    22692813.497 8  89051386.28708     -1530.185 8        49.791    22692812.602 8  91374465.91808     -1570.136 8        50.294
G25         7.000    23001765.640 6 120875178.30706      2744.797 6        41.542                                    23001770.499 6  94188514.14006      2138.805 6        36.533    23001770.622 6  94188515.13406      2138.795 6        38.357
C29         8.000                                                                                                                                    23030339.444 8 119925047.96408       375.731 8        48.294                                                                    23030341.306 7  97448941.98407       305.406 7        47.182
R05         9.000    21103845.359 8 112812213.91808       491.213 8        50.195                                                                    21103849.892 7  87742887.92007       382.089 7        45.898
G24        10.000    20100096.492 8 105626726.79408     -1295.581 8        50.373                                    20100097.968 8  82306556.30108     -1009.543 8        53.175    20100098.407 7  82306561.30307     -1009.564 7        46.503
C14        11.000                                                                                                                                    24751759.895 7 128888932.88907      -496.600 7        43.100    24751763.027 7  99665129.18707      -384.043 7        47.496    24751759.927 7 104732829.84207      -403.572 7        44.623
S27        12.000    39165913.252 6 205818123.12606      -536.419 6        36.858
S36        14.000    38168244.843 7 200575908.27707      -511.528 7        44.980
G06        15.000    24097507.342 6 126633288.75406      2019.353 6        40.005                                    24097516.033 5  98675342.67005      1573.508 5        35.133    24097516.898 6  98675344.70706      1573.383 6        39.589
E09        16.000    27231909.167 6 143104486.43106     -3727.844 6        39.844                                                                    27231921.182 7 106863685.46507     -2783.774 7        42.986    27231919.911 7 109651436.25507     -2856.398 7        44.230
G12        17.000    20610182.106 8 108307412.13808      1033.976 8        49.772                                    20610181.017 8  84395468.26608       805.695 8        50.050    20610181.423 7  84395465.26607       805.696 7        45.553
G32        18.000    24266765.206 6 127522722.47506      2302.175 6        41.518                                    24266771.717 6  99368397.93706      1793.898 6        36.491    24266772.270 6  99368401.94106      1793.800 6        38.928
R22        19.000    23362616.137 7 124711255.31707     -3452.018 7        43.591                                                                    23362625.878 6  96997624.88206     -2684.925 6        39.456
R03        21.000    23660134.969 7 126654320.45607     -5068.144 7        44.253                                                                    23660145.696 6  98508857.63506     -3941.832 6        39.234
I06        22.000    38340566.675 6 150456705.21106      -492.482 6        41.719
S28        23.000    40861262.086 5 214727179.89105      -520.858 5        35.609
S23        25.000    38105102.192 7 200243508.50507      -515.266 7        45.744
S45        26.000    63357026.656 6 332943607.64416      -571.522 6        36.907
C07        27.000                                                                                                                                    39699559.174 6 206725923.41706     -1386.880 6        38.775    39699560.976 6 159853566.99806     -1072.386 6        41.805    39699557.873 6 167981709.70006     -1126.791 6        39.462
R04        28.000    20888657.761 8 111857779.06408     -3337.499 8        50.499                                                                    20888660.551 7  87000466.27007     -2595.841 7        45.136
C40        29.000                                                                                                                                    40092254.591 6 208770785.97506     -1670.349 6        40.472                                                                    40092260.458 6 169643347.37406     -1357.460 6        39.273
G17        30.000    23751725.451 6 124816231.03706     -3467.217 6        41.886                                    23751729.665 6  97259446.65706     -2701.722 6        36.083    23751729.383 6  97259443.64106     -2701.725 6        38.375
E12        31.000    28289375.884 5 148661668.60905      2334.732 5        33.293                                                                    28289388.104 6 111013639.66306      1743.442 6        38.108    28289385.907 6 113909637.17806      1788.956 6        37.391
I02        33.000    36871290.683 7 144690845.75007      -452.408 7        42.603
R15        34.000    22058821.763 8 117875723.54108      2428.260 8        48.262                                                                    22058827.094 7  91681170.15807      1888.603 7        43.640
R13        35.000    21612998.860 7 115412181.62107     -3335.873 7        42.296
C42        37.000                                                                                                                                    24362220.179 7 126860446.57507     -1925.859 7        45.512                                                                    24362232.655 7 103084544.00607     -1564.909 7        45.875
C10        38.000                                                                                                                                    38857508.648 6 202341202.96506     -1095.866 6        41.271    38857511.836 7 156463044.08107      -847.423 7        43.725    38857508.427 6 164418782.66606      -890.389 6        40.636
E25        39.000    25105472.955 7 131930298.85507      1476.836 7        44.635                                                                    25105479.192 7  98519489.35207      1102.806 7        47.413    25105478.152 8 101089549.53608      1131.640 8        48.165
C30        40.000                                                                                                                                    25295456.579 7 131720085.65807     -2577.048 7        42.182                                                                    25295464.154 6 107033393.04406     -2094.079 6        40.977
R23        41.000    21160244.056 7 113193128.20007      -398.295 7        46.301
S44        42.000    40772210.948 6 214259409.51406      -448.916 6        38.378
C36        43.000                                                                                                                                    25760419.169 6 134141089.01206     -3270.225 6        40.574                                                                    25760432.725 7 109000606.55307     -2657.241 7        42.313
C05        44.000                                                                                                                                    39415646.985 6 205247508.76206      -524.734 6        38.489    39415651.575 7 158710379.70507      -405.827 7        43.130    39415651.109 6 166780486.44906      -426.480 6        39.646
R14        45.000    19449259.786 8 103675608.92608       -93.083 8        52.463                                                                    19449263.874 8  80636666.85808       -72.417 8        48.195
E26        46.000    28262015.096 5 148517916.18305     -1555.249 5        35.795                                                                    28262027.502 6 110906299.14906     -1161.409 6        40.772    28262025.434 6 113799496.70806     -1191.630 6        40.627
G10        47.000    24887862.277 6 130786496.61806     -2303.733 6        38.390                                    24887871.537 5 101911539.03705     -1795.109 5        30.325    24887871.565 5 101911540.02005     -1794.958 5        35.695
C35        48.000                                                                                                                                    24866522.893 7 129486547.77307      2799.183 7        44.533                                                                    24866528.148 7 105218465.40307      2274.613 7        43.712
C45        50.000                                                                                                                                    22186857.164 8 115532794.74308     -1860.296 8        50.333                                                                    22186851.934 8  93879844.37008     -1511.629 8        50.037
S48        51.000    77104653.125 6 405187847.71106      -515.164 6        38.802
C33        52.000                                                                                                                                    25880201.795 7 134765009.41907       850.438 7        42.518                                                                    25880222.298 7 109507691.99707       691.178 7        42.525
E33        53.000    27075116.430 6 142280787.53406       686.993 6        39.598                                                                    27075125.206 7 106248711.87207       513.044 7        42.118    27075124.062 7 109020406.32207       526.450 7        43.257
C60        54.000                                                                                                                                    40772212.457 6 212311614.35106      -444.787 6        40.749                                                                    40772206.239 6 172520506.05406      -361.270 6        38.835
E31        55.000    25755447.637 7 135345733.01307     -2786.240 7        43.029                                                                    25755455.595 7 101069879.27807     -2080.627 7        45.437    25755454.602 7 103706483.08007     -2134.987 7        46.332
C26        56.000                                                                                                                                    22374633.598 8 116510671.19308      1029.654 8        49.548                                                                    22374635.609 8  94674505.42908       836.664 8        49.099
C02        57.000                                                                                                                                    40929491.067 5                      -482.602 5        31.849    40929499.511 6 164805920.64206      -373.355 6        37.059    40929498.738 5 173185905.80805      -391.936 5        31.087
I03        58.000    91515197.281 5 283339781.23905       945.540 5        33.359
C21        59.000                                                                                                                                    25698620.065 7 133819274.00807     -3693.790 7        42.595                                                                    25698623.078 7 108739059.99507     -3001.417 7        42.878
R24        60.000    22063339.482 7 117982659.80007      3275.989 7        46.268                                                                    22063345.131 7  91764342.19207      2548.014 7        43.693
> 2025 01 02 12 00 15.0000000  0 54
E24         1.000    23528331.887 8 123642342.93108      -775.750 8        48.098                                                                    23528334.080 8  92330391.14808      -579.285 8        50.935    23528333.139 8  94738998.70308      -594.400 8        51.381
G15         2.000    23830190.213 7 125228320.85407     -4367.030 7        42.957                                    23830196.325 5  97580454.09305     -3402.874 5        35.900    23830197.278 6  97580449.08806     -3403.012 6        38.315
E03         3.000    25185928.864 7 132352955.97107       796.292 7        44.050                                                                    25185934.586 7  98835013.41807       594.709 7        47.234    25185933.726 8 101413318.90008       610.274 8        48.092
G19         4.000    21359940.064 7 112247404.27407     -1664.632 7        46.603                                    21359938.419 6  87465542.24406     -1297.113 6        36.858
S21         5.000    38397948.785 7 201782148.44207      -511.446 7        43.393
E05         6.000    22694759.892 7 119261713.74907     -2051.557 7        47.267                                                                    22694764.493 8  89059042.11608     -1532.031 8        49.764    22694763.550 8  91382321.46308     -1571.992 8        50.364
G25         7.000    22999154.114 6 120861457.97306      2743.436 6        41.993                                    22999159.594 6  94177822.97206      2137.742 6        36.620    22999160.310 6  94177823.97306      2137.746 6        38.246
C29         8.000                                                                                                                                    23029980.354 8 119923177.22708       372.647 8        48.374                                                                    23029982.044 7  97447421.86507       302.748 7        47.007
R05         9.000    21103389.096 8 112809770.46908       486.281 8        50.331                                                                    21103392.493 7  87740987.45407       378.206 7        45.413
G24        10.000    20101330.781 8 105633213.07208     -1298.670 8        50.593                                    20101332.270 8  82311610.54108     -1011.950 8        53.230    20101332.639 7  82311615.54307     -1011.934 7        46.697
C14        11.000                                                                                                                                    24752239.484 7 128891424.50007      -499.931 7        43.257    24752241.484 7  99667055.85507      -386.582 7        47.419    24752238.402 7 104734854.46807      -406.200 7        44.554
S27        12.000    39166424.694 6 205820806.46306      -536.636 6        36.805
S36        14.000    38168733.014 7 200578466.47607      -511.698 7        45.013
G06        15.000    24095586.443 6 126623197.60906      2017.485 6        39.547                                    24095595.699 5  98667479.48805      1572.055 5        35.357    24095596.743 6  98667481.52806      1571.923 6        39.961
E09        16.000    27235456.860 6 143123128.48706     -3728.555 6        40.236                                                                    27235468.752 7 106877606.42507     -2784.413 7        42.988    27235467.618 7 109665720.37107     -2857.052 7        44.397
G12        17.000    20609199.620 8 108302249.06508      1031.356 8        49.947                                    20609198.512 8  84391445.09608       803.653 8        50.127    20609199.172 7  84391442.08907       803.708 7        45.607
G32        18.000    24264576.426 7 127511217.49107      2300.004 7        42.334                                    24264582.357 6  99359433.03006      1792.210 6        36.624    24264583.050 6  99359437.02406      1792.298 6        39.429
R22        19.000    23365852.294 7 124728524.40007     -3455.428 7        44.245                                                                    23365861.638 6  97011056.34106     -2687.677 6        40.591
R03        21.000    23664868.721 7 126679662.70107     -5068.586 7        44.102                                                                    23664880.918 6  98528568.17206     -3942.104 6        39.504
I06        22.000    38341194.645 6 150459169.08206      -492.833 6        41.647
S28        23.000    40861755.753 5 214729784.87905      -521.273 5        35.481
S23        25.000    38105592.233 7 200246086.35707      -515.626 7        45.589
S45        26.000    63357514.658 6 332946466.21806      -571.776 6        36.934
C07        27.000                                                                                                                                    39700890.345 6 206732858.44406     -1387.134 6        38.583    39700892.772 6 159858929.60106     -1072.642 6        41.816    39700889.602 6 167987344.98606     -1127.285 6        39.216
R04        28.000    20891775.891 8 111874476.44008     -3341.321 8        50.050                                                                    20891779.270 7  87013453.10807     -2598.854 7        44.849
C40        29.000                                                                                                                                    40093858.888 6 208779140.13106     -1671.070 6        40.682                                                                    40093864.751 6 169650135.79006     -1357.929 6        39.613
G17        30.000    23755024.770 6 124833571.69106     -3468.886 6        41.981                                    23755029.423 6  97272958.83606     -2703.023 6        36.004    23755029.933 6  97272955.82806     -2703.248 6        38.504
E12        31.000    28287154.924 5 148649997.37605      2333.907 5        33.293                                                                    28287167.326 6 111004924.14406      1742.885 6        38.159    28287164.931 6 113900694.29606      1788.291 6        37.422
I02        33.000    36871867.685 7 144693109.78107      -452.887 7        42.502
R15        34.000    22056549.349 7 117863585.57307      2427.048 7        47.677                                                                    22056555.612 7  91671729.55207      1887.754 7        43.177
R13        35.000    21616123.276 7 115428864.03807     -3337.122 7        42.790
C42        37.000                                                                                                                                    24364070.746 7 126870083.53707     -1928.722 7        45.785                                                                    24364083.379 7 103092374.81507     -1567.328 7        45.771
C10        38.000                                                                                                                                    38858561.170 6 202346684.22106     -1096.588 6        41.280    38858564.539 7 156467282.53107      -847.917 7        43.748    38858561.158 6 164423236.63406      -890.983 6        40.660
E25        39.000    25104068.336 7 131922918.28507      1475.446 7        44.409                                                                    25104074.619 7  98513977.89007      1101.818 7        47.437    25104073.726 8 101083894.29908      1130.537 8        48.205
C30        40.000                                                                                                                                    25297932.228 7 131732977.44407     -2579.514 7        42.091                                                                    25297939.869 6 107043868.65006     -2096.210 6        40.789
R23        41.000    21160619.316 7 113195132.77507      -403.422 7        46.926
S44        42.000    40772637.540 6 214261655.00806      -449.289 6        38.192
C36        43.000                                                                                                                                    25763559.536 6 134157441.96406     -3270.928 6        40.212                                                                    25763573.024 7 109013894.62607     -2657.823 7        42.070
C05        44.000                                                                                                                                    39416151.187 6 205250133.78506      -525.067 6        38.616    39416155.786 7 158712409.55707      -406.191 7        43.077    39416155.280 6 166782619.50106      -426.786 6        39.453
R14        45.000    19449348.506 8 103676081.01408       -95.512 8        52.361                                                                    19449352.065 8  80637034.04608       -74.325 8        48.137
E26        46.000    28263496.315 6 148525698.80006     -1557.745 6        36.057                                                                    28263508.466 6 110912110.87606     -1163.121 6        40.677    28263506.395 6 113805460.06006     -1193.637 6        40.832
G10        47.000    24890055.614 6 130798021.40106     -2306.252 6        39.048                                    24890064.756 5 101920519.36005     -1797.071 5        30.385    24890064.639 5 101920520.33905     -1797.008 5        35.952
C35        48.000                                                                                                                                    24863835.171 7 129472554.43407      2798.251 7        44.503                                                                    24863840.994 7 105207094.70907      2273.770 7        43.761
C45        50.000                                                                                                                                    22188644.210 8 115542100.69508     -1861.951 8        50.304                                                                    22188639.055 8  93887406.20608     -1513.040 8        49.866
S48        51.000    77105135.976 6 405190423.87106      -515.320 6        38.372
C33        52.000                                                                                                                                    25879386.780 7 134760764.63007       847.543 7        42.353                                                                    25879406.888 7 109504242.77307       688.674 7        42.394
E33        53.000    27074463.603 6 142277358.99706       684.476 6        39.210                                                                    27074472.816 7 106246151.61907       511.024 7        42.413    27074471.478 7 109017779.27607       524.479 7        43.249
C60        54.000                                                                                                                                    40772639.694 6 212313839.42606      -445.089 6        41.046                                                                    40772633.471 6 172522314.11706      -361.710 6        38.769
E31        55.000    25758099.242 7 135359666.63907     -2787.155 7        42.631                                                                    25758107.111 7 101080284.24207     -2081.277 7        45.299    25758106.116 7 103717159.47607     -2135.539 7        46.347
C26        56.000                                                                                                                                    22373645.935 8 116505527.37708      1028.038 8        49.665                                                                    22373647.801 8  94670325.66108       835.268 8        49.007
C02        57.000                                                                                                                                    40929955.798 5 213132861.95615      -483.353 5        31.283    40929963.026 6 164807788.58306      -373.684 6        37.085    40929962.561 5 173187868.76505      -392.880 5        30.943
I03        58.000    91513992.765 5 283335054.06705       945.307 5        33.054
C21        59.000                                                                                                                                    25702167.097 7 133837745.46307     -3694.583 7        42.197                                                                    25702170.320 7 108754069.52607     -3002.317 7        42.669
R24        60.000    22060276.693 7 117966286.10307      3273.578 7        46.380                                                                    22060283.270 7  91751607.11907      2546.041 7        43.321
> 2025 01 02 12 00 20.0000000  0 54
E24         1.000    23529070.635 8 123646224.96708      -777.083 8        48.367                                                                    23529072.808 8  92333290.06608      -580.325 8        50.803    23529071.876 8  94741973.24908      -595.473 8        51.388
G15         2.000    23834345.590 7 125250156.94007     -4367.405 7        42.339                                    23834351.692 5  97597469.17205     -3403.167 5        35.933    23834352.055 6  97597464.15206     -3403.142 6        38.523
E03         3.000    25185172.350 7 132348979.37707       794.254 7        44.221                                                                    25185177.934 7  98832043.89807       593.094 7        47.126    25185176.982 8 101410271.91108       608.571 8        48.087
G19         4.000    21361525.288 7 112255735.12007     -1667.746 7        46.489                                    21361523.730 6  87472033.80706     -1299.538 6        36.930
S21         5.000    38398433.276 7 201784704.76507      -511.183 7        43.183
E05         6.000    22696712.916 7 119271976.98907     -2053.730 7        47.565                                                                    22696717.446 8  89066706.20808     -1533.626 8        49.655    22696716.586 8  91390185.49308     -1573.664 8        50.364
G25         7.000    22996544.416 6 120847743.02806      2742.486 6        41.900                                    22996549.678 6  94167136.00306      2137.003 6        36.609    22996550.748 6  94167136.98906      2137.057 6        38.054
C29         8.000                                                                                                                                    23029624.186 8 119921320.75908       369.894 8        48.942                                                                    23029625.585 7  97445913.33007       300.606 7        47.194
R05         9.000    21102936.159 8 112807350.33408       481.726 8        50.384                                                                    21102939.587 7  87739105.12807       374.609 7        45.448
G24        10.000    20102567.808 8 105639713.81408     -1301.532 8        50.437                                    20102569.318 8  82316676.05008     -1014.181 8        53.304    20102569.818 7  82316681.04807     -1014.160 7        46.644
C14        11.000                                                                                                                                    24752720.876 7 128893931.00307      -502.839 7        43.147    24752722.883 7  99668994.03407      -388.752 7        47.311    24752719.891 7 104736891.19707      -408.470 7        44.802
S27        12.000    39166933.650 6 205823490.14606      -536.743 6        37.077
S36        14.000    38169219.500 7 200581024.99407      -511.725 7        44.799
G06        15.000    24093668.161 6 126613115.51106      2015.581 6        39.661                                    24093677.150 5  98659623.36005      1570.572 5        35.500    24093677.991 6  98659625.39306      1570.420 6        40.005
E09        16.000    27239004.846 6 143141772.97506     -3728.962 6        40.691                                                                    27239016.841 7 106891529.19407     -2784.790 7        43.073    27239015.577 7 109680006.35807     -2857.409 7        44.366
G12        17.000    20608219.244 8 108297097.62108      1029.165 8        50.007                                    20608218.234 8  84387430.98608       801.946 8        50.166    20608218.485 7  84387427.98407       801.976 7        45.294
G32        18.000    24262388.773 6 127499722.40706      2298.116 6        41.635                                    24262394.924 6  99350475.82906      1790.740 6        36.609    24262395.699 6  99350479.83806      1790.802 6        39.360
R22        19.000    23369090.269 7 124745809.34907     -3458.449 7        43.680                                                                    23369098.920 6  97024500.15306     -2690.058 6        40.734
R03        21.000    23669602.261 7 126705005.64907     -5068.648 7        43.881                                                                    23669615.282 6  98548279.28106     -3942.259 6        39.462
I06        22.000    38341822.612 6 150461633.29406      -492.848 6        41.623
S28        23.000    40862256.181 5 214732390.33005      -520.977 5        35.171
S23        25.000    38106084.214 7 200248664.68707      -515.690 7        45.415
S45        26.000    63358005.928 6 332949325.34406      -572.033 6        36.699
