     3.04           OBSERVATION DATA    M                   RINEX VERSION / TYPE
ssrcrin-15.6.1x                         20250102 193000 UTC PGM / RUN BY / DATE 
(00000000023479385599111004) Septentrio proprietary         COMMENT             
rref                                                        MARKER NAME         
01                                                          MARKER NUMBER       
geodetic                                                    MARKER TYPE         
NFB                 CLIMERS@TUW                             OBSERVER / AGENCY   
3297213             SEPT ASTERX SB3 PROB4.14.4              REC # / TYPE / VERS 
Unknown             Unknown                                 ANT # / TYPE        
  4127831.7819  1207193.1286  4695247.4404                  APPROX POSITION XYZ 
        0.0000        0.0000        0.0000                  ANTENNA: DELTA H/E/N
G   23 X1  C1C L1C D1C S1C C1W S1W C2W L2W D2W S2W C2L L2L  SYS / # / OBS TYPES 
       D2L S2L C5Q L5Q D5Q S5Q C1L L1L D1L S1L              SYS / # / OBS TYPES 
E   21 X1  C1C L1C D1C S1C C6C L6C D6C S6C C5Q L5Q D5Q S5Q  SYS / # / OBS TYPES 
       C7Q L7Q D7Q S7Q C8Q L8Q D8Q S8Q                      SYS / # / OBS TYPES 
S    9 X1  C1C L1C D1C S1C C5I L5I D5I S5I                  SYS / # / OBS TYPES 
R   17 X1  C1C L1C D1C S1C C2P L2P D2P S2P C2C L2C D2C S2C  SYS / # / OBS TYPES 
       C3Q L3Q D3Q S3Q                                      SYS / # / OBS TYPES 
C   25 X1  C1P L1P D1P S1P C5P L5P D5P S5P C2I L2I D2I S2I  SYS / # / OBS TYPES 
       C7I L7I D7I S7I C6I L6I D6I S6I C7D L7D D7D S7D      SYS / # / OBS TYPES 
J   17 X1  C1C L1C D1C S1C C2L L2L D2L S2L C5Q L5Q D5Q S5Q  SYS / # / OBS TYPES 
       C1L L1L D1L S1L                                      SYS / # / OBS TYPES 
I    5 X1  C5A L5A D5A S5A                                  SYS / # / OBS TYPES 
SEPTENTRIO RECEIVERS OUTPUT ALIGNED CARRIER PHASES.         COMMENT             
NO FURTHER PHASE SHIFT APPLIED IN THE RINEX ENCODER.        COMMENT             
G L1C                                                       SYS / PHASE SHIFT   
G L2W                                                       SYS / PHASE SHIFT   
G L2L  0.00000                                              SYS / PHASE SHIFT   
G L5Q  0.00000                                              SYS / PHASE SHIFT   
G L1L  0.00000                                              SYS / PHASE SHIFT   
E L1C  0.00000                                              SYS / PHASE SHIFT   
E L6C  0.00000                                              SYS / PHASE SHIFT   
E L5Q  0.00000                                              SYS / PHASE SHIFT   
E L7Q  0.00000                                              SYS / PHASE SHIFT   
E L8Q  0.00000                                              SYS / PHASE SHIFT   
S L1C                                                       SYS / PHASE SHIFT   
S L5I                                                       SYS / PHASE SHIFT   
R L1C                                                       SYS / PHASE SHIFT   
R L2P  0.00000                                              SYS / PHASE SHIFT   
R L2C                                                       SYS / PHASE SHIFT   
R L3Q  0.00000                                              SYS / PHASE SHIFT   
C L1P  0.00000                                              SYS / PHASE SHIFT   
C L5P  0.00000                                              SYS / PHASE SHIFT   
C L2I                                                       SYS / PHASE SHIFT   
C L7I                                                       SYS / PHASE SHIFT   
C L6I                                                       SYS / PHASE SHIFT   
C L7D                                                       SYS / PHASE SHIFT   
J L1C                                                       SYS / PHASE SHIFT   
J L2L  0.00000                                              SYS / PHASE SHIFT   
J L5Q  0.00000                                              SYS / PHASE SHIFT   
J L1L  0.00000                                              SYS / PHASE SHIFT   
I L5A                                                       SYS / PHASE SHIFT   
  2025     1     2    19    30    0.0000000     GPS         TIME OF FIRST OBS   
 C1C    0.000 C2C    0.000 C2P    0.000                     GLONASS COD/PHS/BIS 
DBHZ                                                        SIGNAL STRENGTH UNIT
    18                                                      LEAP SECONDS        
 24 R01  1 R02 -4 R03  5 R04  6 R05  1 R06 -4 R07  5 R08  6 GLONASS SLOT / FRQ #
    R09 -2 R10 -7 R11  0 R12 -1 R13 -2 R14 -7 R15  0 R16 -1 GLONASS SLOT / FRQ #
    R17  4 R18 -3 R19  3 R20  2 R21  4 R22 -3 R23  3 R24  2 GLONASS SLOT / FRQ #
                                                            END OF HEADER       
> 2025 01 02 19 30  0.0000000  0 58
G23         1.000    20923653.248 7 109954623.14007      -228.978 7        47.554                                    20923649.487 6  85678950.40106      -178.424 6        39.730    20923649.730 7  85678948.40307      -178.366 7        47.702
C37         2.000                                                                                                                                    25611272.689 7 133364608.83507       876.055 7        42.246                                                                    25611276.140 7 108369689.23707       711.968 7        43.647
G16         3.000    20940732.817 8 110044501.62808     -2029.479 8        48.162                                    20940728.018 6  85749047.54006     -1581.414 6        39.529
G21         4.000    24991323.136 5 131330292.70305      2855.163 5        32.527                                    24991321.368 1 102335283.64901      2224.787 1         9.333
S21         5.000    38503335.068 7 202336057.90207      -454.022 7        42.512
G26         6.000    22628744.954 7 118915089.27907     -3639.088 7        43.498                                    22628744.039 7  92661239.34907     -2835.646 7        42.789    22628744.101 7  92661226.34907     -2835.642 7        42.097
G10         7.000    22114254.528 8 116211251.13108      2256.590 8        48.684                                    22114252.572 8  90554236.70808      1758.382 8        48.015    22114252.837 7  90554230.71407      1758.398 7        43.344
E15         8.000    26533261.519 6 139433322.97006      1968.721 6        41.635                                                                    26533263.323 7 104122350.02207      1470.077 7        44.603    26533262.599 7 106838573.64807      1508.441 7        44.686
E36         9.000    24797681.395 7 130312887.22407     -2351.221 7        45.440                                                                    24797682.074 8  97311714.84308     -1755.800 8        48.232    24797681.796 8  99850268.63108     -1801.604 8        48.802
G27        10.000    20666007.453 8 108600749.73508      1193.484 8        49.085                                    20666005.405 8  84624030.59108       929.989 8        52.057    20666005.903 7  84624032.59607       929.920 7        46.247
G15        11.000    23741909.699 6 124764594.84306       -27.593 6        40.155                                    23741905.877 5  97219156.70305       -21.502 5        33.665    23741906.386 6  97219159.71906       -21.505 6        37.293
G13        12.000    24886041.326 5 130777023.63905      -640.815 5        35.305                                    24886038.374 2 101904161.34902      -499.400 2        12.909
C23        13.000                                                                                                                                    24202291.493 7 126027735.22007     -1809.328 7        46.493                                                                    24202283.347 7 102407850.40907     -1470.275 7        46.797
S36        14.000    38273050.249 7 201126775.19207      -453.439 7        43.731
C13        15.000                                                                                                                                    38135766.125 7 198583001.39507     -1210.771 7        43.564    38135768.166 7 153557007.40707      -936.255 7        45.178    38135766.006 7 161364977.83207      -983.817 7        42.250
G18        16.000    22270112.094 7 117030459.05507     -3006.162 7        45.499                                    22270108.611 5  91192662.42605     -2342.463 5        34.805    22270108.822 7  91192670.42407     -2342.488 7        44.760
R10        17.000    20688701.123 7 110282452.39707     -2495.554 7        46.054
E27        18.000    26470412.749 6 139102969.61206      1788.679 6        41.156                                                                    26470413.568 7 103875595.92007      1335.580 7        45.169    26470413.166 7 106585391.58607      1370.487 7        45.592
E02        19.000    25492989.116 7 133966743.98807     -3250.271 7        43.894                                                                    25492988.363 7 100040209.13007     -2427.097 7        47.123    25492987.608 7 102649938.98207     -2490.425 7        47.386
S27        20.000    39249524.947 6 206257653.04106      -423.596 6        36.102
R11        21.000    21652792.728 7 115705979.19207      1645.268 7        47.655                                                                    21652791.965 7  89993542.29507      1279.638 7        45.699
I06        22.000    38732068.702 6 151993179.54306      -280.995 6        41.347
S28        23.000    40971971.165 5 215309159.89605      -446.874 5        33.653
E04        24.000    28158098.622 6 147971793.86406      -383.781 6        36.110                                                                    28158098.344 6 110498417.21306      -286.388 6        40.400    28158097.717 6 113380980.54606      -293.785 6        40.060
S23        25.000    38229851.187 7 200899176.99207      -454.506 7        44.650
S45        26.000    63485590.879 6 333620017.82806      -505.095 6        37.611
R09        27.000    22536916.930 7 120346071.98007     -4756.819 7        45.908                                                                    22536916.703 7  93602608.87207     -3699.748 7        44.327
C38        29.000                                                                                                                                    39921340.288 6 207881017.50306     -1653.877 6        40.849                                                                    39921338.789 6 168920399.71906     -1343.926 6        40.634
C44        30.000                                                                                                                                    25961493.544 6 135188511.92506     -3234.354 6        40.973                                                                    25961493.124 6 109851820.66206     -2628.152 6        40.591
C43        31.000                                                                                                                                    22062487.154 8 114885261.51908       765.484 8        50.832                                                                    22062485.465 8  93353727.44908       622.096 8        49.059
C42        32.000                                                                                                                                    25195910.590 7 131201723.26207      2763.401 7        42.802                                                                    25195918.350 7 106612186.21707      2245.543 7        44.352
I02        33.000    39782318.494 6 156114414.87606     -1000.637 6        40.331
R03        34.000    22502354.404 7 120456904.23107     -2130.466 7        45.615                                                                    22502353.405 6  93688705.32406     -1657.079 6        41.559
E34        35.000    23459889.809 8 123282759.28908        82.325 8        48.659                                                                    23459889.876 8  92061911.34908        61.473 8        50.922    23459889.695 8  94463515.24408        63.062 8        51.256
R21        37.000    23214267.754 7 124224265.22207      2709.385 7        45.013                                                                    23214268.408 6  96618887.45706      2107.323 6        38.321
C22        38.000                                                                                                                                    25233296.215 7 131396423.76907     -2056.906 7        42.489                                                                    25233290.721 7 106770341.23107     -1671.313 7        42.660
R05        39.000    23254639.159 7 124309378.33407      3761.761 7        43.513                                                                    23254639.590 6  96685077.14506      2925.917 6        41.959
C12        40.000                                                                                                                                    24114817.798 7 125572386.16407     -2775.762 7        43.600    24114814.751 7  97100630.43307     -2146.395 7        47.566    24114813.747 7 102037922.43007     -2255.460 7        45.995
R04        41.000    21460334.524 8 114919142.06708      1442.051 8        48.820                                                                    21460332.803 7  89381561.20307      1121.620 7        45.223
S44        42.000    40540244.025 6 213040607.91606      -432.251 6        37.520
G08        43.000    22993440.527 7 120831423.18007      2625.740 7        42.068                                    22993440.573 6  94154391.63906      2046.028 6        38.168    22993441.467 6  94154389.67006      2045.814 6        40.012
C05        44.000                                                                                                                                    39325479.980 6 204778127.33406      -384.194 6        38.396    39325476.619 7 158347460.66707      -297.069 7        44.086    39325477.213 6 166399104.90106      -311.963 6        39.571
C11        45.000                                                                                                                                    21628767.790 8 112626816.82308      -465.839 8        48.677    21628764.340 8  87090259.77808      -360.244 8        52.116    21628763.388 8  91518554.17908      -378.514 8        49.146
E09        46.000    28046534.408 6 147385541.45506      1579.411 6        38.114                                                                    28046535.419 6 110060639.60706      1179.446 6        41.318    28046534.783 6 112931784.14406      1210.045 6        41.628
G07        47.000    25185644.468 6 132351463.56806      -270.120 6        39.811                                    25185641.313 5 103130996.08305      -210.484 5        31.796    25185641.486 5 103131004.06405      -210.297 5        35.595
C21        48.000                                                                                                                                    23970555.305 7 124820997.77807       779.419 7        47.437                                                                    23970550.050 7 101427272.31007       633.317 7        47.140
E06        49.000    27847495.576 6 146339595.38606       706.904 6        36.692                                                                    27847496.674 6 109279571.97106       527.847 6        40.982    27847496.072 6 112130340.72706       541.640 6        40.639
R19        50.000    21448569.033 6 114735640.41606     -3169.937 6        38.643                                                                    21448567.940 7  89238944.33207     -2465.610 7        42.908
S48        51.000    77242914.349 6 405914307.79406      -491.911 6        37.565
C08        52.000                                                                                                                                    38497232.912 6 200465299.87606     -1474.462 6        39.970    38497227.437 7 155012515.71507     -1140.077 7        44.080    38497226.499 6 162894495.10406     -1197.999 6        41.201
C34        53.000                                                                                                                                    21985996.380 8 114487134.35508     -1727.828 8        50.462                                                                    21985995.935 8  93030291.47808     -1404.026 8        49.134
C60        54.000                                                                                                                                    40540246.183 6 211103894.48806      -428.318 6        40.529                                                                    40540229.868 6 171539174.72206      -347.925 6        39.291
C25        55.000                                                                                                                                    25296604.366 7 131726286.24607     -3631.417 7        43.043                                                                    25296602.615 7 107038487.84307     -2950.773 7        42.265
I09        56.000    38989493.002 6 153003165.37906       429.246 6        41.392
C02        57.000                                                                                                                                    40661955.302 5 211737514.95205      -383.500 5        34.533    40661949.571 6 163728869.78506      -296.667 6        39.396    40661952.951 6 172054076.80906      -311.476 6        36.499
I03        58.000    81870522.165 6 245492260.45406      1099.017 6        41.070
E30        59.000    24198159.357 8 127162405.25008      -797.663 8        48.386                                                                    24198158.811 8  94959059.16408      -595.679 8        50.555    24198158.482 8  97436235.24808      -611.192 8        50.843
R20        60.000    19831325.490 6 106047214.74506       444.135 6        40.346                                                                    19831327.262 7  82481235.89407       345.476 7        47.585
> 2025 01 02 19 30  5.0000000  0 58
G23         1.000    20923872.666 7 109955775.92407      -231.964 7        47.380                                    20923868.847 6  85679848.67206      -180.751 6        39.676    20923869.120 7  85679846.67407      -180.765 7        47.729
C37         2.000                                                                                                                                    25610432.570 7 133360233.98107       873.982 7        42.053                                                                    25610435.945 7 108366134.31907       710.223 7        43.755
G16         3.000    20942665.342 8 110054656.36308     -2032.255 8        48.018                                    20942660.394 6  85756960.32106     -1583.574 6        39.432
G21         4.000    24988606.515 5 131316017.58405      2854.743 5        32.114                                    24988604.817 1 102324160.16201      2224.489 1         9.238
S21         5.000    38503765.583 7 202338327.62807      -453.696 7        42.599
G26         6.000    22632207.926 7 118933287.73007     -3640.160 7        44.263                                    22632207.127 7  92675419.95507     -2836.487 7        42.681    22632207.539 7  92675406.95607     -2836.568 7        42.428
G10         7.000    22112108.126 8 116199972.95408      2254.833 8        48.452                                    22112106.435 7  90545448.52007      1757.013 7        47.935    22112106.214 7  90545442.53207      1756.931 7        43.082
E15         8.000    26531388.628 6 139423481.22106      1968.084 6        41.175                                                                    26531390.467 7 104115000.65607      1469.807 7        44.542    26531389.779 7 106831032.56307      1508.047 7        44.840
E36         9.000    24799919.010 7 130324645.01407     -2351.711 7        45.472                                                                    24799919.445 8  97320495.01008     -1756.167 8        48.188    24799919.207 8  99859277.83808     -1801.949 8        48.862
G27        10.000    20664872.793 8 108594787.14908      1191.693 8        49.234                                    20664870.762 8  84619384.42208       928.592 8        52.004    20664871.206 7  84619386.42407       928.533 7        46.227
G15        11.000    23741937.267 6 124764740.88406       -30.771 6        40.205                                    23741933.713 5  97219270.49805       -23.979 5        33.886    23741934.340 6  97219273.48406       -23.981 6        37.520
G13        12.000    24886652.700 5 130780236.89905      -644.079 5        35.119                                    24886649.877 2 101906665.18402      -501.863 2        13.273
C23        13.000                                                                                                                                    24204029.976 7 126036787.88707     -1811.448 7        46.207                                                                    24204021.812 7 102415206.43007     -1472.013 7        46.855
S36        14.000    38273479.735 7 201129041.00207      -452.963 7        43.805
C13        15.000                                                                                                                                    38136928.883 7 198589056.27807     -1210.987 7        43.591    38136930.774 7 153561689.42807      -936.464 7        45.183    38136928.869 7 161369897.92807      -984.108 7        42.254
G18        16.000    22272972.977 7 117045492.51807     -3007.019 7        45.714                                    22272969.430 5  91204376.81305     -2343.129 5        34.571    22272969.711 7  91204384.81507     -2343.107 7        44.956
R10        17.000    20691043.757 7 110294939.70707     -2499.209 7        46.250
E27        18.000    26468711.344 6 139094029.66206      1787.549 6        40.925                                                                    26468712.286 7 103868919.98107      1334.805 7        45.081    26468711.924 7 106578541.49307      1369.632 7        45.664
E02        19.000    25496082.110 7 133982997.30507     -3251.030 7        43.795                                                                    25496081.362 7 100052346.34807     -2427.794 7        47.114    25496080.390 7 102662392.82307     -2491.067 7        47.396
S27        20.000    39249926.619 6 206259770.26506      -423.328 6        36.314
R11        21.000    21651255.299 7 115697762.23107      1641.612 7        47.961                                                                    21651254.314 7  89987151.32107      1276.814 7        45.246
I06        22.000    38732426.821 6 151994583.99906      -280.715 6        41.552
S28        23.000    40972397.629 5 215311393.04805      -446.597 5        34.043
E04        24.000    28158464.596 6 147973717.05006      -385.521 6        36.159                                                                    28158464.339 6 110499853.36206      -287.903 6        40.431    28158463.627 6 113382454.16206      -295.556 6        39.970
S23        25.000    38230284.027 7 200901449.10907      -454.195 7        44.808
S45        26.000    63486019.878 6 333622542.99406      -504.859 6        37.611
R09        27.000    22541372.213 7 120369858.63107     -4757.693 7        46.548                                                                    22541370.854 7  93621109.59007     -3700.385 7        43.264
C38        29.000                                                                                                                                    39922928.162 6 207889287.06006     -1653.778 6        40.944                                                                    39922926.747 6 168927119.39706     -1343.809 6        40.396
C44        30.000                                                                                                                                    25964599.056 6 135204684.17306     -3234.288 6        40.529                                                                    25964598.828 6 109864961.92506     -2628.057 6        40.636
C43        31.000                                                                                                                                    22061752.449 8 114881436.79808       764.460 8        50.720                                                                    22061751.013 8  93350619.55008       621.117 8        49.047
C42        32.000                                                                                                                                    25193257.545 7 131187907.71507      2762.954 7        42.855                                                                    25193265.260 7 106600959.96407      2245.096 7        44.429
I02        33.000    39783593.091 6 156119417.19006     -1000.349 6        40.408
R03        34.000    22504346.502 7 120467566.45307     -2134.266 7        46.062                                                                    22504344.576 6  93696998.14706     -1660.071 6        40.832
E34        35.000    23459812.262 8 123282351.04908        81.159 8        48.440                                                                    23459812.209 8  92061606.49508        60.568 8        50.927    23459812.019 8  94463202.43408        62.218 8        51.268
R21        37.000    23211736.610 7 124210719.31107      2709.062 7        44.477                                                                    23211736.480 6  96608351.77706      2107.008 6        38.547
C22        38.000                                                                                                                                    25235272.536 7 131406714.33207     -2059.235 7        42.559                                                                    25235266.807 7 106778703.15307     -1673.198 7        42.618
R05        39.000    23251121.019 7 124290570.59507      3761.414 7        43.426                                                                    23251121.190 7  96670448.91507      2925.519 7        42.396
C12        40.000                                                                                                                                    24117483.462 7 125586266.16207     -2776.093 7        44.078    24117480.559 7  97111363.32707     -2146.686 7        47.943    24117479.221 7 102049201.06607     -2255.815 7        46.036
R04        41.000    21458989.629 8 114911941.20008      1438.404 8        48.622                                                                    21458988.178 7  89375960.54707      1118.699 7        45.335
S44        42.000    40540654.484 6 213042768.48906      -431.912 6        37.728
G08        43.000    22990943.143 7 120818296.36507      2625.184 7        42.282                                    22990942.657 6  94144162.95606      2045.595 6        38.027    22990943.641 6  94144160.97806      2045.495 6        39.577
C05        44.000                                                                                                                                    39325848.642 6 204780047.68206      -384.028 6        38.282    39325845.411 7 158348945.59707      -296.813 7        44.197    39325845.822 6 166400665.35806      -311.945 6        39.372
C11        45.000                                                                                                                                    21629215.976 8 112629149.16308      -466.930 8        48.728    21629212.243 8  87092063.29508      -361.064 8        52.182    21629211.255 8  91520449.40308      -379.412 8        49.197
E09        46.000    28045032.660 6 147377647.86806      1578.201 6        38.123                                                                    28045033.341 6 110054745.05806      1178.510 6        41.292    28045032.674 6 112925735.81606      1209.238 6        41.745
G07        47.000    25185902.787 6 132352819.99106      -272.463 6        38.907                                    25185899.290 5 103132053.02605      -212.309 5        31.298    25185898.628 5 103132061.02605      -212.302 5        35.562
C21        48.000                                                                                                                                    23969808.347 7 124817107.33607       776.926 7        47.358                                                                    23969802.973 7 101424110.99907       631.293 7        47.176
E06        49.000    27846824.307 6 146336065.88306       705.152 6        36.514                                                                    27846824.934 6 109276936.29406       526.521 6        40.720    27846824.261 6 112127636.32306       540.169 6        40.634
R19        50.000    21451530.885 6 114751492.10606     -3170.732 6        38.204                                                                    21451530.326 6  89251273.41706     -2465.980 6        41.652
S48        51.000    77243359.034 6 405916766.62606      -491.524 6        37.860
C08        52.000                                                                                                                                    38498648.923 6 200472672.67906     -1474.715 6        39.844    38498643.379 7 155018216.85207     -1140.253 7        44.330    38498642.418 6 162900486.10806     -1198.192 6        41.383
C34        53.000                                                                                                                                    21987655.844 8 114495776.52908     -1728.878 8        50.415                                                                    21987655.541 8  93037313.94708     -1404.871 8        49.239
C60        54.000                                                                                                                                    40540657.501 6 211106035.43306      -428.122 6        40.341                                                                    40540641.006 6 171540914.40606      -347.786 6        39.547
C25        55.000                                                                                                                                    25300091.007 7 131744444.24707     -3631.561 7        42.663                                                                    25300089.560 7 107053242.68607     -2951.066 7        42.154
I09        56.000    38988945.966 6 153001019.09806       429.372 6        41.418
C02        57.000                                                                                                                                    40662324.398 5 211739432.40005      -383.482 5        35.114    40662317.858 6 163730352.44506      -296.271 6        39.559    40662321.270 6 172055634.88506      -311.607 6        36.253
I03        58.000    81869121.760 6 245486765.17906      1099.113 6        41.032
E30        59.000    24198919.133 8 127166398.98808      -799.731 8        48.234                                                                    24198918.833 8  94962041.50008      -597.219 8        50.551    24198918.425 8  97439295.38708      -612.788 8        50.870
R20        60.000    19830909.967 6 106044998.42406       442.481 6        40.276                                                                    19830912.848 7  82479512.08107       344.123 7        47.429
> 2025 01 02 19 30 10.0000000  0 58
G23         1.000    20924095.260 7 109956945.36107      -235.665 7        47.726                                    20924091.409 6  85680759.92206      -183.633 6        39.637    20924091.565 7  85680757.92307      -183.670 7        47.772
C37         2.000                                                                                                                                    25609594.692 7 133355871.69107       871.091 7        42.499                                                                    25609598.061 7 108362589.58807       707.809 7        43.884
G16         3.000    20944600.693 8 110064826.58108     -2035.719 8        48.489                                    20944595.721 6  85764885.16206     -1586.275 6        39.393
G21         4.000    24985890.430 5 131301745.95005      2853.859 5        32.449                                    24985888.959 1 102313039.46801      2223.823 1         9.619
S21         5.000    38504197.421 7 202340597.14407      -454.038 7        42.398
G26         6.000    22635672.511 7 118951493.52707     -3641.936 7        44.391                                    22635671.562 7  92689606.28207     -2837.873 7        42.705    22635671.603 7  92689593.29007     -2837.927 7        42.430
G10         7.000    22109963.604 8 116188705.15308      2252.445 8        48.191                                    22109962.278 7  90536668.41607      1755.150 7        47.918    22109962.190 7  90536662.42107      1755.077 7        43.742
E15         8.000    26529516.359 6 139413643.31906      1967.069 6        41.058                                                                    26529518.362 7 104107654.18307      1468.943 7        44.697    26529517.727 7 106823494.43507      1507.256 7        44.826
E36         9.000    24802157.158 7 130336406.69607     -2352.838 7        45.443                                                                    24802157.694 8  97329278.07808     -1757.002 8        48.277    24802157.383 8  99868290.03508     -1802.824 8        48.903
G27        10.000    20663740.185 8 108588834.91008      1189.283 8        49.615                                    20663738.087 8  84614746.31808       926.714 8        51.995    20663738.468 7  84614748.32307       926.680 7        46.132
G15        11.000    23741968.490 6 124764903.63206       -34.338 6        40.503                                    23741964.746 5  97219397.32005       -26.756 5        34.176    23741965.493 6  97219400.33706       -26.875 6        37.883
G13        12.000    24887266.638 5 130783466.15205      -647.536 5        35.533                                    24887264.461 2 101909181.43602      -504.582 2        14.333
C23        13.000                                                                                                                                    24205770.716 7 126045852.74807     -1814.316 7        46.225                                                                    24205762.621 7 102422572.35707     -1474.234 7        47.053
S36        14.000    38273911.672 7 201131307.23007      -453.300 7        43.600
C13        15.000                                                                                                                                    38138092.175 7 198595113.54207     -1211.841 7        43.687    38138093.942 7 153566373.29707      -937.168 7        45.159    38138092.174 7 161374819.93707      -984.693 7        42.506
G18        16.000    22275834.631 7 117060531.74507     -3008.532 7        46.241                                    22275831.286 5  91216095.68705     -2344.309 5        34.690    22275831.296 7  91216103.68607     -2344.341 7        45.232
R10        17.000    20693389.697 7 110307446.97907     -2503.610 7        45.728
E27        18.000    26467011.629 6 139085096.83806      1785.600 6        41.139                                                                    26467012.392 7 103862249.35707      1333.482 7        45.168    26467012.024 7 106571696.84907      1368.188 7        45.672
E02        19.000    25499176.060 7 133999256.27607     -3252.496 7        43.850                                                                    25499175.436 7 100064487.78107     -2428.842 7        47.261    25499174.384 7 102674850.98807     -2492.157 7        47.240
S27        20.000    39250325.287 6 206261887.06406      -423.576 6        36.132
R11        21.000    21649720.640 7 115689565.05407      1637.300 7        47.474                                                                    21649720.311 7  89980775.75807      1273.411 7        45.332
I06        22.000    38732784.612 6 151995988.20306      -280.840 6        41.483
S28        23.000    40972815.859 5 215313625.97305      -446.587 5        33.353
E04        24.000    28158832.762 5 147975651.98205      -388.287 5        35.543                                                                    28158832.535 6 110501298.27706      -289.977 6        40.698    28158831.857 6 113383936.76806      -297.589 6        40.205
S23        25.000    38230715.784 7 200903721.00507      -454.465 7        44.599
S45        26.000    63486453.031 6 333625068.01206      -505.182 6        37.482
R09        27.000    22545827.371 7 120393650.86707     -4759.167 7        46.314                                                                    22545826.756 7  93639614.66207     -3701.629 7        43.829
C38        29.000                                                                                                                                    39924516.922 6 207897557.72306     -1654.403 6        41.139                                                                    39924515.063 6 168933839.97306     -1344.210 6        40.715
C44        30.000                                                                                                                                    25967704.913 6 135220857.41506     -3234.810 6        40.429                                                                    25967704.724 6 109878103.99106     -2628.506 6        40.727
C43        31.000                                                                                                                                    22061019.120 8 114877618.54708       762.876 8        50.773                                                                    22061017.735 8  93347516.89408       619.925 8        49.254
C42        32.000                                                                                                                                    25190604.845 7 131174095.79307      2761.886 7        42.790                                                                    25190612.832 7 106589736.63707      2244.381 7        44.667
I02        33.000    39784867.888 6 156124419.71906     -1000.686 6        40.491
R03        34.000    22506342.096 7 120478248.84407     -2138.620 7        45.583                                                                    22506340.386 6  93705306.66506     -1663.240 6        40.963
E34        35.000    23459736.064 8 123281950.12908        79.325 8        48.390                                                                    23459735.911 8  92061307.10008        59.206 8        51.019    23459735.699 8  94462895.23008        60.758 8        51.321
R21        37.000    23209205.786 7 124197176.77107      2707.970 7        46.004                                                                    23209206.253 6  96597818.66706      2106.198 6        38.492
C22        38.000                                                                                                                                    25237251.578 7 131417017.43707     -2061.945 7        42.864                                                                    25237245.428 7 106787075.27107     -1675.501 7        42.921
R05        39.000    23247602.706 7 124271766.67607      3760.404 7        43.416                                                                    23247603.347 7  96655823.64807      2924.565 7        42.427
C12        40.000                                                                                                                                    24120150.533 7 125600149.43007     -2777.054 7        44.156    24120146.910 8  97122098.74308     -2147.455 8        48.255    24120145.241 7 102060482.33907     -2256.571 7        46.079
R04        41.000    21457648.834 8 114904760.13508      1434.129 8        49.427                                                                    21457646.967 7  89370375.26507      1115.431 7        45.047
S44        42.000    40541065.270 6 213044929.14106      -432.272 6        37.573
G08        43.000    22988446.413 7 120805173.49907      2623.971 7        42.178                                    22988445.466 6  94133937.36206      2044.651 6        38.126    22988445.862 6  94133935.36506      2044.828 6        39.811
C05        44.000                                                                                                                                    39326217.761 6 204781967.99906      -384.195 6        38.150    39326214.146 7 158350430.51607      -297.016 7        44.194    39326214.678 6 166402225.75706      -312.094 6        39.751
C11        45.000                                                                                                                                    21629665.222 8 112631488.45308      -468.656 8        48.744    21629661.560 8  87093872.18108      -362.455 8        52.262    21629660.512 8  91522350.25408      -380.778 8        49.434
E09        46.000    28043531.744 6 147369761.41506      1576.408 6        38.120                                                                    28043532.505 6 110048855.81906      1177.127 6        41.011    28043531.966 6 112919692.93506      1207.986 6        41.676
G07        47.000    25186162.805 6 132354189.84606      -275.423 6        39.456                                    25186159.794 5 103133120.43605      -214.609 5        31.268    25186160.635 5 103133128.43305      -214.687 5        35.571
C21        48.000                                                                                                                                    23969063.602 7 124813230.23807       774.015 7        47.427                                                                    23969058.399 7 101420960.53207       628.951 7        47.394
E06        49.000    27846154.260 6 146332546.55906       702.829 6        36.854                                                                    27846155.133 6 109274308.23306       524.717 6        40.808    27846154.543 6 112124939.68906       538.480 6        40.627
R19        50.000    21454495.303 6 114767348.61306     -3171.853 6        38.261                                                                    21454494.751 6  89263606.25806     -2466.986 6        41.478
S48        51.000    77243802.315 6 405919225.39806      -491.608 6        37.716
C08        52.000                                                                                                                                    38500065.737 6 200480047.76706     -1475.213 6        39.856    38500059.455 7 155023919.75007     -1140.860 7        44.376    38500058.596 6 162906478.98806     -1198.860 6        41.521
C34        53.000                                                                                                                                    21989316.742 8 114504425.12708     -1730.442 8        50.574                                                                    21989316.431 8  93044341.62908     -1406.101 8        49.486
C60        54.000                                                                                                                                    40541068.760 6 211108176.43606      -428.335 6        40.436                                                                    40541052.248 6 171542654.13506      -348.004 6        39.649
C25        55.000                                                                                                                                    25303578.375 7 131762604.01907     -3632.357 7        42.569                                                                    25303577.154 7 107067998.96207     -2951.541 7        42.343
I09        56.000    38988399.736 6 152998873.32106       429.050 6        41.485
C02        57.000                                                                                                                                    40662692.109 5 211741349.82905      -383.575 5        34.876    40662686.088 6 163731835.15806      -296.665 6        39.913    40662689.557 6 172057192.96806      -311.668 6        36.439
I03        58.000    81867721.629 6 245481269.96006      1098.943 6        41.113
E30        59.000    24199681.276 8 127170404.38108      -802.362 8        48.196                                                                    24199680.991 8  94965032.54208      -599.173 8        50.630    24199680.599 8  97442364.45908      -614.836 8        50.877
R20        60.000    19830498.272 6 106042792.25906       440.119 6        40.586                                                                    19830500.048 7  82477796.19107       342.285 7        47.290
> 2025 01 02 19 30 15.0000000  0 58
G23         1.000    20924321.057 7 109958131.91807      -238.878 7        47.682                                    20924317.230 6  85681684.51506      -186.138 6        39.736    20924317.435 7  85681682.51707      -186.131 7        47.786
C37         2.000                                                                                                                                    25608759.616 7 133351522.44407       868.608 7        42.341                                                                    25608762.893 7 108359055.48207       705.825 7        43.998
G16         3.000    20946539.034 8 110075012.78808     -2038.670 8        48.276                                    20946534.062 6  85772822.46906     -1588.572 6        39.471
G21         4.000    24983175.463 5 131287478.31305      2853.309 5        32.778                                    24983173.924 1 102301921.82001      2223.412 1         9.905
S21         5.000    38504631.432 7 202342866.99007      -453.914 7        42.427
G26         6.000    22639137.969 7 118969707.15907     -3643.361 7        44.301                                    22639137.431 7  92703798.72307     -2838.981 7        42.811    22639137.547 7  92703785.72607     -2838.961 7        42.487
G10         7.000    22107821.379 8 116177448.22708      2250.453 8        48.206                                    22107820.152 7  90527896.78807      1753.596 7        47.983    22107820.146 7  90527890.80007      1753.595 7        43.560
E15         8.000    26527645.210 6 139403809.78806      1966.394 6        41.130                                                                    26527647.120 7 104100310.96307      1468.497 7        44.685    26527646.425 7 106815959.65607      1506.743 7        44.916
E36         9.000    24804395.980 7 130348172.76507     -2353.521 7        45.389                                                                    24804396.666 8  97338064.42408     -1757.467 8        48.258    24804396.440 8  99877305.59208     -1803.309 8        48.959
G27        10.000    20662609.411 8 108582893.53808      1187.335 8        49.266                                    20662607.477 8  84610116.67908       925.195 8        52.080    20662607.652 7  84610118.68307       925.159 7        46.007
G15        11.000    23742002.437 6 124765083.62806       -37.517 6        40.656                                    23741999.093 5  97219537.57705       -29.239 5        34.405    23741999.548 6  97219540.57506       -29.292 6        38.393
G13        12.000    24887884.823 5 130786712.01205      -650.713 5        35.824                                    24887882.086 2 101911710.66402      -507.061 2        14.476
C23        13.000                                                                                                                                    24207513.915 7 126054930.28707     -1816.560 7        46.207                                                                    24207505.847 7 102429948.61407     -1476.244 7        47.088
S36        14.000    38274342.866 7 201133573.04807      -452.973 7        43.638
C13        15.000                                                                                                                                    38139256.158 7 198601173.79207     -1212.081 7        43.858    38139257.849 7 153571059.46407      -937.252 7        45.190    38139255.945 7 161379744.40407      -985.075 7        42.510
G18        16.000    22278697.775 7 117075577.19407     -3009.544 7        46.044                                    22278694.332 5  91227819.41805     -2345.101 5        34.776    22278694.422 7  91227827.42107     -2345.123 7        45.109
R10        17.000    20695740.013 7 110319974.65807     -2507.425 7        46.025
E27        18.000    26465313.464 6 139076171.58506      1784.452 6        41.223                                                                    26465313.943 7 103855584.39607      1332.642 7        45.126    26465313.574 7 106564858.02807      1367.364 7        45.710
E02        19.000    25502271.173 7 134015521.37707     -3253.453 7        43.805                                                                    25502270.610 7 100076633.79607     -2429.534 7        47.272    25502269.801 7 102687313.86207     -2492.949 7        47.415
S27        20.000    39250726.298 5 206264004.32605      -423.460 5        35.890
R11        21.000    21648190.780 8 115681388.19008      1633.556 8        48.061                                                                    21648190.227 7  89974415.95907      1270.503 7        45.229
I06        22.000    38733142.369 6 151997392.57406      -280.851 6        41.514
S28        23.000    40973243.561 5 215315859.44005      -446.717 5        33.156
E04        24.000    28159203.546 6 147977599.14606      -390.443 6        36.053                                                                    28159203.186 6 110502752.32406      -291.674 6        40.443    28159202.286 6 113385428.74506      -299.197 6        40.260
S23        25.000    38231149.205 7 200905993.43407      -454.347 7        44.554
S45        26.000    63486883.223 6 333625993.26316      -504.808 6        37.414
R09        27.000    22550283.836 7 120417449.07007     -4760.069 7        46.784                                                                    22550284.294 7  93658124.36307     -3702.325 7        44.503
C38        29.000                                                                                                                                    39926105.515 6 207905829.97206     -1654.484 6        41.337                                                                    39926103.584 6 168940561.88206     -1344.491 6        40.648
C44        30.000                                                                                                                                    25970810.940 6 135237032.10206     -3234.753 6        40.379                                                                    25970810.901 6 109891247.25906     -2628.694 6        40.777
C43        31.000                                                                                                                                    22060287.256 8 114873807.24008       761.674 8        50.680                                                                    22060285.809 8  93344419.90408       618.890 8        49.258
C42        32.000                                                                                                                                    25187952.814 7 131160287.99007      2761.278 7        42.923                                                                    25187961.020 7 106578516.67907      2243.765 7        44.328
I02        33.000    39786143.089 6 156129422.54106     -1000.300 6        40.551
R03        34.000    22508340.394 7 120488951.95507     -2142.614 7        45.236                                                                    22508339.663 6  93713631.32806     -1666.493 6        41.142
E34        35.000    23459661.176 8 123281556.99508        78.012 8        48.538                                                                    23459661.124 8  92061013.53108        58.250 8        51.007    23459660.857 8  94462594.00108        59.791 8        51.399
R21        37.000    23206675.991 7 124183637.97407      2707.533 7        45.648                                                                    23206676.215 6  96587288.50406      2106.081 6        38.637
C22        38.000                                                                                                                                    25239232.757 7 131427333.59807     -2064.365 7        43.156                                                                    25239226.582 7 106795458.01107     -1677.628 7        42.872
R05        39.000    23244086.159 7 124252967.10307      3759.643 7        43.281                                                                    23244086.296 7  96641201.76307      2924.192 7        42.178
C12        40.000                                                                                                                                    24122817.233 7 125614036.45907     -2777.690 7        44.069    24122813.486 8  97132837.07208     -2147.838 8        48.322    24122812.043 7 102071766.70607     -2257.169 7        46.085
R04        41.000    21456311.534 8 114897599.36308      1430.376 8        48.827                                                                    21456309.892 7  89364805.77507      1112.503 7        44.683
S44        42.000    40541476.873 6 213047090.34306      -432.141 6        37.391
G08        43.000    22985950.319 7 120792055.15207      2623.424 7        42.878                                    22985949.156 6  94123715.28506      2044.225 6        38.285    22985949.760 6  94123713.28406      2044.198 6        40.040
C05        44.000                                                                                                                                    39326586.545 6 204783888.75506      -383.895 6        38.243    39326582.983 7 158351915.76807      -296.959 7        44.211    39326583.667 6 166403786.53906      -312.048 6        39.877
C11        45.000                                                                                                                                    21630115.661 8 112633835.12908      -469.962 8        48.815    21630112.260 8  87095686.77108      -363.338 8        52.243    21630111.173 8  91524257.13008      -381.955 8        49.356
E09        46.000    28042032.641 6 147361882.56406      1575.184 6        37.837                                                                    28042033.187 6 110042972.26406      1176.274 6        41.054    28042032.784 6 112913655.90506      1206.965 6        41.917
G07        47.000    25186426.144 6 132355573.61506      -277.904 6        39.799                                    25186422.984 5 103134198.68605      -216.550 5        31.313    25186424.293 6 103134206.66806      -216.541 6        36.011
C21        48.000                                                                                                                                    23968321.939 7 124809367.03107       771.382 7        47.474                                                                    23968316.566 7 101417821.37607       626.727 7        47.282
E06        49.000    27845486.772 6 146329037.90306       700.810 6        36.934                                                                    27845487.370 6 109271688.14006       523.323 6        40.818    27845486.980 6 112122251.23306       537.064 6        40.553
R19        50.000    21457461.580 6 114783210.30306     -3172.557 6        38.934                                                                    21457461.148 7  89275943.13507     -2467.727 7        42.722
S48        51.000    77244243.056 6 405921684.33606      -491.506 6        37.652
C08        52.000                                                                                                                                    38501482.653 6 200487425.64506     -1475.690 6        40.172    38501476.348 7 155029624.78107     -1141.051 7        44.536    38501475.475 6 162912474.12006     -1199.225 6        41.433
C34        53.000                                                                                                                                    21990979.178 8 114513080.63708     -1731.588 8        50.527                                                                    21990978.668 8  93051374.95508     -1407.206 8        49.436
C60        54.000                                                                                                                                    40541479.743 6 211110317.99206      -428.257 6        40.477                                                                    40541463.441 6 171544394.33606      -348.033 6        39.637
C25        55.000                                                                                                                                    25307066.234 7 131780766.08507     -3632.326 7        42.478                                                                    25307065.108 7 107082757.13907     -2951.773 7        42.330
I09        56.000    38987853.013 6 152996728.45706       428.845 6        41.499
C02        57.000                                                                                                                                    40663059.927 5 211743267.82305      -383.441 5        34.776    40663054.500 6 163733318.27206      -296.538 6        39.408    40663057.854 6 172058751.49106      -311.403 6        36.548
I03        58.000    81866321.219 6 245475775.18406      1098.931 6        41.132
E30        59.000    24200445.838 8 127174421.92608      -804.552 8        48.354                                                                    24200445.508 8  94968032.65908      -600.820 8        50.663    24200445.069 8  97445442.83908      -616.485 8        50.945
R20        60.000    19830088.142 6 106040596.85606       438.201 6        40.992                                                                    19830089.523 7  82476088.63507       340.832 7        47.421
> 2025 01 02 19 30 20.0000000  0 58
G23         1.000    20924549.989 7 109959334.94507      -242.189 7        47.633                                    20924546.137 6  85682621.93906      -188.720 6        39.778    20924546.153 7  85682619.94107      -188.702 7        47.590
C37         2.000                                                                                                                                    25607925.716 6 133347185.57906       866.119 6        41.764                                                                    25607930.179 7 108355531.41307       703.911 7        43.958
G16         3.000    20948480.053 8 110085214.30808     -2041.768 8        48.654                                    20948475.341 6  85780771.70406     -1590.989 6        39.423
G21         4.000    24980460.421 5 131273214.06005      2852.377 5        31.774                                    24980459.564 1 102290806.81501      2222.648 1        11.407
S21         5.000    38505060.529 7 202345136.67707      -453.811 7        42.044
