     3.04           OBSERVATION DATA    M                   RINEX VERSION / TYPE
ssrcrin-15.6.1x                         20250102 210000 UTC PGM / RUN BY / DATE 
(00000000023479385599111004) Septentrio proprietary         COMMENT             
rref                                                        MARKER NAME         
01                                                          MARKER NUMBER       
geodetic                                                    MARKER TYPE         
NFB                 CLIMERS@TUW                             OBSERVER / AGENCY   
3297213             SEPT ASTERX SB3 PROB4.14.4              REC # / TYPE / VERS 
Unknown             Unknown                                 ANT # / TYPE        
  4127831.9828  1207193.4194  4695247.5390                  APPROX POSITION XYZ 
        0.0000        0.0000        0.0000                  ANTENNA: DELTA H/E/N
G   23 X1  C1C L1C D1C S1C C1W S1W C2W L2W D2W S2W C2L L2L  SYS / # / OBS TYPES 
       D2L S2L C5Q L5Q D5Q S5Q C1L L1L D1L S1L              SYS / # / OBS TYPES 
E   21 X1  C1C L1C D1C S1C C6C L6C D6C S6C C5Q L5Q D5Q S5Q  SYS / # / OBS TYPES 
       C7Q L7Q D7Q S7Q C8Q L8Q D8Q S8Q                      SYS / # / OBS TYPES 
S    9 X1  C1C L1C D1C S1C C5I L5I D5I S5I                  SYS / # / OBS TYPES 
R   17 X1  C1C L1C D1C S1C C2P L2P D2P S2P C2C L2C D2C S2C  SYS / # / OBS TYPES 
       C3Q L3Q D3Q S3Q                                      SYS / # / OBS TYPES 
C   25 X1  C1P L1P D1P S1P C5P L5P D5P S5P C2I L2I D2I S2I  SYS / # / OBS TYPES 
       C7I L7I D7I S7I C6I L6I D6I S6I C7D L7D D7D S7D      SYS / # / OBS TYPES 
J   17 X1  C1C L1C D1C S1C C2L L2L D2L S2L C5Q L5Q D5Q S5Q  SYS / # / OBS TYPES 
       C1L L1L D1L S1L                                      SYS / # / OBS TYPES 
I    5 X1  C5A L5A D5A S5A                                  SYS / # / OBS TYPES 
SEPTENTRIO RECEIVERS OUTPUT ALIGNED CARRIER PHASES.         COMMENT             
NO FURTHER PHASE SHIFT APPLIED IN THE RINEX ENCODER.        COMMENT             
G L1C                                                       SYS / PHASE SHIFT   
G L2W                                                       SYS / PHASE SHIFT   
G L2L  0.00000                                              SYS / PHASE SHIFT   
G L5Q  0.00000                                              SYS / PHASE SHIFT   
G L1L  0.00000                                              SYS / PHASE SHIFT   
E L1C  0.00000                                              SYS / PHASE SHIFT   
E L6C  0.00000                                              SYS / PHASE SHIFT   
E L5Q  0.00000                                              SYS / PHASE SHIFT   
E L7Q  0.00000                                              SYS / PHASE SHIFT   
E L8Q  0.00000                                              SYS / PHASE SHIFT   
S L1C                                                       SYS / PHASE SHIFT   
S L5I                                                       SYS / PHASE SHIFT   
R L1C                                                       SYS / PHASE SHIFT   
R L2P  0.00000                                              SYS / PHASE SHIFT   
R L2C                                                       SYS / PHASE SHIFT   
R L3Q  0.00000                                              SYS / PHASE SHIFT   
C L1P  0.00000                                              SYS / PHASE SHIFT   
C L5P  0.00000                                              SYS / PHASE SHIFT   
C L2I                                                       SYS / PHASE SHIFT   
C L7I                                                       SYS / PHASE SHIFT   
C L6I                                                       SYS / PHASE SHIFT   
C L7D                                                       SYS / PHASE SHIFT   
J L1C                                                       SYS / PHASE SHIFT   
J L2L  0.00000                                              SYS / PHASE SHIFT   
J L5Q  0.00000                                              SYS / PHASE SHIFT   
J L1L  0.00000                                              SYS / PHASE SHIFT   
I L5A                                                       SYS / PHASE SHIFT   
  2025     1     2    21     0    0.0000000     GPS         TIME OF FIRST OBS   
 C1C    0.000 C2C    0.000 C2P    0.000                     GLONASS COD/PHS/BIS 
DBHZ                                                        SIGNAL STRENGTH UNIT
    18                                                      LEAP SECONDS        
 24 R01  1 R02 -4 R03  5 R04  6 R05  1 R06 -4 R07  5 R08  6 GLONASS SLOT / FRQ #
    R09 -2 R10 -7 R11  0 R12 -1 R13 -2 R14 -7 R15  0 R16 -1 GLONASS SLOT / FRQ #
    R17  4 R18 -3 R19  3 R20  2 R21  4 R22 -3 R23  3 R24  2 GLONASS SLOT / FRQ #
                                                            END OF HEADER       
> 2025 01 02 21 00  0.0000000  0 56
G23         1.000    22229203.103 7 116815329.20307     -3157.782 7        44.135                                    22229199.512 5  91024954.07605     -2460.608 5        32.958    22229199.673 7  91024952.07807     -2460.670 7        44.226
C37         2.000                                                                                                                                    25581027.900 6 133207114.11506     -1888.036 6        41.364                                                                    25581031.923 7 108241710.96307     -1534.079 7        42.464
G16         3.000    23743849.892 6 124774966.90406     -4106.885 6        40.837                                    23743846.376 4  97227328.29004     -3200.160 4        24.677
G21         4.000    21989314.897 6 115554680.95406      1726.339 6        41.828                                    21989309.985 4  90042611.75904      1345.209 4        28.597
S21         5.000    38360240.879 6 201584108.41306      -416.953 6        41.881
E13         6.000    28712406.495 5 150884718.49205      2042.424 5        33.707                                                                    28712410.410 6 112673666.89706      1525.249 6        36.677    28712409.977 6 115612976.65506      1564.935 6        37.641
G10         7.000    20635167.300 8 108438601.92508      -673.346 8        51.401                                    20635164.960 8  84497628.52308      -524.684 8        52.375    20635165.031 7  84497622.52307      -524.686 7        45.974
E15         8.000    24373376.357 7 128083062.52007      1069.161 7        46.390                                                                    24373376.874 8  95646510.14308       798.443 8        49.542    24373376.585 8  98141624.44908       819.251 8        50.677
E36         9.000    26894071.199 6 141329477.95906     -2764.959 6        39.171                                                                    26894072.594 7 105538386.45707     -2064.796 7        43.035    26894072.445 7 108291549.45507     -2118.562 7        44.671
G27        10.000    20205479.436 8 106180662.27308     -1582.410 8        50.477                                    20205477.050 8  82738249.02208     -1233.046 8        52.476    20205477.714 7  82738251.02107     -1232.999 7        46.207
G15        11.000    24991650.421 4 131332010.71704     -3323.762 4        28.540                                    24991648.722 1 102336618.55901     -2589.924 1        11.630    24991648.258 4 102336621.55004     -2589.747 4        27.138
G32        12.000    23961901.699 6 125920657.38106      2639.728 6        41.375                                    23961900.853 6  98119988.99106      2056.932 6        36.760    23961901.841 6  98119961.99606      2056.935 6        39.682
C23        13.000                                                                                                                                    26469369.194 6 137832979.04706     -3285.853 6        40.074                                                                    26469362.570 6 112000572.60306     -2669.995 6        40.224
S36        14.000    38129077.180 7 200370166.42607      -416.670 7        43.962
C13        15.000                                                                                                                                    38970508.270 6 202929720.55906     -1452.368 6        40.486    38970510.208 6 156918165.56306     -1123.067 6        41.902    38970508.800 6 164897042.55306     -1180.077 6        40.381
G18        16.000    25160745.440 6 132220817.77306     -3583.047 6        37.788                                    25160743.287 3 103029300.39603     -2791.994 3        19.493    25160743.125 6 103029308.38706     -2791.701 6        37.762
R10        17.000    24105922.121 6 128498126.84206     -4650.204 6        39.616
E27        18.000    25082344.576 7 131808630.94007      -431.222 7        44.409                                                                    25082344.864 7  98428527.26907      -321.986 7        47.927    25082344.414 8 100996225.21208      -330.409 8        48.867
E05        20.000    24767701.903 6 130155166.48506      1731.128 6        40.946                                                                    24767703.052 7  97193794.40007      1292.637 7        44.725    24767702.586 7  99729287.19807      1326.380 7        46.016
R11        21.000    21770805.267 7 116336598.30307     -2937.253 7        47.605                                                                    21770804.681 7  90484023.48407     -2284.510 7        43.949
I06        22.000    38486330.890 6 151028853.90806      -222.439 6        41.886
S23        25.000    38086516.183 7 200145942.64307      -416.074 7        44.477
S45        26.000    63339628.211 6 332852727.17306      -461.654 6        37.520
G02        27.000    24042201.525 6 126342648.71906      2313.669 6        40.455                                    24042196.636 4  98448801.56304      1802.854 4        24.707
S27        28.000    39073509.362 6 205332744.58206      -384.166 6        36.223
C38        29.000                                                                                                                                    41074977.261 6 213888305.19206     -1638.600 6        36.752                                                                    41074974.954 6 173801813.19306     -1331.264 6        36.972
E21        30.000    28000068.973 6 147141368.62306      1922.687 6        37.841                                                                    28000069.661 6 109878301.04806      1435.713 6        41.638    28000069.351 7 112744687.86507      1473.236 7        42.565
C43        31.000                                                                                                                                    21474783.182 8 111824937.20908      -851.478 8        51.362                                                                    21474781.586 8  90866963.85408      -691.810 8        49.721
C42        32.000                                                                                                                                    22579268.119 8 117576194.82608       769.132 8        49.748                                                                    22579275.615 8  95540331.10208       625.087 8        49.588
C28        33.000                                                                                                                                    23732168.666 7 123579628.75507      2076.125 7        45.845                                                                    23732168.061 7 100418569.61007      1687.057 7        45.180
E34        35.000    23494653.284 7 123465443.37507     -1207.080 7        47.766                                                                    23494653.438 8  92198331.38708      -901.402 8        50.687    23494653.228 8  94603494.05808      -924.924 8        51.728
C14        36.000                                                                                                                                    23338729.847 7 121530891.39107      2247.312 7        45.238    23338725.451 8  93975379.71108      1737.818 8        49.448    23338724.051 7  98753780.97107      1826.223 7        47.467
R21        37.000    20345538.012 8 108873133.99508      1670.153 8        50.923                                                                    20345537.438 7  84679124.32007      1299.021 7        45.348
R06        38.000    22800505.986 6 121667875.52506      4076.083 6        37.595
R05        39.000    20077912.318 8 107327970.02908       643.354 8        51.829                                                                    20077911.292 7  83477319.10107       500.364 7        47.115
C12        40.000                                                                                                                                    26691599.281 5 138990341.41205     -3271.236 5        34.890    26691597.389 6 107476239.58206     -2529.388 6        40.229    26691595.498 6 112941106.16706     -2657.778 6        36.775
R04        41.000    21798256.385 7 116728700.81407     -3182.452 7        47.237                                                                    21798255.187 7  90788996.20307     -2475.150 7        43.039
S44        42.000    40391040.030 6 212256535.92806      -426.939 6        37.603
G08        43.000    20454605.028 8 107489765.69808       840.359 8        49.118                                    20454603.190 8  83758299.43208       654.825 8        50.278    20454604.043 7  83758297.44007       654.804 7        46.017
C05        44.000                                                                                                                                    39118706.938 6 203701398.21506      -357.705 6        38.544    39118700.707 7 157514865.49407      -276.600 7        42.499    39118703.233 6 165524174.38106      -290.490 6        40.307
C11        45.000                                                                                                                                    22284498.298 8 116041373.85008     -1937.692 8        48.079    22284495.161 8  89730611.51008     -1498.334 8        51.254    22284493.699 8  94293161.19608     -1574.476 8        48.723
E09        46.000    26894666.190 6 141332446.21806      -675.925 6        40.596                                                                    26894666.680 7 105540474.37207      -504.641 7        42.739    26894666.410 7 108293701.17507      -517.871 7        44.140
C33        47.000                                                                                                                                    25085229.574 7 130625379.86607      3040.867 7        43.209                                                                    25085241.562 7 106143875.15207      2470.969 7        44.280
C21        48.000                                                                                                                                    24159299.983 7 125803841.22607     -2226.037 7        46.233                                                                    24159294.409 7 102225913.47907     -1808.751 7        46.420
E06        49.000    27772869.983 6 145947437.45306     -1726.806 6        36.597                                                                    27772870.526 6 108986727.55206     -1289.480 6        40.400    27772870.578 6 111829856.84106     -1323.077 6        41.833
R19        50.000    24405410.607 5 130552729.28805     -3744.842 5        31.789                                                                    24405411.423 5 101541117.68805     -2912.435 5        32.683
S48        51.000    77108120.698 6 405206062.88006      -449.720 6        37.183
C08        52.000                                                                                                                                    39573983.252 6 206072214.17106     -1649.368 6        37.119    39573977.221 6 159348136.72006     -1275.235 6        40.105    39573976.002 6 167450571.61206     -1339.987 6        38.189
C34        53.000                                                                                                                                    23838458.438 7 124133381.86107     -2923.441 7        45.330                                                                    23838458.992 7 100868655.76307     -2375.471 7        45.720
C60        54.000                                                                                                                                    40391042.197 6 210326950.44506      -423.137 6        39.940                                                                    40391025.899 6 170907844.13806      -343.762 6        39.658
R12        55.000    22548760.355 7 120451425.14407      1095.647 7        46.555                                                                    22548760.239 7  93684443.51207       852.224 7        42.209
I09        56.000    37906841.157 7 148754610.70607       265.676 7        43.145
C02        57.000                                                                                                                                    40464520.972 5 210709419.13705      -376.025 5        34.076    40464514.248 6 162933880.97906      -290.748 6        39.778    40464517.387 5 171218664.88905      -305.359 5        35.519
I03        58.000    79771322.158 6 237254550.35706      1090.888 6        40.965
E30        59.000    25624335.384 7 134657006.01607     -2952.150 7        44.588                                                                    25624335.350 7 100555674.90507     -2204.558 7        46.809    25624335.067 8 103178849.85908     -2262.076 8        48.197
R20        60.000    19867547.303 6 106240911.31506     -1659.558 6        38.751                                                                    19867549.085 7  82631889.01407     -1290.798 7        47.393
> 2025 01 02 21 00  5.0000000  0 56
G23         1.000    22232208.182 7 116831122.21407     -3159.265 7        44.758                                    22232204.863 5  91037260.31905     -2461.762 5        32.946    22232204.438 7  91037258.32807     -2461.809 7        43.822
C37         2.000                                                                                                                                    25582841.957 6 133216559.06606     -1889.879 6        41.375                                                                    25582845.658 7 108249385.75607     -1535.693 7        42.542
G16         3.000    23747757.841 6 124795501.95506     -4107.151 6        41.173                                    23747753.895 4  97243329.62404     -3200.379 4        24.752
G21         4.000    21987672.720 7 115546052.17007      1725.222 7        42.127                                    21987667.929 4  90035888.03404      1344.330 4        28.863
S21         5.000    38360640.548 6 201586193.02306      -416.768 6        41.466
E13         6.000    28710463.302 5 150874505.93105      2042.373 5        32.168                                                                    28710467.300 5 112666040.65305      1525.453 5        35.710    28710466.731 6 115605151.46506      1565.093 6        36.624
G10         7.000    20635809.163 8 108441975.21908      -675.962 8        51.553                                    20635806.888 8  84500257.06408      -526.723 8        52.464    20635806.829 7  84500251.06707      -526.658 7        46.128
E15         8.000    24372359.389 7 128077718.49107      1068.485 7        46.308                                                                    24372359.958 8  95642519.47708       797.953 8        49.440    24372359.567 8  98137529.67608       818.727 8        50.641
E36         9.000    26896701.733 6 141343302.75706     -2764.776 6        38.973                                                                    26896703.321 7 105548710.17207     -2064.690 7        43.221    26896703.174 7 108302142.48207     -2118.517 7        44.760
G27        10.000    20206986.337 8 106188581.08408     -1585.047 8        50.580                                    20206983.960 8  82744419.52608     -1235.103 8        52.567    20206984.454 7  82744421.53307     -1235.082 7        46.599
G15        11.000    24994812.893 4 131348635.01904     -3325.769 4        28.360                                    24994812.292 1 102349572.53201     -2591.508 1        11.852    24994812.017 4 102349575.53704     -2592.075 4        28.057
G32        12.000    23959390.774 6 125907460.39706      2639.044 6        41.547                                    23959389.630 6  98109705.64106      2056.396 6        36.896    23959390.200 6  98109678.63906      2056.387 6        39.841
C23        13.000                                                                                                                                    26472524.552 6 137849408.59906     -3285.873 6        40.541                                                                    26472517.405 6 112013922.95406     -2670.057 6        39.880
S36        14.000    38129471.314 7 200372248.38707      -416.274 7        43.329
C13        15.000                                                                                                                                    38971903.151 6 202936982.24906     -1452.245 6        40.915    38971904.972 6 156923780.75406     -1122.876 6        41.814    38971903.347 6 164902943.27006     -1180.092 6        40.460
G18        16.000    25164154.658 6 132238731.87706     -3582.728 6        37.350                                    25164151.946 3 103043259.44503     -2791.730 3        19.164    25164152.124 6 103043267.45806     -2791.738 6        38.060
R10        17.000    24110283.073 6 128521377.07506     -4649.839 6        38.838
E27        18.000    25082756.116 7 131810792.75907      -433.428 7        44.266                                                                    25082756.306 7  98430141.62107      -323.633 7        47.940    25082755.773 8 100997881.68008      -332.147 8        48.766
E05        20.000    24766055.434 6 130146514.59306      1729.722 6        41.125                                                                    24766056.560 7  97187333.58407      1291.714 7        44.727    24766056.203 7  99722657.82907      1325.451 7        46.059
R11        21.000    21773554.721 7 116351292.83107     -2940.481 7        47.222                                                                    21773554.513 7  90495452.55407     -2287.023 7        44.479
I06        22.000    38486614.182 6 151029966.00106      -222.255 6        41.967
S23        25.000    38086909.024 7 200148022.71207      -415.850 7        43.958
S45        26.000    63340019.465 6 332855035.20806      -461.455 6        37.096
G02        27.000    24040000.987 6 126331081.41506      2313.244 6        41.280                                    24039995.373 4  98439788.08704      1802.520 4        24.692
S27        28.000    39073877.377 6 205334665.81806      -384.494 6        36.019
C38        29.000                                                                                                                                    41076550.441 6 213896497.45506     -1638.273 6        37.270                                                                    41076548.306 6 173808470.10306     -1331.238 6        37.391
E21        30.000    27998240.419 6 147131758.65806      1921.285 6        37.860                                                                    27998241.132 6 109871124.75706      1434.881 6        41.540    27998240.704 7 112737324.37907      1472.285 7        42.457
C43        31.000                                                                                                                                    21475601.411 8 111829198.47708      -853.007 8        51.335                                                                    21475599.883 8  90870426.48708      -693.122 8        49.848
C42        32.000                                                                                                                                    22578530.965 8 117572355.56408       766.606 8        49.698                                                                    22578538.312 8  95537211.39308       622.957 8        49.768
C28        33.000                                                                                                                                    23730175.710 7 123569249.56507      2075.595 7        45.880                                                                    23730174.858 7 100410135.67107      1686.701 7        45.264
E34        35.000    23495802.304 7 123471480.92307     -1207.828 7        47.674                                                                    23495802.359 8  92202839.94708      -901.948 8        50.672    23495802.104 8  94608120.23308      -925.523 8        51.617
C14        36.000                                                                                                                                    23336572.362 7 121519659.01207      2245.608 7        45.029    23336568.517 8  93966694.12808      1736.476 8        49.798    23336567.074 7  98744653.75007      1824.724 7        47.559
R21        37.000    20343977.820 8 108864786.16308      1668.932 8        50.940                                                                    20343977.482 7  84672631.56007      1298.078 7        45.621
R06        38.000    22796686.274 6 121647495.76306      4075.718 6        37.471
R05        39.000    20077312.746 8 107324764.42208       638.945 8        51.820                                                                    20077311.499 7  83474825.84607       497.005 7        47.578
C12        40.000                                                                                                                                    26694740.702 5 139006697.75605     -3271.149 5        35.010    26694738.252 6 107488887.35706     -2529.663 6        40.160    26694736.474 6 112954397.06906     -2658.154 6        36.586
R04        41.000    21801229.012 7 116744621.14507     -3185.652 7        46.574                                                                    21801228.183 7  90801378.69507     -2477.723 7        42.919
S44        42.000    40391444.050 6 212258670.69506      -426.815 6        36.896
G08        43.000    20453806.442 8 107485569.72608       838.058 8        49.255                                    20453804.728 8  83755029.84408       653.031 8        50.344    20453805.792 7  83755027.85007       653.013 7        46.164
C05        44.000                                                                                                                                    39119049.760 6 203703186.57606      -357.508 6        38.480    39119044.445 7 157516248.37407      -276.526 7        42.544    39119046.716 6 165525627.59006      -290.504 6        40.422
C11        45.000                                                                                                                                    22286359.837 8 116051065.51308     -1938.876 8        48.075    22286356.103 8  89738105.72708     -1499.296 8        50.992    22286354.891 8  94301036.46708     -1575.454 8        48.766
E09        46.000    26895310.567 6 141335831.17306      -678.119 6        40.591                                                                    26895310.788 7 105543002.10507      -506.333 7        42.737    26895310.587 7 108296294.85407      -519.731 7        44.098
C33        47.000                                                                                                                                    25082310.797 7 130610176.93107      3040.312 7        44.135                                                                    25082321.930 7 106131521.53207      2470.565 7        44.236
C21        48.000                                                                                                                                    24161438.181 7 125814976.78207     -2228.168 7        46.293                                                                    24161432.936 7 102234962.03707     -1810.563 7        46.520
E06        49.000    27774514.101 6 145956076.60906     -1728.814 6        36.476                                                                    27774514.587 6 108993178.87606     -1291.023 6        40.591    27774514.640 6 111836476.44206     -1324.657 6        41.838
R19        50.000    24408911.114 5 130571453.84705     -3744.972 5        32.048                                                                    24408912.607 5 101555681.24705     -2912.229 5        32.599
S48        51.000    77108525.237 6 405208311.19706      -449.544 6        36.737
C08        52.000                                                                                                                                    39575567.020 6 206080459.60806     -1648.817 6        37.319    39575560.747 6 159354512.62406     -1275.106 6        40.069    39575559.539 6 167457271.70606     -1339.726 6        38.198
C34        53.000                                                                                                                                    23841265.888 7 124148001.29107     -2924.142 7        45.639                                                                    23841266.318 7 100880535.24907     -2376.113 7        45.788
C60        54.000                                                                                                                                    40391448.547 6 210329065.81206      -422.968 6        40.136                                                                    40391432.312 6 170909563.04706      -343.569 6        39.742
R12        55.000    22547736.482 7 120445956.78807      1091.747 7        45.898                                                                    22547737.312 7  93680190.34807       849.134 7        42.808
I09        56.000    37906502.603 7 148753282.65207       265.600 7        43.227
C02        57.000                                                                                                                                    40464881.688 5 210711299.00805      -375.629 5        33.784    40464874.934 6 162935334.61406      -290.592 6        39.628    40464878.399 5 171220192.45705      -305.591 5        35.776
I03        58.000    79769931.857 6 237249095.79706      1091.028 6        40.911
E30        59.000    25627144.810 7 134671770.03207     -2953.362 7        44.257                                                                    25627144.738 7 100566699.97507     -2205.404 7        46.845    25627144.501 8 103190162.54408     -2262.988 8        48.122
R20        60.000    19869099.298 6 106249213.47606     -1661.319 6        38.709                                                                    19869101.462 7  82638346.26207     -1292.122 7        47.075
> 2025 01 02 21 00 10.0000000  0 56
G23         1.000    22235215.369 7 116846923.31307     -3160.852 7        45.097                                    22235211.685 5  91049572.86305     -2463.001 5        33.078    22235211.581 7  91049570.87207     -2463.008 7        43.693
C37         2.000                                                                                                                                    25584657.954 6 133226014.15506     -1891.885 6        41.633                                                                    25584661.477 7 108257068.79307     -1537.503 7        42.677
G16         3.000    23751666.031 6 124816039.30506     -4107.526 6        41.473                                    23751661.838 4  97259332.74104     -3200.663 4        24.812
G21         4.000    21986031.966 6 115537429.52606      1724.020 6        41.557                                    21986027.099 4  90029169.09504      1343.389 4        28.863
S21         5.000    38361037.047 6 201588276.91506      -416.570 6        41.576
E13         6.000    28708519.749 5 150864293.50305      2043.019 5        32.653                                                                    28708523.953 5 112658414.52105      1525.405 5        34.538    28708523.293 5 115597326.37705      1565.055 5        35.995
G10         7.000    20636453.470 8 108445362.29808      -678.602 8        51.579                                    20636451.424 8  84502896.34408      -528.779 8        52.596    20636451.285 7  84502890.34907      -528.764 7        45.968
E15         8.000    24371343.045 7 128072378.31407      1067.773 7        46.122                                                                    24371343.728 8  95638531.67808       797.452 8        49.461    24371343.413 8  98133437.84808       818.237 8        50.533
E36         9.000    26899332.519 6 141357127.77606     -2764.946 6        38.922                                                                    26899334.060 7 105559034.04307     -2064.753 7        43.259    26899334.025 7 108312735.66907     -2118.536 7        44.745
G27        10.000    20208495.619 8 106196513.27208     -1587.522 8        50.509                                    20208493.409 8  82750600.45308     -1237.029 8        52.628    20208493.610 7  82750602.45307     -1237.012 7        46.441
G15        11.000    24997979.559 4 131365269.39304     -3327.495 4        28.758                                    24997977.691 2 102362534.35602     -2592.858 2        13.091    24997978.501 4 102362537.35804     -2592.609 4        29.517
G32        12.000    23956880.545 6 125894267.32906      2638.452 6        41.523                                    23956879.190 6  98099425.33406      2055.935 6        37.051    23956879.357 6  98099398.34506      2055.930 6        40.072
C23        13.000                                                                                                                                    26475679.926 6 137865838.54806     -3285.956 6        40.934                                                                    26475672.537 6 112027273.64106     -2670.319 6        39.592
S36        14.000    38129867.169 7 200374329.81807      -415.963 7        43.554
C13        15.000                                                                                                                                    38973297.705 6 202944243.47706     -1452.036 6        41.175    38973299.275 7 156929395.61507     -1122.898 7        42.078    38973297.891 6 164908843.61806     -1180.095 6        40.756
G18        16.000    25167563.251 6 132256646.04606     -3582.741 6        36.866                                    25167560.919 3 103057218.53703     -2791.757 3        18.836    25167559.861 6 103057226.52606     -2791.662 6        37.471
R10        17.000    24114643.847 6 128544626.30406     -4649.677 6        37.720
E27        18.000    25083169.826 7 131812966.37807      -435.701 7        44.129                                                                    25083169.904 7  98431764.77307      -325.297 7        47.926    25083169.435 8 100999547.17308      -333.835 8        48.764
E05        20.000    24764410.777 6 130137869.83806      1728.390 6        41.142                                                                    24764411.385 7  97180878.08607      1290.797 7        44.745    24764411.075 7  99716033.93507      1324.344 7        46.079
R11        21.000    21776307.514 7 116366003.63707     -2943.632 7        47.395                                                                    21776306.935 7  90506894.30407     -2289.448 7        44.537
I06        22.000    38486897.957 6 151031077.52306      -222.172 6        41.893
S23        25.000    38087305.116 7 200150102.12907      -415.632 7        44.132
S45        26.000    63340413.334 6 332857342.44506      -461.344 6        36.904
G02        27.000    24037799.947 6 126319516.40206      2312.938 6        41.757                                    24037794.637 4  98430776.38704      1802.286 4        24.571
S27        28.000    39074241.273 5 205336586.75205      -383.824 5        35.990
C38        29.000                                                                                                                                    41078123.233 6 213904688.31406     -1637.731 6        37.180                                                                    41078121.170 6 173815125.85506     -1331.209 6        37.595
E21        30.000    27996413.140 6 147122155.32406      1920.131 6        37.618                                                                    27996413.735 6 109863953.43906      1434.094 6        41.540    27996413.105 7 112729965.97707      1471.444 7        42.178
C43        31.000                                                                                                                                    21476421.289 8 111833467.83708      -854.486 8        51.239                                                                    21476419.796 8  90873895.69008      -694.563 8        49.956
C42        32.000                                                                                                                                    22577796.163 8 117568529.52408       764.059 8        49.538                                                                    22577803.651 8  95534102.41508       620.709 8        49.805
C28        33.000                                                                                                                                    23728182.658 7 123558872.97607      2075.357 7        45.818                                                                    23728182.070 7 100401703.84207      1686.101 7        45.467
E34        35.000    23496951.961 7 123477522.78507     -1208.575 7        47.498                                                                    23496952.041 8  92207351.72608      -902.524 8        50.728    23496951.799 8  94612749.71208      -926.075 8        51.578
C14        36.000                                                                                                                                    23334417.176 7 121508435.42707      2244.053 7        45.081    23334413.324 8  93958015.35308      1735.244 8        50.033    23334411.772 7  98735533.67507      1823.300 7        47.635
R21        37.000    20342418.959 8 108856444.96908      1667.699 8        50.945                                                                    20342418.141 7  84666143.96907      1297.108 7        45.539
R06        38.000    22792867.878 6 121627119.73806      4074.928 6        37.561
R05        39.000    20076717.188 8 107321581.01308       634.618 8        51.259                                                                    20076716.085 7  83472349.86907       493.570 7        47.444
C12        40.000                                                                                                                                    26697882.048 5 139023055.12705     -3271.595 5        35.214    26697879.171 6 107501535.89406     -2529.629 6        40.269    26697877.654 6 112967688.76706     -2658.403 6        36.809
R04        41.000    21804205.351 7 116760558.19207     -3188.877 7        46.446                                                                    21804204.437 7  90813774.17907     -2480.226 7        42.686
S44        42.000    40391849.738 6 212260805.00606      -426.634 6        37.040
G08        43.000    20453010.289 8 107481386.02608       835.686 8        49.260                                    20453008.600 8  83751769.82208       651.186 8        50.459    20453009.275 7  83751767.81707       651.213 7        46.114
C05        44.000                                                                                                                                    39119393.440 6 203704974.43406      -357.313 6        38.390    39119387.414 7 157517630.84807      -276.280 7        42.682    39119390.029 6 165527080.36406      -290.467 6        40.331
C11        45.000                                                                                                                                    22288222.297 8 116060763.50508     -1940.054 8        48.103    22288218.098 8  89745604.82608     -1500.140 8        51.019    22288217.305 8  94308916.88108     -1576.627 8        48.837
E09        46.000    26895956.714 6 141339227.84106      -680.337 6        40.567                                                                    26895957.057 7 105545538.56607      -507.971 7        42.662    26895956.826 7 108298897.47507      -521.314 7        44.170
C33        47.000                                                                                                                                    25079390.909 7 130594976.93207      3039.896 7        44.098                                                                    25079402.809 7 106119170.28907      2470.015 7        44.304
C21        48.000                                                                                                                                    24163579.031 7 125826123.71707     -2230.364 7        46.391                                                                    24163573.546 7 102244019.83407     -1812.527 7        46.624
E06        49.000    27776159.809 6 145964725.86206     -1730.719 6        36.246                                                                    27776160.382 6 108999637.71906     -1292.292 6        40.594    27776160.533 6 111843103.78806     -1326.043 6        41.619
R19        50.000    24412414.342 5 130590179.29705     -3744.863 5        31.298                                                                    24412413.574 5 101570245.47605     -2912.655 5        32.551
S48        51.000    77108928.622 6 405210559.24706      -449.357 6        36.964
C08        52.000                                                                                                                                    39577150.043 6 206088704.22206     -1648.511 6        37.066    39577143.765 6 159360887.89006     -1274.808 6        40.031    39577142.745 6 167463971.15606     -1339.873 6        38.294
C34        53.000                                                                                                                                    23844073.949 7 124162624.89807     -2925.032 7        45.521                                                                    23844074.478 7 100892418.12107     -2376.987 7        45.776
C60        54.000                                                                                                                                    40391854.395 6 210331180.71906      -422.841 6        40.069                                                                    40391838.277 6 170911281.58106      -343.694 6        39.868
R12        55.000    22546716.024 7 120440508.33607      1087.892 7        45.877                                                                    22546717.246 7  93675952.68507       846.157 7        43.043
I09        56.000    37906164.193 7 148751955.26707       265.528 7        43.079
C02        57.000                                                                                                                                    40465242.553 5 210713178.44405      -375.814 5        33.994    40465235.865 6 162936787.91306      -290.574 6        39.949    40465239.451 5 171221719.63905      -305.596 5        35.805
I03        58.000    79768542.126 6 237243640.99206      1091.170 6        40.961
E30        59.000    25629955.761 7 134686540.42807     -2954.636 7        44.250                                                                    25629955.529 7 100577729.81007     -2206.278 7        46.910    25629955.272 8 103201480.11108     -2263.903 8        48.014
R20        60.000    19870654.805 6 106257524.71206     -1662.969 6        39.414                                                                    19870656.095 7  82644810.54807     -1293.383 7        47.213
> 2025 01 02 21 00 15.0000000  0 56
G23         1.000    22238223.665 7 116862732.70607     -3162.710 7        44.537                                    22238220.076 5  91061891.87305     -2464.449 5        32.952    22238220.357 7  91061889.87607     -2464.415 7        44.074
C37         2.000                                                                                                                                    25586475.911 7 133235479.59307     -1894.008 7        42.083                                                                    25586479.295 7 108264760.23507     -1539.182 7        42.440
G16         3.000    23755574.678 6 124836579.17706     -4108.117 6        41.721                                    23755570.291 4  97275337.83604     -3201.125 4        24.872
G21         4.000    21984392.190 6 115528813.29706      1722.614 6        41.607                                    21984387.507 4  90022455.15504      1342.296 4        28.957
S21         5.000    38361436.385 6 201590360.53306      -416.692 6        41.759
E13         6.000    28706577.044 5 150854081.47705      2042.255 5        33.659                                                                    28706580.531 5 112650788.62305      1525.175 5        34.514    28706579.902 5 115589501.55605      1565.068 5        35.567
G10         7.000    20637100.777 8 108448763.35108      -681.561 8        51.438                                    20637098.619 8  84505546.51608      -531.086 8        52.533    20637098.420 7  84505540.51807      -531.085 7        45.970
E15         8.000    24370327.687 7 128067042.20107      1066.808 7        46.169                                                                    24370328.251 8  95634546.92208       796.630 8        49.682    24370327.983 8  98129349.14308       817.444 8        50.434
E36         9.000    26901963.576 6 141370953.20906     -2765.062 6        39.294                                                                    26901965.113 7 105569358.23107     -2064.905 7        43.471    26901964.727 7 108323329.18307     -2118.786 7        44.614
G27        10.000    20210007.697 8 106204459.06508     -1590.554 8        50.533                                    20210005.466 8  82756791.98308     -1239.394 8        52.626    20210005.655 7  82756793.98807     -1239.433 7        46.418
G15        11.000    25001146.371 4 131381914.11004     -3329.997 4        29.299                                    25001145.017 2 102375504.23602     -2594.792 2        12.727    25001146.323 4 102375507.21704     -2594.803 4        28.028
G32        12.000    23954370.663 6 125881078.42506      2637.384 6        41.855                                    23954369.492 6  98089148.26606      2055.106 6        37.217    23954369.657 6  98089121.26306      2055.319 6        40.122
C23        13.000                                                                                                                                    26478835.502 6 137882269.08306     -3286.049 6        40.527                                                                    26478827.728 6 112040624.76906     -2670.253 6        38.988
S36        14.000    38130262.679 7 200376410.71307      -416.105 7        43.689
C13        15.000                                                                                                                                    38974692.854 6 202951504.52506     -1452.206 6        41.504    38974693.954 6 156935010.31306     -1122.873 6        41.914    38974692.325 6 164914743.81306     -1180.068 6        40.472
G18        16.000    25170972.103 6 132274560.39906     -3582.737 6        36.374                                    25170969.727 3 103071177.77703     -2791.740 3        18.000    25170969.642 6 103071185.77306     -2791.716 6        36.994
R10        17.000    24119005.694 6 128567874.41906     -4649.384 6        38.649
E27        18.000    25083585.815 7 131815151.97007      -438.214 7        43.958                                                                    25083585.810 8  98433396.88208      -327.296 8        48.066    25083585.376 8 101001221.85808      -335.833 8        48.681
E05        20.000    24762767.046 6 130129232.43706      1726.680 6        41.397                                                                    24762767.792 7  97174428.08107      1289.441 7        44.886    24762767.461 7  99709415.66107      1323.130 7        45.925
R11        21.000    21779063.805 7 116380730.92307     -2947.141 7        47.781                                                                    21779062.636 7  90518348.85007     -2292.216 7        44.552
I06        22.000    38487180.877 6 151032188.66206      -222.298 6        41.669
S23        25.000    38087700.018 7 200152181.15107      -415.640 7        44.169
S45        26.000    63340807.673 6 332859649.23606      -461.525 6        37.459
G02        27.000    24035599.337 6 126307953.87406      2312.393 6        41.364                                    24035594.326 4  98421766.63004      1801.859 4        24.466
S27        28.000    39074609.685 6 205338507.44706      -384.217 6        36.189
C38        29.000                                                                                                                                    41079695.710 6 213912878.03206     -1637.689 6        37.501                                                                    41079694.034 6 173821780.66406     -1330.826 6        37.149
E21        30.000    27994587.078 6 147112558.89706      1918.593 6        37.422                                                                    27994587.570 6 109856787.28206      1432.734 6        41.895    27994586.865 7 112722612.88607      1470.133 7        42.064
C43        31.000                                                                                                                                    21477242.845 8 111837745.52008      -856.365 8        51.491                                                                    21477241.258 8  90877371.66008      -695.984 8        49.689
C42        32.000                                                                                                                                    22577064.152 8 117564716.89808       761.176 8        49.845                                                                    22577071.391 8  95531004.35208       618.449 8        49.689
C28        33.000                                                                                                                                    23726190.833 7 123548499.17407      2074.496 7        46.086                                                                    23726189.893 7 100393274.29407      1685.577 7        45.151
E34        35.000    23498102.719 7 123483569.16907     -1209.703 7        47.710                                                                    23498102.657 8  92211866.88308      -903.344 8        50.865    23498102.407 8  94617382.65508      -926.925 8        51.577
C14        36.000                                                                                                                                    23332263.622 7 121497220.88107      2242.023 7        45.639    23332259.597 8  93949343.55908      1733.673 8        50.121    23332258.153 7  98726420.94207      1821.677 7        47.420
R21        37.000    20340862.035 8 108848110.60608      1666.197 8        51.037                                                                    20340861.023 7  84659661.68607      1295.968 7        45.646
R06        38.000    22789051.053 6 121606747.68206      4073.758 6        37.667
R05        39.000    20076125.471 8 107318420.19508       629.918 8        51.214                                                                    20076125.033 7  83469891.45907       490.005 7        47.614
C12        40.000                                                                                                                                    26701023.933 5 139039413.65005     -3271.956 5        35.352    26701020.906 6 107514185.34106     -2529.957 6        40.265    26701019.385 6 112980981.40106     -2658.693 6        36.801
R04        41.000    21807185.076 7 116776512.12807     -3192.468 7        46.787                                                                    21807182.752 7  90826182.78407     -2482.968 7        42.918
S44        42.000    40392254.031 6 212262939.07106      -426.848 6        37.346
G08        43.000    20452216.631 8 107477214.81808       832.990 8        49.329                                    20452214.843 8  83748519.53208       649.081 8        50.504    20452215.605 7  83748517.53707       649.132 7        46.325
C05        44.000                                                                                                                                    39119736.565 6 203706761.96106      -357.411 6        38.562    39119731.031 7 157519013.09207      -276.417 7        42.591    39119733.356 6 165528532.87806      -290.479 6        40.110
C11        45.000                                                                                                                                    22290085.872 8 116070468.03008     -1941.527 8        48.183    22290082.181 8  89753108.98008     -1501.328 8        51.292    22290080.969 8  94316802.58808     -1577.640 8        48.561
E09        46.000    26896605.722 6 141342636.40006      -682.958 6        40.243                                                                    26896605.735 7 105548083.93007      -509.961 7        42.925    26896605.516 7 108301509.23407      -523.256 7        44.163
C33        47.000                                                                                                                                    25076471.276 7 130579780.10507      3039.042 7        43.422                                                                    25076484.311 7 106106821.62807      2469.374 7        44.011
C21        48.000                                                                                                                                    24165722.070 7 125837282.24307     -2232.885 7        46.231                                                                    24165716.500 7 102253087.04907     -1814.502 7        46.459
E06        49.000    27777807.839 6 145973385.37106     -1732.963 6        36.284                                                                    27777808.186 6 109006104.23006     -1294.034 6        40.925    27777808.535 6 111849738.99206     -1327.730 6        41.862
R19        50.000    24415912.232 5 130608905.89105     -3745.212 5        30.113                                                                    24415913.583 5 101584810.65805     -2913.134 5        32.401
S48        51.000    77109333.291 6 405212806.93906      -449.481 6        37.180
C08        52.000                                                                                                                                    39578733.407 6 206096948.29706     -1648.819 6        37.395    39578727.219 6 159367262.73206     -1275.063 6        40.272    39578726.071 6 167470670.10806     -1339.754 6        38.117
C34        53.000                                                                                                                                    23846883.185 7 124177252.88807     -2926.096 7        45.750                                                                    23846883.476 7 100904304.55607     -2377.716 7        45.282
C60        54.000                                                                                                                                    40392260.490 6 210333295.37606      -422.859 6        40.155                                                                    40392244.381 6 170912999.91006      -343.717 6        39.357
R12        55.000    22545700.070 7 120435080.01507      1083.653 7        45.774                                                                    22545700.684 7  93671730.67107       842.814 7        43.153
I09        56.000    37905826.077 7 148750628.72607       265.313 7        43.266
C02        57.000                                                                                                                                    40465603.270 5 210715057.61505      -375.790 5        34.071    40465596.967 6 162938241.01006      -290.495 6        39.874    40465600.141 5 171223246.62305      -305.600 5        35.438
I03        58.000    79767152.253 6 237238186.08406      1091.003 6        40.853
E30        59.000    25632767.953 7 134701317.39907     -2956.094 7        44.679                                                                    25632767.483 7 100588764.56507     -2207.424 7        46.901    25632767.273 8 103212802.72808     -2264.994 8        48.083
R20        60.000    19872211.020 6 106265845.18806     -1664.881 6        39.883                                                                    19872211.949 7  82651282.02407     -1295.026 7        47.435
> 2025 01 02 21 00 20.0000000  0 56
G23         1.000    22241233.427 7 116878550.42207     -3164.278 7        44.856                                    22241230.077 5  91074217.36205     -2465.671 5        33.060    22241230.498 7  91074215.37107     -2465.653 7        43.843
C37         2.000                                                                                                                                    25588295.214 6 133244955.42806     -1896.039 6        41.933                                                                    25588299.152 7 108272460.11407     -1540.611 7        42.459
G16         3.000    23759483.685 6 124857121.55606     -4108.692 6        41.414                                    23759479.303 4  97291344.88104     -3201.575 4        24.977
G21         4.000    21982753.635 6 115520203.49906      1721.390 6        41.433                                    21982749.024 4  90015746.22104      1341.339 4        29.081
S21         5.000    38361829.338 6 201592443.98306      -416.644 6        41.712
E13         6.000    28704634.294 5 150843869.86005      2042.411 5        32.671                                                                    28704637.615 5 112643163.05405      1525.227 5        35.419    28704636.805 6 115581677.06606      1565.027 6        36.299
G10         7.000    20637750.356 8 108452178.45008      -684.254 8        51.456                                    20637748.485 8  84508207.63008      -533.185 8        52.656    20637748.744 7  84508201.63907      -533.166 7        45.922
E15         8.000    24369312.939 7 128061710.20707      1066.059 7        46.100                                                                    24369313.604 8  95630565.23508       796.090 8        49.658    24369313.298 8  98125263.58308       816.870 8        50.383
E36         9.000    26904594.645 6 141384779.11006     -2765.136 6        39.297                                                                    26904596.113 7 105579682.76507     -2064.896 7        43.446    26904595.571 7 108333923.05207     -2118.791 7        44.384
