     3.04           OBSERVATION DATA    M                   RINEX VERSION / TYPE
ssrcrin-15.6.1x                         20250102 094500 UTC PGM / RUN BY / DATE 
(00000000023479385599111004) Septentrio proprietary         COMMENT             
rref                                                        MARKER NAME         
01                                                          MARKER NUMBER       
geodetic                                                    MARKER TYPE         
NFB                 CLIMERS@TUW                             OBSERVER / AGENCY   
3297213             SEPT ASTERX SB3 PROB4.14.4              REC # / TYPE / VERS 
Unknown             Unknown                                 ANT # / TYPE        
  4127832.0053  1207192.5990  4695248.7353                  APPROX POSITION XYZ 
        0.0000        0.0000        0.0000                  ANTENNA: DELTA H/E/N
G   23 X1  C1C L1C D1C S1C C1W S1W C2W L2W D2W S2W C2L L2L  SYS / # / OBS TYPES 
       D2L S2L C5Q L5Q D5Q S5Q C1L L1L D1L S1L              SYS / # / OBS TYPES 
E   21 X1  C1C L1C D1C S1C C6C L6C D6C S6C C5Q L5Q D5Q S5Q  SYS / # / OBS TYPES 
       C7Q L7Q D7Q S7Q C8Q L8Q D8Q S8Q                      SYS / # / OBS TYPES 
S    9 X1  C1C L1C D1C S1C C5I L5I D5I S5I                  SYS / # / OBS TYPES 
R   17 X1  C1C L1C D1C S1C C2P L2P D2P S2P C2C L2C D2C S2C  SYS / # / OBS TYPES 
       C3Q L3Q D3Q S3Q                                      SYS / # / OBS TYPES 
C   25 X1  C1P L1P D1P S1P C5P L5P D5P S5P C2I L2I D2I S2I  SYS / # / OBS TYPES 
       C7I L7I D7I S7I C6I L6I D6I S6I C7D L7D D7D S7D      SYS / # / OBS TYPES 
J   17 X1  C1C L1C D1C S1C C2L L2L D2L S2L C5Q L5Q D5Q S5Q  SYS / # / OBS TYPES 
       C1L L1L D1L S1L                                      SYS / # / OBS TYPES 
I    5 X1  C5A L5A D5A S5A                                  SYS / # / OBS TYPES 
SEPTENTRIO RECEIVERS OUTPUT ALIGNED CARRIER PHASES.         COMMENT             
NO FURTHER PHASE SHIFT APPLIED IN THE RINEX ENCODER.        COMMENT             
G L1C                                                       SYS / PHASE SHIFT   
G L2W                                                       SYS / PHASE SHIFT   
G L2L  0.00000                                              SYS / PHASE SHIFT   
G L5Q  0.00000                                              SYS / PHASE SHIFT   
G L1L  0.00000                                              SYS / PHASE SHIFT   
E L1C  0.00000                                              SYS / PHASE SHIFT   
E L6C  0.00000                                              SYS / PHASE SHIFT   
E L5Q  0.00000                                              SYS / PHASE SHIFT   
E L7Q  0.00000                                              SYS / PHASE SHIFT   
E L8Q  0.00000                                              SYS / PHASE SHIFT   
S L1C                                                       SYS / PHASE SHIFT   
S L5I                                                       SYS / PHASE SHIFT   
R L1C                                                       SYS / PHASE SHIFT   
R L2P  0.00000                                              SYS / PHASE SHIFT   
R L2C                                                       SYS / PHASE SHIFT   
R L3Q  0.00000                                              SYS / PHASE SHIFT   
C L1P  0.00000                                              SYS / PHASE SHIFT   
C L5P  0.00000                                              SYS / PHASE SHIFT   
C L2I                                                       SYS / PHASE SHIFT   
C L7I                                                       SYS / PHASE SHIFT   
C L6I                                                       SYS / PHASE SHIFT   
C L7D                                                       SYS / PHASE SHIFT   
J L1C                                                       SYS / PHASE SHIFT   
J L2L  0.00000                                              SYS / PHASE SHIFT   
J L5Q  0.00000                                              SYS / PHASE SHIFT   
J L1L  0.00000                                              SYS / PHASE SHIFT   
I L5A                                                       SYS / PHASE SHIFT   
  2025     1     2     9    45    0.0000000     GPS         TIME OF FIRST OBS   
 C1C    0.000 C2C    0.000 C2P    0.000                     GLONASS COD/PHS/BIS 
DBHZ                                                        SIGNAL STRENGTH UNIT
    18                                                      LEAP SECONDS        
 24 R01  1 R02 -4 R03  5 R04  6 R05  1 R06 -4 R07  5 R08  6 GLONASS SLOT / FRQ #
    R09 -2 R10 -7 R11  0 R12 -1 R13 -2 R14 -7 R15  0 R16 -1 GLONASS SLOT / FRQ #
    R17  4 R18 -3 R19  3 R20  2 R21  4 R22 -3 R23  3 R24  2 GLONASS SLOT / FRQ #
                                                            END OF HEADER       
> 2025 01 02 09 45  0.0000000  0 54
E24         1.000    25168886.942 7 132263503.16407      1760.625 7        46.579                                                                    25168889.649 8  98768266.76108      1314.745 8        48.393    25168888.746 8 101344819.33908      1349.012 8        49.207
G15         2.000    20258558.875 8 106459400.49608      -519.335 8        49.560                                    20258557.654 8  82955353.55808      -404.676 8        50.161    20258558.029 7  82955348.56207      -404.660 7        45.720
E15         3.000    28966539.271 5 152220152.05805     -1979.491 5        33.395                                                                    28966545.317 6 113670883.30506     -1478.266 6        36.839    28966544.303 6 116636207.97506     -1516.639 6        37.875
G19         4.000    23562502.395 6 123821909.96006      2711.118 6        41.962                                    23562504.241 4  96484627.73504      2112.545 4        29.896
S21         5.000    38526605.844 7 202458270.38207      -498.834 7        42.131
E05         6.000    23185820.734 7 121842274.12707      1283.520 7        45.898                                                                    23185824.110 8  90986089.20408       958.435 8        48.896    23185823.344 8  93359638.73708       983.391 8        49.595
E13         7.000    28773800.375 5 151207334.61705       147.663 5        32.647                                                                    28773813.441 6 112914618.34806       110.215 6        36.280    28773811.925 6 115860208.89606       113.098 6        37.240
R02         8.000    21138699.392 8 112800065.21608     -4236.834 8        50.779                                                                    21138703.891 7  87733363.53107     -3295.302 7        46.090
R20         9.000    24673925.870 5 131942597.38905     -3166.036 5        31.072                                                                    24673931.805 6 102622042.34406     -2462.788 6        38.952
G24        10.000    22134489.131 7 116317520.23407      2309.631 7        43.884                                    22134491.194 7  90637041.73807      1799.705 7        42.567    22134491.508 7  90637046.74107      1799.672 7        42.155
G30        11.000    23996449.976 6 126102085.47106     -3444.426 6        40.234                                    23996455.128 5  98261327.12405     -2683.968 5        34.910    23996456.417 6  98261335.11706     -2683.877 6        38.153
S27        12.000    39248574.218 6 206252531.39906      -531.673 6        36.722
G13        13.000    20455266.067 8 107493103.77108     -2260.530 8        49.400                                    20455263.951 6  83760827.13406     -1761.449 6        40.234
S36        14.000    38296441.177 7 201249612.29507      -499.810 7        44.343
I09        15.000    40798571.169 5 160102037.19605     -1008.458 5        30.725
E09        16.000    23767550.437 8 124899295.16608     -1512.638 8        49.092                                                                    23767552.926 8  93268939.76708     -1129.518 8        50.610    23767552.182 8  95702040.35408     -1158.972 8        51.233
G12        17.000    25334998.649 6 133136335.63706      3377.393 6        37.970                                    25335005.924 4 103742643.25004      2631.714 4        29.100    25335005.658 5 103742640.28105      2631.654 5        34.762
R21        18.000    23269327.574 7 124518929.76907      -365.279 7        44.358                                                                    23269334.756 6  96848109.96606      -284.127 6        39.456
R22        19.000    23841297.869 7 127266478.99307      2587.686 7        42.525                                                                    23841306.892 6  98985019.68106      2012.546 6        39.865
R03        21.000    19479221.230 8 104273756.02108      -323.658 8        52.262                                                                    19479221.317 7  81101800.13907      -251.812 7        47.172
I06        22.000    38248285.907 7 150094602.28707      -469.438 7        42.574
S28        23.000    40974227.596 5 215320866.01105      -509.196 5        34.981
S23        25.000    38229261.926 7 200896040.93607      -500.655 7        43.809
S45        26.000    63478813.675 6 333584435.87806      -549.574 6        36.117
C07        27.000                                                                                                                                    38908567.602 6 202607089.65106      -654.102 6        41.025    38908565.878 7 156668639.81007      -505.686 7        44.724    38908563.843 6 164634833.03006      -531.333 6        41.833
R04        28.000    21957802.039 7 117583009.65807      3129.591 7        47.419                                                                    21957803.610 7  91453426.93307      2434.085 7        44.206
C40        29.000                                                                                                                                    38944646.629 7 202794972.94407      -778.956 7        42.923                                                                    38944648.356 7 164787526.88307      -632.850 7        43.073
G17        30.000    22414328.092 7 117788203.27207       946.632 7        46.351                                    22414328.694 7  91783073.20607       737.631 7        43.384    22414328.941 7  91783070.21507       737.600 7        42.491
G14        31.000    21554343.982 7 113268824.45907     -2727.973 7        46.666                                    21554343.432 6  88261416.54806     -2125.692 6        36.110    21554343.512 7  88261402.55007     -2125.758 7        45.606
G23        32.000    23209759.786 7 121968053.96507       143.636 7        43.191                                    23209760.666 4  95040014.84404       111.924 4        29.232    23209760.763 7  95040009.85507       111.926 7        42.500
I02        33.000    37201776.751 7 145987758.93107       -84.512 7        43.029
E04        34.000    26698846.526 6 140303293.16006     -3320.689 6        39.994                                                                    26698853.424 7 104771913.83007     -2479.760 7        45.165    26698852.523 7 107505094.01207     -2544.347 7        46.257
R13        35.000    19355815.179 7 103359009.39707      -275.615 7        47.036
R12        36.000    20745592.174 8 110819191.64908     -3316.975 8        49.697                                                                    20745595.582 7  86192699.41407     -2579.858 7        46.061
C42        37.000                                                                                                                                    25707646.014 6 133866448.92006      2206.040 6        40.484                                                                    25707658.174 7 108777498.04507      1792.708 7        43.441
C10        38.000                                                                                                                                    38613511.373 6 201070683.40706      -266.026 6        41.838    38613512.483 7 155480607.29007      -205.708 7        45.229    38613509.467 6 163386389.11706      -215.937 6        41.640
C30        40.000                                                                                                                                    25459585.261 7 132574780.32807      1514.692 7        43.156                                                                    25459591.523 7 107727909.72507      1230.927 7        42.180
G05        41.000    24866005.048 6 130671518.39806     -4127.357 6        40.479                                    24866015.101 5 101821885.82705     -3216.104 5        32.287    24866015.523 6 101821894.78706     -3216.088 6        37.176
S44        42.000    40967656.296 6 215286514.39906      -477.479 6        37.361
C36        43.000                                                                                                                                    22290131.947 8 116070531.33408     -2094.388 8        49.221                                                                    22290138.993 8  94316826.67708     -1701.712 8        50.090
C05        44.000                                                                                                                                    39488959.756 6 205629286.81406      -545.179 6        37.849    39488962.096 7 159005600.13207      -421.318 7        42.679    39488962.579 6 167090716.71106      -442.673 6        40.067
R14        45.000    22610387.392 7 120526129.02907      2879.154 7        47.994                                                                    22610394.865 7  93742609.95307      2239.312 7        42.580
G10        47.000    25753293.215 6 135334436.99306      2171.982 6        38.201                                    25753297.486 5 105455406.69105      1692.472 5        30.528    25753297.804 6 105455407.67606      1692.366 6        36.843
C45        50.000                                                                                                                                    22043889.970 8 114788347.15408       610.698 8        50.788                                                                    22043883.867 8  93274923.82708       496.387 8        50.149
S48        51.000    77237476.221 6 405885175.14706      -491.173 6        37.565
E06        52.000    24669908.086 7 129641199.80707     -2627.235 7        46.958                                                                    24669912.774 8  96809978.43308     -1961.857 8        48.732    24669912.087 8  99335456.31908     -2013.071 8        49.399
C09        53.000                                                                                                                                    41521839.179 4 216214923.31504     -1133.405 4        29.678    41521850.253 6 167191029.38306      -875.758 6        36.892    41521844.914 5 175692271.39005      -920.175 5        33.605
C60        54.000                                                                                                                                    40967656.925 6 213329382.29406      -473.128 6        39.661                                                                    40967648.184 6 173347534.09106      -384.151 6        38.832
E31        55.000    23496066.308 8 123472666.03208      -879.574 8        48.556                                                                    23496069.355 8  92203646.72208      -656.856 8        50.556    23496068.651 8  94608955.32008      -673.905 8        51.007
C26        56.000                                                                                                                                    26089080.843 6 135852672.65106      2386.831 6        40.896                                                                    26089087.493 6 110391445.22406      1939.622 6        40.565
C02        57.000                                                                                                                                    41054420.461 5 213781012.46205      -522.276 5        30.551    41054424.877 6 165308988.19206      -403.918 6        36.537    41054425.118 5 173714550.98705      -424.321 5        31.192
I03        58.000    94312969.612 6 294318870.22606       885.746 6        36.658
C21        59.000                                                                                                                                    22953096.011 8 119522744.59808      -291.402 8        49.498                                                                    22953093.078 8  97121986.22408      -236.610 8        49.381
C22        60.000                                                                                                                                    23359708.728 8 121640048.12408     -3266.732 8        48.733                                                                    23359706.004 8  98842461.49208     -2654.336 8        48.068
> 2025 01 02 09 45  5.0000000  0 54
E24         1.000    25167211.835 7 132254702.33107      1759.636 7        46.410                                                                    25167214.894 8  98761694.72508      1314.045 8        48.311    25167214.003 8 101338075.86008      1348.268 8        49.276
G15         2.000    20259054.723 8 106462004.78908      -522.448 8        49.671                                    20259053.226 8  82957382.87208      -407.104 8        50.194    20259053.412 7  82957377.87307      -407.133 7        45.467
E15         3.000    28968422.928 5 152230052.55205     -1980.731 5        33.299                                                                    28968429.141 6 113678276.55206     -1479.320 6        36.817    28968428.281 6 116643794.08906     -1517.934 6        37.656
G19         4.000    23559922.832 7 123808355.27607      2710.580 7        42.307                                    23559924.772 4  96474065.68604      2112.127 4        29.640
S21         5.000    38527070.061 6 202460763.71306      -498.445 6        41.764
E05         6.000    23184599.815 7 121835858.99107      1282.549 7        45.877                                                                    23184603.296 8  90981298.67608       957.748 8        48.773    23184602.553 8  93354723.23608       982.741 8        49.703
E13         7.000    28773661.065 5 151206601.12705       145.687 5        33.204                                                                    28773673.762 6 112914070.58106       109.144 6        36.280    28773672.269 6 115859646.85706       111.533 6        37.550
R02         8.000    21142669.710 8 112821254.24308     -4238.884 8        50.244                                                                    21142674.446 7  87749843.87707     -3296.960 7        46.351
R20         9.000    24676887.775 5 131958435.75705     -3169.001 5        30.702                                                                    24676893.051 6 102634361.13406     -2464.624 6        38.535
G24        10.000    22132291.688 7 116305973.67507      2308.883 7        44.345                                    22132293.955 7  90628044.43507      1799.127 7        42.635    22132294.558 7  90628049.46007      1798.957 7        42.133
G30        11.000    23999726.816 6 126119307.34406     -3444.528 6        40.224                                    23999732.300 5  98274746.74105     -2684.041 5        34.995    23999732.781 6  98274754.73906     -2684.222 6        38.138
S27        12.000    39249073.971 6 206255188.41006      -531.321 6        36.174
G13        13.000    20457418.045 8 107504411.88508     -2262.778 8        49.828                                    20457415.825 6  83769638.64906     -1763.202 6        40.298
S36        14.000    38296918.823 7 201252110.10507      -499.283 7        44.269
I09        15.000    40799857.347 5 160107078.58705     -1007.998 5        30.325
E09        16.000    23768990.208 8 124906861.57508     -1514.050 8        49.024                                                                    23768992.787 8  93274590.00408     -1130.603 8        50.505    23768992.047 8  95707837.99108     -1160.131 8        51.313
G12        17.000    25331784.669 6 133119448.49306      3377.417 6        38.270                                    25331792.290 4 103729484.52804      2631.732 4        29.090    25331792.811 5 103729481.58305      2631.705 5        35.124
R21        18.000    23269671.175 7 124520765.94807      -369.283 7        44.733                                                                    23269677.925 6  96849538.06706      -287.181 6        39.595
R22        19.000    23838873.879 7 127253543.76607      2586.032 7        42.516                                                                    23838883.769 6  98974959.03906      2011.387 6        39.072
R03        21.000    19479525.607 8 104275384.50708      -327.816 8        52.117                                                                    19479526.073 7  81103066.73807      -255.017 7        46.873
I06        22.000    38248883.679 7 150096948.40707      -469.129 7        42.806
S28        23.000    40974716.290 5 215323410.70305      -508.845 5        34.676
S23        25.000    38229740.197 7 200898543.29107      -500.353 7        44.149
S45        26.000    63479289.393 6 333587182.91906      -549.122 6        36.121
C07        27.000                                                                                                                                    38909195.405 6 202610360.02306      -654.213 6        40.827    38909193.737 7 156671168.66307      -505.923 7        44.441    38909191.912 6 164637490.48306      -531.509 6        41.783
R04        28.000    21954879.915 8 117567366.17408      3127.711 8        48.073                                                                    21954882.523 7  91441259.79507      2432.594 7        44.539
C40        29.000                                                                                                                                    38945394.728 7 202798868.80807      -779.539 7        42.950                                                                    38945396.525 7 164790692.58807      -633.242 7        43.098
G17        30.000    22413428.241 7 117783475.90707       944.243 7        46.509                                    22413429.098 7  91779389.56407       735.768 7        43.450    22413429.298 7  91779386.57207       735.815 7        42.006
G14        31.000    21556940.054 7 113282467.94007     -2729.471 7        46.387                                    21556939.718 6  88272047.81606     -2126.857 6        36.091    21556940.174 7  88272033.81207     -2126.822 7        45.595
G23        32.000    23209624.634 7 121967342.94407       140.650 7        42.844                                    23209625.435 4  95039460.80004       109.599 4        29.280    23209625.743 7  95039455.79207       109.649 7        42.273
I02        33.000    37201884.569 7 145988181.15007       -84.399 7        43.141
E04        34.000    26702006.025 6 140319897.17106     -3321.039 6        39.628                                                                    26702012.997 7 104784312.89507     -2479.997 7        44.963    26702011.887 7 107517816.54207     -2544.714 7        46.147
R13        35.000    19356074.018 7 103360393.56007      -278.116 7        47.045
R12        36.000    20748697.705 8 110835779.21008     -3318.084 8        50.446                                                                    20748700.987 7  86205600.83507     -2580.752 7        46.324
C42        37.000                                                                                                                                    25705529.270 6 133855421.44506      2204.817 6        41.683                                                                    25705540.389 7 108768537.31007      1791.770 7        43.490
C10        38.000                                                                                                                                    38613766.456 6 201072014.10206      -266.269 6        41.511    38613767.872 7 155481636.26907      -205.921 7        44.968    38613765.089 6 163387470.41606      -216.234 6        41.814
C30        40.000                                                                                                                                    25458131.579 7 132567210.38607      1513.308 7        43.336                                                                    25458137.618 7 107721758.54307      1229.695 7        42.000
G05        41.000    24869931.881 6 130692153.63406     -4126.951 6        40.353                                    24869941.941 5 101837965.14705     -3215.789 5        32.245    24869942.115 6 101837974.11706     -3215.818 6        37.335
S44        42.000    40968111.954 6 215288899.94406      -476.841 6        37.157
C36        43.000                                                                                                                                    22292143.450 8 116081005.26108     -2095.313 8        49.171                                                                    22292150.463 8  94325337.59908     -1702.463 8        50.097
C05        44.000                                                                                                                                    39489482.725 6 205632010.96106      -544.479 6        37.890    39489485.486 7 159007706.64107      -421.172 7        42.984    39489486.081 6 167092930.34206      -442.488 6        40.143
R14        45.000    22607687.113 7 120511735.75107      2878.247 7        47.773                                                                    22607695.315 7  93731415.21307      2238.650 7        42.718
G10        47.000    25751227.340 6 135323580.79506      2170.407 6        37.743                                    25751231.739 5 105446947.25705      1691.229 5        30.551    25751231.816 6 105446948.25006      1691.106 6        36.219
C45        50.000                                                                                                                                    22043304.077 8 114785296.30408       609.531 8        50.914                                                                    22043298.003 8  93272444.77008       495.420 8        50.174
S48        51.000    77237942.803 6 405887630.70406      -491.028 6        37.346
E06        52.000    24672408.391 7 129654338.30807     -2628.272 7        46.944                                                                    24672412.898 8  96819789.64308     -1962.679 8        48.771    24672412.082 8  99345523.47308     -2013.862 8        49.421
C09        53.000                                                                                                                                    41522927.183 4 216220584.05404     -1132.038 4        29.687    41522936.658 6 167195406.62006      -875.331 6        36.991    41522932.054 5 175696871.19805      -919.838 5        33.443
C60        54.000                                                                                                                                    40968110.669 6 213331746.13706      -472.550 6        39.568                                                                    40968101.888 6 173349454.93006      -383.973 6        38.997
E31        55.000    23496903.978 8 123477067.57608      -881.067 8        48.470                                                                    23496906.900 8  92206933.59108      -657.932 8        50.574    23496906.221 8  94612327.93608      -675.111 8        51.071
C26        56.000                                                                                                                                    26086788.252 6 135840738.37706      2386.753 6        41.173                                                                    26086795.961 6 110381747.67006      1939.561 6        40.698
C02        57.000                                                                                                                                    41054920.384 5 213783623.08105      -522.331 5        30.475    41054926.199 6 165311006.86006      -403.760 6        36.563    41054926.633 5 173716672.29005      -423.964 5        31.366
I03        58.000    94311840.862 6 294314440.84406       886.053 6        37.323
C21        59.000                                                                                                                                    22953376.956 8 119524207.44408      -293.811 8        49.591                                                                    22953373.965 8  97123174.91808      -238.624 8        49.362
C22        60.000                                                                                                                                    23362845.912 8 121656384.73108     -3268.010 8        48.513                                                                    23362843.288 8  98855736.31208     -2655.438 8        48.085
> 2025 01 02 09 45 10.0000000  0 54
E24         1.000    25165538.182 7 132245908.25507      1758.307 7        46.230                                                                    25165541.470 8  98755127.74008      1313.026 8        48.334    25165540.555 8 101331337.55908      1347.307 8        49.354
G15         2.000    20259553.504 8 106464626.28608      -525.820 8        49.180                                    20259552.090 8  82959425.59308      -409.728 8        50.151    20259552.439 7  82959420.58607      -409.771 7        45.756
E15         3.000    28970309.052 5 152239962.55605     -1983.003 5        33.820                                                                    28970315.011 5 113685676.88805     -1480.576 5        35.410    28970313.783 6 116651387.48606     -1519.237 6        37.062
G19         4.000    23557344.647 7 123794805.36707      2709.574 7        42.123                                    23557346.157 4  96463507.35304      2111.357 4        29.365
S21         5.000    38527551.073 7 202463256.55307      -498.192 7        42.252
E05         6.000    23183380.273 7 121829450.29707      1281.281 7        45.533                                                                    23183383.798 8  90976512.96408       956.821 8        48.846    23183383.028 8  93349812.68408       981.731 8        49.741
E13         7.000    28773523.661 5 151205879.03305       143.310 5        32.868                                                                    28773536.388 6 112913531.37106       107.021 6        36.284    28773534.934 6 115859093.56506       109.668 6        37.444
R02         8.000    21146642.804 8 112842455.68308     -4241.288 8        50.502                                                                    21146647.366 7  87766333.85107     -3298.808 7        45.931
R20         9.000    24679851.254 5 131974288.68105     -3171.657 5        30.815                                                                    24679857.527 6 102646691.22006     -2466.944 6        37.633
G24        10.000    22130095.499 7 116294433.17807      2307.669 7        44.525                                    22130097.847 7  90619051.85607      1798.184 7        42.561    22130098.384 6  90619056.85906      1798.174 6        41.936
G30        11.000    24003004.968 6 126136531.90106     -3445.038 6        39.982                                    24003010.026 5  98288168.45205     -2684.441 5        35.010    24003010.329 6  98288176.43806     -2684.328 6        38.129
S27        12.000    39249582.444 6 206257845.43006      -531.148 6        36.926
G13        13.000    20459572.256 8 107515732.90508     -2265.282 8        49.783                                    20459570.159 6  83778460.21706     -1765.153 6        40.226
S36        14.000    38297392.801 7 201254606.69807      -499.455 7        44.444
I09        15.000    40801141.565 5 160112119.26005     -1008.391 5        30.687
E09        16.000    23770431.919 8 124914437.14808     -1515.875 8        49.022                                                                    23770434.402 8  93280247.08108     -1131.992 8        50.572    23770433.629 8  95713642.64608     -1161.513 8        51.342
G12        17.000    25328571.427 6 133102562.48306      3377.302 6        39.285                                    25328579.017 4 103716326.69404      2631.649 4        29.289    25328579.586 5 103716323.74805      2631.255 5        34.752
R21        18.000    23270018.140 7 124522623.39107      -373.393 7        43.894                                                                    23270025.044 6  96850982.77806      -290.313 6        40.362
R22        19.000    23836453.336 7 127240618.55507      2584.074 7        43.297                                                                    23836462.355 6  98964906.20106      2009.706 6        39.679
R03        21.000    19479833.345 8 104277035.05808      -332.129 8        52.079                                                                    19479834.053 7  81104350.48807      -258.347 7        47.071
I06        22.000    38249481.248 7 150099294.37107      -469.035 7        42.940
S28        23.000    40975193.310 5 215325954.84405      -508.386 5        35.067
S23        25.000    38230214.457 7 200901045.37907      -500.361 7        44.405
S45        26.000    63479763.457 5 333589929.57905      -549.156 5        35.962
C07        27.000                                                                                                                                    38909824.432 6 202613633.46806      -654.929 6        40.810    38909822.433 7 156673699.90107      -506.442 7        44.324    38909820.462 6 164640150.42806      -532.105 6        41.702
R04        28.000    21951961.593 8 117551733.31308      3125.684 8        48.404                                                                    21951963.140 7  91429100.88607      2431.081 7        44.212
C40        29.000                                                                                                                                    38946143.952 7 202802768.65307      -780.217 7        42.847                                                                    38946145.475 7 164793861.52807      -633.932 7        43.122
G17        30.000    22412530.995 7 117778761.95407       941.601 7        46.165                                    22412532.068 7  91775716.36907       733.714 7        43.454    22412532.094 7  91775713.38007       733.666 7        42.138
G14        31.000    21559538.046 7 113296120.90107     -2731.340 7        46.643                                    21559537.807 6  88282686.46806     -2128.313 6        36.019    21559537.765 7  88282672.45907     -2128.313 7        45.482
G23        32.000    23209492.545 7 121966648.27807       137.572 7        42.097                                    23209493.156 4  95038919.50204       107.199 4        29.175    23209493.477 7  95038914.50407       107.103 7        42.290
I02        33.000    37201992.631 7 145988604.36207       -84.613 7        43.134
E04        34.000    26705166.032 6 140336504.78306     -3321.777 6        39.970                                                                    26705173.145 7 104796714.63907     -2480.552 7        44.855    26705172.018 7 107530541.80907     -2545.260 7        45.974
R13        35.000    19356335.764 7 103361791.85007      -280.905 7        46.991
R12        36.000    20751804.845 8 110852373.79808     -3319.408 8        50.688                                                                    20751807.729 7  86218507.73607     -2581.813 7        46.766
C42        37.000                                                                                                                                    25703412.679 6 133844401.40506      2203.417 6        41.313                                                                    25703424.109 7 108759582.62207      1790.538 7        43.467
C10        38.000                                                                                                                                    38614022.805 6 201073347.93006      -266.853 6        41.545    38614023.893 7 155482667.66207      -206.419 7        45.044    38614021.362 6 163388554.25606      -216.798 6        41.795
C30        40.000                                                                                                                                    25456678.562 7 132559648.91907      1511.698 7        42.866                                                                    25456685.471 6 107715614.20906      1228.405 6        41.757
G05        41.000    24873858.492 6 130712788.28506     -4126.664 6        40.303                                    24873868.714 5 101854044.00705     -3215.563 5        32.353    24873868.733 6 101854052.96806     -3215.579 6        37.267
S44        42.000    40968565.211 6 215291284.96906      -476.849 6        37.335
C36        43.000                                                                                                                                    22294156.166 8 116091485.28208     -2096.413 8        49.242                                                                    22294163.046 8  94333853.47608     -1703.475 8        50.066
C05        44.000                                                                                                                                    39490006.071 6 205634734.67006      -544.436 6        38.084    39490008.335 7 159009812.79007      -420.952 7        42.682    39490009.269 6 167095143.58306      -442.372 6        40.360
R14        45.000    22604987.870 7 120497348.53107      2877.005 7        47.784                                                                    22604995.269 7  93720225.19807      2237.562 7        42.385
G10        47.000    25749163.260 6 135312733.97206      2168.938 6        37.338                                    25749167.853 5 105438495.14005      1690.091 5        30.664    25749168.276 6 105438496.12806      1689.976 6        36.166
C45        50.000                                                                                                                                    22042719.835 8 114782253.41608       607.986 8        50.920                                                                    22042713.629 8  93269972.18008       494.082 8        50.183
S48        51.000    77238412.140 6 405890085.82906      -490.567 6        37.641
E06        52.000    24674909.940 7 129667483.70207     -2629.602 7        46.787                                                                    24674914.297 8  96829605.99508     -1963.647 8        48.795    24674913.578 8  99355595.90908     -2014.879 8        49.481
C09        53.000                                                                                                                                    41524014.132 5 216226244.88405     -1132.152 5        30.272    41524023.615 6 167199783.95306      -875.524 6        37.278    41524019.250 5 175701471.06005      -919.956 5        33.497
C60        54.000                                                                                                                                    40968564.485 6 213334109.47706      -472.624 6        39.526                                                                    40968555.991 6 173351375.32206      -384.004 6        38.661
E31        55.000    23497743.377 8 123481478.56608      -882.965 8        48.582                                                                    23497746.310 8  92210227.50808      -659.362 8        50.556    23497745.620 8  94615707.78208      -676.519 8        51.139
C26        56.000                                                                                                                                    26084497.182 6 135828806.16806      2386.311 6        40.965                                                                    26084504.412 6 110372051.78606      1939.225 6        40.717
C02        57.000                                                                                                                                    41055422.704 5 213786233.17105      -521.989 5        30.921    41055427.857 6 165313025.16006      -403.548 6        36.348    41055427.575 5 173718793.22405      -424.080 5        30.785
I03        58.000    94310711.357 6 294310011.00006       886.092 6        36.813
C21        59.000                                                                                                                                    22953660.915 8 119525684.54108      -296.629 8        49.554                                                                    22953657.621 8  97124375.18608      -241.007 8        49.296
C22        60.000                                                                                                                                    23365984.657 8 121672729.73608     -3269.661 8        48.679                                                                    23365982.171 8  98869017.94908     -2656.853 8        48.006
> 2025 01 02 09 45 15.0000000  0 54
E24         1.000    25163866.269 7 132237120.89307      1756.522 7        46.216                                                                    25163869.217 8  98748565.77808      1311.678 8        48.408    25163868.322 8 101324604.40308      1345.876 8        49.247
G15         2.000    20260055.522 8 106467264.94308      -529.586 8        49.306                                    20260054.208 8  82961481.68408      -412.662 8        50.078    20260054.649 7  82961476.68207      -412.665 7        45.830
E15         3.000    28972196.009 5 152249882.02505     -1984.944 5        33.970                                                                    28972202.291 6 113693084.30606     -1482.208 6        36.643    28972201.734 6 116658988.14406     -1520.965 6        37.561
G19         4.000    23554767.152 6 123781260.15306      2708.461 6        41.356                                    23554768.477 4  96452952.68304      2110.481 4        28.882
S21         5.000    38528029.434 7 202465748.88907      -498.628 7        42.715
E05         6.000    23182161.852 7 121823048.03307      1279.679 7        45.413                                                                    23182165.563 8  90971732.04908       955.640 8        48.940    23182164.695 8  93344907.04508       980.529 8        49.657
E13         7.000    28773388.397 5 151205168.35905       141.043 5        31.962                                                                    28773401.227 5 112913000.67005       105.023 5        35.519    28773399.525 6 115858548.99106       107.838 6        36.669
R02         8.000    21150618.508 8 112863669.28808     -4244.132 8        50.380                                                                    21150622.098 7  87782833.30207     -3300.933 7        44.962
R20         9.000    24682817.930 5 131990156.12405     -3174.883 5        31.615                                                                    24682825.253 6 102659032.56806     -2469.435 6        38.679
G24        10.000    22127900.892 7 116282898.70807      2306.172 7        44.521                                    22127902.906 7  90610063.97007      1797.015 7        42.489    22127903.181 7  90610068.97807      1797.040 7        42.186
G30        11.000    24006282.959 6 126153759.11706     -3445.780 6        40.184                                    24006288.347 5  98301592.22905     -2685.020 5        34.805    24006288.692 6  98301600.23006     -2685.178 6        37.913
S27        12.000    39250084.146 6 206260501.68606      -531.268 6        36.325
G13        13.000    20461729.112 8 107527066.76008     -2268.170 8        49.777                                    20461726.925 6  83787291.78706     -1767.405 6        40.234
S36        14.000    38297870.089 7 201257103.59907      -499.219 7        44.661
I09        15.000    40802426.354 5 160117159.19905     -1008.165 5        30.800
E09        16.000    23771875.338 8 124922021.82908     -1517.967 8        49.193                                                                    23771877.733 8  93285910.96208     -1133.536 8        50.650    23771876.959 8  95719454.28008     -1163.110 8        51.279
G12        17.000    25325358.215 6 133085677.52706      3376.753 6        40.219                                    25325365.817 4 103703169.67604      2631.217 4        29.450    25325366.647 5 103703166.69305      2631.307 5        34.910
R21        18.000    23270369.057 7 124524502.08407      -377.895 7        44.321                                                                    23270376.773 6  96852443.97406      -293.931 6        40.517
R22        19.000    23834033.798 7 127227703.33207      2581.906 7        42.944                                                                    23834043.182 6  98954861.14506      2008.143 6        40.195
R03        21.000    19480146.271 8 104278707.75908      -336.905 8        52.534                                                                    19480146.713 7  81105651.47407      -262.024 7        47.156
I06        22.000    38250079.441 7 150101640.11907      -469.263 7        42.876
S28        23.000    40975683.440 5 215328498.60505      -508.866 5        35.314
S23        25.000    38230690.775 7 200903547.06807      -500.411 7        44.289
S45        26.000    63480243.222 5 333591075.84215      -549.546 5        35.814
C07        27.000                                                                                                                                    38910453.847 6 202616909.91906      -655.736 6        40.677    38910451.635 7 156676233.47607      -507.087 7        44.254    38910449.662 6 164642812.84006      -533.034 6        41.585
R04        28.000    21949044.237 8 117536110.99108      3123.346 8        48.172                                                                    21949045.687 7  91416950.21307      2429.178 7        44.256
C40        29.000                                                                                                                                    38946893.744 7 202806672.43107      -781.239 7        42.692                                                                    38946895.134 7 164797033.67807      -634.968 7        43.005
G17        30.000    22411636.757 7 117774061.37407       938.699 7        45.919                                    22411637.587 7  91772053.60207       731.446 7        43.335    22411637.735 7  91772050.61407       731.439 7        42.423
G14        31.000    21562138.239 7 113309783.28507     -2733.495 7        46.839                                    21562137.734 6  88293332.46706     -2129.997 6        36.034    21562138.004 7  88293318.46207     -2130.052 7        45.597
G23        32.000    23209363.502 7 121965969.99007       133.963 7        42.277                                    23209364.100 4  95038390.95104       104.385 4        29.052    23209364.257 7  95038385.95807       104.370 7        42.184
I02        33.000    37202100.573 7 145989028.64107       -84.975 7        42.885
E04        34.000    26708327.235 6 140353115.91406     -3322.765 6        40.467                                                                    26708334.100 7 104809119.01807     -2481.266 7        44.656    26708332.942 7 107543269.77707     -2545.986 7        45.824
R13        35.000    19356600.536 7 103363204.26107      -284.032 7        46.832
R12        36.000    20754912.730 8 110868975.39008     -3321.137 8        51.114                                                                    20754915.535 7  86231420.05907     -2583.024 7        46.885
C42        37.000                                                                                                                                    25701297.160 6 133833388.75006      2201.782 6        40.658                                                                    25701309.267 7 108750633.97507      1788.794 7        43.336
C10        38.000                                                                                                                                    38614279.878 6 201074684.81706      -267.805 6        41.151    38614280.832 7 155483701.42507      -207.028 7        44.856    38614278.006 6 163389640.61006      -217.841 6        41.754
C30        40.000                                                                                                                                    25455227.812 7 132552095.89807      1509.625 7        42.011                                                                    25455234.880 6 107709476.76906      1226.550 6        41.628
G05        41.000    24877785.499 6 130733422.40506     -4126.843 6        39.700                                    24877795.308 5 101870122.44805     -3215.702 5        32.036    24877795.862 6 101870131.41106     -3215.613 6        36.699
S44        42.000    40969018.401 6 215293669.43606      -477.134 6        37.641
C36        43.000                                                                                                                                    22296169.824 8 116101971.37208     -2097.929 8        49.058                                                                    22296176.772 8  94342374.29108     -1704.913 8        49.999
C05        44.000                                                                                                                                    39490528.928 6 205637457.88106      -544.808 6        37.732    39490530.889 7 159011918.56607      -421.271 7        42.345    39490532.123 6 167097356.44206      -442.851 6        40.141
R14        45.000    22602289.557 7 120482967.55807      2875.345 7        47.718                                                                    22602297.219 7  93709040.03807      2236.510 7        42.205
G10        47.000    25747101.825 6 135301896.52806      2166.439 6        37.860                                    25747105.577 5 105430050.32705      1688.144 5        30.619    25747105.514 6 105430051.32106      1688.117 6        36.405
C45        50.000                                                                                                                                    22042137.006 8 114779218.44608       606.060 8        50.689                                                                    22042130.798 8  93267506.03508       492.352 8        50.118
S48        51.000    77238879.353 6 405892540.60506      -490.837 6        37.372
E06        52.000    24677412.629 7 129680635.95307     -2631.215 7        46.490                                                                    24677417.133 8  96839427.47208     -1964.931 8        48.899    24677416.496 8  99365673.60008     -2016.169 8        49.435
C09        53.000                                                                                                                                    41525101.876 5 216231905.74505     -1132.177 5        30.211    41525111.087 6 167204161.27306      -875.590 6        37.251    41525106.080 5 175706071.02005      -920.531 5        33.551
C60        54.000                                                                                                                                    40969018.140 6 213336472.25006      -472.620 6        39.255                                                                    40969009.780 6 173353295.27006      -384.151 6        38.688
E31        55.000    23498584.366 8 123485898.93508      -885.104 8        48.325                                                                    23498587.497 8  92213528.43408      -660.990 8        50.654    23498586.780 8  94619094.81708      -678.208 8        51.030
C26        56.000                                                                                                                                    26082205.800 6 135816875.94806      2385.702 6        40.346                                                                    26082213.070 6 110362357.53506      1938.408 6        40.729
C02        57.000                                                                                                                                    41055924.308 5 213788842.63905      -521.684 5        30.762    41055928.648 6 165315043.04806      -403.696 6        36.212    41055928.925 5 173720913.71405      -424.331 5        31.004
I03        58.000    94309582.821 6 294305580.64106       886.002 6        36.983
C21        59.000                                                                                                                                    22953947.036 8 119527175.83308      -299.841 8        49.254                                                                    22953944.014 8  97125587.00408      -243.756 8        49.211
C22        60.000                                                                                                                                    23369125.490 8 121689083.07508     -3271.663 8        48.507                                                                    23369122.658 7  98882306.37707     -2658.639 7        47.982
> 2025 01 02 09 45 20.0000000  0 54
E24         1.000    25162195.295 7 132228340.26707      1755.416 7        46.398                                                                    25162198.334 8  98742008.82808      1310.931 8        48.471    25162197.412 8 101317876.40808      1345.099 8        49.190
G15         2.000    20260561.087 8 106469920.85808      -532.895 8        49.387                                    20260559.622 8  82963551.21908      -415.242 8        50.226    20260559.946 7  82963546.22007      -415.238 7        45.934
E15         3.000    28974086.181 5 152259811.05505     -1986.858 5        34.452                                                                    28974092.516 6 113700498.83806     -1483.493 6        37.308    28974090.790 6 116666596.11406     -1522.388 6        37.974
G19         4.000    23552190.126 6 123767719.79506      2707.548 6        40.770                                    23552191.727 4  96442401.78404      2109.774 4        28.815
S21         5.000    38528501.785 7 202468240.93807      -498.396 7        42.648
E05         6.000    23180944.971 7 121816652.23307      1278.491 7        45.431                                                                    23180948.404 8  90966955.97308       954.721 8        48.924    23180947.622 8  93340006.37608       979.614 8        49.553
E13         7.000    28773255.033 5 151204469.20105       138.586 5        31.924                                                                    28773268.041 5 112912478.54505       103.514 5        35.419    28773266.547 6 115858013.25606       106.245 6        36.329
R02         8.000    21154595.976 8 112884895.06608     -4246.403 8        50.759                                                                    21154600.367 7  87799342.21607     -3302.737 7        45.637
R20         9.000    24685789.013 5 132006038.04805     -3177.493 5        31.917                                                                    24685795.040 6 102671385.18106     -2471.740 6        38.592
G24        10.000    22125706.528 7 116271370.32107      2305.066 7        43.771                                    22125709.106 7  90601080.82207      1796.150 7        42.637    22125709.400 6  90601085.83606      1796.160 6        41.878
G30        11.000    24009562.210 6 126170989.02906     -3446.364 6        39.498                                    24009567.169 5  98315018.11405     -2685.472 5        34.805    24009567.476 6  98315026.10306     -2685.433 6        37.811
S27        12.000    39250588.496 6 206263157.64206      -531.261 6        36.163
G13        13.000    20463888.050 8 107538413.51308     -2270.634 8        49.440                                    20463886.142 6  83796133.40706     -1769.325 6        40.343
S36        14.000    38298342.359 7 201259600.02407      -499.225 7        44.554
I09        15.000    40803710.388 5 160122198.46605     -1007.731 5        30.468
E09        16.000    23773320.230 8 124929615.68108     -1519.629 8        49.099                                                                    23773322.777 8  93291581.69308     -1134.766 8        50.687    23773322.068 8  95725272.94608     -1164.402 8        51.151
G12        17.000    25322144.680 6 133068793.75306      3376.534 6        40.181                                    25322152.889 4 103690013.57904      2631.041 4        29.839    25322153.053 5 103690010.61005      2631.162 5        35.362
R21        18.000    23270724.066 7 124526401.98507      -381.998 7        43.970                                                                    23270731.446 6  96853921.63906      -297.103 6        40.875
R22        19.000    23831615.271 7 127214798.18107      2580.052 7        43.352                                                                    23831624.602 6  98944823.92106      2006.557 6        40.393
R03        21.000    19480463.444 8 104280402.81408      -341.148 8        52.739                                                                    19480463.361 7  81106969.83607      -265.339 7        47.265
I06        22.000    38250677.029 7 150103985.69907      -469.068 7        42.756
S28        23.000    40976163.902 5 215331042.13905      -508.772 5        35.424
S23        25.000    38231167.378 7 200906048.53807      -500.187 7        44.144
S45        26.000    63480718.215 6 333593821.75806      -549.201 6        36.102
C07        27.000                                                                                                                                    38911083.250 6 202620189.46506      -656.220 6        40.868    38911081.738 7 156678769.41907      -507.386 7        44.354    38911079.630 6 164645477.71106      -533.081 6        41.692
R04        28.000    21946128.388 7 117520499.44207      3121.263 7        47.828                                                                    21946129.918 7  91404807.88307      2427.694 7        43.708
C40        29.000                                                                                                                                    38947644.064 7 202810580.22507      -781.957 7        42.974                                                                    38947645.621 7 164800209.05007      -635.228 7        42.990
G17        30.000    22410744.701 7 117769374.26807       936.130 7        45.652                                    22410745.664 7  91768401.33007       729.445 7        43.443    22410745.859 7  91768398.34807       729.365 7        42.425
G14        31.000    21564739.767 7 113323455.15307     -2735.305 7        46.488                                    21564739.435 6  88303985.85906     -2131.407 6        36.140    21564739.696 7  88303971.85607     -2131.448 7        45.556
G23        32.000    23209237.919 7 121965308.10907       130.788 7        42.336                                    23209238.068 4  95037875.19704       101.915 4        29.213    23209238.493 7  95037870.19407       101.870 7        42.432
I02        33.000    37202208.860 7 145989453.83507       -85.122 7        42.906
