     3.04           OBSERVATION DATA    M                   RINEX VERSION / TYPE
ssrcrin-15.6.1x                         20250102 034500 UTC PGM / RUN BY / DATE 
(00000000023479385599111004) Septentrio proprietary         COMMENT             
rref                                                        MARKER NAME         
01                                                          MARKER NUMBER       
geodetic                                                    MARKER TYPE         
NFB                 CLIMERS@TUW                             OBSERVER / AGENCY   
3297213             SEPT ASTERX SB3 PROB4.14.4              REC # / TYPE / VERS 
Unknown             Unknown                                 ANT # / TYPE        
  4127831.9780  1207193.2225  4695247.4914                  APPROX POSITION XYZ 
        0.0000        0.0000        0.0000                  ANTENNA: DELTA H/E/N
G   23 X1  C1C L1C D1C S1C C1W S1W C2W L2W D2W S2W C2L L2L  SYS / # / OBS TYPES 
       D2L S2L C5Q L5Q D5Q S5Q C1L L1L D1L S1L              SYS / # / OBS TYPES 
E   21 X1  C1C L1C D1C S1C C6C L6C D6C S6C C5Q L5Q D5Q S5Q  SYS / # / OBS TYPES 
       C7Q L7Q D7Q S7Q C8Q L8Q D8Q S8Q                      SYS / # / OBS TYPES 
S    9 X1  C1C L1C D1C S1C C5I L5I D5I S5I                  SYS / # / OBS TYPES 
R   17 X1  C1C L1C D1C S1C C2P L2P D2P S2P C2C L2C D2C S2C  SYS / # / OBS TYPES 
       C3Q L3Q D3Q S3Q                                      SYS / # / OBS TYPES 
C   25 X1  C1P L1P D1P S1P C5P L5P D5P S5P C2I L2I D2I S2I  SYS / # / OBS TYPES 
       C7I L7I D7I S7I C6I L6I D6I S6I C7D L7D D7D S7D      SYS / # / OBS TYPES 
J   17 X1  C1C L1C D1C S1C C2L L2L D2L S2L C5Q L5Q D5Q S5Q  SYS / # / OBS TYPES 
       C1L L1L D1L S1L                                      SYS / # / OBS TYPES 
I    5 X1  C5A L5A D5A S5A                                  SYS / # / OBS TYPES 
SEPTENTRIO RECEIVERS OUTPUT ALIGNED CARRIER PHASES.         COMMENT             
NO FURTHER PHASE SHIFT APPLIED IN THE RINEX ENCODER.        COMMENT             
G L1C                                                       SYS / PHASE SHIFT   
G L2W                                                       SYS / PHASE SHIFT   
G L2L  0.00000                                              SYS / PHASE SHIFT   
G L5Q  0.00000                                              SYS / PHASE SHIFT   
G L1L  0.00000                                              SYS / PHASE SHIFT   
E L1C  0.00000                                              SYS / PHASE SHIFT   
E L6C  0.00000                                              SYS / PHASE SHIFT   
E L5Q  0.00000                                              SYS / PHASE SHIFT   
E L7Q  0.00000                                              SYS / PHASE SHIFT   
E L8Q  0.00000                                              SYS / PHASE SHIFT   
S L1C                                                       SYS / PHASE SHIFT   
S L5I                                                       SYS / PHASE SHIFT   
R L1C                                                       SYS / PHASE SHIFT   
R L2P  0.00000                                              SYS / PHASE SHIFT   
R L2C                                                       SYS / PHASE SHIFT   
R L3Q  0.00000                                              SYS / PHASE SHIFT   
C L1P  0.00000                                              SYS / PHASE SHIFT   
C L5P  0.00000                                              SYS / PHASE SHIFT   
C L2I                                                       SYS / PHASE SHIFT   
C L7I                                                       SYS / PHASE SHIFT   
C L6I                                                       SYS / PHASE SHIFT   
C L7D                                                       SYS / PHASE SHIFT   
J L1C                                                       SYS / PHASE SHIFT   
J L2L  0.00000                                              SYS / PHASE SHIFT   
J L5Q  0.00000                                              SYS / PHASE SHIFT   
J L1L  0.00000                                              SYS / PHASE SHIFT   
I L5A                                                       SYS / PHASE SHIFT   
  2025     1     2     3    45    0.0000000     GPS         TIME OF FIRST OBS   
 C1C    0.000 C2C    0.000 C2P    0.000                     GLONASS COD/PHS/BIS 
DBHZ                                                        SIGNAL STRENGTH UNIT
    18                                                      LEAP SECONDS        
 24 R01  1 R02 -4 R03  5 R04  6 R05  1 R06 -4 R07  5 R08  6 GLONASS SLOT / FRQ #
    R09 -2 R10 -7 R11  0 R12 -1 R13 -2 R14 -7 R15  0 R16 -1 GLONASS SLOT / FRQ #
    R17  4 R18 -3 R19  3 R20  2 R21  4 R22 -3 R23  3 R24  2 GLONASS SLOT / FRQ #
                                                            END OF HEADER       
> 2025 01 02 03 45  0.0000000  0 57
G09         1.000    20153280.565 8 105906239.48708      -212.705 8        50.909                                    20153277.324 8  82524348.75308      -165.746 8        53.280    20153277.760 7  82524348.75407      -165.682 7        45.654
G06         2.000    21350257.729 8 112196384.43808      -440.590 8        48.613                                    21350255.758 8  87425759.76908      -343.318 8        50.195    21350256.535 7  87425767.77607      -343.367 7        45.514
E11         3.000    25243816.522 7 132657172.83407      1052.926 7        42.097                                                                    25243812.154 7  99062165.88407       786.265 7        43.846    25243812.170 7 101646392.39307       806.700 7        44.682
G16         4.000    24471593.106 6 128599097.41906      1695.052 6        38.889                                    24471588.189 3 100207071.12903      1320.808 3        18.925
S21         5.000    38612579.039 7 202910186.19107      -474.140 7        42.468
E10         6.000    24291419.950 7 127652286.84207      -499.237 7        47.955                                                                    24291418.430 8  95324757.41608      -372.795 8        50.674    24291418.316 8  97811489.56908      -382.503 8        51.409
G20         7.000    24972193.422 6 131229760.84506      2967.142 6        38.513                                    24972188.103 3 102256935.42503      2312.095 3        18.209
G03         8.000    22579149.937 7 118654329.07507     -3426.603 7        43.585                                    22579147.671 6  92457959.48106     -2670.075 6        41.626    22579148.159 6  92457957.47706     -2670.034 6        40.958
R10         9.000    22533888.372 6 120118301.83106      3393.162 6        39.574
G31        10.000    25030769.330 6 131537587.14006     -4080.748 6        38.634                                    25030764.700 4 102496804.28704     -3179.802 4        29.242    25030765.188 5 102496809.28105     -3179.834 5        34.829
G30        11.000    25559026.013 6 134313589.34606      3205.183 6        38.432                                    25559024.404 5 104659929.80905      2497.542 5        31.004    25559024.375 5 104659937.83405      2497.194 5        35.210
S27        12.000    39241319.059 6 206214548.18206      -478.315 6        36.510
G26        13.000    24311644.650 6 127758560.71606      -523.115 6        38.982                                    24311642.898 5  99552132.33305      -407.621 5        31.562    24311643.073 6  99552132.35506      -407.678 6        36.106
S36        14.000    38380115.113 7 201689386.69407      -474.505 7        44.861
I09        15.000    37849802.011 7 148530752.85507      -691.393 7        42.747
G19        16.000    24741669.762 6 130018365.88506     -3567.802 6        38.856                                    24741664.618 3 101312994.04003     -2780.093 3        21.310
S45        17.000    63569377.773 6 334060562.65806      -514.601 6        37.565
E12        19.000    24530250.492 7 128907347.09207     -1908.548 7        45.011                                                                    24530246.270 7  96261969.30107     -1425.171 7        46.726    24530246.517 8  98773150.48708     -1462.395 8        48.119
E21        20.000    28578586.807 6 150181474.01406      2235.725 6        36.851                                                                    28578586.271 6 112148516.09606      1669.864 6        38.438    28578586.022 6 115074126.15406      1713.320 6        40.422
G11        21.000    23269301.463 7 122281020.10707      1978.624 7        43.693                                    23269297.293 5  95283893.83305      1541.780 5        30.649    23269297.137 7  95283906.84907      1541.617 7        42.798
I06        22.000    38172622.445 7 149797812.60007      -306.542 7        43.136
S28        23.000    41042908.011 5 215681956.77205      -471.540 5        34.752
R08        24.000    19906825.331 8 106600185.82908       415.173 8        51.207                                                                    19906822.427 7  82911260.41107       322.879 7        47.487
S23        25.000    38322341.750 7 201385263.34207      -470.227 7        44.674
R01        26.000    23437589.049 6 125287345.70806      2745.167 6        41.001                                                                    23437588.008 5  97445705.36405      2135.002 5        33.844
R16        27.000    23103868.311 7 123416730.83807     -2997.245 7        44.155                                                                    23103868.017 6  95990792.69206     -2331.188 6        41.874
R24        29.000    21921583.631 8 117224571.25508      1606.852 8        48.044                                                                    21921582.658 7  91174654.70507      1249.744 7        43.710
E19        30.000    23129132.654 7 121544447.53107     -1056.447 7        43.232                                                                    23129130.073 7  90763713.75007      -788.882 7        45.800    23129130.086 7  93131459.50607      -809.526 7        47.236
C23        31.000                                                                                                                                    24762778.565 7 128946295.44807     -1199.789 7        45.147                                                                    24762769.310 7 104779395.39307      -974.857 7        45.889
R23        32.000    20787147.618 8 111197237.73508     -2873.650 8        49.011
E29        33.000    26007544.114 7 136670650.13607     -2785.009 7        42.955                                                                    26007542.084 7 102059266.72007     -2079.760 7        45.920    26007541.703 7 104721676.85507     -2133.949 7        46.420
E04        34.000    25322401.993 7 133070154.91607      1539.659 7        44.494                                                                    25322399.287 7  99370581.54207      1149.766 7        47.641    25322399.271 8 101962853.07308      1179.704 8        48.726
C16        35.000                                                                                                                                    39582052.973 6 206114165.93406     -1354.241 6        41.330    39582051.931 7 159380560.17107     -1047.142 7        42.193    39582049.192 6 167484643.86706     -1100.390 6        38.168
C32        36.000                                                                                                                                    24252614.561 7 126289782.85907     -2758.343 7        46.736                                                                    24252613.943 7 102620814.49707     -2241.328 7        47.019
I01        37.000   381858728.723 7 195354862.85507     -2797.349 7        42.808
E27        38.000    27846667.814 6 146335228.05506       838.644 6        38.426                                                                    27846667.271 6 109276317.57506       626.290 6        41.223    27846667.094 7 112127000.46807       642.486 7        42.216
C19        39.000                                                                                                                                    24322969.606 7 126656089.24307      1847.529 7        46.240                                                                    24322964.691 7 102918425.10307      1501.324 7        46.504
C39        40.000                                                                                                                                    40337632.002 6 210048661.43406     -1616.066 6        41.094                                                                    40337627.600 6 170681738.48906     -1313.181 6        40.386
E33        41.000    27219075.753 6 143037293.48206     -3728.924 6        39.931                                                                    27219073.762 7 106813595.25007     -2784.516 7        42.760    27219073.472 7 109600032.92007     -2857.252 7        44.263
S44        42.000    40911219.478 6 214990117.33006      -549.286 6        37.406
R06        43.000    24393194.886 5 130166807.72005     -3838.969 5        33.102
C05        44.000                                                                                                                                    39335171.332 6 204828601.11406      -511.272 6        39.087    39335164.519 7 158386493.96407      -395.287 7        43.107    39335166.750 6 166440121.89206      -415.328 6        40.405
C29        45.000                                                                                                                                    24623877.860 7 128223013.02407     -3082.088 7        45.330                                                                    24623874.964 7 104191699.20607     -2504.395 7        44.435
G04        46.000    20754834.298 7 109067425.98907     -2007.247 7        47.063                                    20754830.443 6  84987591.40906     -1564.089 6        38.429    20754830.698 7  84987593.41107     -1564.088 7        46.815
E30        47.000    28976313.376 5 152271574.57905     -1332.177 5        35.486                                                                    28976312.940 6 113709285.30406      -994.735 6        39.676    28976312.514 6 116675612.93806     -1020.651 6        41.297
R22        48.000    23138602.916 7 123515454.23607     -4927.965 7        44.045                                                                    23138600.931 7  96067571.75307     -3832.839 7        42.436
C20        49.000                                                                                                                                    22044675.102 8 114792435.52408      -259.550 8        51.942                                                                    22044668.731 8  93278241.48008      -210.858 8        49.567
C06        50.000                                                                                                                                    39018141.716 6 203177733.43806     -1316.039 6        40.062    39018135.355 7 157109895.50807     -1017.723 7        43.604    39018135.024 6 165098532.55906     -1069.304 6        40.493
S48        51.000    77354482.414 6 406500000.50606      -461.409 6        37.807
E06        52.000    27528240.690 6 144661901.30906      2087.695 6        39.754                                                                    27528240.198 6 108026754.60006      1559.051 6        41.027    27528240.106 6 110844841.88206      1599.485 6        41.347
C09        53.000                                                                                                                                    38767548.980 7 201872824.04307      -878.440 7        42.028    38767545.405 7 156100864.05907      -679.363 7        47.233    38767543.499 7 164038185.59307      -713.878 7        42.186
C60        54.000                                                                                                                                    40911221.703 6 213035681.25106      -544.401 6        39.402                                                                    40911205.455 6 173108913.37506      -442.364 6        40.498
R09        55.000    21308562.447 7 113786561.83607       695.859 7        47.639                                                                    21308561.319 7  88500653.89307       541.243 7        46.253
G07        56.000    22784652.175 7 119734170.74907      2385.983 7        46.132                                    22784647.004 7  93299336.82707      1859.207 7        42.961    22784647.159 6  93299345.82306      1859.339 6        40.782
C02        57.000                                                                                                                                    40859169.513 5 212764480.15205      -549.473 5        35.133    40859162.248 6 164522989.31706      -424.871 6        39.369    40859166.250 5 172888574.11405      -446.394 5        35.871
I03        58.000   101098207.739 6 320945856.98306       862.058 6        41.199
R07        59.000    20644437.579 8 110511358.48208     -2564.445 8        49.311                                                                    20644436.943 7  85953332.52007     -1994.506 7        46.192
> 2025 01 02 03 45  5.0000000  0 57
G09         1.000    20153483.884 8 105907308.54108      -214.893 8        50.617                                    20153480.752 8  82525181.78408      -167.450 8        53.253    20153481.043 7  82525181.78007      -167.420 7        45.627
G06         2.000    21350678.264 8 112198595.55308      -443.809 8        48.236                                    21350676.511 8  87427482.71608      -345.826 8        50.072    21350677.566 7  87427490.72007      -345.829 7        45.834
E11         3.000    25242815.828 6 132651912.97206      1051.053 6        41.928                                                                    25242811.154 7  99058238.07407       784.860 7        43.900    25242811.320 7 101642362.11107       805.396 7        44.555
G16         4.000    24469981.117 6 128590627.29506      1692.912 6        38.871                                    24469976.178 3 100200471.04003      1319.141 3        19.254
S21         5.000    38613029.626 7 202912556.82807      -473.956 7        42.641
E10         6.000    24291896.038 8 127654788.81608      -501.503 8        48.015                                                                    24291894.563 8  95326625.77208      -374.497 8        50.764    24291894.421 8  97813406.66808      -384.260 8        51.310
G20         7.000    24969369.559 6 131214924.40406      2967.359 6        38.276                                    24969364.757 3 102245374.55103      2312.229 3        18.179
G03         8.000    22582411.020 7 118671464.92907     -3427.657 7        43.918                                    22582408.575 6  92471312.09306     -2670.904 6        41.633    22582409.234 6  92471310.09306     -2670.960 6        41.089
R10         9.000    22530706.965 6 120101339.63306      3391.566 6        40.198
G31        10.000    25034652.650 6 131557993.51006     -4081.672 6        38.529                                    25034647.951 4 102512705.35004     -3180.524 4        29.261    25034648.377 5 102512710.35105     -3180.441 5        35.090
G30        11.000    25555976.670 6 134297563.29906      3205.322 6        38.417                                    25555974.758 5 104647441.98205      2497.651 5        30.785    25555974.592 5 104647449.98705      2497.748 5        35.067
S27        12.000    39241776.922 6 206216938.90306      -478.091 6        36.749
G26        13.000    24312143.718 6 127761184.06206      -526.232 6        38.610                                    24312142.043 5  99554176.50705      -410.051 5        31.525    24312142.294 6  99554176.51706      -410.115 6        36.571
S36        14.000    38380567.972 7 201691758.60107      -474.167 7        44.956
I09        15.000    37850682.540 7 148534209.98207      -691.469 7        42.734
G19        16.000    24745064.541 6 130036205.25406     -3568.048 6        38.498                                    24745059.067 3 101326894.83703     -2780.281 3        20.881
S45        17.000    63569823.589 6 334063135.32606      -514.518 6        37.822
E12        19.000    24532067.531 7 128916895.18107     -1910.597 7        45.073                                                                    24532063.296 7  96269099.37107     -1426.795 7        46.900    24532063.497 7  98780466.55207     -1463.938 7        47.987
E21        20.000    28576459.131 6 150170294.53106      2235.898 6        36.662                                                                    28576458.953 6 112140167.78906      1669.675 6        38.667    28576458.535 6 115065560.05206      1713.250 6        40.305
G11        21.000    23267420.199 7 122271133.01707      1976.376 7        44.056                                    23267415.871 5  95276189.61305      1540.033 5        30.589    23267415.752 7  95276202.60807      1540.030 7        42.535
I06        22.000    38173012.902 7 149799345.12307      -306.511 7        42.959
S28        23.000    41043357.762 5 215684312.90305      -471.041 5        34.786
R08        24.000    19906438.315 8 106598114.67708       413.413 8        50.857                                                                    19906435.889 7  82909649.52207       321.521 7        47.751
S23        25.000    38322789.431 7 201387614.33207      -470.091 7        44.894
R01        26.000    23435020.713 6 125273620.29506      2744.857 6        41.411                                                                    23435020.121 5  97435030.02505      2134.866 5        34.762
R16        27.000    23106675.361 7 123431725.74507     -3000.703 7        43.065                                                                    23106675.455 7  96002455.38807     -2333.806 7        42.440
R24        29.000    21920084.011 7 117216546.77007      1603.130 7        47.676                                                                    21920082.450 7  91168413.44807      1246.835 7        44.041
E19        30.000    23130138.624 7 121549733.32307     -1057.644 7        43.270                                                                    23130135.917 7  90767660.93207      -789.889 7        45.871    23130135.970 7  93135509.65507      -810.499 7        47.123
C23        31.000                                                                                                                                    24763931.742 7 128952300.93607     -1202.275 7        45.174                                                                    24763922.624 7 104784275.34107      -977.005 7        45.988
R23        32.000    20789835.533 8 111211615.62708     -2877.407 8        49.091
E29        33.000    26010193.959 7 136684576.07507     -2785.183 7        42.861                                                                    26010192.062 7 102069665.96407     -2079.954 7        45.898    26010191.840 7 104732347.38207     -2134.171 7        46.386
E04        34.000    25320937.638 7 133062459.02307      1538.823 7        44.680                                                                    25320934.885 7  99364834.62107      1149.126 7        47.675    25320934.737 8 101956956.22908      1179.087 8        48.597
C16        35.000                                                                                                                                    39583352.927 6 206120937.33206     -1354.272 6        41.263    39583352.414 7 159385796.23907     -1047.139 7        42.066    39583349.605 6 167490146.17806     -1100.573 6        38.078
C32        36.000                                                                                                                                    24255263.605 7 126303576.00707     -2758.887 7        46.509                                                                    24255262.768 7 102632022.54407     -2241.918 7        46.991
I01        37.000   381862292.755 7 195368849.82207     -2797.358 7        42.535
E27        38.000    27845870.811 6 146331040.02706       836.818 6        38.559                                                                    27845870.283 6 109273190.13706       624.888 6        41.313    27845870.050 7 112123791.44907       641.173 7        42.136
C19        39.000                                                                                                                                    24321195.872 7 126646852.95507      1847.023 7        46.238                                                                    24321190.917 7 102910919.85007      1500.751 7        46.564
C39        40.000                                                                                                                                    40339183.917 6 210056742.30806     -1616.269 6        41.063                                                                    40339179.517 6 170688304.85006     -1313.333 6        40.315
E33        41.000    27222624.106 6 143055939.09106     -3729.109 6        40.050                                                                    27222621.885 7 106827518.93007     -2784.772 7        42.779    27222621.650 7 109614319.81307     -2857.463 7        44.166
S44        42.000    40911743.101 6 214992863.81806      -549.337 6        37.478
R06        43.000    24396790.574 5 130186001.40405     -3838.573 5        31.751
C05        44.000                                                                                                                                    39335661.780 6 204831156.85906      -511.046 6        39.162    39335655.378 7 158388470.21707      -395.206 7        43.092    39335657.444 6 166442198.63706      -415.423 6        40.241
C29        45.000                                                                                                                                    24626837.896 7 128238426.86507     -3083.364 7        45.366                                                                    24626835.088 7 104204224.19907     -2505.493 7        44.391
G04        46.000    20756745.097 7 109077466.46307     -2008.860 7        46.773                                    20756741.091 6  84995415.15706     -1565.344 6        38.366    20756741.186 7  84995417.15307     -1565.330 7        46.975
E30        47.000    28977581.556 5 152278240.20805     -1334.252 5        35.476                                                                    28977581.423 6 113714262.86306      -996.171 6        39.793    28977580.922 6 116680720.36006     -1022.228 6        41.054
R22        48.000    23143218.271 7 123540095.73607     -4928.662 7        43.740                                                                    23143216.719 7  96086737.36507     -3833.330 7        42.658
C20        49.000                                                                                                                                    22044924.866 8 114793736.49408      -260.775 8        52.078                                                                    22044918.607 8  93279298.61708      -211.998 8        49.478
C06        50.000                                                                                                                                    39019405.683 6 203184314.84706     -1316.377 6        40.281    39019399.364 7 157114984.66807     -1017.909 7        43.391    39019398.926 6 165103880.49506     -1069.675 6        40.574
S48        51.000    77354923.137 6 406502307.40906      -461.329 6        38.006
E06        52.000    27526254.705 6 144651464.19706      2087.196 6        39.916                                                                    27526253.897 6 108018960.66206      1558.605 6        41.004    27526254.026 6 110836844.61006      1599.354 6        41.170
C09        53.000                                                                                                                                    38768392.748 7 201877218.28807      -878.942 7        42.116    38768389.340 7 156104261.96707      -679.719 7        46.946    38768387.262 7 164041756.27307      -714.353 7        42.250
C60        54.000                                                                                                                                    40911744.230 6 213038402.76206      -544.165 6        39.276                                                                    40911728.201 6 173111124.80806      -442.389 6        40.355
R09        55.000    21307913.292 7 113783092.63907       691.817 7        47.842                                                                    21307911.717 7  88497955.62907       537.991 7        46.690
G07        56.000    22782382.580 7 119722244.17107      2384.747 7        46.030                                    22782377.373 7  93290043.38707      1858.243 7        42.823    22782377.816 6  93290052.40206      1858.105 6        41.809
C02        57.000                                                                                                                                    40859698.076 5 212767227.74205      -549.467 5        35.229    40859689.927 6 164525113.91206      -424.814 6        39.243    40859694.130 6 172890806.74606      -446.601 6        36.023
I03        58.000   101097109.822 6 320941546.33006       862.208 6        41.039
R07        59.000    20646833.187 8 110524183.72108     -2565.636 8        49.243                                                                    20646832.293 7  85963307.71207     -1995.464 7        46.381
> 2025 01 02 03 45 10.0000000  0 57
G09         1.000    20153689.311 8 105908388.77008      -217.132 8        50.523                                    20153686.317 8  82526023.52008      -169.190 8        53.450    20153686.667 7  82526023.51707      -169.138 7        45.980
G06         2.000    21351102.251 8 112200823.60308      -447.179 8        48.082                                    21351100.492 8  87429218.86108      -348.451 8        50.264    21351101.293 7  87429226.86507      -348.493 7        45.759
E11         3.000    25241817.032 6 132646663.17806      1048.984 6        41.831                                                                    25241812.160 7  99054317.77007       783.291 7        43.841    25241812.215 7 101638339.54407       803.728 7        44.704
G16         4.000    24468371.778 6 128582168.25106      1690.585 6        38.604                                    24468366.188 3 100193879.59903      1317.351 3        20.071
S21         5.000    38613484.475 7 202914927.29507      -473.968 7        42.536
E10         6.000    24292374.484 7 127657303.01807      -504.126 7        47.833                                                                    24292372.983 8  95328503.26108      -376.353 8        50.828    24292372.849 8  97815333.13308      -386.227 8        51.393
G20         7.000    24966546.549 6 131200088.22206      2967.174 6        38.063                                    24966541.558 3 102233813.89303      2312.065 3        18.567
G03         8.000    22585673.128 7 118688607.20107     -3429.196 7        43.450                                    22585670.682 6  92484669.70306     -2672.097 6        41.776    22585671.270 6  92484667.69906     -2672.044 6        40.984
R10         9.000    22527526.666 6 120084386.36406      3389.719 6        39.877
G31        10.000    25038537.048 6 131578405.55906     -4083.071 6        38.468                                    25038532.208 4 102528610.85004     -3181.618 4        29.355    25038532.599 5 102528615.84505     -3181.517 5        35.181
G30        11.000    25552926.688 6 134281536.71906      3205.412 6        38.285                                    25552925.008 5 104634953.75705      2497.718 5        31.057    25552925.451 5 104634961.75405      2497.602 5        35.410
S27        12.000    39242228.708 6 206219328.62206      -478.017 6        36.783
G26        13.000    24312645.884 6 127763823.14806      -529.387 6        38.724                                    24312644.376 5  99556232.94205      -412.510 5        31.615    24312644.946 6  99556232.95306      -412.640 6        36.975
S36        14.000    38381016.691 7 201694130.50607      -474.433 7        44.974
I09        15.000    37851564.017 7 148537667.54507      -691.608 7        42.921
G19        16.000    24748460.480 6 130054047.77606     -3568.980 6        38.057                                    24748454.437 3 101340798.11003     -2781.017 3        21.000
S45        17.000    63570270.519 6 334064107.96116      -514.423 6        37.856
E12        19.000    24533886.624 7 128926454.28907     -1912.774 7        45.025                                                                    24533882.357 7  96276237.66007     -1428.414 7        46.973    24533882.500 8  98787791.06808     -1465.739 8        48.060
E21        20.000    28574331.997 6 150159116.26106      2235.576 6        36.805                                                                    28574331.938 6 112131820.40006      1669.340 6        39.225    28574331.345 6 115056994.91006      1712.850 6        40.329
G11        21.000    23265540.786 7 122261257.74407      1973.929 7        43.577                                    23265536.681 5  95268494.59505      1538.124 5        30.845    23265536.587 7  95268507.60307      1538.094 7        42.427
I06        22.000    38173403.354 7 149800877.72007      -306.522 7        42.993
S28        23.000    41043803.471 5 215686669.12905      -471.170 5        35.243
R08        24.000    19906053.427 8 106596053.11408       411.399 8        50.909                                                                    19906050.702 7  82908046.08307       319.948 7        47.603
S23        25.000    38323237.997 7 201389965.26507      -470.089 7        44.924
R01        26.000    23432452.853 6 125259897.29706      2744.240 6        40.579                                                                    23432453.954 5  97424356.59405      2134.363 5        35.271
R16        27.000    23109485.306 7 123446738.14407     -3004.240 7        44.066                                                                    23109485.324 6  96014131.71906     -2336.612 6        41.692
R24        29.000    21918586.249 8 117208542.02108      1599.040 8        48.317                                                                    21918585.519 7  91162187.52707      1243.690 7        43.865
E19        30.000    23131145.736 7 121555025.59307     -1059.158 7        43.230                                                                    23131142.986 7  90771612.95007      -790.812 7        45.770    23131143.063 7  93139564.77207      -811.521 7        47.223
C23        31.000                                                                                                                                    24765087.637 7 128958320.07807     -1205.218 7        45.321                                                                    24765078.451 7 104789166.40007      -979.331 7        45.967
R23        32.000    20792526.648 8 111226013.19808     -2881.455 8        48.772
E29        33.000    26012844.259 7 136698504.11207     -2785.899 7        42.538                                                                    26012842.564 7 102080066.76207     -2080.284 7        46.066    26012842.331 7 104743019.50207     -2134.506 7        46.385
E04        34.000    25319473.732 7 133054768.06507      1537.653 7        44.402                                                                    25319471.321 7  99359091.36007      1148.294 7        47.712    25319471.211 8 101951063.14808      1178.154 8        48.790
C16        35.000                                                                                                                                    39584653.518 6 206127710.34006     -1354.722 6        41.316    39584652.796 6 159391033.56606     -1047.640 6        41.962    39584650.408 6 167495649.81406     -1100.817 6        38.252
C32        36.000                                                                                                                                    24257912.963 7 126317372.82107     -2759.710 7        46.730                                                                    24257912.234 7 102643233.59607     -2242.495 7        46.866
I01        37.000   381865857.430 7 195382837.31507     -2797.599 7        42.571
E27        38.000    27845075.902 6 146326861.88606       834.553 6        38.273                                                                    27845075.250 6 109270070.11706       623.261 6        41.139    27845074.914 7 112120590.02707       639.545 7        42.254
C19        39.000                                                                                                                                    24319422.628 7 126637619.91707      1846.355 7        46.106                                                                    24319417.800 7 102903417.26907      1500.276 7        46.465
C39        40.000                                                                                                                                    40340736.119 6 210064824.00206     -1616.414 6        40.820                                                                    40340731.488 6 170694871.90806     -1313.608 6        40.358
E33        41.000    27226172.501 6 143074586.94906     -3729.831 6        39.886                                                                    27226170.647 7 106841444.28107     -2785.189 7        42.880    27226170.438 7 109628608.43407     -2857.913 7        44.153
S44        42.000    40912267.090 6 214995610.09006      -549.220 6        37.701
R06        43.000    24400386.843 5 130205195.21505     -3838.747 5        31.426
C05        44.000                                                                                                                                    39336152.563 6 204833712.52706      -511.039 6        39.027    39336146.157 7 158390446.43807      -395.209 7        42.889    39336148.285 6 166444275.36206      -415.391 6        40.160
C29        45.000                                                                                                                                    24629799.253 7 128253847.56107     -3084.800 7        45.180                                                                    24629796.572 7 104216754.79107     -2506.625 7        44.408
G04        46.000    20758657.260 7 109087515.92507     -2010.804 7        46.885                                    20758653.483 6  85003245.90806     -1566.855 6        38.571    20758653.677 7  85003247.90407     -1566.835 7        46.880
E30        47.000    28978851.922 5 152284916.92705     -1336.291 5        35.148                                                                    28978851.930 6 113719248.74606      -997.886 6        39.811    28978851.569 6 116685836.31806     -1024.058 6        41.051
R22        48.000    23147834.641 7 123564740.85807     -4929.439 7        43.587                                                                    23147833.913 7  96105905.79307     -3833.958 7        42.535
C20        49.000                                                                                                                                    22045176.023 8 114795044.54608      -262.332 8        52.262                                                                    22045169.782 8  93280361.53408      -213.197 8        49.457
C06        50.000                                                                                                                                    39020669.606 6 203190898.19406     -1316.739 6        40.210    39020663.466 7 157120075.33307     -1018.287 7        43.359    39020663.140 6 165109230.02106     -1070.064 6        40.501
S48        51.000    77355366.055 6 406504614.40206      -461.070 6        38.093
E06        52.000    27524268.703 6 144641029.56406      2086.839 6        39.096                                                                    27524268.573 6 108011168.57706      1558.300 6        41.211    27524268.349 6 110828849.26406      1598.902 6        41.242
C09        53.000                                                                                                                                    38769237.549 7 201881615.00507      -879.574 7        42.068    38769233.535 7 156107661.79307      -680.227 7        47.065    38769231.650 7 164045328.98507      -714.801 7        42.209
C60        54.000                                                                                                                                    40912266.699 6 213041124.08506      -544.150 6        39.444                                                                    40912250.719 6 173113336.11706      -442.140 6        40.412
R09        55.000    21307267.572 7 113779644.40307       687.557 7        47.660                                                                    21307265.685 7  88495273.67307       534.736 7        46.377
G07        56.000    22780114.158 7 119710325.11307      2383.092 7        46.459                                    22780109.246 7  93280755.81207      1856.954 7        43.096    22780109.530 6  93280764.81106      1857.032 6        41.774
C02        57.000                                                                                                                                    40860225.688 5 212769975.18905      -549.416 5        35.119    40860217.529 6 164527238.42006      -424.787 6        39.303    40860221.754 5 172893039.29405      -446.299 5        35.990
I03        58.000   101096011.283 6 320937235.68206       862.126 6        40.918
R07        59.000    20649230.565 8 110537015.73408     -2567.141 8        49.185                                                                    20649229.343 7  85973288.16807     -1996.697 7        46.520
> 2025 01 02 03 45 15.0000000  0 57
G09         1.000    20153897.247 8 105909480.62808      -219.711 8        50.992                                    20153894.086 8  82526874.31808      -171.205 8        53.226    20153894.603 7  82526874.32007      -171.191 7        46.316
G06         2.000    21351529.833 8 112203069.03408      -450.902 8        48.143                                    21351527.774 8  87430968.54308      -351.353 8        50.133    21351528.739 7  87430976.54807      -351.352 7        46.160
E11         3.000    25240820.102 6 132641423.89206      1046.799 6        41.740                                                                    25240815.151 7  99050405.32107       781.636 7        43.814    25240815.154 7 101634325.02407       802.037 7        44.707
G16         4.000    24466764.080 6 128573720.76806      1688.167 6        38.054                                    24466758.971 3 100187297.14703      1315.471 3        19.403
S21         5.000    38613933.900 7 202917298.00907      -474.334 7        42.861
E10         6.000    24292855.527 7 127659829.88407      -506.770 7        47.808                                                                    24292853.849 8  95330390.21408      -378.495 8        50.791    24292853.645 8  97817269.30808      -388.340 8        51.368
G20         7.000    24963723.810 6 131185252.74306      2966.786 6        38.384                                    24963718.493 3 102222253.77103      2311.805 3        18.060
G03         8.000    22588936.051 7 118705756.29307     -3430.604 7        43.344                                    22588934.063 6  92498032.62806     -2673.195 6        41.456    22588934.580 6  92498030.63306     -2673.249 6        41.020
R10         9.000    22524347.074 6 120067442.30406      3387.880 6        38.195
G31        10.000    25042422.672 6 131598823.67506     -4084.416 6        38.405                                    25042417.659 4 102544521.06604     -3182.662 4        29.346    25042418.002 5 102544526.06205     -3182.532 5        35.271
G30        11.000    25549876.675 6 134265510.13106      3205.127 6        38.450                                    25549875.178 5 104622465.50805      2497.499 5        30.853    25549875.777 5 104622473.50805      2497.395 5        35.310
S27        12.000    39242685.292 6 206221719.24006      -478.557 6        37.104
G26        13.000    24313151.241 6 127766478.41906      -532.772 6        38.108                                    24313149.893 5  99558301.99005      -415.144 5        31.457    24313150.608 6  99558301.97006      -414.923 6        37.028
S36        14.000    38381467.944 7 201696503.47107      -474.702 7        45.117
I09        15.000    37852445.272 7 148541125.91207      -691.891 7        42.736
G19        16.000    24751856.765 6 130071893.87006     -3569.627 6        38.547                                    24751850.379 3 101354704.13403     -2781.519 3        20.833
S45        17.000    63570715.329 6 334066680.76806      -514.558 6        38.048
E12        19.000    24535707.956 7 128936024.80807     -1915.369 7        44.900                                                                    24535703.586 7  96283384.48007     -1430.338 7        46.880    24535703.698 8  98795124.32308     -1467.660 8        48.036
E21        20.000    28572205.363 6 150147939.69806      2234.908 6        36.715                                                                    28572205.168 6 112123474.26706      1668.930 6        39.477    28572204.655 6 115048431.05206      1712.584 6        40.334
G11        21.000    23263663.614 7 122251394.77507      1971.241 7        43.336                                    23263659.865 5  95260809.16205      1536.022 5        30.566    23263659.885 7  95260822.16907      1535.982 7        42.389
I06        22.000    38173794.282 7 149802410.70507      -306.789 7        42.906
S28        23.000    41044255.856 5 215689025.05005      -471.299 5        35.019
R08        24.000    19905670.429 8 106594001.47108       409.197 8        51.021                                                                    19905667.375 7  82906450.36407       318.260 7        47.346
S23        25.000    38323682.311 7 201392316.36607      -470.388 7        45.058
R01        26.000    23429886.885 6 125246176.91906      2743.710 6        41.361                                                                    23429886.968 5  97413685.20505      2133.984 5        35.438
R16        27.000    23112299.302 7 123461768.42007     -3007.981 7        44.042                                                                    23112298.734 6  96025821.92106     -2339.656 6        41.480
R24        29.000    21917093.569 8 117200557.42108      1594.779 8        48.667                                                                    21917091.907 7  91155977.27807      1240.381 7        43.655
E19        30.000    23132154.215 7 121560324.80007     -1060.693 7        43.170                                                                    23132151.436 7  90775570.15307      -792.030 7        45.856    23132151.431 7  93143625.20207      -812.716 7        47.233
C23        31.000                                                                                                                                    24766246.259 7 128964353.28007     -1208.192 7        45.339                                                                    24766237.185 7 104794068.85907      -981.628 7        46.163
R23        32.000    20795221.368 8 111240430.78108     -2885.683 8        48.425
E29        33.000    26015495.337 7 136712434.66107     -2786.430 7        42.320                                                                    26015493.536 7 102090469.44307     -2080.840 7        46.001    26015493.269 7 104753693.56107     -2135.054 7        46.476
E04        34.000    25318011.401 7 133047082.45407      1536.361 7        44.504                                                                    25318008.882 7  99353352.09807      1147.306 7        47.739    25318008.636 8 101945174.16708      1177.250 8        48.761
C16        35.000                                                                                                                                    39585954.786 6 206134485.40706     -1355.377 6        41.402    39585953.886 7 159396272.46907     -1048.101 7        42.030    39585951.486 6 167501155.10506     -1101.198 6        38.474
C32        36.000                                                                                                                                    24260563.346 7 126331173.76207     -2760.745 7        47.070                                                                    24260562.569 7 102654447.99207     -2243.235 7        46.952
I01        37.000   381869422.055 7 195396825.61307     -2797.848 7        42.383
E27        38.000    27844282.772 6 146322694.12406       832.441 6        38.535                                                                    27844282.054 6 109266957.82306       621.617 6        41.220    27844281.680 7 112117396.54507       637.803 7        42.195
C19        39.000                                                                                                                                    24317650.510 7 126628390.59707      1845.359 7        45.934                                                                    24317645.424 7 102895917.68607      1499.631 7        46.699
C39        40.000                                                                                                                                    40342288.223 6 210072906.99406     -1616.712 6        40.617                                                                    40342283.841 6 170701439.98206     -1313.701 6        40.465
E33        41.000    27229721.776 6 143093237.46206     -3730.532 6        39.874                                                                    27229719.804 7 106855371.60907     -2785.834 7        43.185    27229719.461 7 109642899.06907     -2858.422 7        44.181
S44        42.000    40912789.845 6 214998356.66106      -549.427 6        37.592
R06        43.000    24403985.593 5 130224389.49405     -3838.828 5        31.457
C05        44.000                                                                                                                                    39336643.748 6 204836268.63506      -511.278 6        38.850    39336636.721 7 158392422.97607      -395.446 7        43.096    39336639.198 6 166446352.39706      -415.597 6        40.291
C29        45.000                                                                                                                                    24632761.687 7 128269275.56707     -3086.396 7        44.877                                                                    24632759.302 7 104229291.29707     -2507.809 7        44.659
G04        46.000    20760571.410 7 109097574.80307     -2012.856 7        47.332                                    20760567.615 6  85011083.99406     -1568.460 6        38.405    20760567.766 7  85011085.99707     -1568.464 7        46.938
E30        47.000    28980124.560 5 152291605.29605     -1339.125 5        34.814                                                                    28980124.641 6 113724243.31106      -999.841 6        39.949    28980124.188 6 116690961.16206     -1025.919 6        41.080
R22        48.000    23152452.787 7 123589390.03207     -4930.331 7        43.710                                                                    23152450.617 6  96125077.36706     -3834.786 6        41.795
C20        49.000                                                                                                                                    22045428.867 8 114796360.14108      -263.946 8        52.259                                                                    22045422.439 8  93281430.56508      -214.469 8        49.632
C06        50.000                                                                                                                                    39021934.100 6 203197483.89406     -1317.423 6        40.100    39021928.067 7 157125167.81407     -1018.854 7        43.793    39021927.762 6 165114581.42306     -1070.423 6        40.489
S48        51.000    77355809.301 6 406506921.38806      -461.636 6        38.288
E06        52.000    27522283.947 6 144630597.87706      2086.095 6        38.682                                                                    27522283.589 6 108003378.68806      1557.720 6        41.302    27522283.183 6 110820856.15406      1598.398 6        41.313
C09        53.000                                                                                                                                    38770082.401 6 201886014.71306      -880.447 6        41.974    38770078.476 7 156111063.90907      -680.747 7        47.019    38770076.638 7 164048904.08707      -715.310 7        42.379
C60        54.000                                                                                                                                    40912789.365 6 213043845.70406      -544.477 6        39.330                                                                    40912773.372 6 173115547.63506      -442.328 6        40.625
R09        55.000    21306625.722 7 113776217.70007       683.033 7        47.657                                                                    21306624.219 7  88492608.46807       531.242 7        46.546
G07        56.000    22777847.739 7 119698413.96907      2381.374 7        46.381                                    22777842.697 7  93271474.40407      1855.615 7        43.018    22777842.896 6  93271483.41006      1855.600 6        41.526
C02        57.000                                                                                                                                    40860752.718 5 212772722.99805      -549.684 5        35.243    40860745.382 6 164529363.20306      -425.208 6        39.321    40860749.267 6 172895272.10906      -446.735 6        36.189
I03        58.000   101094912.758 6 320932925.36906       861.934 6        40.713
R07        59.000    20651629.472 8 110549855.21308     -2568.731 8        49.317                                                                    20651627.705 7  85983274.42107     -1997.988 7        46.377
> 2025 01 02 03 45 20.0000000  0 57
G09         1.000    20154107.389 8 105910583.36408      -221.624 8        50.922                                    20154103.921 8  82527733.59308      -172.694 8        53.298    20154104.153 7  82527733.59807      -172.725 7        46.465
G06         2.000    21351960.163 8 112205331.09608      -453.978 8        48.295                                    21351958.230 8  87432731.19108      -353.750 8        50.121    21351958.649 7  87432739.20007      -353.798 7        45.849
E11         3.000    25239824.849 6 132636194.38106      1045.029 6        41.766                                                                    25239819.961 7  99046500.17207       780.315 7        43.898    25239820.065 7 101630317.99907       800.675 7        44.718
G16         4.000    24465158.504 6 128565284.13606      1686.338 6        38.589                                    24465153.775 3 100180723.15103      1314.047 3        19.045
S21         5.000    38614385.100 7 202919668.10707      -473.875 7        42.923
E10         6.000    24293338.634 7 127662368.69007      -508.929 7        47.926                                                                    24293336.919 8  95332286.07408      -380.051 8        50.763    24293336.790 8  97819214.62508      -389.956 8        51.402
G20         7.000    24960900.689 6 131170417.17206      2967.108 6        38.655                                    24960895.307 3 102210693.59903      2312.017 3        18.090
G03         8.000    22592201.089 7 118722911.46607     -3431.645 7        43.018                                    22592198.611 6  92511400.29206     -2674.003 6        41.263    22592199.280 6  92511398.29106     -2674.074 6        41.011
R10         9.000    22521169.001 6 120050506.88106      3386.165 6        38.568
G31        10.000    25046309.192 6 131619247.16106     -4085.213 6        38.426                                    25046304.139 4 102560435.47204     -3183.284 4        29.517    25046304.577 5 102560440.46805     -3183.323 5        35.524
G30        11.000    25546826.586 6 134249482.75206      3205.625 6        38.306                                    25546825.286 5 104609976.64605      2497.889 5        30.830    25546825.594 5 104609984.65705      2497.726 5        35.695
S27        12.000    39243137.109 6 206224111.71906      -478.460 6        36.964
G26        13.000    24313659.682 6 127769149.14706      -535.731 6        38.366                                    24313658.236 5  99560383.08205      -417.456 5        31.472    24313658.360 6  99560383.07706      -417.259 6        37.051
S36        14.000    38381918.961 7 201698875.50507      -474.139 7        45.073
I09        15.000    37853326.668 7 148544584.52907      -691.651 7        42.726
G19        16.000    24755252.626 6 130089742.76106     -3570.017 6        39.249                                    24755247.024 3 101368612.36403     -2781.828 3        21.095
S45        17.000    63571165.394 6 334069253.28106      -514.386 6        38.057
E12        19.000    24537531.248 7 128945606.02107     -1917.302 7        45.070                                                                    24537526.792 7  96290539.28307     -1431.775 7        46.833    24537527.003 8  98802465.76608     -1469.073 8        48.048
E21        20.000    28570078.781 6 150136764.09706      2234.968 6        36.556                                                                    28570078.600 6 112115128.84306      1669.045 6        39.664    28570078.067 6 115039867.93506      1712.625 6        40.496
G11        21.000    23261789.313 7 122241543.35707      1969.233 7        43.484                                    23261785.235 5  95253132.73505      1534.467 5        30.619    23261785.189 7  95253145.72807      1534.505 7        42.205
I06        22.000    38174184.485 7 149803943.56207      -306.639 7        42.861
S28        23.000    41044701.588 5 215691380.47605      -471.141 5        35.238
R08        24.000    19905288.868 8 106591959.06608       407.595 8        51.087                                                                    19905285.948 7  82904861.82407       316.980 7        47.164
S23        25.000    38324130.636 7 201394666.88907      -469.979 7        45.020
R01        26.000    23427321.893 6 125232458.60706      2743.473 6        41.304                                                                    23427321.189 5  97403015.37605      2133.817 5        35.229
R16        27.000    23115115.868 7 123476815.97007     -3011.313 7        43.312                                                                    23115115.633 6  96037525.56006     -2341.878 6        40.837
R24        29.000    21915603.870 8 117192592.18108      1591.060 8        48.430                                                                    21915602.648 7  91149782.09307      1237.519 7        44.214
