     3.04           OBSERVATION DATA    M                   RINEX VERSION / TYPE
ssrcrin-15.6.1x                         20250102 113000 UTC PGM / RUN BY / DATE 
(00000000023479385599111004) Septentrio proprietary         COMMENT             
rref                                                        MARKER NAME         
01                                                          MARKER NUMBER       
geodetic                                                    MARKER TYPE         
NFB                 CLIMERS@TUW                             OBSERVER / AGENCY   
3297213             SEPT ASTERX SB3 PROB4.14.4              REC # / TYPE / VERS 
Unknown             Unknown                                 ANT # / TYPE        
  4127831.5250  1207193.0252  4695247.9199                  APPROX POSITION XYZ 
        0.0000        0.0000        0.0000                  ANTENNA: DELTA H/E/N
G   23 X1  C1C L1C D1C S1C C1W S1W C2W L2W D2W S2W C2L L2L  SYS / # / OBS TYPES 
       D2L S2L C5Q L5Q D5Q S5Q C1L L1L D1L S1L              SYS / # / OBS TYPES 
E   21 X1  C1C L1C D1C S1C C6C L6C D6C S6C C5Q L5Q D5Q S5Q  SYS / # / OBS TYPES 
       C7Q L7Q D7Q S7Q C8Q L8Q D8Q S8Q                      SYS / # / OBS TYPES 
S    9 X1  C1C L1C D1C S1C C5I L5I D5I S5I                  SYS / # / OBS TYPES 
R   17 X1  C1C L1C D1C S1C C2P L2P D2P S2P C2C L2C D2C S2C  SYS / # / OBS TYPES 
       C3Q L3Q D3Q S3Q                                      SYS / # / OBS TYPES 
C   25 X1  C1P L1P D1P S1P C5P L5P D5P S5P C2I L2I D2I S2I  SYS / # / OBS TYPES 
       C7I L7I D7I S7I C6I L6I D6I S6I C7D L7D D7D S7D      SYS / # / OBS TYPES 
J   17 X1  C1C L1C D1C S1C C2L L2L D2L S2L C5Q L5Q D5Q S5Q  SYS / # / OBS TYPES 
       C1L L1L D1L S1L                                      SYS / # / OBS TYPES 
I    5 X1  C5A L5A D5A S5A                                  SYS / # / OBS TYPES 
SEPTENTRIO RECEIVERS OUTPUT ALIGNED CARRIER PHASES.         COMMENT             
NO FURTHER PHASE SHIFT APPLIED IN THE RINEX ENCODER.        COMMENT             
G L1C                                                       SYS / PHASE SHIFT   
G L2W                                                       SYS / PHASE SHIFT   
G L2L  0.00000                                              SYS / PHASE SHIFT   
G L5Q  0.00000                                              SYS / PHASE SHIFT   
G L1L  0.00000                                              SYS / PHASE SHIFT   
E L1C  0.00000                                              SYS / PHASE SHIFT   
E L6C  0.00000                                              SYS / PHASE SHIFT   
E L5Q  0.00000                                              SYS / PHASE SHIFT   
E L7Q  0.00000                                              SYS / PHASE SHIFT   
E L8Q  0.00000                                              SYS / PHASE SHIFT   
S L1C                                                       SYS / PHASE SHIFT   
S L5I                                                       SYS / PHASE SHIFT   
R L1C                                                       SYS / PHASE SHIFT   
R L2P  0.00000                                              SYS / PHASE SHIFT   
R L2C                                                       SYS / PHASE SHIFT   
R L3Q  0.00000                                              SYS / PHASE SHIFT   
C L1P  0.00000                                              SYS / PHASE SHIFT   
C L5P  0.00000                                              SYS / PHASE SHIFT   
C L2I                                                       SYS / PHASE SHIFT   
C L7I                                                       SYS / PHASE SHIFT   
C L6I                                                       SYS / PHASE SHIFT   
C L7D                                                       SYS / PHASE SHIFT   
J L1C                                                       SYS / PHASE SHIFT   
J L2L  0.00000                                              SYS / PHASE SHIFT   
J L5Q  0.00000                                              SYS / PHASE SHIFT   
J L1L  0.00000                                              SYS / PHASE SHIFT   
I L5A                                                       SYS / PHASE SHIFT   
  2025     1     2    11    30    0.0000000     GPS         TIME OF FIRST OBS   
 C1C    0.000 C2C    0.000 C2P    0.000                     GLONASS COD/PHS/BIS 
DBHZ                                                        SIGNAL STRENGTH UNIT
    18                                                      LEAP SECONDS        
 24 R01  1 R02 -4 R03  5 R04  6 R05  1 R06 -4 R07  5 R08  6 GLONASS SLOT / FRQ #
    R09 -2 R10 -7 R11  0 R12 -1 R13 -2 R14 -7 R15  0 R16 -1 GLONASS SLOT / FRQ #
    R17  4 R18 -3 R19  3 R20  2 R21  4 R22 -3 R23  3 R24  2 GLONASS SLOT / FRQ #
                                                            END OF HEADER       
> 2025 01 02 11 30  0.0000000  0 56
E24         1.000    23648327.554 8 124272926.18808      -253.699 8        49.254                                                                    23648329.538 8  92801281.92008      -189.428 8        50.737    23648328.477 8  95222173.50008      -194.346 8        50.950
G15         2.000    22667653.055 7 119119209.39907     -4040.105 7        45.589                                    22667655.922 7  92820123.14307     -3148.126 7        42.432    22667656.152 6  92820118.12606     -3148.056 6        41.390
E03         3.000    25884333.258 7 136023085.60307      1483.903 7        43.204                                                                    25884339.339 7 101575692.08007      1108.097 7        45.929    25884338.503 7 104225493.82107      1137.052 7        46.803
G19         4.000    21290784.847 7 111883996.83207      -457.077 7        46.901                                    21290783.075 6  87182369.07406      -356.165 6        38.571
S21         5.000    38521836.250 7 202433179.37107      -506.769 7        42.830
E05         6.000    22424546.315 8 117841740.98208     -1236.803 8        48.305                                                                    22424550.757 8  87998674.97508      -923.645 8        50.325    22424549.949 8  90294292.32608      -947.694 8        51.065
G25         7.000    24301336.380 6 127704406.66906      3039.463 6        38.517                                    24301346.209 5  99509973.88605      2368.407 5        30.355    24301346.870 5  99509974.89405      2368.367 5        35.700
C29         8.000                                                                                                                                    23626427.289 7 123029015.02307      1301.104 7        47.359                                                                    23626429.568 7  99971166.23807      1057.466 7        46.513
R05         9.000    21835520.020 8 116723421.31008      2009.393 8        49.097                                                                    21835524.854 7  90784935.03407      1562.928 7        44.190
G24        10.000    20127994.218 8 105773332.79208      -287.529 8        50.690                                    20127995.455 8  82420795.32808      -224.049 8        53.174    20127995.506 7  82420800.33907      -224.045 7        46.374
C14        11.000                                                                                                                                    25059985.832 7 130493934.49507       538.203 7        42.123    25059988.288 7 100906217.32107       416.197 7        47.533    25059984.496 7 106037024.37207       437.583 7        44.284
S27        12.000    39281037.384 6 206423070.64306      -534.996 6        36.378
G13        13.000    24128239.585 6 126794584.76506     -4406.342 6        41.163                                    24128245.150 3  98800910.92003     -3433.501 3        23.314
S36        14.000    38292480.541 7 201228769.27407      -507.390 7        44.417
G06        15.000    25177500.038 6 132308652.25906      2447.460 6        38.486                                    25177510.499 5 103097695.00905      1907.123 5        31.743    25177511.207 6 103097697.01306      1906.966 6        37.482
E09        16.000    26283739.409 7 138121887.21207     -3485.818 7        43.850                                                                    26283747.357 7 103142932.17807     -2603.094 7        45.397    26283746.226 7 105833617.62807     -2670.885 7        46.256
G12        17.000    21401581.084 8 112466231.40708      1808.120 8        48.796                                    21401580.601 8  87636104.14808      1408.923 8        48.124    21401581.152 7  87636101.15407      1408.887 7        43.985
G32        18.000    25459478.488 6 133790428.79006      2832.081 6        39.766                                    25459486.920 5 104252314.86105      2206.819 5        32.000    25459488.277 6 104252318.86606      2206.693 6        36.983
R22        19.000    22704029.538 7 121195710.83207     -2139.661 7        44.764                                                                    22704036.437 6  94263322.02706     -1664.334 6        40.660
R03        21.000    22279196.038 7 119262145.09207     -4786.570 7        46.454                                                                    22279203.536 7  92759411.37107     -3722.932 7        43.765
I06        22.000    38413583.224 7 150743250.88307      -489.648 7        42.391
S28        23.000    40982147.054 5 215362435.98405      -517.245 5        35.033
S23        25.000    38228031.961 7 200889497.23807      -510.741 7        44.867
S45        26.000    63479254.291 6 333586284.94706      -565.738 6        36.136
C07        27.000                                                                                                                                    39531690.628 6 205851798.11306     -1296.349 6        39.763    39531691.696 7 159177640.88607     -1002.314 7        43.227    39531688.190 6 167271413.73806     -1053.329 6        40.064
R04        28.000    20297484.338 8 108692085.66208     -1871.679 8        51.159                                                                    20297485.870 7  84538264.37507     -1455.820 7        46.715
C40        29.000                                                                                                                                    39826890.556 6 207388985.49406     -1570.900 6        41.080                                                                    39826895.939 6 168520524.81906     -1276.330 6        40.489
G17        30.000    22968081.776 7 120698183.91707     -2774.862 7        44.727                                    22968083.393 6  94050586.59606     -2162.228 6        40.977    22968083.770 6  94050583.58806     -2162.226 6        40.818
G14        31.000    25135860.222 6 132089665.37506     -3838.255 6        37.505                                    25135868.908 3 102926968.52903     -2990.822 3        18.836    25135868.912 6 102926954.51906     -2990.710 6        37.187
G23        32.000    24726226.677 6 129937022.53806     -3212.328 6        38.955                                    24726233.802 3 101249571.84603     -2503.108 3        20.476    24726233.391 6 101249566.79906     -2503.025 6        37.860
I02        33.000    36978244.246 7 145110557.32107      -381.534 7        42.504
R15        34.000    23228400.917 7 124125564.31307      2696.373 7        44.841                                                                    23228409.012 6  96542147.91406      2097.021 6        40.300
R13        35.000    20848036.542 7 111327349.35007     -2926.640 7        45.533
R12        36.000    24603829.665 6 131429034.97906     -3916.977 6        38.216                                                                    24603842.838 6 102222535.79506     -3046.695 6        36.575
C42        37.000                                                                                                                                    24159216.043 7 125803363.70807      -942.800 7        45.761                                                                    24159227.812 7 102225580.45007      -766.005 7        46.800
C10        38.000                                                                                                                                    38796361.573 6 202022801.43706      -973.428 6        41.368    38796364.291 7 156216837.70107      -752.647 7        44.944    38796360.915 6 164160056.85706      -790.837 6        41.375
E25        39.000    25972588.419 7 136486998.47907      1813.540 7        43.118                                                                    25972596.403 7 101922212.89007      1354.245 7        45.497    25972595.003 7 104581040.55307      1389.655 7        45.856
C30        40.000                                                                                                                                    24846951.629 7 129384625.99807     -1697.895 7        43.890                                                                    24846958.511 7 105135645.56107     -1379.531 7        43.198
R23        41.000    21606422.810 7 115579872.59107      1229.714 7        45.735
S44        42.000    40916658.992 6 215018487.52806      -452.280 6        36.964
C36        43.000                                                                                                                                    24947059.798 7 129905753.51407     -3125.921 7        43.016                                                                    24947071.116 7 105559058.10307     -2539.878 7        44.551
C05        44.000                                                                                                                                    39532113.158 6 205853985.00806      -529.004 6        39.249    39532116.156 7 159179348.62807      -409.083 7        43.369    39532115.623 6 167273300.48806      -429.666 6        39.498
R14        45.000    19842812.930 8 105773467.30008       643.349 8        53.317                                                                    19842816.458 7  82268334.45707       500.387 7        47.849
E26        46.000    28174951.169 6 148060385.63806      -680.597 6        37.327                                                                    28174964.071 6 110564634.53206      -508.362 6        39.751    28174962.028 6 113448919.34406      -521.551 6        40.543
G10        47.000    24546052.480 6 128990299.87206     -1379.222 6        41.247                                    24546059.340 5 100511912.59805     -1074.718 5        33.844    24546058.721 6 100511913.60406     -1074.636 6        36.340
C45        50.000                                                                                                                                    21925606.240 8 114172401.72808     -1361.784 8        50.538                                                                    21925600.920 8  92774415.14908     -1106.375 8        50.069
S48        51.000    77229288.340 6 405843214.61106      -507.665 6        37.626
E06        52.000    28042160.831 5 147362352.31505     -3726.612 5        33.222                                                                    28042177.037 6 110043260.38306     -2783.135 6        37.198    28042175.636 6 112913959.71806     -2855.870 6        39.078
E33        53.000    27740708.556 6 145778467.86406      1405.980 6        38.156                                                                    27740720.398 6 108860606.22906      1049.970 6        40.944    27740718.444 6 111700438.19606      1077.340 6        41.583
C60        54.000                                                                                                                                    40916657.998 6 213063791.73906      -448.277 6        39.688                                                                    40916652.195 6 173131713.58106      -364.153 6        39.276
E31        55.000    25127653.372 7 132046672.14707     -2581.674 7        45.369                                                                    25127659.629 7  98606301.13607     -1927.926 7        47.377    25127658.496 8 101178636.94908     -1978.187 8        48.068
C26        56.000                                                                                                                                    23104552.512 7 120311540.21207      1434.512 7        47.766                                                                    23104554.599 8  97763021.14708      1165.835 8        48.370
C02        57.000                                                                                                                                    41059945.880 5                      -490.488 5        30.400    41059952.746 6 165331229.09706      -379.130 6        36.650    41059952.226 5                      -398.599 5        30.679
I03        58.000    92247828.369 5 286214798.86405       931.961 5        33.108
C21        59.000                                                                                                                                    24763557.934 7 128950221.47007     -3358.595 7        45.583                                                                    24763558.100 7 104782568.59407     -2729.009 7        45.910
R24        60.000    23563993.144 7 126007271.11107      3730.120 7        42.176                                                                    23564004.246 6  98005689.85006      2901.218 6        41.928
> 2025 01 02 11 30  5.0000000  0 56
E24         1.000    23648569.320 8 124274197.56708      -255.063 8        49.179                                                                    23648571.458 8  92802231.32908      -190.486 8        50.564    23648570.415 8  95223147.67608      -195.431 8        50.985
G15         2.000    22671497.386 7 119139412.39307     -4041.292 7        45.214                                    22671500.377 7  92835865.70207     -3149.051 7        42.447    22671500.358 6  92835860.69706     -3149.114 6        41.445
E03         3.000    25882921.545 7 136015669.34207      1482.475 7        43.143                                                                    25882928.136 7 101570153.96607      1107.062 7        45.878    25882927.238 7 104219811.24207      1135.881 7        46.799
G19         4.000    21291221.336 7 111886289.87407      -460.325 7        46.575                                    21291219.452 6  87184155.85906      -358.694 6        38.640
S21         5.000    38522318.484 7 202435712.69207      -506.583 7        42.845
E05         6.000    22425724.376 8 117847930.08708     -1238.985 8        48.282                                                                    22425728.527 8  88003296.70608      -925.209 8        50.200    22425727.735 8  90299034.62408      -949.325 8        51.128
G25         7.000    24298444.155 6 127689209.69506      3039.121 6        37.573                                    24298454.312 5  99498132.13005      2368.137 5        30.294    24298454.764 6  99498133.15206      2368.253 6        36.144
C29         8.000                                                                                                                                    23625178.771 7 123022514.03707      1299.019 7        47.756                                                                    23625180.990 7  99965883.69407      1055.602 7        46.591
R05         9.000    21833642.330 8 116713382.87108      2005.821 8        48.937                                                                    21833647.291 7  90777127.36107      1560.153 7        44.023
G24        10.000    20128268.973 8 105774776.32208      -290.059 8        50.428                                    20128270.146 8  82421920.16008      -226.019 8        53.294    20128270.417 7  82421925.17007      -226.079 7        46.488
C14        11.000                                                                                                                                    25059469.862 7 130491249.32007       535.714 7        42.066    25059472.331 7 100904140.97807       414.177 7        47.060    25059468.786 7 106034842.47507       435.290 7        44.488
S27        12.000    39281544.117 6 206425744.32606      -534.732 6        36.650
G13        13.000    24132432.232 6 126816617.13606     -4406.766 6        40.620                                    24132437.792 3  98818078.96203     -3433.832 3        23.257
S36        14.000    38292964.567 7 201231305.17207      -507.137 7        44.566
G06        15.000    25175171.061 6 132296416.45106      2446.908 6        38.330                                    25175182.166 5 103088160.58105      1906.688 5        32.066    25175182.964 6 103088162.58006      1906.567 6        37.739
E09        16.000    26287056.352 7 138139317.68107     -3486.472 7        43.427                                                                    26287064.461 7 103155948.39507     -2603.565 7        45.460    26287063.334 7 105846973.41207     -2671.524 7        46.326
G12        17.000    21399861.483 8 112457195.07308      1806.234 8        48.527                                    21399861.012 8  87629062.86108      1407.453 8        48.194    21399861.357 7  87629059.87007      1407.511 7        44.128
G32        18.000    25456783.746 6 133776270.75206      2831.417 6        39.796                                    25456792.705 5 104241282.63205      2206.295 5        31.977    25456793.201 6 104241286.64306      2206.063 6        37.293
R22        19.000    22706035.839 7 121206418.70207     -2143.585 7        45.174                                                                    22706042.712 6  94271650.32006     -1667.250 6        41.979
R03        21.000    22283668.635 7 119286081.23907     -4787.942 7        47.784                                                                    22283675.486 7  92778028.31607     -3723.959 7        44.366
I06        22.000    38414207.184 7 150745698.70407      -489.431 7        42.493
S28        23.000    40982638.798 5 215365020.77805      -517.048 5        34.786
S23        25.000    38228516.538 7 200892049.99607      -510.501 7        44.828
S45        26.000    63479743.236 6 333589112.45706      -565.529 6        36.004
C07        27.000                                                                                                                                    39532934.846 6 205858279.32306     -1296.460 6        40.052    39532936.131 7 159182652.56407     -1002.473 7        43.319    39532932.725 6 167276680.25506     -1053.471 6        40.050
R04        28.000    20299233.729 8 108701454.91708     -1876.069 8        51.898                                                                    20299235.148 7  84545551.57207     -1459.172 7        46.712
C40        29.000                                                                                                                                    39828399.107 6 207396839.88406     -1571.017 6        41.082                                                                    39828404.378 6 168526907.15206     -1276.567 6        40.543
G17        30.000    22970722.576 7 120712063.10207     -2776.997 7        45.002                                    22970724.516 6  94061401.52606     -2163.888 6        41.037    22970724.937 6  94061398.52806     -2163.927 6        40.360
G14        31.000    25139512.199 6 132108855.96806     -3838.094 6        37.807                                    25139520.708 3 102941922.22703     -2990.732 3        19.075    25139520.513 6 102941908.21406     -2990.565 6        36.957
G23        32.000    24729283.556 6 129953086.40306     -3213.557 6        38.174                                    24729290.881 3 101262089.08103     -2504.052 3        20.548    24729291.411 6 101262084.06806     -2503.912 6        37.747
I02        33.000    36978730.516 7 145112465.22107      -381.807 7        42.663
R15        34.000    23225877.678 7 124112083.48607      2695.765 7        45.473                                                                    23225885.842 6  96531662.85406      2096.793 6        40.577
R13        35.000    20850777.962 7 111341985.03407     -2927.834 7        45.616
R12        36.000    24607495.249 6 131448618.93806     -3916.647 6        38.547                                                                    24607508.030 5 102237767.79405     -3046.638 5        35.319
C42        37.000                                                                                                                                    24160121.916 7 125808084.12607      -945.531 7        45.445                                                                    24160134.457 7 102229416.18107      -768.238 7        46.980
C10        38.000                                                                                                                                    38797295.432 6 202027668.58806      -973.527 6        41.216    38797298.893 7 156220601.29807      -752.848 7        44.975    38797295.712 6 164164011.82506      -791.152 6        41.600
E25        39.000    25970863.303 7 136477932.09307      1812.836 7        43.435                                                                    25970871.091 7 101915442.57207      1353.739 7        45.422    25970869.616 7 104574093.61007      1389.074 7        45.886
C30        40.000                                                                                                                                    24848583.021 7 129393121.16107     -1700.390 7        43.659                                                                    24848589.861 7 105142548.57407     -1381.681 7        43.147
R23        41.000    21605274.705 7 115573733.79907      1225.724 7        46.409
S44        42.000    40917086.273 6 215020748.56806      -452.224 6        36.771
C36        43.000                                                                                                                                    24950061.290 7 129921383.23207     -3126.174 7        42.885                                                                    24950072.612 7 105571758.52107     -2540.211 7        44.652
C05        44.000                                                                                                                                    39532621.219 6 205856629.25406      -528.949 6        39.246    39532624.128 7 159181393.29407      -408.935 7        43.422    39532623.582 6 167275449.15006      -429.625 6        39.556
R14        45.000    19842210.165 8 105770254.88508       641.439 8        52.974                                                                    19842213.852 8  82265835.91408       498.891 8        48.142
E26        46.000    28175599.869 6 148063794.54606      -682.968 6        37.112                                                                    28175612.694 6 110567180.15906      -510.084 6        40.057    28175610.650 6 113451531.37506      -523.356 6        40.603
G10        47.000    24547365.650 6 128997201.40806     -1381.803 6        41.342                                    24547372.611 5 100517290.39105     -1076.727 5        33.886    24547371.539 5 100517291.40705     -1076.746 5        35.671
C45        50.000                                                                                                                                    21926914.156 8 114179213.16808     -1362.984 8        50.490                                                                    21926908.979 8  92779950.01208     -1107.477 8        50.100
S48        51.000    77229762.958 6 405845752.08506      -507.376 6        37.637
E06        52.000    28045706.975 5 147380986.60305     -3726.963 5        33.030                                                                    28045723.016 6 110057175.48106     -2782.889 6        36.907    28045721.781 6 112928237.83806     -2855.813 6        39.000
E33        53.000    27739371.471 6 145771441.10306      1404.427 6        38.730                                                                    27739383.230 6 108855359.01106      1048.755 6        41.175    27739381.389 6 111695054.09706      1075.996 6        41.604
C60        54.000                                                                                                                                    40917088.373 6 213066032.21006      -448.030 6        39.910                                                                    40917082.396 6 173133534.13306      -363.938 6        39.330
E31        55.000    25130109.920 7 132059581.86207     -2582.228 7        44.912                                                                    25130116.265 7  98615941.49407     -1928.345 7        47.211    25130115.232 8 101188528.80108     -1978.624 8        48.085
C26        56.000                                                                                                                                    23103175.424 8 120304369.04408      1433.675 8        48.066                                                                    23103177.365 8  97757194.00008      1165.064 8        48.534
C02        57.000                                                                                                                                    41060417.117 5                      -490.564 5        30.664    41060423.245 6 165333124.77106      -379.246 6        36.726    41060423.187 5                      -398.312 5        30.611
I03        58.000    92246641.501 5 286210137.87005       931.942 5        33.413
C21        59.000                                                                                                                                    24766783.198 7 128967016.95907     -3359.744 7        45.714                                                                    24766783.573 7 104796216.28907     -2730.053 7        46.049
R24        60.000    23560505.799 7 125988621.35607      3729.732 7        42.093                                                                    23560517.072 7  97991184.47707      2900.948 7        42.051
> 2025 01 02 11 30 10.0000000  0 56
E24         1.000    23648812.675 8 124275476.64108      -256.458 8        48.908                                                                    23648814.796 8  92803186.48208      -191.480 8        50.566    23648813.865 8  95224127.74708      -196.464 8        51.118
G15         2.000    22675343.671 7 119159622.42507     -4042.558 7        45.553                                    22675346.205 7  92851613.74307     -3150.038 7        42.343    22675346.465 6  92851608.73906     -3150.022 6        41.442
E03         3.000    25881512.060 7 136008261.40807      1480.891 7        42.931                                                                    25881518.455 7 101564622.07207      1105.943 7        45.821    25881517.480 7 104214135.02707      1134.796 7        46.925
G19         4.000    21291660.646 7 111888599.99407      -463.563 7        46.736                                    21291659.053 6  87185955.94806      -361.218 6        38.646
S21         5.000    38522796.979 7 202438246.20707      -506.500 7        42.663
E05         6.000    22426904.256 8 117854130.85308     -1241.146 8        48.048                                                                    22426908.514 8  88007927.14208      -926.831 8        50.207    22426907.674 8  90303785.85308      -950.998 8        51.155
G25         7.000    24295553.108 6 127674015.95506      3038.559 6        38.120                                    24295562.952 5  99486292.89205      2367.696 5        30.287    24295564.210 5  99486293.91505      2367.763 5        35.976
C29         8.000                                                                                                                                    23623932.615 8 123016024.56708      1296.918 8        48.061                                                                    23623934.644 7  99960610.50407      1053.886 7        46.245
R05         9.000    21831767.428 8 116703363.17008      2002.227 8        48.763                                                                    21831772.853 7  90769334.28507      1557.294 7        44.238
G24        10.000    20128546.182 8 105776233.52208      -292.671 8        50.539                                    20128547.436 8  82423055.64008      -228.057 8        53.332    20128548.063 7  82423060.64307      -228.024 7        46.478
C14        11.000                                                                                                                                    25058956.252 7 130488578.04107       533.035 7        42.218    25058958.486 7 100902075.37507       412.147 7        46.861    25058955.796 7 106032671.83907       433.119 7        44.209
S27        12.000    39282052.782 6 206428417.76506      -534.457 6        36.405
G13        13.000    24136624.781 6 126838651.94506     -4407.037 6        40.508                                    24136631.043 3  98835248.88703     -3434.039 3        22.648
S36        14.000    38293444.435 7 201233841.10907      -506.819 7        44.321
G06        15.000    25172843.608 6 132284183.95306      2446.188 6        38.072                                    25172854.458 5 103078628.72405      1906.132 5        32.210    25172855.146 6 103078630.70806      1906.301 6        37.395
E09        16.000    26290374.060 7 138156752.86107     -3487.408 7        43.005                                                                    26290382.419 7 103168968.12307     -2604.185 7        45.628    26290381.179 7 105860332.78807     -2672.131 7        46.461
G12        17.000    21398143.763 8 112448168.87708      1804.415 8        48.593                                    21398143.359 8  87622029.47108      1406.032 8        48.219    21398143.703 7  87622026.48207      1406.041 7        43.962
G32        18.000    25454090.847 6 133762118.03606      2830.154 6        40.157                                    25454099.411 5 104230254.54205      2205.313 5        32.251    25454100.379 6 104230258.55006      2205.276 6        37.584
R22        19.000    22708045.891 7 121217147.03907     -2147.603 7        44.745                                                                    22708053.232 7  94279994.56807     -1670.246 7        42.227
R03        21.000    22288141.225 7 119310024.95707     -4789.313 7        47.145                                                                    22288148.479 7  92796651.15407     -3725.084 7        44.140
I06        22.000    38414831.003 7 150748146.64407      -489.363 7        42.372
S28        23.000    40983128.928 5 215367605.88605      -517.120 5        34.843
S23        25.000    38229002.603 7 200894602.89107      -510.594 7        44.813
S45        26.000    63480230.871 6 333591940.16206      -565.612 6        36.038
C07        27.000                                                                                                                                    39534180.071 6 205864762.18906     -1296.629 6        40.088    39534181.118 7 159187665.52007     -1002.644 7        43.422    39534177.805 6 167281948.09106     -1053.356 6        39.676
R04        28.000    20300987.786 8 108710846.69608     -1880.470 8        51.664                                                                    20300989.352 7  84552856.29007     -1462.651 7        46.533
C40        29.000                                                                                                                                    39829907.878 6 207404696.09906     -1571.288 6        41.237                                                                    39829913.102 6 168533290.96006     -1276.777 6        40.324
G17        30.000    22973366.121 7 120725953.84507     -2779.097 7        44.482                                    22973367.858 6  94072225.46306     -2165.526 6        41.092    22973368.096 6  94072222.46106     -2165.568 6        40.405
G14        31.000    25143163.701 6 132128046.65506     -3837.840 6        37.962                                    25143172.696 3 102956876.00203     -2990.504 3        19.134    25143172.384 6 102956861.99706     -2990.630 6        36.737
G23        32.000    24732340.525 6 129969156.40506     -3214.448 6        38.315                                    24732348.997 3 101274611.11003     -2504.737 3        20.310    24732348.576 6 101274606.10806     -2504.804 6        36.299
I02        33.000    36979217.144 7 145114374.18107      -381.889 7        42.540
R15        34.000    23223356.509 7 124098605.94007      2695.321 7        45.145                                                                    23223363.440 6  96521180.38806      2096.190 6        40.841
R13        35.000    20853519.488 7 111356627.25307     -2929.007 7        45.606
R12        36.000    24611161.787 6 131468202.34706     -3916.395 6        39.261                                                                    24611174.132 5 102252999.32605     -3046.024 5        34.286
C42        37.000                                                                                                                                    24161031.341 7 125812818.99007      -948.248 7        45.726                                                                    24161043.614 7 102233263.64307      -770.468 7        46.611
C10        38.000                                                                                                                                    38798230.618 6 202032537.79706      -973.944 6        41.533    38798233.724 7 156224366.46607      -752.989 7        44.819    38798230.764 6 164167968.45906      -791.318 6        41.285
E25        39.000    25969138.870 7 136468870.20307      1812.021 7        43.242                                                                    25969146.628 7 101908675.61407      1353.160 7        45.436    25969145.216 7 104567150.12007      1388.496 7        45.956
C30        40.000                                                                                                                                    24850216.989 7 129401629.64607     -1702.795 7        43.780                                                                    24850223.882 7 105149462.41207     -1383.710 7        42.870
R23        41.000    21604131.988 7 115567615.89807      1221.655 7        47.065
S44        42.000    40917515.943 6 215023009.59406      -451.948 6        36.839
C36        43.000                                                                                                                                    24953063.034 7 129937015.34207     -3126.567 7        42.679                                                                    24953074.511 7 105584460.86707     -2540.469 7        44.257
C05        44.000                                                                                                                                    39533128.350 6 205859273.48906      -528.808 6        39.234    39533132.042 7 159183437.97307      -408.831 7        43.302    39533131.402 6 167277597.79706      -429.641 6        39.270
R14        45.000    19841609.132 8 105767052.55908       639.615 8        52.636                                                                    19841612.930 7  82263345.21107       497.460 7        47.787
E26        46.000    28176250.736 6 148067215.85006      -685.431 6        37.089                                                                    28176263.790 6 110569735.04606      -511.827 6        39.913    28176261.642 6 113454152.91806      -525.093 6        40.584
G10        47.000    24548681.131 6 129004117.33406     -1384.380 6        40.257                                    24548688.574 5 100522679.41405     -1078.736 5        33.778    24548688.954 5 100522680.41905     -1078.764 5        35.681
C45        50.000                                                                                                                                    21928223.798 8 114186031.78408     -1364.281 8        50.450                                                                    21928218.403 8  92785490.68908     -1108.499 8        49.824
S48        51.000    77230248.862 6 405848289.79306      -507.061 6        37.716
E06        52.000    28049253.064 5 147399621.56005     -3726.743 5        33.024                                                                    28049269.312 6 110071091.11906     -2782.937 6        36.454    28049268.080 6 112942516.51206     -2855.748 6        38.562
E33        53.000    27738035.788 6 145764422.93706      1402.961 6        38.231                                                                    27738047.751 6 108850118.21706      1047.674 6        41.044    27738045.972 6 111689676.57006      1075.002 6        41.733
C60        54.000                                                                                                                                    40917518.382 6 213068272.70806      -447.816 6        39.649                                                                    40917512.705 6 173135354.71406      -363.834 6        39.189
E31        55.000    25132567.050 7 132072495.22207     -2582.887 7        44.670                                                                    25132573.639 7  98625584.56607     -1928.768 7        47.233    25132572.614 8 101198423.42908     -1979.047 8        48.159
C26        56.000                                                                                                                                    23101799.277 8 120297203.07008      1432.847 8        48.207                                                                    23101801.262 8  97751371.07108      1164.346 8        48.170
C02        57.000                                                                                                                                    41060888.802 5                      -490.043 5        30.189    41060894.389 6 165335020.42106      -379.023 6        36.344    41060893.789 5                      -398.206 5        30.083
I03        58.000    92245453.939 5 286205476.72805       932.351 5        32.922
C21        59.000                                                                                                                                    24770010.017 7 128983819.27507     -3360.925 7        45.612                                                                    24770010.389 7 104809869.51907     -2731.031 7        45.741
R24        60.000    23557018.593 7 125969974.23107      3729.272 7        42.794                                                                    23557030.384 7  97976681.13607      2900.530 7        42.055
> 2025 01 02 11 30 15.0000000  0 56
E24         1.000    23649057.814 8 124276763.46108      -257.965 8        48.996                                                                    23649059.717 8  92804147.42408      -192.626 8        50.574    23649058.695 8  95225113.75608      -197.656 8        50.883
G15         2.000    22679190.926 7 119179839.55207     -4043.936 7        45.496                                    22679193.365 7  92867367.31607     -3151.114 7        42.301    22679193.957 6  92867362.30306     -3151.073 6        41.068
E03         3.000    25880104.260 7 136000861.83207      1479.217 7        43.056                                                                    25880110.408 7 101559096.43107      1104.682 7        45.728    25880109.422 7 104208465.24007      1133.460 7        46.696
G19         4.000    21292103.815 7 111890927.25707      -466.973 7        46.537                                    21292101.918 6  87187769.39706      -363.875 6        38.634
S21         5.000    38523280.616 7 202440779.84307      -506.625 7        42.667
E05         6.000    22428086.372 8 117860343.33808     -1243.588 8        48.018                                                                    22428090.642 8  88012566.32908      -928.589 8        50.203    22428089.876 8  90308546.06708      -952.833 8        50.998
G25         7.000    24292663.475 6 127658825.48606      3037.888 6        37.516                                    24292672.308 5  99474456.20705      2367.176 5        30.294    24292673.006 6  99474457.22506      2367.330 6        36.000
C29         8.000                                                                                                                                    23622688.465 7 123009546.71207      1294.630 7        47.780                                                                    23622690.624 7  99955346.75307      1052.061 7        46.355
R05         9.000    21829897.098 8 116693362.24908      1998.492 8        48.793                                                                    21829901.919 7  90761555.80307      1554.377 7        44.456
G24        10.000    20128826.162 8 105777704.43408      -295.377 8        50.553                                    20128827.346 8  82424201.80608      -230.165 8        53.349    20128827.719 7  82424206.81107      -230.166 7        46.559
C14        11.000                                                                                                                                    25058446.555 6 130485920.69206       530.273 6        41.855    25058448.080 7 100900020.56207       410.029 7        47.132    25058445.452 7 106030512.54507       430.978 7        44.295
S27        12.000    39282561.818 6 206431091.38706      -534.483 6        36.491
G13        13.000    24140818.603 6 126860689.24006     -4407.688 6        40.384                                    24140824.678 3  98852420.76003     -3434.550 3        23.029
S36        14.000    38293928.300 7 201236377.32907      -507.201 7        44.415
G06        15.000    25170517.073 6 132271954.81806      2445.634 6        38.024                                    25170527.457 5 103069099.49105      1905.698 5        32.389    25170528.027 6 103069101.47306      1905.655 6        37.546
E09        16.000    26293693.084 7 138174192.78107     -3488.340 7        43.699                                                                    26293701.060 7 103181991.39807     -2604.891 7        45.482    26293700.001 7 105873695.81307     -2672.864 7        46.513
G12        17.000    21396428.000 8 112439152.90008      1802.364 8        48.642                                    21396427.642 8  87615004.04808      1404.437 8        48.245    21396428.171 7  87615001.05207      1404.478 7        44.000
G32        18.000    25451398.410 6 133747970.63306      2829.206 6        40.355                                    25451407.252 5 104219230.60505      2204.578 5        32.509    25451407.972 6 104219234.61606      2204.375 6        37.637
R22        19.000    22710058.951 7 121227895.85007     -2151.562 7        45.527                                                                    22710066.854 6  94288354.74806     -1673.500 6        41.700
R03        21.000    22292614.495 7 119333976.40907     -4790.793 7        46.926                                                                    22292621.246 7  92815280.01007     -3726.175 7        43.600
I06        22.000    38415454.960 7 150750594.72807      -489.485 7        42.383
S28        23.000    40983623.011 5 215370190.85405      -516.825 5        34.886
S23        25.000    38229489.558 7 200897155.96907      -510.433 7        44.879
S45        26.000    63480719.280 6 333594767.96006      -565.517 6        36.370
C07        27.000                                                                                                                                    39535425.696 6 205871246.70006     -1296.962 6        39.958    39535426.638 7 159192679.73407     -1002.812 7        43.130    39535423.087 6 167287217.27906     -1053.679 6        39.862
R04        28.000    20302745.841 8 108720261.10408     -1884.942 8        51.597                                                                    20302747.796 7  84560178.60107     -1466.117 7        46.824
C40        29.000                                                                                                                                    39831416.798 6 207412554.21606     -1571.685 6        41.042                                                                    39831422.152 6 168539676.30506     -1277.036 6        40.417
G17        30.000    22976011.385 7 120739856.22707     -2781.370 7        44.125                                    22976013.413 6  94083058.46506     -2167.294 6        41.068    22976014.164 6  94083055.45306     -2167.263 6        40.658
G14        31.000    25146815.470 6 132147237.50706     -3837.862 6        37.607                                    25146824.527 3 102971829.89003     -2990.537 3        19.522    25146824.383 6 102971815.89506     -2990.814 6        36.779
G23        32.000    24735400.035 6 129985232.63306     -3215.582 6        39.027                                    24735408.302 3 101287137.99003     -2505.645 3        20.262    24735407.684 6 101287132.95706     -2505.869 6        37.614
I02        33.000    36979703.566 7 145116284.26007      -381.917 7        42.673
R15        34.000    23220834.182 7 124085131.70507      2694.712 7        45.257                                                                    23220843.316 7  96510700.47307      2095.842 7        42.027
R13        35.000    20856262.275 7 111371276.16907     -2930.293 7        44.852
R12        36.000    24614826.740 6 131487785.14906     -3916.290 6        39.099                                                                    24614839.262 5 102268230.45405     -3046.194 5        34.652
C42        37.000                                                                                                                                    24161943.855 7 125817568.36307      -951.096 7        45.806                                                                    24161955.621 7 102237122.91207      -772.835 7        46.738
C10        38.000                                                                                                                                    38799166.659 6 202037409.08106      -974.149 6        41.523    38799169.222 7 156228133.25907      -753.328 7        44.864    38799166.225 6 164171926.79506      -791.723 6        41.373
E25        39.000    25967415.007 7 136459812.85807      1811.204 7        42.940                                                                    25967423.070 7 101901912.05107      1352.513 7        45.419    25967421.633 7 104560210.10707      1387.813 7        45.740
C30        40.000                                                                                                                                    24851853.491 7 129410151.51907     -1705.566 7        43.515                                                                    24851860.362 7 105156387.11907     -1385.795 7        42.971
R23        41.000    21602992.656 7 115561518.82307      1217.554 7        46.806
S44        42.000    40917945.710 6 215025270.73506      -452.286 6        36.605
C36        43.000                                                                                                                                    24956065.070 7 129952649.87907     -3126.916 7        42.783                                                                    24956077.009 7 105597165.21107     -2540.840 7        44.339
C05        44.000                                                                                                                                    39533636.054 6 205861917.79906      -528.715 6        38.970    39533639.834 7 159185482.69707      -408.810 7        43.371    39533639.110 6 167279746.49506      -429.443 6        39.309
R14        45.000    19841010.259 8 105763860.40608       637.593 8        52.219                                                                    19841014.188 7  82260862.42507       495.926 7        47.913
E26        46.000    28176903.908 6 148070649.64706      -687.750 6        37.138                                                                    28176917.194 6 110572299.25106      -513.610 6        40.014    28176915.033 6 113456784.01006      -526.945 6        40.560
G10        47.000    24550000.005 6 129011047.75906     -1387.288 6        41.032                                    24550007.219 5 100528079.72705     -1081.003 5        33.731    24550007.856 5 100528080.72605     -1080.995 5        35.805
C45        50.000                                                                                                                                    21929534.591 8 114192857.62708     -1365.728 8        50.301                                                                    21929529.223 8  92791037.24408     -1109.689 8        50.016
S48        51.000    77230730.863 6 405850827.75706      -507.249 6        37.592
E06        52.000    28052799.605 5 147418257.35105     -3727.181 5        33.299                                                                    28052815.617 6 110085007.36806     -2783.190 6        36.352    28052814.207 6 112956795.79506     -2855.825 6        38.300
E33        53.000    27736702.024 6 145757413.44306      1401.303 6        38.018                                                                    27736714.136 6 108844883.90206      1046.377 6        41.249    27736712.165 6 111684305.70806      1073.682 6        41.561
C60        54.000                                                                                                                                    40917948.624 6 213070513.28306      -448.094 6        39.667                                                                    40917943.059 6 173137175.34306      -363.999 6        39.204
E31        55.000    25135025.202 7 132085412.25207     -2583.545 7        44.820                                                                    25135031.713 7  98635230.39307     -1929.332 7        47.253    25135030.663 7 101208320.88607     -1979.637 7        47.830
C26        56.000                                                                                                                                    23100423.761 8 120290042.35508      1431.801 8        48.124                                                                    23100426.123 8  97745552.41708      1163.495 8        48.325
C02        57.000                                                                                                                                    41061358.908 5                      -490.059 5        30.475    41061365.367 6 165336916.07106      -378.852 6        36.601    41061364.785 5                      -398.422 5        30.257
I03        58.000    92244266.071 5 286200815.49605       932.382 5        33.012
C21        59.000                                                                                                                                    24773237.777 7 129000628.46607     -3362.361 7        45.564                                                                    24773238.450 7 104823528.33607     -2732.067 7        45.890
R24        60.000    23553533.034 7 125951329.97807      3728.824 7        43.035                                                                    23553543.910 7  97962180.03507      2900.161 7        42.059
> 2025 01 02 11 30 20.0000000  0 56
E24         1.000    23649304.130 8 124278057.56108      -259.366 8        49.015                                                                    23649305.973 8  92805113.80408      -193.724 8        50.720    23649304.926 8  95226105.34308      -198.775 8        50.968
G15         2.000    22683039.232 7 119200063.30607     -4045.192 7        45.466                                    22683041.733 7  92883126.04807     -3152.094 7        42.220    22683042.044 6  92883121.05006     -3152.097 6        40.579
E03         3.000    25878697.349 7 135993470.18907      1477.665 7        43.464                                                                    25878703.787 7 101553576.70407      1103.490 7        46.085    25878702.786 7 104202801.52407      1132.227 7        46.803
G19         4.000    21292549.474 7 111893271.23307      -470.287 7        46.747                                    21292547.967 6  87189595.86306      -366.459 6        38.595
S21         5.000    38523759.486 7 202443313.09907      -506.438 7        42.489
E05         6.000    22429270.873 8 117866567.08508     -1245.687 8        48.099                                                                    22429274.974 8  88017213.92808      -930.251 8        50.236    22429274.216 8  90313314.90508      -954.516 8        51.072
G25         7.000    24289772.761 6 127643637.87806      3037.486 6        38.814                                    24289782.168 5  99462621.76205      2366.866 5        30.423    24289782.692 5  99462622.75905      2366.828 5        35.690
C29         8.000                                                                                                                                    23621446.146 7 123003080.02907      1292.398 7        47.447                                                                    23621448.686 7  99950092.06407      1050.244 7        46.331
R05         9.000    21828030.026 8 116683379.67408      1994.861 8        48.585                                                                    21828034.495 7  90753791.59207      1551.516 7        44.310
G24        10.000    20129108.373 8 105779188.61308      -297.950 8        50.676                                    20129109.788 8  82425358.30908      -232.173 8        53.302    20129110.060 7  82425363.32207      -232.186 7        46.534
C14        11.000                                                                                                                                    25057937.561 7 130483276.87007       527.601 7        42.279    25057940.834 7 100897976.18007       407.970 7        46.968    25057937.768 7 106028364.21507       428.666 7        44.328
S27        12.000    39283068.699 6 206433765.06706      -534.359 6        36.408
G13        13.000    24145012.740 6 126882728.52906     -4407.856 6        40.410                                    24145018.604 3  98869594.19303     -3434.682 3        23.238
S36        14.000    38294409.912 7 201238913.25907      -506.914 7        44.519
G06        15.000    25168189.536 6 132259728.62306      2445.195 6        37.875                                    25168201.006 5 103059572.54905      1905.345 5        32.150    25168201.179 6 103059574.53106      1905.236 6        37.890
E09        16.000    26297012.742 7 138191636.97907     -3489.173 7        43.822                                                                    26297020.430 7 103195017.86907     -2605.500 7        45.741    26297019.638 7 105887062.11507     -2673.552 7        46.575
G12        17.000    21394714.306 8 112430146.66608      1800.451 8        48.792                                    21394713.799 8  87607986.21708      1402.942 8        48.214    21394714.502 7  87607983.22407      1402.929 7        44.048
G32        18.000    25448707.055 6 133733828.12906      2828.168 6        40.422                                    25448716.060 5 104208210.48305      2203.768 5        32.683    25448716.158 6 104208214.49406      2203.926 6        37.928
