     3.04           OBSERVATION DATA    M                   RINEX VERSION / TYPE
ssrcrin-15.6.1x                         20250102 080000 UTC PGM / RUN BY / DATE 
(00000000023479385599111004) Septentrio proprietary         COMMENT             
rref                                                        MARKER NAME         
01                                                          MARKER NUMBER       
geodetic                                                    MARKER TYPE         
NFB                 CLIMERS@TUW                             OBSERVER / AGENCY   
3297213             SEPT ASTERX SB3 PROB4.14.4              REC # / TYPE / VERS 
Unknown             Unknown                                 ANT # / TYPE        
  4127831.8317  1207193.1719  4695248.1472                  APPROX POSITION XYZ 
        0.0000        0.0000        0.0000                  ANTENNA: DELTA H/E/N
G   23 X1  C1C L1C D1C S1C C1W S1W C2W L2W D2W S2W C2L L2L  SYS / # / OBS TYPES 
       D2L S2L C5Q L5Q D5Q S5Q C1L L1L D1L S1L              SYS / # / OBS TYPES 
E   21 X1  C1C L1C D1C S1C C6C L6C D6C S6C C5Q L5Q D5Q S5Q  SYS / # / OBS TYPES 
       C7Q L7Q D7Q S7Q C8Q L8Q D8Q S8Q                      SYS / # / OBS TYPES 
S    9 X1  C1C L1C D1C S1C C5I L5I D5I S5I                  SYS / # / OBS TYPES 
R   17 X1  C1C L1C D1C S1C C2P L2P D2P S2P C2C L2C D2C S2C  SYS / # / OBS TYPES 
       C3Q L3Q D3Q S3Q                                      SYS / # / OBS TYPES 
C   25 X1  C1P L1P D1P S1P C5P L5P D5P S5P C2I L2I D2I S2I  SYS / # / OBS TYPES 
       C7I L7I D7I S7I C6I L6I D6I S6I C7D L7D D7D S7D      SYS / # / OBS TYPES 
J   17 X1  C1C L1C D1C S1C C2L L2L D2L S2L C5Q L5Q D5Q S5Q  SYS / # / OBS TYPES 
       C1L L1L D1L S1L                                      SYS / # / OBS TYPES 
I    5 X1  C5A L5A D5A S5A                                  SYS / # / OBS TYPES 
SEPTENTRIO RECEIVERS OUTPUT ALIGNED CARRIER PHASES.         COMMENT             
NO FURTHER PHASE SHIFT APPLIED IN THE RINEX ENCODER.        COMMENT             
G L1C                                                       SYS / PHASE SHIFT   
G L2W                                                       SYS / PHASE SHIFT   
G L2L  0.00000                                              SYS / PHASE SHIFT   
G L5Q  0.00000                                              SYS / PHASE SHIFT   
G L1L  0.00000                                              SYS / PHASE SHIFT   
E L1C  0.00000                                              SYS / PHASE SHIFT   
E L6C  0.00000                                              SYS / PHASE SHIFT   
E L5Q  0.00000                                              SYS / PHASE SHIFT   
E L7Q  0.00000                                              SYS / PHASE SHIFT   
E L8Q  0.00000                                              SYS / PHASE SHIFT   
S L1C                                                       SYS / PHASE SHIFT   
S L5I                                                       SYS / PHASE SHIFT   
R L1C                                                       SYS / PHASE SHIFT   
R L2P  0.00000                                              SYS / PHASE SHIFT   
R L2C                                                       SYS / PHASE SHIFT   
R L3Q  0.00000                                              SYS / PHASE SHIFT   
C L1P  0.00000                                              SYS / PHASE SHIFT   
C L5P  0.00000                                              SYS / PHASE SHIFT   
C L2I                                                       SYS / PHASE SHIFT   
C L7I                                                       SYS / PHASE SHIFT   
C L6I                                                       SYS / PHASE SHIFT   
C L7D                                                       SYS / PHASE SHIFT   
J L1C                                                       SYS / PHASE SHIFT   
J L2L  0.00000                                              SYS / PHASE SHIFT   
J L5Q  0.00000                                              SYS / PHASE SHIFT   
J L1L  0.00000                                              SYS / PHASE SHIFT   
I L5A                                                       SYS / PHASE SHIFT   
  2025     1     2     8     0    0.0000000     GPS         TIME OF FIRST OBS   
 C1C    0.000 C2C    0.000 C2P    0.000                     GLONASS COD/PHS/BIS 
DBHZ                                                        SIGNAL STRENGTH UNIT
    18                                                      LEAP SECONDS        
 24 R01  1 R02 -4 R03  5 R04  6 R05  1 R06 -4 R07  5 R08  6 GLONASS SLOT / FRQ #
    R09 -2 R10 -7 R11  0 R12 -1 R13 -2 R14 -7 R15  0 R16 -1 GLONASS SLOT / FRQ #
    R17  4 R18 -3 R19  3 R20  2 R21  4 R22 -3 R23  3 R24  2 GLONASS SLOT / FRQ #
                                                            END OF HEADER       
> 2025 01 02 08 00  0.0000000  0 52
E24         1.000    28634981.724 6 150477858.84406      2742.239 6        37.974                                                                    28634991.942 6 112369867.35006      2047.821 6        39.541    28634990.507 6 115301247.63406      2101.092 6        40.553
G15         2.000    22482684.980 7 118147264.40707      2758.449 7        43.759                                    22482683.294 6  92062780.78906      2149.439 6        40.360    22482683.324 6  92062775.78506      2149.560 6        40.400
E15         3.000    28911703.818 5 151932031.58305       941.222 5        34.214                                                                    28911706.906 6 113455740.58906       702.860 6        38.357    28911705.825 6 116415451.42706       721.245 6        38.706
G08         4.000    24342951.226 6 127923101.47206     -1316.001 6        37.164                                    24342956.200 4  99680363.84904     -1025.452 4        29.754    24342956.490 6  99680359.83206     -1025.372 6        36.631
S21         5.000    38512666.817 7 202385083.36707      -499.012 7        42.021
E05         6.000    25961292.728 6 136427476.95706      2097.483 6        39.171                                                                    25961295.866 6 101877636.64506      1566.394 6        41.020    25961295.369 7 104535313.51307      1607.238 7        42.284
G20         7.000    22698929.735 7 119283610.49507     -3685.922 7        43.592                                    22698929.026 4  92948229.52904     -2872.148 4        29.754
R02         8.000    19287821.530 8 102923484.81208       336.424 8        51.885                                                                    19287822.587 7  80051592.73107       261.673 7        46.903
R20         9.000    24360162.894 5 130264741.50105      1711.992 5        30.355                                                                    24360168.765 6 101317038.47506      1331.587 6        36.518
G30        11.000    21129317.115 8 111035285.19608     -2105.928 8        48.142                                    21129317.068 8  86520984.67608     -1640.979 8        49.796    21129317.634 7  86520992.67007     -1641.003 7        44.834
S27        12.000    39196138.514 6 205976992.83906      -529.194 6        36.370
G13        13.000    20367441.776 8 107031604.41308      1002.575 8        48.215                                    20367438.749 6  83401221.97106       781.227 6        39.225
S36        14.000    38281630.050 7 201171812.67807      -499.677 7        43.871
I09        15.000    39728800.361 7 155904190.44507     -1023.935 7        42.358
E09        16.000    23872044.001 8 125448430.36108       555.939 8        48.689                                                                    23872045.190 8  93679013.45908       415.137 8        50.653    23872044.790 8  96122811.02008       425.990 8        51.615
S45        17.000    63463012.003 6 333501073.96506      -545.634 6        36.457
E36        18.000    28031976.585 6 147308954.57406     -3096.910 6        36.355                                                                    28031982.390 6 110003438.64906     -2312.693 6        40.153    28031980.832 6 112873094.32806     -2372.927 6        40.019
R19        19.000    23896841.274 5 127831957.27205     -1892.044 5        34.195                                                                    23896842.913 6  99424849.32906     -1471.379 6        39.126
E21        20.000    27918618.010 6 146713225.92006     -3193.919 6        37.698                                                                    27918625.262 6 109558563.54006     -2385.090 6        41.247    27918624.059 6 112416612.78206     -2447.310 6        41.380
R03        21.000    22311096.551 7 119433008.28907      3341.199 7        47.463                                                                    22311096.374 7  92892330.74907      2598.665 7        43.187
I06        22.000    38103894.504 7 149528021.14107      -435.723 7        42.709
S28        23.000    40949426.546 5 215190555.05205      -506.283 5        34.624
S23        25.000    38214618.578 7 200819123.21507      -498.267 7        43.788
R01        26.000    20635349.098 7 110307715.71207     -3517.214 7        47.702                                                                    20635351.871 6  85794868.66206     -2735.708 6        40.892
C07        27.000                                                                                                                                    39281042.617 6 204546669.14506       324.763 6        40.555    39281040.746 7 158168447.08107       251.100 7        42.980    39281038.338 6 166210901.36506       263.911 6        40.658
C40        29.000                                                                                                                                    39317194.893 7 204734936.57007       452.289 7        42.936                                                                    39317195.777 7 166363908.26507       367.553 7        42.360
G14        31.000    20838274.143 7 109505871.87407       786.758 7        47.652                                    20838272.480 6  85329250.59706       613.059 6        39.435    20838272.714 7  85329236.59407       613.143 7        47.307
I02        33.000    37907802.293 6 148758363.82406       229.672 6        41.886
E04        34.000    24098966.143 7 126640913.13507     -1884.946 7        47.419                                                                    24098966.952 8  94569511.48408     -1407.603 8        50.514    24098966.255 8  97036539.20208     -1444.264 8        50.874
R13        35.000    21800993.771 7 116416099.88407      3226.596 7        42.800
R12        36.000    19253932.288 8 102851041.02108       336.685 8        51.752                                                                    19253933.947 7  79995256.45107       261.919 7        47.906
I01        37.000   392049852.669 6 235346811.67106     -3166.874 6        39.673
C10        38.000                                                                                                                                    39425901.382 6 205301010.06506       636.751 6        39.763    39425902.618 7 158751763.69507       492.280 7        43.230    39425899.966 6 166823875.64406       517.323 6        40.446
C19        39.000                                                                                                                                    23560034.618 8 122683221.64608     -3150.695 8        48.561                                                                    23560032.193 8  99690131.52808     -2560.153 8        48.177
E34        40.000    27626311.668 6 145177216.67706     -1284.914 6        38.829                                                                    27626314.088 6 108411548.25206      -959.528 6        41.104    27626313.513 7 111239676.38807      -984.646 7        42.184
G05        41.000    21394098.396 7 112426715.77507     -1919.945 7        47.628                                    21394096.680 7  87605204.23707     -1496.057 7        47.534    21394097.458 7  87605213.23407     -1496.062 7        44.634
S44        42.000    40957734.655 6 215234414.58106      -513.635 6        37.323
C36        43.000                                                                                                                                    21629347.765 8 112629670.35508       247.460 8        51.700                                                                    21629353.454 8  91520849.09008       201.110 8        50.038
C05        44.000                                                                                                                                    39404950.180 6 205191855.19806      -557.391 6        39.108    39404950.629 7 158667358.16807      -430.954 7        43.100    39404951.916 6 166735274.04706      -452.835 6        40.644
G18        46.000    25106080.807 6 131933318.54806     -1210.334 6        37.868                                    25106078.364 3 102805163.30503      -943.112 3        20.714    25106078.480 6 102805153.32606      -943.469 6        38.622
R11        47.000    21242586.657 8 113513880.24008     -3890.803 8        48.464                                                                    21242588.598 7  88288565.45907     -3026.109 7        45.618
C45        50.000                                                                                                                                    24564895.305 7 127915859.76207      2463.045 7        45.025                                                                    24564891.385 7 103942097.36507      2001.447 7        45.499
S48        51.000    77230286.616 6 405847077.66306      -486.058 6        37.728
E06        52.000    23291136.120 8 122395741.09808      -651.837 8        48.679                                                                    23291137.562 8  91399419.82608      -486.770 8        50.760    23291137.310 8  93783751.40308      -499.436 8        51.251
C09        53.000                                                                                                                                    40747567.075 6 212183164.51406     -1156.107 6        36.507    40747571.573 6 164073438.65306      -893.875 6        40.794    40747568.745 6 172416153.92206      -939.438 6        37.796
C60        54.000                                                                                                                                    40957741.544 6 213277756.14706      -509.070 6        40.782                                                                    40957732.205 6 173305585.21706      -413.567 6        38.264
E31        55.000    24603427.635 7 129291880.19407      1702.396 7        47.326                                                                    24603431.516 8  96549160.86108      1271.308 8        48.829    24603430.917 8  99067831.03108      1304.511 8        49.422
G07        56.000    23619672.939 7 124122150.32007     -3149.446 7        42.133                                    23619673.437 6  96718520.25806     -2454.108 6        36.779    23619673.138 6  96718529.24306     -2454.075 6        38.306
C02        57.000                                                                                                                                    40986216.734 5 213425869.27605      -554.596 5        33.940    40986220.161 6 165034371.84906      -428.451 6        37.467    40986221.333 5 173425970.38605      -450.381 5        32.707
I03        58.000    96286968.740 6 302065292.95006       848.761 6        40.787
C21        59.000                                                                                                                                    25063344.769 7 130511373.51007      2398.696 7        44.305                                                                    25063341.060 7 106051149.74107      1949.085 7        44.889
C22        60.000                                                                                                                                    21766112.463 8 113341825.71108      -150.803 8        52.120                                                                    21766107.393 8  92099486.61108      -122.520 8        50.012
> 2025 01 02 08 00  5.0000000  0 52
E24         1.000    28632372.062 6 150464147.20206      2742.317 6        37.977                                                                    28632382.663 6 112359628.25806      2047.910 6        39.586    28632381.117 6 115290741.40206      2101.402 6        40.296
G15         2.000    22480061.173 7 118133474.65907      2757.386 7        44.185                                    22480059.167 6  92052035.52306      2148.612 6        40.443    22480059.494 6  92052030.52806      2148.672 6        40.615
E15         3.000    28910809.454 5 151927330.35205       939.440 5        34.014                                                                    28910812.232 6 113452229.88806       701.385 6        38.348    28910811.583 6 116411849.16406       719.783 6        39.270
G08         4.000    24344205.304 6 127929688.80606     -1318.989 6        37.229                                    24344209.868 4  99685496.81404     -1027.782 4        29.962    24344210.451 6  99685492.81506     -1027.751 6        36.790
S21         5.000    38513140.988 7 202387577.60107      -498.882 7        42.021
E05         6.000    25959296.956 6 136416989.00306      2097.683 6        39.535                                                                    25959300.100 6 101869804.72506      1566.281 6        41.180    25959299.653 7 104527277.28307      1607.196 7        42.243
G20         7.000    22702437.294 7 119302043.56807     -3687.320 7        43.475                                    22702436.585 4  92962592.92904     -2873.227 4        29.668
R02         8.000    19287508.056 8 102921811.44708       333.011 8        52.285                                                                    19287509.019 7  80050291.21707       259.054 7        46.803
R20         9.000    24358561.190 5 130256189.44805      1709.014 5        30.928                                                                    24358570.358 6 101310386.92206      1329.075 6        37.104
G30        11.000    21131321.336 8 111045818.19508     -2107.260 8        48.156                                    21131321.446 8  86529192.19508     -1642.017 8        49.811    21131322.013 7  86529200.19107     -1641.967 7        44.522
S27        12.000    39196642.922 6 205979638.90906      -529.255 6        36.514
G13        13.000    20366488.567 8 107026596.23908      1000.650 8        48.314                                    20366485.708 6  83397319.49406       779.728 6        39.255
S36        14.000    38282103.966 7 201174310.20307      -499.423 7        44.023
I09        15.000    39730105.526 7 155909310.26107     -1023.885 7        42.237
E09        16.000    23871515.432 8 125445653.02708       555.002 8        48.851                                                                    23871516.669 8  93676939.47308       414.397 8        50.805    23871516.291 8  96120682.92908       425.279 8        51.409
S45        17.000    63463489.335 6 333503801.79306      -545.488 6        36.684
E36        18.000    28034923.665 6 147324441.08606     -3097.800 6        36.938                                                                    28034929.363 6 110015003.23606     -2313.246 6        40.448    28034927.691 6 112884960.62106     -2373.641 6        39.967
R19        19.000    23898611.189 5 127841426.17005     -1895.774 5        34.195                                                                    23898614.502 6  99432214.01606     -1474.370 6        40.050
E21        20.000    27921657.217 6 146729197.45906     -3194.859 6        37.671                                                                    27921664.563 6 109570490.28306     -2385.723 6        40.963    27921663.295 6 112428850.65406     -2447.760 6        41.421
R03        21.000    22307975.967 7 119416304.11207      3340.426 7        47.926                                                                    22307975.857 7  92879338.61207      2598.156 7        43.230
I06        22.000    38104449.323 7 149530199.22407      -435.497 7        42.552
S28        23.000    40949905.627 5 215193086.66005      -506.260 5        34.676
S23        25.000    38215093.406 7 200821614.39707      -498.217 7        44.102
R01        26.000    20638639.231 7 110325307.85807     -3519.766 7        47.585                                                                    20638642.304 6  85808551.39906     -2737.472 6        40.849
C07        27.000                                                                                                                                    39280730.861 6 204545046.89706       324.183 6        40.474    39280728.973 7 158167192.67107       250.541 7        42.959    39280726.794 6 166209583.14506       263.446 6        40.536
C40        29.000                                                                                                                                    39316761.034 7 204732677.52007       451.393 7        42.984                                                                    39316761.939 7 166362072.59807       366.796 7        42.557
G14        31.000    20837526.893 7 109501944.68107       784.014 7        47.574                                    20837525.164 6  85326190.45306       610.920 6        39.517    20837525.278 7  85326176.45007       610.945 7        46.971
I02        33.000    37907509.809 6 148757215.90706       229.679 6        41.914
E04        34.000    24100759.993 7 126650340.67207     -1886.045 7        47.455                                                                    24100760.985 8  94576551.51908     -1408.435 8        50.607    24100760.285 8  97043762.89408     -1445.174 8        50.758
R13        35.000    21797973.758 7 116399971.03307      3224.869 7        42.656
R12        36.000    19253618.863 8 102849366.45008       333.053 8        51.310                                                                    19253619.946 7  79993954.00807       259.023 7        47.462
I01        37.000   392053887.675 6 235362645.77506     -3166.895 6        39.513
C10        38.000                                                                                                                                    39425290.039 6 205297827.81706       636.176 6        39.814    39425291.369 7 158749302.98407       492.016 7        43.137    39425288.772 6 166821289.80206       516.910 6        40.441
C19        39.000                                                                                                                                    23563060.380 8 122698978.76508     -3152.203 8        48.772                                                                    23563058.246 8  99702935.45108     -2561.478 8        48.332
E34        40.000    27627535.247 6 145183647.25306     -1287.284 6        38.826                                                                    27627537.774 6 108416350.28306      -961.175 6        41.263    27627537.252 7 111244603.69007      -986.245 7        42.091
G05        41.000    21395926.741 7 112436322.91007     -1922.985 7        47.554                                    21395924.867 7  87612690.30207     -1498.425 7        47.566    21395924.981 7  87612699.29607     -1498.363 7        44.396
S44        42.000    40958226.717 6 215236982.49606      -513.533 6        37.569
C36        43.000                                                                                                                                    21629111.071 8 112628438.08608       245.444 8        51.638                                                                    21629116.782 8  91519847.76808       199.418 8        50.201
C05        44.000                                                                                                                                    39405484.923 6 205194641.69106      -557.262 6        38.967    39405485.663 7 158669512.84207      -430.862 7        43.016    39405487.013 6 166737538.27206      -452.663 6        40.696
G18        46.000    25107233.139 6 131939378.63706     -1213.382 6        37.875                                    25107231.837 3 102809885.44703      -945.492 3        20.548    25107231.948 6 102809875.43606      -945.480 6        38.826
R11        47.000    21246227.909 7 113533338.56307     -3892.545 7        47.897                                                                    21246230.293 7  88303699.68507     -3027.554 7        46.459
C45        50.000                                                                                                                                    24562530.696 7 127903546.81607      2462.141 7        44.793                                                                    24562526.718 7 103932092.08007      2000.689 7        45.655
S48        51.000    77230754.826 6 405849508.03606      -486.029 6        37.917
E06        52.000    23291756.900 8 122399003.27808      -653.045 8        48.594                                                                    23291758.365 8  91401855.86108      -487.699 8        50.912    23291758.106 8  93786250.98608      -500.394 8        51.141
C09        53.000                                                                                                                                    40748677.201 6 212188944.06006     -1155.838 6        36.533    40748681.819 6 164077907.76306      -893.778 6        40.389    40748678.639 6 172420850.25206      -939.181 6        37.822
C60        54.000                                                                                                                                    40958230.011 6 213280300.70806      -508.848 6        40.460                                                                    40958220.976 6 173307652.84606      -413.528 6        38.559
E31        55.000    24601808.487 7 129283371.98807      1700.822 7        47.157                                                                    24601812.419 8  96542807.34908      1270.102 8        48.958    24601811.895 8  99061311.77708      1303.284 8        49.349
G07        56.000    23622669.731 7 124137898.44507     -3149.869 7        42.375                                    23622670.158 6  96730791.49406     -2454.438 6        36.790    23622670.450 6  96730800.48706     -2454.298 6        38.246
C02        57.000                                                                                                                                    40986748.692 5 213428640.19705      -554.222 5        33.778    40986752.133 6 165036514.49706      -428.348 6        37.289    40986753.661 5 173428221.98605      -450.148 5        33.162
I03        58.000    96285887.112 6 302061048.74906       848.944 6        40.732
C21        59.000                                                                                                                                    25061042.150 7 130499382.38307      2397.759 7        44.498                                                                    25061038.212 7 106041405.95207      1948.342 7        44.945
C22        60.000                                                                                                                                    21766258.540 8 113342585.70708      -153.237 8        52.119                                                                    21766253.403 8  92100104.15508      -124.514 8        50.093
> 2025 01 02 08 00 10.0000000  0 52
E24         1.000    28629762.934 6 150450435.26106      2742.170 6        37.800                                                                    28629773.241 6 112349388.94606      2047.793 6        39.943    28629771.723 6 115280234.97906      2101.201 6        40.303
G15         2.000    22477438.509 7 118119691.16807      2755.837 7        44.573                                    22477436.265 6  92041295.14106      2147.407 6        40.319    22477436.584 6  92041290.13506      2147.488 6        40.818
E15         3.000    28909916.718 5 151922639.42005       937.067 5        33.725                                                                    28909919.666 6 113448726.90006       699.740 6        38.219    28909918.894 6 116408254.78706       718.068 6        39.147
G08         4.000    24345461.347 6 127936291.76406     -1322.300 6        37.081                                    24345466.430 4  99690641.95504     -1030.361 4        29.706    24345466.955 6  99690637.93006     -1030.405 6        36.972
S21         5.000    38513616.483 7 202390071.63307      -498.998 7        42.104
E05         6.000    25957300.919 6 136406501.16906      2097.413 6        39.174                                                                    25957304.330 6 101861972.88606      1566.283 6        41.232    25957303.898 7 104519241.14507      1607.080 7        42.171
G20         7.000    22705946.145 7 119320484.05207     -3689.028 7        43.526                                    22705945.561 4  92976962.11004     -2874.569 4        29.469
R02         8.000    19287198.039 8 102920155.45308       329.286 8        52.062                                                                    19287198.695 7  80049003.21907       256.074 7        47.100
R20         9.000    24356963.576 5 130247653.69005      1705.291 5        30.725                                                                    24356973.492 6 101303748.01106      1326.157 6        36.832
G30        11.000    21133327.316 8 111056358.97508     -2109.066 8        48.198                                    21133327.304 8  86537405.77808     -1643.426 8        49.698    21133327.560 7  86537413.77007     -1643.354 7        44.599
S27        12.000    39197146.351 6 205982284.58006      -529.192 6        36.159
G13        13.000    20365537.797 8 107021598.11508       998.438 8        48.560                                    20365534.612 6  83393424.85006       778.001 6        39.162
S36        14.000    38282580.064 7 201176807.65707      -499.802 7        44.018
I09        15.000    39731409.836 7 155914430.12207     -1024.145 7        42.250
E09        16.000    23870988.043 8 125442881.45908       553.658 8        48.612                                                                    23870989.279 8  93674869.79208       413.429 8        50.862    23870988.893 8  96118559.25908       424.190 8        51.383
S45        17.000    63463963.519 6 333506529.49706      -545.674 6        36.454
E36        18.000    28037871.710 6 147339931.67606     -3098.812 6        37.013                                                                    28037877.099 6 110026570.85306     -2313.980 6        40.501    28037875.882 6 112896829.99006     -2374.176 6        40.014
R19        19.000    23900385.883 5 127850914.37605     -1899.677 5        35.081                                                                    23900387.755 6  99439593.72706     -1477.555 6        39.150
E21        20.000    27924697.813 6 146745173.48006     -3195.973 6        37.834                                                                    27924704.531 6 109582420.37106     -2386.474 6        40.999    27924703.647 6 112441091.98206     -2448.710 6        41.313
R03        21.000    22304856.672 7 119399604.44307      3339.367 7        47.381                                                                    22304855.299 7  92866349.96907      2597.262 7        42.916
I06        22.000    38105004.627 7 149532377.27407      -435.604 7        42.616
S28        23.000    40950392.323 5 215195618.00605      -506.483 5        35.010
S23        25.000    38215567.837 7 200824105.42207      -498.234 7        44.047
R01        26.000    20641933.116 7 110342913.45707     -3522.626 7        47.217                                                                    20641935.685 6  85822244.61906     -2739.812 6        40.889
C07        27.000                                                                                                                                    39280420.458 6 204543428.37406       323.166 6        40.744    39280418.256 7 158165941.12707       249.991 7        42.914    39280415.959 6 166208267.97106       262.431 6        40.965
C40        29.000                                                                                                                                    39316328.052 7 204730423.11907       450.247 7        43.208                                                                    39316329.123 7 166360240.70707       365.853 7        42.787
G14        31.000    20836782.445 7 109498032.09807       780.913 7        47.450                                    20836780.635 6  85323141.69306       608.503 6        39.456    20836780.835 7  85323127.69807       608.496 7        47.437
I02        33.000    37907217.953 6 148756068.99806       229.161 6        41.933
E04        34.000    24102555.051 7 126659774.46007     -1887.526 7        47.369                                                                    24102556.217 8  94583596.21208     -1409.485 8        50.749    24102555.509 8  97050991.36808     -1446.301 8        50.668
R13        35.000    21794954.874 7 116383851.77507      3222.794 7        42.821
R12        36.000    19253308.427 8 102847710.99808       329.006 8        51.068                                                                    19253310.523 7  79992666.44007       255.896 7        47.314
I01        37.000   392057922.550 6 235378479.78906     -3166.979 6        39.568
C10        38.000                                                                                                                                    39424680.013 6 205294648.63406       635.296 6        39.844    39424681.065 7 158746844.64807       491.259 7        43.162    39424678.349 6 166818706.46006       516.200 6        40.603
C19        39.000                                                                                                                                    23566088.215 8 122714744.06208     -3154.039 8        48.988                                                                    23566086.047 8  99715746.01708     -2562.965 8        48.496
E34        40.000    27628761.494 6 145190089.42506     -1289.808 6        38.748                                                                    27628763.600 6 108421160.97606      -963.089 6        41.254    27628763.107 6 111249539.88206      -988.130 6        41.857
G05        41.000    21397758.070 7 112445946.19407     -1926.462 7        47.653                                    21397756.131 7  87620188.95607     -1501.135 7        47.467    21397756.276 7  87620197.94807     -1501.034 7        44.158
S44        42.000    40958713.248 6 215239550.01406      -513.656 6        37.535
C36        43.000                                                                                                                                    21628876.393 8 112627216.80508       242.964 8        51.772                                                                    21628882.234 8  91518855.37308       197.385 8        50.290
C05        44.000                                                                                                                                    39406020.369 6 205197427.91806      -557.464 6        39.069    39406020.527 7 158671667.29307      -430.943 7        43.005    39406022.114 6 166739802.27606      -452.938 6        40.753
G18        46.000    25108389.680 6 131945453.04006     -1216.644 6        37.966                                    25108387.984 3 102814618.73303      -948.037 3        20.929    25108387.136 6 102814608.74306      -947.818 6        38.580
R11        47.000    21249871.601 8 113552805.95208     -3894.595 8        48.887                                                                    21249872.846 7  88318840.96107     -3029.037 7        46.312
C45        50.000                                                                                                                                    24560167.831 7 127891238.87407      2460.992 7        44.981                                                                    24560163.128 7 103922090.87207      1999.597 7        45.716
S48        51.000    77231226.721 6 405851937.88706      -485.984 6        37.913
E06        52.000    23292379.090 8 122402272.47408      -654.680 8        48.545                                                                    23292380.480 8  91404297.13308      -488.886 8        51.003    23292380.240 8  93788755.94808      -501.642 8        51.035
C09        53.000                                                                                                                                    40749786.828 6 212194722.81406     -1155.856 6        36.518    40749791.457 6 164082376.25406      -893.634 6        40.093    40749788.171 6 172425545.94706      -939.209 6        37.645
C60        54.000                                                                                                                                    40958718.478 6 213282844.88106      -508.913 6        40.594                                                                    40958709.505 6 173309720.15706      -413.767 6        38.408
E31        55.000    24600191.126 7 129274872.14507      1699.001 7        46.940                                                                    24600194.931 8  96536460.07308      1268.752 8        49.126    24600194.359 8  99054798.92008      1301.833 8        49.123
G07        56.000    23625667.136 7 124153648.96607     -3150.513 7        42.766                                    23625667.384 6  96743064.59506     -2454.936 6        36.745    23625667.914 6  96743073.58806     -2454.799 6        38.589
C02        57.000                                                                                                                                    40987281.034 5 213431410.71805      -554.234 5        34.010    40987284.108 6 165038656.84206      -428.626 6        37.198    40987285.503 5 173430473.27405      -450.774 5        33.251
I03        58.000    96284805.465 6 302056804.24706       848.839 6        40.710
C21        59.000                                                                                                                                    25058740.083 7 130487396.22107      2396.552 7        44.551                                                                    25058736.406 7 106031666.20707      1947.298 7        45.123
C22        60.000                                                                                                                                    21766407.053 8 113343358.43908      -156.032 8        52.182                                                                    21766401.774 8  92100732.05608      -126.832 8        50.220
> 2025 01 02 08 00 15.0000000  0 52
E24         1.000    28627153.641 6 150436723.57206      2742.354 6        37.614                                                                    28627163.855 6 112339149.81506      2047.740 6        39.778    28627162.156 6 115269728.72806      2101.162 6        40.596
G15         2.000    22474816.382 7 118105914.40407      2754.793 7        44.039                                    22474814.638 6  92030559.99806      2146.592 6        40.281    22474814.513 6  92030555.00506      2146.484 6        40.596
E15         3.000    28909026.388 5 151917959.26305       935.101 5        34.414                                                                    28909029.031 6 113445231.94606       698.187 6        38.294    28909028.343 6 116404668.67906       716.321 6        38.730
G08         4.000    24346721.091 6 127942910.80906     -1325.459 6        36.892                                    24346725.992 4  99695799.63304     -1032.822 4        29.403    24346726.685 6  99695795.60806     -1032.793 6        36.847
S21         5.000    38514088.744 6 202392565.88206      -498.898 6        41.681
E05         6.000    25955305.137 6 136396013.94606      2097.442 6        39.036                                                                    25955308.776 6 101854141.50806      1566.208 6        41.147    25955308.265 7 104511205.45407      1607.182 7        42.229
G20         7.000    22709457.091 7 119338932.40207     -3690.461 7        43.621                                    22709456.147 4  92991337.41604     -2875.679 4        29.583
R02         8.000    19286890.889 8 102918517.45908       325.838 8        52.095                                                                    19286891.761 7  80047729.21907       253.412 7        47.071
R20         9.000    24355370.728 4 130239134.50804      1701.932 4        29.877                                                                    24355380.115 6 101297122.01306      1323.987 6        37.482
G30        11.000    21135334.703 8 111066907.97508     -2110.603 8        48.344                                    21135334.732 8  86545625.76608     -1644.624 8        49.619    21135335.410 7  86545633.76307     -1644.668 7        44.814
S27        12.000    39197650.897 5 205984930.75405      -529.152 5        35.771
G13        13.000    20364588.663 8 107016610.52708       996.464 8        48.630                                    20364585.514 6  83389538.41306       776.465 6        39.099
S36        14.000    38283054.705 7 201179305.79107      -499.689 7        43.771
I09        15.000    39732714.756 7 155919550.39107     -1024.080 7        42.292
E09        16.000    23870461.890 8 125440116.15208       552.455 8        48.358                                                                    23870463.016 8  93672804.78208       412.540 8        50.799    23870462.664 8  96116440.37908       423.282 8        51.410
S45        17.000    63464438.187 6 333509257.37006      -545.542 6        36.227
E36        18.000    28040820.279 6 147355426.76406     -3099.514 6        36.722                                                                    28040825.631 6 110038141.82006     -2314.510 6        40.532    28040824.594 6 112908702.82806     -2374.802 6        40.141
R19        19.000    23902163.275 5 127860422.25605     -1903.046 5        35.500                                                                    23902163.358 6  99446988.75606     -1480.445 6        38.345
E21        20.000    27927739.242 6 146761154.44306     -3196.643 6        37.739                                                                    27927745.606 6 109594354.17106     -2387.260 6        41.123    27927744.719 6 112453337.09706     -2449.395 6        41.480
R03        21.000    22301737.732 7 119382909.60707      3338.503 7        47.163                                                                    22301737.058 7  92853365.10007      2596.526 7        42.959
I06        22.000    38105559.699 7 149534555.66107      -435.733 7        42.790
S28        23.000    40950874.761 5 215198149.30605      -506.318 5        34.338
S23        25.000    38216040.800 7 200826596.50807      -498.258 7        43.877
R01        26.000    20645229.071 7 110360532.83207     -3525.189 7        47.652                                                                    20645232.507 6  85835948.57806     -2742.058 6        41.001
C07        27.000                                                                                                                                    39280110.753 6 204541814.02806       322.514 6        40.574    39280108.378 7 158164692.82907       249.277 7        42.959    39280105.913 6 166206956.18606       262.204 6        40.839
C40        29.000                                                                                                                                    39315896.130 7 204728173.82707       449.362 7        43.170                                                                    39315897.235 7 166358412.97007       365.270 7        42.785
G14        31.000    20836040.782 7 109494134.61707       777.984 7        47.571                                    20836038.967 6  85320104.69806       606.221 6        39.345    20836039.229 7  85320090.69607       606.268 7        47.217
I02        33.000    37906925.665 6 148754923.35406       229.043 6        41.759
E04        34.000    24104351.619 7 126669214.95807     -1888.718 7        47.364                                                                    24104352.691 8  94590645.92608     -1410.406 8        50.625    24104352.022 8  97058224.98508     -1447.231 8        50.732
R13        35.000    21791937.750 7 116367742.63907      3220.839 7        42.493
R12        36.000    19253002.584 8 102846075.08008       325.211 8        51.410                                                                    19253004.170 7  79991394.05207       252.926 7        47.549
I01        37.000   392061957.510 6 235394314.04806     -3166.946 6        39.841
C10        38.000                                                                                                                                    39424070.206 6 205291472.99906       634.711 6        39.874    39424070.883 7 158744389.03807       490.763 7        43.194    39424068.626 6 166816125.99006       515.946 6        40.651
C19        39.000                                                                                                                                    23569117.352 8 122730517.99708     -3155.591 8        49.079                                                                    23569115.431 8  99728563.61108     -2564.105 8        48.587
E34        40.000    27629989.794 6 145196543.63506     -1291.936 6        38.907                                                                    27629991.892 6 108425980.67106      -964.782 6        41.271    27629991.269 7 111254485.32407      -990.007 7        42.040
G05        41.000    21399592.387 7 112455586.03607     -1929.647 7        47.849                                    21399590.556 7  87627700.51207     -1503.617 7        47.334    21399591.134 7  87627709.51307     -1503.659 7        44.161
S44        42.000    40959201.947 6 215242117.60606      -513.557 6        37.270
C36        43.000                                                                                                                                    21628644.154 8 112626006.96208       240.783 8        51.633                                                                    21628649.856 8  91517872.27108       195.814 8        50.303
C05        44.000                                                                                                                                    39406555.497 6 205200214.34406      -557.282 6        38.856    39406555.749 7 158673821.91407      -430.948 7        42.925    39406557.202 6 166742066.46006      -452.775 6        40.830
G18        46.000    25109548.324 6 131951542.23906     -1219.395 6        38.078                                    25109546.877 3 102819363.55703      -950.171 3        20.643    25109546.189 6 102819353.55206      -950.198 6        38.637
R11        47.000    21253517.082 8 113572282.93508     -3896.349 8        48.836                                                                    21253517.418 7  88333989.71207     -3030.458 7        45.821
C45        50.000                                                                                                                                    24557805.356 7 127878936.44307      2459.856 7        44.861                                                                    24557800.572 7 103912094.13307      1999.007 7        45.834
S48        51.000    77231692.807 6 405854367.70206      -486.165 6        37.395
E06        52.000    23293002.664 8 122405549.15408      -656.042 8        48.471                                                                    23293004.040 8  91406744.00408      -489.929 8        50.908    23293003.770 8  93791266.65108      -502.691 8        50.994
C09        53.000                                                                                                                                    40750897.304 6 212200501.26806     -1155.613 6        36.669    40750901.031 6 164086844.52206      -893.684 6        39.721    40750897.762 6 172430241.42006      -938.922 6        37.425
C60        54.000                                                                                                                                    40959207.159 6 213285389.13606      -508.816 6        40.491                                                                    40959198.132 6 173311787.54306      -413.563 6        38.769
E31        55.000    24598575.442 7 129266381.12707      1697.408 7        46.722                                                                    24598579.176 8  96530119.39808      1267.525 8        48.972    24598578.483 8  99048292.83408      1300.526 8        49.172
G07        56.000    23628664.588 7 124169402.33807     -3150.982 7        42.675                                    23628665.177 6  96755339.92006     -2455.304 6        36.805    23628665.595 6  96755348.88806     -2455.233 6        38.745
C02        57.000                                                                                                                                    40987813.014 5 213434181.40905      -553.897 5        33.605    40987816.701 6 165040799.29706      -428.451 6        37.244    40987817.630 5 173432724.66405      -450.243 5        33.066
I03        58.000    96283723.537 6 302052559.78706       848.920 6        40.751
C21        59.000                                                                                                                                    25056439.094 7 130475415.53207      2395.637 7        44.075                                                                    25056435.612 7 106021930.91007      1946.716 7        45.159
C22        60.000                                                                                                                                    21766557.850 8 113344144.36108      -158.526 8        51.980                                                                    21766552.745 8  92101370.67008      -128.661 8        50.225
> 2025 01 02 08 00 20.0000000  0 52
E24         1.000    28624544.361 6 150423012.01106      2742.381 6        37.845                                                                    28624554.639 6 112328910.77706      2047.715 6        39.946    28624553.044 6 115259222.58906      2101.158 6        40.355
G15         2.000    22472195.694 7 118092144.23507      2753.342 7        44.056                                    22472194.271 6  92019829.99406      2145.461 6        40.250    22472194.667 6  92019825.00206      2145.508 6        40.875
E15         3.000    28908138.018 5 151913289.80405       932.625 5        34.352                                                                    28908140.488 6 113441744.98006       696.602 6        38.402    28908139.943 6 116401090.73806       714.715 6        39.057
G08         4.000    24347984.165 6 127949545.87606     -1328.637 6        36.752                                    24347988.537 4  99700969.79004     -1035.294 4        29.185    24347988.738 6  99700965.77606     -1035.417 6        36.386
S21         5.000    38514564.458 6 202395060.53006      -498.981 6        41.995
E05         6.000    25953309.698 6 136385527.23806      2097.439 6        38.751                                                                    25953313.404 6 101846310.52506      1566.247 6        41.375    25953312.585 7 104503170.19507      1607.023 7        42.150
G20         7.000    22712969.118 7 119357388.54307     -3692.058 7        43.221                                    22712968.253 4  93005718.80004     -2876.917 4        29.460
R02         8.000    19286587.166 8 102916897.50208       322.167 8        51.987                                                                    19286588.064 7  80046469.25907       250.519 7        47.167
R20         9.000    24353780.765 4 130230631.89204      1699.145 4        29.488                                                                    24353791.090 6 101290508.92606      1321.027 6        37.501
G30        11.000    21137343.576 8 111077465.13608     -2112.297 8        48.276                                    21137343.724 8  86553852.11308     -1645.944 8        49.504    21137344.198 7  86553860.10807     -1645.917 7        44.647
S27        12.000    39198155.310 6 205987576.63006      -529.284 6        36.060
G13        13.000    20363641.542 8 107011633.38608       994.391 8        48.650                                    20363638.380 6  83385660.12306       774.851 6        39.006
S36        14.000    38283530.838 7 201181803.79007      -499.597 7        43.780
I09        15.000    39734019.807 7 155924671.00007     -1024.124 7        42.159
E09        16.000    23869936.960 8 125437357.00208       551.178 8        48.497                                                                    23869938.024 8  93670744.37208       411.618 8        50.819    23869937.620 8  96114326.22008       422.357 8        51.407
S45        17.000    63464915.112 6 333510385.49316      -545.813 6        36.401
E36        18.000    28043769.261 6 147370926.26306     -3100.253 6        37.323                                                                    28043775.138 6 110049716.10506     -2315.117 6        40.424    28043773.831 6 112920579.04506     -2375.533 6        40.105
R19        19.000    23903945.321 5 127869949.81405     -1907.401 5        35.033                                                                    23903945.977 6  99454399.08106     -1483.690 6        39.315
E21        20.000    27930781.072 6 146777140.27206     -3197.743 6        38.084                                                                    27930787.685 6 109606291.57906     -2387.751 6        41.082    27930786.753 6 112465585.93106     -2450.174 6        41.616
R03        21.000    22298619.558 7 119366219.70607      3337.473 7        47.649                                                                    22298619.608 7  92840384.06507      2595.848 7        43.024
I06        22.000    38106114.930 7 149536734.31107      -435.684 7        42.681
S28        23.000    40951353.136 5 215200680.94905      -506.329 5        34.381
S23        25.000    38216514.188 7 200829087.67907      -498.305 7        43.951
R01        26.000    20648528.503 7 110378166.04307     -3528.043 7        47.929                                                                    20648530.935 6  85849663.25206     -2743.955 6        40.460
C07        27.000                                                                                                                                    39279801.351 6 204540203.74806       321.617 6        40.381    39279798.573 7 158163447.64607       248.723 7        42.931    39279796.504 6 166205647.71406       261.314 6        40.787
C40        29.000                                                                                                                                    39315464.946 7 204725929.56307       448.311 7        43.399                                                                    39315466.122 7 166356589.34207       364.195 7        42.663
G14        31.000    20835301.824 7 109490252.15207       774.962 7        47.941                                    20835300.130 6  85317079.40306       603.865 6        39.198    20835300.320 7  85317065.40407       603.917 7        47.093
I02        33.000    37906634.264 6 148753778.89806       228.615 6        41.812
E04        34.000    24106149.341 7 126678662.08507     -1890.026 7        47.359                                                                    24106150.429 8  94597700.58408     -1411.350 8        50.662    24106149.717 8  97065463.68308     -1448.218 8        50.692
R13        35.000    21788923.143 7 116351643.34307      3218.804 7        42.747
R12        36.000    19252700.330 8 102844458.66508       321.334 8        51.503                                                                    19252701.718 7  79990136.84207       249.911 7        47.380
I01        37.000   392065992.797 6 235410148.57606     -3166.940 6        39.889
C10        38.000                                                                                                                                    39423460.772 6 205288300.79906       634.007 6        39.895    39423461.971 7 158741936.09107       490.330 7        43.166    39423459.384 6 166813548.31806       515.229 6        40.558
C19        39.000                                                                                                                                    23572148.515 8 122746300.48308     -3157.393 8        49.275                                                                    23572146.294 8  99741388.16408     -2565.677 8        48.533
E34        40.000    27631220.383 6 145203009.83006     -1294.476 6        38.994                                                                    27631222.214 6 108430809.32506      -966.687 6        41.240    27631221.700 6 111259439.92406      -991.793 6        41.969
G05        41.000    21401429.704 7 112465242.37507     -1932.952 7        47.741                                    21401428.116 7  87635224.91807     -1506.196 7        47.242    21401428.575 7  87635233.91307     -1506.141 7        44.349
S44        42.000    40959688.437 6 215244685.18306      -513.458 6        37.183
C36        43.000                                                                                                                                    21628414.093 8 112624808.48108       238.541 8        51.608                                                                    21628419.733 8  91516898.41908       193.784 8        50.216
C05        44.000                                                                                                                                    39407090.473 6 205203000.85206      -557.220 6        38.766    39407091.020 7 158675976.60307      -431.025 7        42.859    39407092.442 6 166744330.71806      -452.842 6        40.732
G18        46.000    25110709.849 6 131957646.13406     -1222.314 6        38.459                                    25110708.309 3 102824119.82403      -952.455 3        20.500    25110707.202 6 102824109.83806      -952.578 6        38.021
R11        47.000    21257162.931 8 113591769.37108     -3898.296 8        48.749                                                                    21257164.601 7  88349145.81807     -3032.018 7        45.630
C45        50.000                                                                                                                                    24555443.851 7 127866639.41207      2458.821 7        45.315                                                                    24555439.044 7 103902101.80907      1998.058 7        45.791
S48        51.000    77232160.964 6 405856798.02206      -486.276 6        37.611
