     3.04           OBSERVATION DATA    M                   RINEX VERSION / TYPE
ssrcrin-15.6.1x                         20250102 130000 UTC PGM / RUN BY / DATE 
(00000000023479385599111004) Septentrio proprietary         COMMENT             
rref                                                        MARKER NAME         
01                                                          MARKER NUMBER       
geodetic                                                    MARKER TYPE         
NFB                 CLIMERS@TUW                             OBSERVER / AGENCY   
3297213             SEPT ASTERX SB3 PROB4.14.4              REC # / TYPE / VERS 
Unknown             Unknown                                 ANT # / TYPE        
  4127831.9544  1207193.4738  4695247.9100                  APPROX POSITION XYZ 
        0.0000        0.0000        0.0000                  ANTENNA: DELTA H/E/N
G   23 X1  C1C L1C D1C S1C C1W S1W C2W L2W D2W S2W C2L L2L  SYS / # / OBS TYPES 
       D2L S2L C5Q L5Q D5Q S5Q C1L L1L D1L S1L              SYS / # / OBS TYPES 
E   21 X1  C1C L1C D1C S1C C6C L6C D6C S6C C5Q L5Q D5Q S5Q  SYS / # / OBS TYPES 
       C7Q L7Q D7Q S7Q C8Q L8Q D8Q S8Q                      SYS / # / OBS TYPES 
S    9 X1  C1C L1C D1C S1C C5I L5I D5I S5I                  SYS / # / OBS TYPES 
R   17 X1  C1C L1C D1C S1C C2P L2P D2P S2P C2C L2C D2C S2C  SYS / # / OBS TYPES 
       C3Q L3Q D3Q S3Q                                      SYS / # / OBS TYPES 
C   25 X1  C1P L1P D1P S1P C5P L5P D5P S5P C2I L2I D2I S2I  SYS / # / OBS TYPES 
       C7I L7I D7I S7I C6I L6I D6I S6I C7D L7D D7D S7D      SYS / # / OBS TYPES 
J   17 X1  C1C L1C D1C S1C C2L L2L D2L S2L C5Q L5Q D5Q S5Q  SYS / # / OBS TYPES 
       C1L L1L D1L S1L                                      SYS / # / OBS TYPES 
I    5 X1  C5A L5A D5A S5A                                  SYS / # / OBS TYPES 
SEPTENTRIO RECEIVERS OUTPUT ALIGNED CARRIER PHASES.         COMMENT             
NO FURTHER PHASE SHIFT APPLIED IN THE RINEX ENCODER.        COMMENT             
G L1C                                                       SYS / PHASE SHIFT   
G L2W                                                       SYS / PHASE SHIFT   
G L2L  0.00000                                              SYS / PHASE SHIFT   
G L5Q  0.00000                                              SYS / PHASE SHIFT   
G L1L  0.00000                                              SYS / PHASE SHIFT   
E L1C  0.00000                                              SYS / PHASE SHIFT   
E L6C  0.00000                                              SYS / PHASE SHIFT   
E L5Q  0.00000                                              SYS / PHASE SHIFT   
E L7Q  0.00000                                              SYS / PHASE SHIFT   
E L8Q  0.00000                                              SYS / PHASE SHIFT   
S L1C                                                       SYS / PHASE SHIFT   
S L5I                                                       SYS / PHASE SHIFT   
R L1C                                                       SYS / PHASE SHIFT   
R L2P  0.00000                                              SYS / PHASE SHIFT   
R L2C                                                       SYS / PHASE SHIFT   
R L3Q  0.00000                                              SYS / PHASE SHIFT   
C L1P  0.00000                                              SYS / PHASE SHIFT   
C L5P  0.00000                                              SYS / PHASE SHIFT   
C L2I                                                       SYS / PHASE SHIFT   
C L7I                                                       SYS / PHASE SHIFT   
C L6I                                                       SYS / PHASE SHIFT   
C L7D                                                       SYS / PHASE SHIFT   
J L1C                                                       SYS / PHASE SHIFT   
J L2L  0.00000                                              SYS / PHASE SHIFT   
J L5Q  0.00000                                              SYS / PHASE SHIFT   
J L1L  0.00000                                              SYS / PHASE SHIFT   
I L5A                                                       SYS / PHASE SHIFT   
  2025     1     2    13     0    0.0000000     GPS         TIME OF FIRST OBS   
 C1C    0.000 C2C    0.000 C2P    0.000                     GLONASS COD/PHS/BIS 
DBHZ                                                        SIGNAL STRENGTH UNIT
    18                                                      LEAP SECONDS        
 24 R01  1 R02 -4 R03  5 R04  6 R05  1 R06 -4 R07  5 R08  6 GLONASS SLOT / FRQ #
    R09 -2 R10 -7 R11  0 R12 -1 R13 -2 R14 -7 R15  0 R16 -1 GLONASS SLOT / FRQ #
    R17  4 R18 -3 R19  3 R20  2 R21  4 R22 -3 R23  3 R24  2 GLONASS SLOT / FRQ #
                                                            END OF HEADER       
> 2025 01 02 13 00  0.0000000  0 54
E24         1.000    24056821.179 7 126419565.82107     -1596.254 7        47.829                                                                    24056823.900 8  94404289.19908     -1192.049 8        50.413    24056823.012 8  96866998.69308     -1223.155 8        51.439
E03         3.000    24911282.466 7 130909674.69007      -901.102 7        45.017                                                                    24911288.598 8  97757237.12208      -672.887 8        48.188    24911287.581 8 100307426.85608      -690.475 8        49.053
G19         4.000    22874421.494 7 120206020.36107     -3469.440 7        42.535                                    22874421.877 4  93667052.38104     -2703.459 4        29.403
S21         5.000    38451935.534 7 202065865.02507      -514.130 7        43.050
E05         6.000    24251260.209 7 127441138.03807     -3262.398 7        43.799                                                                    24251268.071 7  95167041.67407     -2436.220 7        46.314    24251266.870 7  97649661.55507     -2499.791 7        47.001
G25         7.000    21127701.064 7 111026945.37607      1798.956 7        46.417                                    21127704.237 7  86514576.31707      1401.784 7        45.907    21127705.089 7  86514577.32307      1401.762 7        43.689
C29         8.000                                                                                                                                    23179700.910 7 120702810.31007     -1652.629 7        47.952                                                                    23179702.072 7  98080937.83407     -1342.924 7        46.594
R05         9.000    21582627.848 8 115371548.58108     -2702.942 8        48.425                                                                    21582632.917 7  89733474.59107     -2102.312 7        44.611
G24        10.000    21345724.397 8 112172528.63508     -3140.740 8        48.071                                    21345726.810 8  87407176.98408     -2447.329 8        49.113    21345727.263 7  87407181.98907     -2447.304 7        44.454
C14        11.000                                                                                                                                    25471250.577 6 132635455.88706     -2346.853 6        41.247    25471256.437 7 102562165.02207     -1814.828 7        45.546    25471252.606 7 107777175.88407     -1906.966 7        42.427
S27        12.000    39235645.134 6 206184614.01106      -532.665 6        36.809
E08        13.000    27417175.448 6 144078287.71706      1571.641 6        39.066                                                                    27417186.984 7 107591005.95307      1173.572 7        42.790    27417184.952 7 110397717.51807      1204.194 7        43.674
S36        14.000    38222976.756 7 200863513.25407      -514.078 7        44.977
G06        15.000    22993393.995 7 120831195.29707       158.824 7        43.132                                    22993398.306 6  94154246.72906       123.755 6        40.365    22993399.078 6  94154248.73606       123.667 6        41.342
G12        17.000    20166736.827 8 105977093.09708      -601.728 8        50.546                                    20166735.385 8  82579635.82008      -468.881 8        52.025    20166735.876 7  82579632.82507      -468.943 7        46.597
G32        18.000    22984778.392 7 120785863.12207       430.662 7        45.496                                    22984783.098 7  94118904.18507       335.581 7        42.533    22984783.374 6  94118908.18306       335.529 6        41.588
E02        19.000    28076521.383 6 147543104.23306      1957.265 6        38.117                                                                    28076534.372 6 110178343.56106      1461.346 6        38.697    28076532.597 6 113052553.07506      1499.546 6        39.712
E10        21.000    27022119.032 6 142002295.24206      2316.279 6        41.251                                                                    27022127.815 7 106040774.39007      1729.682 7        44.354    27022126.671 7 108807044.46207      1774.877 7        44.364
I06        22.000    38494275.529 6 151059897.26306      -488.333 6        41.368
S28        23.000    40921923.823 5 215045979.95805      -521.931 5        35.271
S23        25.000    38162822.992 7 200546836.55007      -519.005 7        45.374
S45        26.000    63416264.963 6 333255109.10706      -577.396 6        36.457
C07        27.000                                                                                                                                    40389345.352 6 210317831.52806     -1449.999 6        36.219    40389348.322 6 162631059.27106     -1121.232 6        40.069    40389345.122 6 170900430.14806     -1178.191 6        38.357
R04        28.000    23437464.339 7 125506423.00907     -4788.311 7        45.114                                                                    23437472.648 6  97616054.89706     -3724.388 6        40.510
C40        29.000                                                                                                                                    40972626.816 6 213355136.49506     -1710.736 6        38.192                                                                    40972631.479 6 173368512.34506     -1390.010 6        38.018
C44        30.000                                                                                                                                    25742077.205 6 134045761.82906      3016.204 6        40.021                                                                    25742088.046 6 108923201.23506      2450.847 6        41.390
E12        31.000    26610967.786 6 139841674.90306      1546.349 6        38.865                                                                    26610972.274 6 104427310.67506      1154.750 6        41.833    26610971.391 7 107151487.41507      1185.022 7        42.322
G11        32.000    23649680.093 7 124280018.36607      2090.456 7        42.904                                    23649683.521 4  96841650.56404      1628.922 4        28.635    23649683.283 6  96841641.57106      1629.047 6        41.826
I02        33.000    37044426.761 7 145370269.60007      -567.742 7        42.573
R15        34.000    20376272.771 8 108884727.94308      1625.409 8        50.898                                                                    20376276.659 7  84688182.04207      1264.144 7        46.390
R13        35.000    23757350.192 6 126862835.99406     -3872.403 6        36.106
G29        36.000    24513442.449 6 128819141.41106      3258.851 6        40.846                                    24513448.936 5 100378620.27105      2539.345 5        33.467    24513448.985 6 100378630.30306      2539.240 6        36.870
C42        37.000                                                                                                                                    25899249.517 6 134864092.55606     -3208.313 6        41.240                                                                    25899265.500 6 109588147.65606     -2606.979 6        41.871
C10        38.000                                                                                                                                    39369446.235 6 205006983.40506     -1224.258 6        39.880    39369449.069 7 158524392.14807      -946.716 7        43.117    39369446.069 6 166584945.64406      -994.783 6        39.961
E25        39.000    24041079.386 7 126336889.51707       769.671 7        47.889                                                                    24041084.462 8  94342597.58608       574.700 8        50.020    24041083.678 8  96803694.82008       589.710 8        50.930
R23        41.000    22216631.207 7 118844064.51007     -3464.184 7        43.464
S44        42.000    40779952.842 6 214300098.92506      -440.038 6        38.399
G28        43.000    25427352.229 6 133621637.79406      3074.290 6        38.501                                    25427361.696 3 104120799.55603      2395.540 3        18.806    25427361.703 6 104120799.55206      2395.705 6        36.907
C05        44.000                                                                                                                                    39476831.566 6 205566120.51406      -509.961 6        39.057    39476833.960 7 158956753.81607      -394.513 7        42.322    39476833.897 6 167039387.24306      -414.433 6        39.381
R14        45.000    19719793.100 8 105117697.47808     -1597.556 8        52.020                                                                    19719796.793 8  81758290.03708     -1242.568 8        48.105
R16        46.000    24589460.561 6 131352480.65306      2918.090 6        40.334                                                                    24589475.938 6 102163101.61906      2269.693 6        36.064
R17        47.000    22519152.839 7 120504651.17007      3895.039 7        45.205                                                                    22519160.507 7  93725941.38607      3029.457 7        42.474
C35        48.000                                                                                                                                    22919963.470 8 119350378.78808      1813.807 8        50.117                                                                    22919965.701 7  96982013.22407      1473.823 7        47.793
C45        50.000                                                                                                                                    23487495.827 7 122305543.64207     -2746.644 7        47.342                                                                    23487491.979 7  99383253.39107     -2231.861 7        47.585
S48        51.000    77159657.369 6 405477592.20806      -525.288 6        38.739
C33        52.000                                                                                                                                    25681739.059 7 133731543.05807     -1145.188 7        42.707                                                                    25681758.413 7 108667913.44607      -930.578 7        42.188
E33        53.000    26902894.593 6 141375781.89906     -1082.932 6        39.456                                                                    26902902.304 7 105572902.79307      -808.841 7        42.140    26902901.016 7 108326966.64607      -829.896 7        43.181
C60        54.000                                                                                                                                    40779948.485 6 212351934.16806      -435.953 6        38.856                                                                    40779941.511 6 172553276.22206      -354.315 6        40.215
E31        55.000    27434089.405 6 144167015.11606     -2954.764 6        38.928                                                                    27434099.792 6 107657189.26606     -2206.575 6        41.688    27434098.064 7 110465637.23307     -2264.044 7        42.068
C26        56.000                                                                                                                                    21706036.453 8 113029113.76008        -3.511 8        50.969                                                                    21706037.850 8  91845455.92808        -2.882 8        49.321
C02        57.000                                                                                                                                    40960127.244 5 213289996.04205      -463.797 5        32.725    40960131.771 6 164929301.97906      -358.468 6        36.707    40960132.317 5 173315558.99705      -376.844 5        32.653
I03        58.000    90340269.407 5 278729126.69805       976.526 5        32.832
R06        59.000    23121986.953 6 123383391.02106      1525.828 6        36.454
R24        60.000    20276662.101 8 108428559.37608       870.927 8        50.970                                                                    20276665.207 7  84333390.31707       677.318 7        46.444
> 2025 01 02 13 00  5.0000000  0 54
E24         1.000    24058340.484 7 126427550.92307     -1597.686 7        47.786                                                                    24058343.440 8  94410252.09608     -1193.066 8        50.349    24058342.588 8  96873117.14108     -1224.193 8        51.511
E03         3.000    24912141.280 7 130914187.42707      -903.903 7        45.168                                                                    24912147.286 8  97760607.01608      -675.054 8        48.182    24912146.322 8 100310884.66108      -692.648 8        49.245
G19         4.000    22877723.559 7 120223373.18107     -3471.546 7        42.464                                    22877723.964 4  93680574.05504     -2705.097 4        29.517
S21         5.000    38452425.512 7 202068437.12807      -514.565 7        43.107
E05         6.000    24254364.936 7 127457454.42107     -3264.024 7        43.829                                                                    24254373.026 7  95179225.96307     -2437.442 7        46.265    24254371.770 7  97662163.69007     -2500.975 7        47.075
G25         7.000    21125990.669 7 111017955.69807      1797.050 7        46.389                                    21125993.573 7  86507571.38107      1400.297 7        45.916    21125994.340 7  86507572.39007      1400.195 7        43.636
C29         8.000                                                                                                                                    23181288.678 8 120711081.33008     -1655.689 8        48.105                                                                    23181290.444 7  98087658.70107     -1345.360 7        46.612
R05         9.000    21585157.094 7 115385073.97607     -2707.083 7        47.855                                                                    21585162.961 7  89743994.32707     -2105.432 7        45.077
G24        10.000    21348713.956 8 112188239.16108     -3143.298 8        48.238                                    21348716.425 8  87419418.95208     -2449.322 8        49.094    21348716.405 7  87419423.96007     -2449.381 7        44.346
C14        11.000                                                                                                                                    25473505.702 6 132647196.57806     -2349.357 6        41.549    25473511.343 7 102571243.62907     -1816.667 7        45.276    25473507.255 7 107786716.13907     -1909.099 7        42.502
S27        12.000    39236152.779 6 206187279.38506      -533.257 6        36.609
E08        13.000    27415681.260 6 144070435.16106      1569.385 6        39.138                                                                    27415692.670 7 107585142.07407      1172.046 7        42.912    27415690.640 7 110391700.67107      1202.563 7        43.735
S36        14.000    38223464.141 7 200866085.10407      -514.539 7        44.995
G06        15.000    22993244.403 7 120830410.96407       155.023 7        43.020                                    22993249.084 6  94153635.56806       120.797 6        40.279    22993250.062 6  94153637.57706       120.805 6        41.447
G12        17.000    20167310.788 8 105980108.72508      -604.354 8        50.553                                    20167309.237 8  82581985.65908      -470.924 8        52.032    20167309.691 7  82581982.65707      -470.914 7        46.513
G32        18.000    22984370.499 7 120783718.87807       427.111 7        45.503                                    22984375.067 7  94117233.35207       332.817 7        42.544    22984375.895 6  94117237.34706       332.923 6        41.273
E02        19.000    28074659.100 6 147533320.74806      1956.449 6        38.381                                                                    28074672.633 6 110171037.73006      1460.929 6        38.688    28074671.019 6 113045056.65506      1499.154 6        39.934
E10        21.000    27019915.628 6 141990717.04406      2315.002 6        41.275                                                                    27019924.806 7 106032128.41207      1728.711 7        44.406    27019923.149 7 108798172.91407      1773.877 7        44.439
I06        22.000    38494898.414 6 151062339.94206      -488.655 6        41.244
S28        23.000    40922421.751 5 215048591.39005      -522.554 5        35.800
S23        25.000    38163313.945 7 200549432.66207      -519.410 7        45.530
S45        26.000    63416762.762 6 333257997.01406      -577.654 6        36.541
C07        27.000                                                                                                                                    40390738.144 6 210325082.72906     -1450.391 6        36.726    40390740.646 6 162636666.37406     -1121.571 6        40.217    40390737.603 6 170906322.32906     -1178.435 6        38.655
R04        28.000    23441936.156 7 125530367.89107     -4789.253 7        45.612                                                                    23441942.622 6  97634678.61806     -3725.146 6        40.443
C40        29.000                                                                                                                                    40974269.134 6 213363691.11606     -1711.113 6        38.321                                                                    40974274.371 6 173375463.68906     -1390.531 6        38.039
C44        30.000                                                                                                                                    25739182.009 6 134030682.53506      3015.659 6        39.883                                                                    25739191.972 6 108910948.09106      2450.537 6        41.468
E12        31.000    26609496.925 6 139833948.06206      1544.489 6        38.628                                                                    26609502.103 7 104421540.65407      1153.285 7        42.036    26609500.914 7 107145566.87807      1183.312 7        42.318
G11        32.000    23647691.886 7 124269571.65107      2088.285 7        42.711                                    23647695.478 4  96833510.30404      1627.234 4        28.616    23647694.820 6  96833501.29906      1627.291 6        40.789
I02        33.000    37045150.204 7 145373109.43707      -568.083 7        42.373
R15        34.000    20374752.463 8 108876605.99208      1623.514 8        50.816                                                                    20374757.006 7  84681864.97807      1262.771 7        46.844
R13        35.000    23760976.952 6 126882200.17906     -3873.259 6        36.242
G29        36.000    24510341.894 6 128802849.50506      3257.975 6        40.965                                    24510348.903 5 100365925.34805      2538.667 5        33.742    24510349.231 6 100365935.37006      2538.795 6        36.820
C42        37.000                                                                                                                                    25902330.957 6 134880137.33206     -3209.585 6        41.285                                                                    25902346.690 6 109601185.33206     -2607.996 6        41.883
C10        38.000                                                                                                                                    39370622.201 6 205013106.38306     -1224.785 6        39.715    39370625.022 7 158529126.79807      -947.055 7        42.993    39370621.820 6 166589921.04506      -995.163 6        39.994
E25        39.000    24040348.017 7 126333044.79307       768.307 7        47.784                                                                    24040352.841 8  94339726.52908       573.763 8        49.989    24040352.002 8  96800748.86608       588.738 8        51.018
R23        41.000    22219871.328 7 118861395.29907     -3467.984 7        44.530
S44        42.000    40780370.290 6 214302300.15406      -440.546 6        38.180
G28        43.000    25424427.244 6 133606266.83706      3073.945 6        37.694                                    25424436.584 3 104108822.18103      2395.291 3        18.388    25424435.901 6 104108822.21006      2395.365 6        36.427
C05        44.000                                                                                                                                    39477321.776 6 205568672.15406      -510.527 6        39.165    39477323.826 7 158958726.91607      -394.797 7        42.542    39477323.969 6 167041460.67506      -414.871 6        39.450
R14        45.000    19721292.468 8 105125692.12908     -1600.165 8        51.244                                                                    19721296.267 8  81764508.09808     -1244.622 8        48.230
R16        46.000    24586729.714 6 131337890.79606      2917.851 6        41.404                                                                    24586743.778 5 102151753.87205      2269.551 5        35.786
R17        47.000    22515514.692 7 120485180.11207      3893.409 7        45.535                                                                    22515521.580 7  93710797.30007      3028.096 7        42.635
C35        48.000                                                                                                                                    22918222.871 8 119341316.24108      1811.266 8        50.111                                                                    22918225.266 7  96974649.16207      1471.836 7        47.739
C45        50.000                                                                                                                                    23490134.260 7 122319280.89707     -2748.171 7        47.265                                                                    23490130.006 7  99394416.02807     -2233.172 7        47.497
S48        51.000    77160148.447 6 405480220.35106      -526.186 6        38.730
C33        52.000                                                                                                                                    25682839.682 7 133737277.32407     -1148.379 7        42.828                                                                    25682859.671 7 108672572.98807      -933.221 7        42.174
E33        53.000    26903926.340 6 141381204.51706     -1085.881 6        39.360                                                                    26903934.220 7 105576952.14007      -810.897 7        42.135    26903932.915 7 108331121.63507      -832.185 7        43.418
C60        54.000                                                                                                                                    40780367.261 6 212354115.38506      -436.348 6        39.087                                                                    40780360.381 6 172555048.64406      -354.653 6        40.281
E31        55.000    27436900.796 6 144181790.62406     -2955.448 6        39.192                                                                    27436911.567 6 107668222.91606     -2206.833 6        41.673    27436909.870 7 110476958.71907     -2264.429 7        42.354
C26        56.000                                                                                                                                    21706040.357 8 113029136.54308        -5.549 8        50.866                                                                    21706042.299 8  91845474.43308        -4.514 8        49.405
C02        57.000                                                                                                                                    40960572.037 5 213292316.35505      -464.276 5        32.419    40960576.783 6 164931096.21206      -358.833 6        36.605    40960578.245 5 173317444.46505      -377.091 5        32.784
I03        58.000    90339025.451 5 278724243.95605       976.432 5        33.222
R06        59.000    23120560.956 6 123375772.45006      1521.517 6        36.612
R24        60.000    20275850.080 8 108424216.98408       866.169 8        51.212                                                                    20275853.144 7  84330012.91007       673.736 7        46.653
> 2025 01 02 13 00 10.0000000  0 54
E24         1.000    24059861.125 7 126435540.64507     -1598.326 7        47.890                                                                    24059863.843 8  94416218.44608     -1193.624 8        50.361    24059862.963 8  96879239.13508     -1224.729 8        51.578
E03         3.000    24913002.159 7 130918712.26007      -906.200 7        45.219                                                                    24913008.454 8  97763985.94108      -676.675 8        48.122    24913007.396 8 100314351.73308      -694.302 8        49.215
G19         4.000    22881027.086 7 120240734.52607     -3473.212 7        42.654                                    22881027.738 4  93694102.36404     -2706.404 4        29.772
S21         5.000    38452913.375 7 202071008.97707      -514.237 7        42.880
E05         6.000    24257471.024 7 127473776.37707     -3264.976 7        43.488                                                                    24257479.033 7  95191414.40707     -2438.064 7        46.296    24257477.663 7  97674670.10307     -2501.711 7        47.164
G25         7.000    21124281.314 7 111008973.98207      1795.625 7        46.340                                    21124284.402 7  86500572.65207      1399.185 7        46.151    21124285.155 7  86500573.66007      1399.246 7        43.746
C29         8.000                                                                                                                                    23182879.899 8 120719365.37808     -1658.115 8        48.008                                                                    23182881.320 7  98094390.16107     -1347.308 7        46.606
R05         9.000    21587690.599 7 115398617.92707     -2710.626 7        47.533                                                                    21587697.265 7  89754528.48907     -2108.290 7        44.922
G24        10.000    21351705.589 8 112203960.34608     -3145.230 8        48.099                                    21351708.057 8  87431669.21908     -2450.829 8        49.305    21351708.391 7  87431674.22007     -2450.884 7        44.448
C14        11.000                                                                                                                                    25475763.362 6 132658947.33006     -2351.078 6        41.535    25475767.732 7 102580330.03807     -1818.090 7        45.338    25475763.925 7 107796264.55707     -1910.445 7        42.445
S27        12.000    39236660.867 6 206189944.54606      -533.097 6        36.401
E08        13.000    27414188.359 6 144062590.94306      1567.883 6        38.817                                                                    27414200.033 7 107579284.43207      1170.902 7        42.838    27414198.066 7 110385690.20907      1201.479 7        43.742
S36        14.000    38223955.040 7 200868656.80707      -514.216 7        44.871
G06        15.000    22993098.123 7 120829642.69907       152.044 7        42.849                                    22993102.880 6  94153036.93506       118.475 6        40.474    22993103.355 6  94153038.94806       118.416 6        41.094
G12        17.000    20167886.560 8 105983135.33008      -606.378 8        50.409                                    20167885.173 8  82584344.05608      -472.504 8        52.249    20167885.578 7  82584341.05507      -472.556 7        46.550
G32        18.000    22983965.196 7 120781590.18107       424.190 7        45.126                                    22983970.001 7  94115574.63407       330.536 7        42.739    22983970.435 6  94115578.63306       330.513 6        41.297
E02        19.000    28072797.226 6 147523538.24906      1956.455 6        38.471                                                                    28072811.234 6 110163732.61006      1461.050 6        38.571    28072809.615 6 113037560.96906      1499.144 6        40.069
E10        21.000    27017713.121 6 141979142.97306      2314.602 6        41.378                                                                    27017722.529 7 106023485.50407      1728.299 7        44.563    27017720.698 7 108789304.53607      1773.426 7        44.536
I06        22.000    38495520.691 6 151064782.41506      -488.545 6        41.180
S28        23.000    40922917.122 5 215051203.07005      -522.340 5        35.243
S23        25.000    38163809.248 7 200552028.57007      -519.178 7        45.457
S45        26.000    63417260.780 6 333260884.77506      -577.630 6        36.370
C07        27.000                                                                                                                                    40392130.665 6 210332333.74006     -1450.226 6        36.302    40392133.024 6 162642273.32506     -1121.313 6        40.126    40392130.243 6 170912214.38106     -1178.392 6        38.441
R04        28.000    23446407.428 7 125554315.01407     -4789.619 7        44.891                                                                    23446414.922 6  97653304.09106     -3725.437 6        39.748
C40        29.000                                                                                                                                    40975912.077 6 213372245.19906     -1710.680 6        38.186                                                                    40975916.898 6 173382414.59606     -1390.074 6        38.174
C44        30.000                                                                                                                                    25736286.952 6 134015603.67306      3015.758 6        40.331                                                                    25736296.298 6 108898695.31806      2450.583 6        41.738
E12        31.000    26608028.310 6 139826229.87706      1542.866 6        38.477                                                                    26608033.366 7 104415777.10007      1152.085 7        42.171    26608032.207 7 107139652.96607      1182.067 7        42.425
G11        32.000    23645705.144 7 124259133.53407      2086.768 7        42.442                                    23645708.919 4  96825376.73004      1626.051 4        28.626    23645709.051 6  96825367.73106      1626.153 6        40.777
I02        33.000    37045874.082 7 145375949.96307      -568.172 7        42.476
R15        34.000    20373234.260 8 108868491.27608      1622.305 8        50.538                                                                    20373238.650 7  84675553.54907      1261.834 7        47.323
R13        35.000    23764602.738 6 126901566.71106     -3873.366 6        36.461
G29        36.000    24507242.252 6 128786560.26106      3257.579 6        40.725                                    24507249.304 5 100353232.50205      2538.358 5        34.276    24507249.530 6 100353242.52106      2538.358 6        37.085
C42        37.000                                                                                                                                    25905412.999 6 134896186.80606     -3210.271 6        41.719                                                                    25905428.816 6 109614226.81906     -2608.628 6        41.895
C10        38.000                                                                                                                                    39371798.008 6 205019229.63606     -1224.644 6        39.697    39371801.201 7 158533861.68707      -946.991 7        43.111    39371797.841 6 166594896.68506      -995.034 6        39.802
E25        39.000    24039617.176 7 126329204.83507       767.528 7        47.944                                                                    24039622.111 8  94336859.03208       573.143 8        50.008    24039621.265 8  96797806.57108       588.058 8        51.092
R23        41.000    22223114.442 7 118878742.54207     -3471.045 7        44.072
S44        42.000    40780789.872 6 214304501.12006      -440.283 6        38.147
G28        43.000    25421501.201 6 133590896.28106      3074.151 6        37.989                                    25421511.467 3 104096845.13203      2395.448 3        18.746    25421511.390 6 104096845.12406      2395.271 6        37.017
C05        44.000                                                                                                                                    39477811.356 6 205571223.47406      -510.352 6        38.913    39477813.961 7 158960699.78407      -394.559 7        42.499    39477813.822 6 167043533.82406      -414.440 6        39.483
R14        45.000    19722793.567 8 105133697.18708     -1602.033 8        51.086                                                                    19722798.167 8  81770734.24808     -1246.057 8        48.171
R16        46.000    24583998.985 6 131323299.52606      2918.484 6        41.528                                                                    24584011.120 5 102140405.05505      2269.772 5        34.895
R17        47.000    22511876.631 7 120465714.64507      3892.605 7        45.881                                                                    22511884.352 7  93695657.53407      3027.576 7        42.993
C35        48.000                                                                                                                                    22916484.795 8 119332263.85308      1809.477 8        50.054                                                                    22916486.927 7  96967293.36707      1470.461 7        47.719
C45        50.000                                                                                                                                    23492773.300 7 122333023.56807     -2749.031 7        46.850                                                                    23492769.128 7  99405583.04907     -2233.755 7        47.485
S48        51.000    77160637.786 6 405482848.09206      -525.829 6        38.462
C33        52.000                                                                                                                                    25683943.635 7 133743024.89907     -1150.880 7        42.830                                                                    25683963.501 7 108677243.33907      -935.126 7        42.254
E33        53.000    26904960.785 6 141386639.47406     -1088.230 6        38.925                                                                    26904968.481 7 105581010.71007      -812.625 7        42.184    26904967.347 7 108335286.08207      -833.846 7        43.564
C60        54.000                                                                                                                                    40780786.436 6 212356296.32906      -435.998 6        39.093                                                                    40780779.176 6 172556820.86006      -354.343 6        40.424
E31        55.000    27439712.498 6 144196566.39706     -2955.309 6        39.375                                                                    27439723.261 6 107679256.76006     -2206.770 6        41.671    27439721.863 7 110488280.40807     -2264.384 7        42.521
C26        56.000                                                                                                                                    21706046.219 8 113029167.48308        -6.997 8        50.776                                                                    21706048.099 8  91845499.56808        -5.584 8        49.384
C02        57.000                                                                                                                                    40961017.732 5 213294636.29905      -464.016 5        32.323    40961022.604 6 164932890.16606      -358.683 6        36.367    40961023.623 5 173319329.62005      -377.134 5        32.617
I03        58.000    90337780.962 5 278719360.81905       976.877 5        32.916
R06        59.000    23119136.502 6 123368172.75006      1517.977 6        36.053
R24        60.000    20275042.457 8 108419896.41308       861.893 8        51.038                                                                    20275045.207 7  84326652.47707       670.398 7        46.734
> 2025 01 02 13 00 15.0000000  0 54
E24         1.000    24061382.590 7 126443535.33007     -1599.462 7        47.933                                                                    24061385.205 8  94422188.49008     -1194.404 8        50.291    24061384.316 8  96885364.92108     -1225.522 8        51.483
E03         3.000    24913865.922 7 130923249.50907      -908.723 7        45.076                                                                    24913871.819 8  97767374.13708      -678.579 8        48.144    24913870.806 8 100317828.32008      -696.294 8        49.187
G19         4.000    22884332.563 7 120258104.68207     -3474.832 7        42.485                                    22884333.157 4  93707637.54004     -2707.660 4        29.649
S21         5.000    38453402.677 7 202073580.93407      -514.364 7        42.910
E05         6.000    24260577.989 7 127490104.23607     -3266.175 7        43.371                                                                    24260586.079 7  95203607.25707     -2439.062 7        46.283    24260584.793 7  97687181.02607     -2502.613 7        47.068
G25         7.000    21122573.464 7 111000000.56407      1793.902 7        46.159                                    21122576.819 7  86493580.38307      1397.844 7        46.056    21122577.301 7  86493581.38507      1397.862 7        43.695
C29         8.000                                                                                                                                    23184473.236 7 120727662.77207     -1660.832 7        47.670                                                                    23184474.764 7  98101132.45807     -1349.442 7        46.821
R05         9.000    21590228.146 7 115412181.01407     -2714.537 7        47.571                                                                    21590233.975 7  89765077.53207     -2111.287 7        45.011
G24        10.000    21354699.311 8 112219692.49108     -3147.512 8        48.237                                    21354701.772 8  87443928.02908     -2452.607 8        49.176    21354702.040 7  87443933.03507     -2452.617 7        44.460
C14        11.000                                                                                                                                    25478021.310 6 132670708.41606     -2353.171 6        41.371    25478026.536 7 102589424.43107     -1819.731 7        45.422    25478022.580 7 107805821.38107     -1912.135 7        42.571
S27        12.000    39237167.775 6 206192609.75306      -533.009 6        36.423
E08        13.000    27412697.227 6 144054755.40306      1566.217 6        39.186                                                                    27412708.909 7 107573433.25507      1169.562 7        42.764    27412707.052 7 110379686.38407      1200.097 7        43.609
S36        14.000    38224443.735 7 200871228.96707      -514.571 7        44.637
G06        15.000    22992954.632 7 120828890.85907       148.708 7        42.624                                    22992959.752 6  94152451.09106       115.878 6        40.434    22992960.496 6  94152453.09906       115.900 6        40.901
G12        17.000    20168464.590 8 105986173.25708      -608.692 8        50.462                                    20168463.269 8  82586711.27008      -474.306 8        52.150    20168463.827 7  82586708.27207      -474.344 7        46.763
G32        18.000    22983563.392 7 120779477.36507       420.962 7        45.901                                    22983567.917 7  94113928.28507       328.024 7        42.694    22983568.421 6  94113932.27306       328.094 6        41.440
E02        19.000    28070935.548 6 147513757.01206      1956.052 6        37.108                                                                    28070949.755 6 110156428.46406      1460.787 6        38.372    28070948.112 6 113030066.29206      1498.706 6        39.868
E10        21.000    27015511.334 6 141967573.36806      2313.484 6        41.178                                                                    27015520.691 7 106014845.93407      1727.582 7        44.688    27015519.063 7 108780439.57407      1772.674 7        44.825
I06        22.000    38496143.318 6 151067224.89906      -488.490 6        41.602
S28        23.000    40923412.336 5 215053814.95705      -522.239 5        35.310
S23        25.000    38164302.598 7 200554624.69407      -519.271 7        45.204
S45        26.000    63417755.668 6 333263772.60006      -577.641 6        36.234
C07        27.000                                                                                                                                    40393523.264 6 210339584.85606     -1450.135 6        36.227    40393525.663 6 162647880.35406     -1121.256 6        39.784    40393522.596 6 170918106.50006     -1178.334 6        38.508
R04        28.000    23450879.753 7 125578265.00007     -4790.368 7        45.223                                                                    23450888.405 6  97671931.77806     -3725.655 6        39.162
C40        29.000                                                                                                                                    40977554.437 6 213380799.10206     -1710.841 6        37.448                                                                    40977559.441 6 173389365.36006     -1389.959 6        38.189
C44        30.000                                                                                                                                    25733391.627 6 134000525.58406      3015.538 6        40.322                                                                    25733400.712 6 108886443.15106      2450.489 6        41.852
E12        31.000    26606561.282 6 139818520.69006      1540.896 6        38.177                                                                    26606566.207 7 104410020.25607      1150.602 7        42.191    26606565.159 7 107133745.94907      1180.672 7        42.391
G11        32.000    23643720.633 7 124248704.39007      2084.923 7        42.857                                    23643723.979 4  96817250.14504      1624.607 4        28.322    23643724.296 6  96817241.16306      1624.537 6        41.254
I02        33.000    37046598.140 7 145378791.15307      -568.293 7        42.720
R15        34.000    20371716.680 8 108860383.96208      1620.712 8        50.726                                                                    20371721.381 7  84669247.87107      1260.528 7        47.065
R13        35.000    23768231.419 6 126920936.20306     -3874.089 6        36.457
G29        36.000    24504143.384 6 128770273.97606      3256.905 6        40.903                                    24504150.201 5 100340541.96105      2537.832 5        34.267    24504149.927 6 100340551.99806      2537.640 6        36.771
C42        37.000                                                                                                                                    25908496.581 6 134912241.30706     -3211.530 6        40.310                                                                    25908512.026 7 109627272.36807     -2609.274 7        42.163
C10        38.000                                                                                                                                    39372973.710 6 205025353.40906     -1224.698 6        39.144    39372976.900 7 158538596.96307      -947.080 7        42.806    39372973.794 6 166599872.74406      -995.116 6        40.148
E25        39.000    24038887.425 7 126325369.97607       766.486 7        47.941                                                                    24038892.357 8  94333995.34108       572.329 8        50.001    24038891.524 8  96794868.16908       587.265 8        51.013
R23        41.000    22226360.261 7 118896106.60707     -3474.569 7        44.101
S44        42.000    40781210.034 6 214306702.12706      -440.168 6        38.471
G28        43.000    25418576.267 6 133575526.41406      3073.826 6        37.966                                    25418586.785 3 104084868.60703      2395.194 3        19.164    25418587.369 6 104084868.59606      2395.268 6        38.102
C05        44.000                                                                                                                                    39478301.603 6 205573774.79206      -510.365 6        38.610    39478303.912 7 158962672.63407      -394.469 7        42.620    39478303.800 6 167045607.00906      -414.489 6        39.508
R14        45.000    19724298.147 8 105141713.09308     -1604.195 8        51.545                                                                    19724302.072 8  81776968.83408     -1247.716 8        48.292
R16        46.000    24581267.793 6 131308707.09206      2918.754 6        41.843                                                                    24581280.480 5 102129055.36105      2270.115 5        34.743
R17        47.000    22508240.256 7 120446255.08907      3891.447 7        46.065                                                                    22508248.181 7  93680522.37807      3026.657 7        42.663
C35        48.000                                                                                                                                    22914748.111 8 119323221.97208      1807.355 8        49.496                                                                    22914750.525 7  96959946.10207      1468.731 7        47.975
C45        50.000                                                                                                                                    23495413.178 7 122346771.98307     -2750.260 7        46.409                                                                    23495409.391 7  99416754.75007     -2234.721 7        47.643
S48        51.000    77161124.504 6 405485476.08606      -525.769 6        38.201
C33        52.000                                                                                                                                    25685049.884 6 133748786.11006     -1153.505 6        41.776                                                                    25685069.889 7 108681924.78107      -937.328 7        42.307
E33        53.000    26905997.563 6 141392087.08806     -1090.821 6        39.000                                                                    26906005.090 7 105585078.73407      -814.503 7        42.157    26906004.090 7 108339460.22907      -835.832 7        43.509
C60        54.000                                                                                                                                    40781205.087 6 212358477.34706      -436.204 6        38.940                                                                    40781197.965 6 172558593.12706      -354.319 6        40.641
E31        55.000    27442524.304 6 144211342.76606     -2955.295 6        38.742                                                                    27442535.214 6 107690291.05106     -2206.918 6        41.671    27442533.904 7 110499602.55307     -2264.520 7        42.626
C26        56.000                                                                                                                                    21706053.911 8 113029206.91108        -8.752 8        50.478                                                                    21706055.692 8  91845531.60608        -6.972 8        49.580
C02        57.000                                                                                                                                    40961463.852 5 213296956.21405      -463.795 5        32.323    40961468.205 6 164934684.09206      -358.641 6        36.389    40961468.983 5 173321214.74805      -376.828 5        32.850
I03        58.000    90336537.421 5 278714477.54605       976.654 5        33.138
R06        59.000    23117714.370 5 123360592.28905      1514.326 5        35.048
R24        60.000    20274238.562 8 108415598.04408       857.386 8        50.859                                                                    20274241.819 7  84323309.31207       666.854 7        46.707
> 2025 01 02 13 00 20.0000000  0 54
E24         1.000    24062904.708 7 126451534.89207     -1600.410 7        47.836                                                                    24062907.461 8  94428162.18408     -1195.095 8        50.366    24062906.540 8  96891494.45508     -1226.300 8        51.584
E03         3.000    24914731.546 7 130927799.11807      -911.136 7        45.150                                                                    24914737.548 8  97770771.55908      -680.399 8        48.136    24914736.566 8 100321314.37208      -698.193 8        49.226
G19         4.000    22887639.892 7 120275483.69507     -3476.666 7        42.246                                    22887640.297 4  93721179.62004     -2709.082 4        29.573
S21         5.000    38453895.164 7 202076152.90407      -514.432 7        43.029
E05         6.000    24263686.460 7 127506437.88107     -3267.172 7        43.304                                                                    24263694.281 7  95215804.43807     -2439.794 7        46.288    24263692.970 7  97699696.40107     -2503.545 7        47.149
G25         7.000    21120867.868 7 110991035.35207      1792.242 7        45.840                                    21120870.779 7  86486594.51607      1396.551 7        45.911    21120871.583 7  86486595.51307      1396.545 7        43.564
C29         8.000                                                                                                                                    23186069.458 7 120735973.43107     -1663.410 7        47.922                                                                    23186070.694 7  98107885.57507     -1351.710 7        46.550
R05         9.000    21592769.561 7 115425762.96307     -2718.430 7        47.871                                                                    21592774.828 7  89775641.24807     -2114.229 7        44.792
G24        10.000    21357695.066 8 112235435.51108     -3149.700 8        48.284                                    21357697.576 8  87456195.31508     -2454.310 8        49.001    21357698.048 7  87456200.32007     -2454.335 7        44.417
C14        11.000                                                                                                                                    25480281.881 6 132682479.75906     -2355.258 6        41.387    25480287.718 7 102598526.75807     -1821.277 7        45.756    25480283.318 7 107815386.56607     -1913.996 7        42.362
S27        12.000    39237675.894 6 206195274.96306      -533.022 6        36.824
E08        13.000    27411208.075 6 144046928.49806      1564.428 6        39.763                                                                    27411219.410 7 107567588.52207      1168.269 7        42.840    27411217.773 7 110373689.18207      1198.859 7        43.869
S36        14.000    38224932.049 7 200873802.41507      -514.730 7        44.948
G06        15.000    22992815.020 7 120828155.36007       145.437 7        42.880                                    22992819.732 6  94151877.98606       113.329 6        40.334    22992820.743 6  94151879.99706       113.420 6        40.772
G12        17.000    20169044.796 8 105989222.41108      -610.960 8        50.249                                    20169043.503 8  82589087.23208      -476.075 8        51.996    20169043.974 7  82589084.23107      -476.007 7        46.740
G32        18.000    22983164.309 7 120777380.35207       417.884 7        46.091                                    22983168.860 7  94112294.26007       325.622 7        42.474    22983169.181 6  94112298.26406       325.623 6        40.713
E02        19.000    28069074.887 6 147503977.02406      1955.959 6        37.009                                                                    28069088.632 6 110149125.25206      1460.410 6        38.580    28069087.160 6 113022572.54706      1498.679 6        40.181
E10        21.000    27013310.239 6 141956008.17506      2312.706 6        40.932                                                                    27013319.801 7 106006209.65707      1726.949 7        44.608    27013318.382 7 108771577.99707      1771.988 7        45.199
I06        22.000    38496765.462 6 151069667.35406      -488.456 6        41.447
S28        23.000    40923908.364 5 215056426.74905      -522.338 5        35.295
S23        25.000    38164796.690 7 200557221.06107      -519.256 7        45.454
S45        26.000    63418251.365 6 333266660.45106      -577.451 6        36.771
C07        27.000                                                                                                                                    40394916.207 6 210346836.03806     -1450.185 6        36.253    40394918.024 6 162653487.43606     -1121.448 6        39.805    40394915.168 6 170923998.71506     -1178.510 6        38.327
R04        28.000    23455353.799 7 125602217.53607     -4790.784 7        46.006                                                                    23455361.510 6  97690561.45806     -3726.178 6        39.721
C40        29.000                                                                                                                                    40979197.196 6 213389352.71606     -1710.595 6        37.437                                                                    40979201.941 6 173396315.93206     -1390.274 6        37.913
C44        30.000                                                                                                                                    25730495.977 6 133985448.19006      3015.485 6        40.875                                                                    25730505.228 6 108874191.59606      2450.277 6        41.805
E12        31.000    26605096.005 6 139810820.43006      1539.119 6        38.045                                                                    26605100.692 7 104404270.08907      1149.390 7        42.114    26605099.900 7 107127845.76007      1179.374 7        42.588
