     3.04           OBSERVATION DATA    M                   RINEX VERSION / TYPE
ssrcrin-15.6.1x                         20250102 000000 UTC PGM / RUN BY / DATE 
(00000000023479385599111004) Septentrio proprietary         COMMENT             
rref                                                        MARKER NAME         
01                                                          MARKER NUMBER       
geodetic                                                    MARKER TYPE         
NFB                 CLIMERS@TUW                             OBSERVER / AGENCY   
3297213             SEPT ASTERX SB3 PROB4.14.4              REC # / TYPE / VERS 
Unknown             Unknown                                 ANT # / TYPE        
  4127831.9065  1207193.2303  4695247.5167                  APPROX POSITION XYZ 
        0.0000        0.0000        0.0000                  ANTENNA: DELTA H/E/N
G   23 X1  C1C L1C D1C S1C C1W S1W C2W L2W D2W S2W C2L L2L  SYS / # / OBS TYPES 
       D2L S2L C5Q L5Q D5Q S5Q C1L L1L D1L S1L              SYS / # / OBS TYPES 
E   21 X1  C1C L1C D1C S1C C6C L6C D6C S6C C5Q L5Q D5Q S5Q  SYS / # / OBS TYPES 
       C7Q L7Q D7Q S7Q C8Q L8Q D8Q S8Q                      SYS / # / OBS TYPES 
S    9 X1  C1C L1C D1C S1C C5I L5I D5I S5I                  SYS / # / OBS TYPES 
R   17 X1  C1C L1C D1C S1C C2P L2P D2P S2P C2C L2C D2C S2C  SYS / # / OBS TYPES 
       C3Q L3Q D3Q S3Q                                      SYS / # / OBS TYPES 
C   25 X1  C1P L1P D1P S1P C5P L5P D5P S5P C2I L2I D2I S2I  SYS / # / OBS TYPES 
       C7I L7I D7I S7I C6I L6I D6I S6I C7D L7D D7D S7D      SYS / # / OBS TYPES 
J   17 X1  C1C L1C D1C S1C C2L L2L D2L S2L C5Q L5Q D5Q S5Q  SYS / # / OBS TYPES 
       C1L L1L D1L S1L                                      SYS / # / OBS TYPES 
I    5 X1  C5A L5A D5A S5A                                  SYS / # / OBS TYPES 
SEPTENTRIO RECEIVERS OUTPUT ALIGNED CARRIER PHASES.         COMMENT             
NO FURTHER PHASE SHIFT APPLIED IN THE RINEX ENCODER.        COMMENT             
G L1C                                                       SYS / PHASE SHIFT   
G L2W                                                       SYS / PHASE SHIFT   
G L2L  0.00000                                              SYS / PHASE SHIFT   
G L5Q  0.00000                                              SYS / PHASE SHIFT   
G L1L  0.00000                                              SYS / PHASE SHIFT   
E L1C  0.00000                                              SYS / PHASE SHIFT   
E L6C  0.00000                                              SYS / PHASE SHIFT   
E L5Q  0.00000                                              SYS / PHASE SHIFT   
E L7Q  0.00000                                              SYS / PHASE SHIFT   
E L8Q  0.00000                                              SYS / PHASE SHIFT   
S L1C                                                       SYS / PHASE SHIFT   
S L5I                                                       SYS / PHASE SHIFT   
R L1C                                                       SYS / PHASE SHIFT   
R L2P  0.00000                                              SYS / PHASE SHIFT   
R L2C                                                       SYS / PHASE SHIFT   
R L3Q  0.00000                                              SYS / PHASE SHIFT   
C L1P  0.00000                                              SYS / PHASE SHIFT   
C L5P  0.00000                                              SYS / PHASE SHIFT   
C L2I                                                       SYS / PHASE SHIFT   
C L7I                                                       SYS / PHASE SHIFT   
C L6I                                                       SYS / PHASE SHIFT   
C L7D                                                       SYS / PHASE SHIFT   
J L1C                                                       SYS / PHASE SHIFT   
J L2L  0.00000                                              SYS / PHASE SHIFT   
J L5Q  0.00000                                              SYS / PHASE SHIFT   
J L1L  0.00000                                              SYS / PHASE SHIFT   
I L5A                                                       SYS / PHASE SHIFT   
  2025     1     2     0     0    0.0000000     GPS         TIME OF FIRST OBS   
 C1C    0.000 C2C    0.000 C2P    0.000                     GLONASS COD/PHS/BIS 
DBHZ                                                        SIGNAL STRENGTH UNIT
    18                                                      LEAP SECONDS        
 24 R01  1 R02 -4 R03  5 R04  6 R05  1 R06 -4 R07  5 R08  6 GLONASS SLOT / FRQ #
    R09 -2 R10 -7 R11  0 R12 -1 R13 -2 R14 -7 R15  0 R16 -1 GLONASS SLOT / FRQ #
    R17  4 R18 -3 R19  3 R20  2 R21  4 R22 -3 R23  3 R24  2 GLONASS SLOT / FRQ #
                                                            END OF HEADER       
> 2025 01 02 00 00  0.0000000  0 55
G10         1.000    25372391.953 6 133332915.82506     -3582.261 6        37.879                                    25372389.712 4 103895839.85204     -2791.371 4        29.782    25372389.719 5 103895816.84905     -2791.358 5        34.633
G14         2.000    24900413.955 6 130852609.07406     -2548.773 6        37.376                                    24900410.634 3 101963074.16503     -1986.033 3        18.537    24900410.570 6 101963070.17206     -1986.146 6        36.450
C33         3.000                                                                                                                                    26315467.899 6 137031573.21606     -3609.796 6        40.930                                                                    26315480.440 7 111349436.22207     -2933.391 7        42.425
E31         4.000    28173653.202 6 148053585.24006     -3033.665 6        38.249                                                                    28173653.831 6 110559505.96406     -2265.502 6        39.318    28173653.314 6 113443663.70806     -2324.472 6        39.405
S21         5.000    38601818.759 7 202853691.49307      -464.419 7        42.106
G28         7.000    24273840.831 6 127559903.39506      1829.658 6        39.568                                    24273836.972 4  99397308.51004      1425.712 4        24.722    24273837.078 6  99397316.52006      1425.562 6        40.291
G03         8.000    21132413.513 7 111051681.54107      1612.173 7        47.063                                    21132411.246 8  86533819.68808      1256.237 8        48.510    21132411.797 7  86533817.69007      1256.288 7        44.290
G02         9.000    20841332.713 8 109521997.57908      -325.293 8        50.327                                    20841325.852 7  85341811.83207      -253.475 7        44.218
G31        10.000    24976491.560 6 131252348.80806      2759.836 6        40.284                                    24976487.288 5 102274538.88805      2150.522 5        31.426    24976487.751 5 102274543.90405      2150.404 5        35.829
C30        11.000                                                                                                                                    22249711.627 8 115860104.62908       470.079 8        50.585                                                                    22249711.790 8  94145828.96308       381.972 8        48.955
S27        12.000    39257182.270 5 206297913.64605      -441.245 5        35.529
R20        13.000    21270902.318 6 113745117.72206     -3645.946 6        37.342                                                                    21270903.603 7  88468491.25407     -2835.714 7        45.088
S36        14.000    38369560.599 7 201633936.29607      -463.983 7        43.863
G19        16.000    25381335.443 6 133379824.67806      3203.772 6        36.749                                    25381330.504 3 103932311.23303      2496.456 3        20.476
S45        17.000    63571262.405 6 334070158.09206      -505.947 6        38.078
E08        18.000    28635569.276 6 150480963.27906     -3317.607 6        36.223                                                                    28635568.410 6 112372147.10406     -2477.271 6        40.095    28635567.841 6 115303590.46206     -2541.976 6        40.584
E12        19.000    27415324.179 6 144068507.22606      2073.371 6        37.074                                                                    27415320.727 6 107583613.26906      1548.330 6        40.243    27415320.534 6 110390141.87806      1588.655 6        40.563
G17        20.000    23294916.608 7 122415636.17407      1771.897 7        44.135                                    23294911.745 6  95388797.51306      1380.696 6        40.186    23294912.250 6  95388796.50406      1380.746 6        40.114
E26        21.000    24584245.920 7 129191432.85207     -2075.483 7        46.644                                                                    24584243.318 8  96474319.34908     -1549.856 8        48.977    24584243.222 8  98991016.24108     -1590.331 8        50.146
I06        22.000    38447266.247 7 150875568.05707      -240.656 7        42.474
S28        23.000    41047086.514 5 215703892.81305      -456.604 5        34.314
G08        24.000    23893097.833 6 125559085.72006     -4104.158 6        41.080                                    23893096.290 6  97838247.59806     -3198.045 6        36.435    23893096.806 6  97838248.60606     -3197.994 6        38.874
S23        25.000    38321402.329 7 201380298.51407      -461.188 7        45.028
C13        26.000                                                                                                                                    41061554.214 6 213818478.38706     -1185.036 6        36.238    41061555.838 6 165338119.94406      -916.232 6        37.285    41061553.611 6 173745113.97406      -962.940 6        36.113
E24        27.000    28111392.111 6 147726399.60106     -1429.057 6        39.039                                                                    28111390.367 6 110315181.96306     -1067.094 6        40.656    28111389.721 6 113192965.74906     -1094.861 6        41.402
R21        29.000    19341024.539 8 103497738.05708        41.559 8        51.587                                                                    19341023.213 7  80498244.42007        32.318 7        46.536
E19        30.000    27058628.469 5 142194072.55705      2751.265 5        35.690                                                                    27058627.222 6 106183883.76406      2054.495 6        38.099    27058626.804 6 108953895.34906      2108.078 6        38.321
R05        31.000    20948675.329 8 111982716.58308     -3639.986 8        48.920                                                                    20948674.085 7  87097678.65407     -2831.091 7        45.398
R13        32.000    24112816.298 6 128761116.73706     -1723.873 6        37.875
E29        33.000    24493192.938 7 128712677.64407      1495.242 7        47.775                                                                    24493190.814 8  96116624.23908      1116.598 8        49.319    24493190.885 8  98624009.00508      1145.717 8        50.029
C16        35.000                                                                                                                                    39618201.595 6 206302401.14306       712.591 6        40.779    39618201.416 7 159526114.37507       550.949 7        42.573    39618199.042 6 167637599.44206       579.051 6        38.246
C32        36.000                                                                                                                                    22688979.333 8 118147528.34508      1325.512 8        50.013                                                                    22688979.317 8  96004566.04408      1077.033 8        49.548
G32        37.000    22954003.619 7 120624145.49907     -2779.566 7        46.016                                    22954001.395 7  93992843.23907     -2165.898 7        44.090    22954001.944 7  93992852.24307     -2166.016 7        42.190
E07        38.000    24802720.063 7 130339191.95407     -1467.834 7        45.792                                                                    24802719.959 8  97331253.02608     -1096.065 8        48.745    24802719.664 8  99870321.53208     -1124.624 8        49.280
C41        39.000                                                                                                                                    22580186.300 8 117580986.64808     -1917.030 8        49.811                                                                    22580191.091 8  95544212.57908     -1557.808 8        50.699
C39        40.000                                                                                                                                    39339963.654 7 204853538.75207       314.519 7        42.419                                                                    39339958.916 7 166460275.86307       255.420 7        43.033
E33        41.000    23549033.371 8 123751094.00408       287.390 8        48.209                                                                    23549031.157 8  92411564.62308       214.565 8        51.233    23549030.632 8  94822296.97008       220.215 8        51.300
S44        42.000    40710137.695 6 213933413.25906      -525.991 6        37.180
R06        43.000    19677427.166 7 105002582.19207      1159.278 7        42.394
C05        44.000                                                                                                                                    39287461.140 6 204580159.65906      -445.112 6        38.532    39287455.718 7 158194382.15207      -344.137 7        43.784    39287457.690 6 166238242.04806      -361.887 6        40.553
C29        45.000                                                                                                                                    25981846.403 6 135294298.36806      2681.615 6        41.969                                                                    25981843.736 6 109937695.48706      2178.761 6        41.046
G04        46.000    24670715.994 6 129645506.73006      3371.344 6        38.820                                    24670713.482 3 101022454.91503      2627.031 3        22.705    24670714.018 6 101022456.92206      2627.072 6        38.441
E25        47.000    28933773.571 5 152048019.48205       724.385 5        35.310                                                                    28933775.310 6 113542353.69506       540.835 6        38.462    28933774.473 6 116504325.72406       555.104 6        39.165
R22        48.000    22269539.734 7 118876339.07407      3271.652 7        47.671                                                                    22269538.139 7  92459371.31007      2544.650 7        43.410
C06        50.000                                                                                                                                    39307109.434 6 204682456.33806       830.334 6        40.017    39307103.200 7 158273441.03407       642.009 7        42.923    39307102.813 6 166321241.84706       674.734 6        40.002
S48        51.000    77357993.111 6 406520306.34306      -473.031 6        38.363
G21        52.000    21223605.267 7 111530872.66207     -1788.814 7        45.339                                    21223599.596 6  86907195.86406     -1393.880 6        37.493
C09        53.000                                                                                                                                    40255302.624 6 209619936.45106      1143.029 6        39.372    40255299.677 7 162091419.76507       883.863 7        42.845    40255297.918 6 170333346.57906       928.861 6        39.691
C60        54.000                                                                                                                                    40710137.398 6 211988583.59706      -521.199 6        38.513                                                                    40710121.060 6 172258060.69406      -423.714 6        40.000
C27        55.000                                                                                                                                    22431345.979 8 116805922.44708     -2502.413 8        50.534                                                                    22431344.165 8  94914383.90208     -2033.485 8        48.488
R14        56.000    24443816.173 6 130299307.50906      1523.452 6        41.948                                                                    24443818.314 6 101343922.93806      1185.102 6        37.788
C02        57.000                                                                                                                                    40697239.315 5 211921260.51305      -487.798 5        33.695    40697231.206 6 163870958.19006      -377.467 6        40.462    40697235.319 6 172203388.95506      -396.733 6        36.393
I03        58.000   105406402.373 6 337852135.41306       959.882 6        41.142
R07        59.000    22857851.304 7 122359921.43207      3570.460 7        47.167                                                                    22857850.657 6  95168878.62506      2777.026 6        40.949
C28        60.000                                                                                                                                    25766174.224 6 134171535.65906     -3825.416 6        41.275                                                                    25766173.055 6 109025497.44106     -3108.436 6        41.311
> 2025 01 02 00 00  5.0000000  0 55
G10         1.000    25375800.196 6 133350827.99406     -3582.376 6        38.132                                    25375798.336 4 103909797.38404     -2791.462 4        29.488    25375798.314 5 103909774.39305     -2791.640 5        34.424
G14         2.000    24902839.529 6 130865358.41506     -2550.716 6        37.259                                    24902836.516 3 101973008.72603     -1987.557 3        18.567    24902837.013 6 101973004.71206     -1987.376 6        36.087
C33         3.000                                                                                                                                    26318934.615 6 137049623.51706     -3610.181 6        40.958                                                                    26318946.824 7 111364103.55407     -2933.599 7        42.203
E31         4.000    28176540.242 6 148068756.54306     -3034.507 6        37.679                                                                    28176540.821 6 110570835.17906     -2266.145 6        39.297    28176540.151 6 113455288.48706     -2325.438 6        39.547
S21         5.000    38602261.038 7 202856014.58607      -464.563 7        42.246
G28         7.000    24272101.080 6 127550761.24706      1827.462 6        39.934                                    24272097.274 4  99390184.76704      1423.995 4        24.707    24272097.316 6  99390192.76506      1423.992 6        40.205
G03         8.000    21130880.763 7 111043625.93507      1610.259 7        47.265                                    21130878.307 8  86527542.58908      1254.748 8        48.435    21130879.102 7  86527540.59507      1254.699 7        44.528
G02         9.000    20841643.458 8 109523630.16308      -327.565 8        50.341                                    20841636.491 7  85343083.97707      -255.245 7        44.122
G31        10.000    24973866.158 6 131238551.74406      2759.142 6        40.181                                    24973861.793 5 102263787.92105      2149.987 5        31.608    24973861.693 6 102263792.92106      2150.004 6        36.064
C30        11.000                                                                                                                                    22249261.701 8 115857761.03208       467.492 8        50.728                                                                    22249261.728 8  94143924.59008       379.916 8        48.892
S27        12.000    39257602.862 5 206300121.38605      -441.271 5        35.857
R20        13.000    21274313.468 6 113763353.97306     -3648.125 6        37.244                                                                    21274313.620 7  88482675.01007     -2837.673 7        44.781
S36        14.000    38370004.202 7 201636256.76607      -464.056 7        44.086
G19        16.000    25378287.744 6 133363809.09006      3202.620 6        37.187                                    25378282.449 3 103919831.54103      2495.544 3        20.333
S45        17.000    63571698.339 6 334072688.50206      -506.094 6        38.024
E08        18.000    28638726.460 5 150497553.70105     -3318.469 5        35.848                                                                    28638725.387 6 112384536.08106     -2478.071 6        39.228    28638724.872 6 115316302.62406     -2542.742 6        40.072
E12        19.000    27413351.998 6 144058141.95206      2073.073 6        36.934                                                                    27413348.329 6 107575872.98306      1548.050 6        40.203    27413348.191 6 110382199.65706      1588.538 6        40.775
G17        20.000    23293232.167 7 122406783.20107      1769.488 7        43.776                                    23293227.070 6  95381899.09106      1378.821 6        40.136    23293227.082 6  95381898.11406      1378.567 6        39.904
E26        21.000    24586221.435 7 129201814.20407     -2076.846 7        46.586                                                                    24586218.806 8  96482071.65708     -1550.891 8        48.892    24586218.671 8  98998970.77908     -1591.338 8        50.333
I06        22.000    38447572.956 7 150876772.02807      -240.793 7        42.317
S28        23.000    41047516.300 5 215706177.19005      -456.792 5        34.609
G08        24.000    23897003.208 6 125579609.17806     -4104.953 6        40.953                                    23897001.824 6  97854239.90006     -3198.663 6        36.087    23897002.601 6  97854240.91006     -3198.768 6        38.772
S23        25.000    38321842.117 7 201382605.34807      -461.375 7        45.166
C13        26.000                                                                                                                                    41062690.972 6 213824403.62906     -1184.885 6        36.011    41062693.803 6 165342701.69606      -916.242 6        37.365    41062691.509 6 173749928.68506      -962.675 6        36.367
E24        27.000    28112752.795 6 147733550.78406     -1431.417 6        38.652                                                                    28112751.118 6 110320522.12606     -1068.909 6        40.691    28112750.542 6 113198445.23506     -1096.753 6        41.936
R21        29.000    19340987.841 8 103497540.20208        37.791 8        51.379                                                                    19340986.209 7  80498090.53407        29.422 7        46.323
E19        30.000    27056011.548 5 142180318.91705      2750.561 5        35.424                                                                    27056009.914 6 106173613.19806      2054.048 6        38.144    27056009.489 6 108943356.83106      2107.735 6        38.498
R05        31.000    20952081.201 8 112000922.86108     -3642.344 8        48.794                                                                    20952079.731 7  87111839.09107     -2832.867 7        45.404
R13        32.000    24114431.852 6 128769745.67806     -1727.678 6        38.300
E29        33.000    24491771.085 7 128705206.98607      1493.218 7        47.527                                                                    24491769.193 8  96111045.50608      1115.025 8        49.233    24491769.209 8  98618284.73608      1144.155 8        50.274
C16        35.000                                                                                                                                    39617518.317 6 206298841.28706       711.612 6        41.170    39617517.865 7 159523361.67007       550.333 7        42.565    39617515.308 6 167634706.75406       578.395 6        38.129
C32        36.000                                                                                                                                    22687707.912 8 118140906.73108      1323.287 8        50.097                                                                    22687707.687 8  95999185.42808      1075.341 8        49.524
G32        37.000    22956649.661 7 120638050.06707     -2782.043 7        46.409                                    22956647.357 7  94003677.96407     -2167.828 7        44.003    22956647.709 7  94003686.96407     -2167.924 7        42.243
E07        38.000    24804117.651 7 130346537.15007     -1470.158 7        45.762                                                                    24804117.692 8  97336738.07808     -1097.881 8        48.632    24804117.449 8  99875949.67608     -1126.473 8        49.477
C41        39.000                                                                                                                                    22582028.059 8 117590577.28708     -1919.050 8        50.049                                                                    22582032.889 8  95552005.74908     -1559.376 8        50.688
C39        40.000                                                                                                                                    39339662.227 7 204851970.04207       313.324 7        42.635                                                                    39339657.700 7 166459001.13507       254.555 7        43.054
E33        41.000    23548760.489 8 123749661.14208       285.954 8        48.180                                                                    23548758.506 8  92410494.62908       213.517 8        51.163    23548757.971 8  94821199.06308       219.124 8        51.561
S44        42.000    40710638.194 6 213936044.45806      -526.321 6        37.399
R06        43.000    19676342.324 6 104996795.50506      1155.482 6        41.785
C05        44.000                                                                                                                                    39287888.565 6 204582385.92906      -445.467 6        38.288    39287883.192 7 158196103.63707      -344.319 7        43.520    39287885.316 6 166240051.04306      -361.703 6        40.467
C29        45.000                                                                                                                                    25979271.189 6 135280892.54206      2680.933 6        41.380                                                                    25979269.269 6 109926802.13606      2178.344 6        40.965
G04        46.000    24667508.995 6 129628651.72606      3370.882 6        38.886                                    24667506.076 3 101009321.17603      2626.662 3        22.362    24667506.663 6 101009323.16206      2626.700 6        38.153
E25        47.000    28933085.511 5 152044404.04105       722.129 5        35.143                                                                    28933087.445 6 113539653.85306       539.188 6        38.510    28933086.758 6 116501555.44506       553.320 6        39.610
R22        48.000    22266476.105 7 118859983.87507      3270.528 7        47.645                                                                    22266474.499 7  92446650.59807      2543.817 7        43.424
C06        50.000                                                                                                                                    39306312.531 6 204678307.74306       829.318 6        39.961    39306306.464 7 158270233.08807       641.294 7        42.618    39306306.006 6 166317870.76306       673.916 6        39.766
S48        51.000    77358433.714 6 406522672.16706      -472.972 6        38.090
G21        52.000    21225308.161 7 111539821.91507     -1790.752 7        45.457                                    21225302.578 6  86914169.30506     -1395.389 6        37.410
C09        53.000                                                                                                                                    40254205.478 6 209614223.65906      1142.467 6        38.766    40254202.862 7 162087002.27607       883.328 7        43.001    40254200.671 6 170328704.48506       928.050 6        39.453
C60        54.000                                                                                                                                    40710638.023 6 211991190.86406      -521.455 6        38.384                                                                    40710622.034 6 172260179.27806      -423.661 6        39.952
C27        55.000                                                                                                                                    22433749.791 8 116818440.61708     -2504.638 8        50.716                                                                    22433748.098 8  94924555.92808     -2035.229 8        48.421
R14        56.000    24442389.914 6 130291699.40206      1520.048 6        41.433                                                                    24442389.977 6 101338005.56906      1182.104 6        37.440
C02        57.000                                                                                                                                    40697707.521 5 211923701.53605      -488.124 5        33.928    40697700.208 6 163872845.73506      -377.448 6        40.172    40697703.869 6 172205372.45806      -396.726 6        36.469
I03        58.000   105405179.639 6 337847336.19106       959.828 6        41.066
R07        59.000    22854518.064 7 122342073.70307      3568.948 7        46.465                                                                    22854516.470 6  95154997.06006      2775.747 6        40.651
C28        60.000                                                                                                                                    25769848.065 6 134190665.06006     -3826.148 6        40.989                                                                    25769846.519 6 109041041.62406     -3108.980 6        41.294
> 2025 01 02 00 00 10.0000000  0 55
G10         1.000    25379209.129 6 133368740.26506     -3582.625 6        37.958                                    25379206.960 4 103923754.99904     -2791.664 4        29.090    25379206.880 5 103923732.00405     -2791.962 5        34.738
G14         2.000    24905268.219 6 130878116.42906     -2552.378 6        36.760                                    24905264.044 3 101982950.03403     -1988.873 3        18.507    24905264.133 5 101982946.05705     -1988.789 5        34.962
C33         3.000                                                                                                                                    26322401.645 6 137067675.12406     -3610.448 6        41.213                                                                    26322413.225 6 111378771.96806     -2933.787 6        41.943
E31         4.000    28179427.734 6 148083931.04606     -3035.038 6        37.059                                                                    28179428.537 6 110582166.74706     -2266.333 6        39.279    28179427.906 6 113466915.67206     -2325.500 6        39.550
S21         5.000    38602704.950 7 202858337.68307      -464.597 7        42.246
G28         7.000    24270363.656 6 127541628.69206      1825.585 6        39.901                                    24270359.499 4  99383068.49404      1422.532 4        24.842    24270359.442 6  99383076.49706      1422.648 6        40.002
G03         8.000    21129349.489 7 111035579.61607      1608.315 7        47.542                                    21129347.148 8  86521272.73008      1253.233 8        48.520    21129347.976 7  86521270.73907      1253.250 7        44.811
G02         9.000    20841956.145 8 109525273.33008      -329.620 8        50.263                                    20841949.170 7  85344364.36407      -256.847 7        44.197
G31        10.000    24971241.242 6 131224756.97906      2758.697 6        39.910                                    24971236.758 5 102253038.75305      2149.631 5        31.653    24971236.908 6 102253043.74706      2149.783 6        36.083
C30        11.000                                                                                                                                    22248813.915 8 115855429.71108       465.041 8        50.670                                                                    22248814.039 8  94142030.21508       377.873 8        48.628
S27        12.000    39258021.186 5 206302329.31005      -441.289 5        35.438
R20        13.000    21277724.689 6 113781602.15406     -3650.729 6        38.105                                                                    21277726.260 7  88496868.04407     -2839.471 7        45.053
S36        14.000    38370443.879 7 201638577.16007      -464.118 7        43.839
G19        16.000    25375240.995 6 133347798.17606      3201.736 6        37.410                                    25375235.302 3 103907355.45803      2494.863 3        19.940
S45        17.000    63572138.119 6 334075219.02806      -505.977 6        37.955
E08        18.000    28641883.927 6 150514147.61606     -3319.275 6        36.352                                                                    28641883.128 6 112396927.62106     -2478.513 6        39.952    28641882.703 6 115329017.41606     -2543.122 6        40.591
E12        19.000    27411379.574 6 144047777.49506      2072.777 6        37.191                                                                    27411376.037 6 107568133.27006      1547.886 6        40.117    27411375.939 6 110374258.04406      1588.407 6        40.703
G17        20.000    23291548.952 7 122397941.23907      1767.367 7        44.331                                    23291544.470 6  95375009.25606      1377.166 6        40.181    23291544.733 6  95375008.26606      1377.135 6        40.360
E26        21.000    24588198.186 7 129212201.67307     -2077.948 7        46.530                                                                    24588195.535 8  96489828.52608     -1551.685 8        48.895    24588195.327 8  99006930.01008     -1592.227 8        50.392
I06        22.000    38447879.646 7 150877976.06307      -240.646 7        42.135
S28        23.000    41047953.602 5 215708461.98905      -456.917 5        34.519
G08        24.000    23900909.216 6 125600135.39106     -4105.465 6        40.961                                    23900907.839 6  97870234.35006     -3199.060 6        36.140    23900908.356 6  97870235.35806     -3199.263 6        38.598
S23        25.000    38322278.485 7 201384912.34007      -461.356 7        45.001
C13        26.000                                                                                                                                    41063828.945 6 213830328.24506     -1184.724 6        36.302    41063831.652 6 165347282.98306      -916.146 6        37.720    41063829.437 6 173754742.93406      -962.785 6        36.163
E24        27.000    28114115.456 6 147740712.90306     -1433.523 6        38.568                                                                    28114113.927 6 110325870.46706     -1070.453 6        40.794    28114113.523 6 113203933.10206     -1098.393 6        41.917
R21        29.000    19340954.147 8 103497360.69208        34.124 8        51.371                                                                    19340952.579 7  80497950.91807        26.577 7        46.085
E19        30.000    27053394.329 5 142166567.05505      2750.075 5        35.190                                                                    27053393.186 6 106163343.94006      2053.752 6        38.075    27053392.677 6 108932819.69406      2107.493 6        38.760
R05        31.000    20955489.222 8 112019140.03808     -3644.560 8        48.935                                                                    20955487.862 7  87126008.01607     -2834.686 7        45.478
R13        32.000    24116052.428 6 128778393.95806     -1731.650 6        37.664
E29        33.000    24490351.131 7 128697745.67707      1491.369 7        47.424                                                                    24490349.387 8  96105473.75008      1113.692 8        49.173    24490349.264 8  98612567.63008      1142.750 8        50.259
C16        35.000                                                                                                                                    39616835.192 6 206295285.75506       710.750 6        41.011    39616834.931 7 159520612.30407       549.718 7        42.413    39616832.423 6 167631817.60306       577.547 6        38.006
C32        36.000                                                                                                                                    22686438.463 8 118134295.15108      1321.362 8        50.163                                                                    22686438.036 8  95993812.99708      1073.690 8        49.201
G32        37.000    22959297.718 7 120651965.63007     -2784.264 7        46.210                                    22959295.380 7  94014521.25807     -2169.557 7        44.071    22959295.678 7  94014530.25907     -2169.531 7        42.368
E07        38.000    24805517.482 7 130353893.30507     -1472.241 7        45.443                                                                    24805517.566 8  97342231.31608     -1099.435 8        48.621    24805517.273 8  99881586.21008     -1128.081 8        49.575
C41        39.000                                                                                                                                    22583871.715 8 117600177.36008     -1920.909 8        50.115                                                                    22583876.496 8  95559806.61008     -1560.917 8        50.360
C39        40.000                                                                                                                                    39339361.687 7 204850406.30307       312.258 7        42.866                                                                    39339357.424 7 166457730.48707       253.810 7        42.739
E33        41.000    23548489.005 8 123748234.69308       284.638 8        48.302                                                                    23548487.080 8  92409429.42308       212.600 8        51.128    23548486.520 8  94820106.06908       218.156 8        51.552
S44        42.000    40711138.520 6 213938675.76306      -525.975 6        37.304
R06        43.000    19675260.979 7 104991027.05607      1152.041 7        42.028
C05        44.000                                                                                                                                    39288316.119 6 204584612.36406      -445.399 6        38.273    39288310.858 7 158197825.25807      -344.262 7        43.475    39288312.633 6 166241860.20506      -361.829 6        40.224
C29        45.000                                                                                                                                    25976697.140 6 135267489.86206      2680.281 6        41.194                                                                    25976695.401 6 109915911.35606      2177.996 6        40.799
G04        46.000    24664301.246 6 129611798.10806      3370.654 6        38.844                                    24664299.073 3 100996188.47703      2626.485 3        22.114    24664299.531 6 100996190.48106      2626.456 6        38.544
E25        47.000    28932400.205 5 152040799.26105       719.888 5        34.829                                                                    28932401.688 6 113536961.97106       537.694 6        38.721    28932400.835 6 116498793.35506       551.633 6        40.093
R22        48.000    22263413.359 8 118843633.75708      3269.643 8        48.090                                                                    22263411.735 7  92433933.85407      2542.953 7        44.405
C06        50.000                                                                                                                                    39305516.227 6 204674163.39506       828.564 6        39.796    39305510.449 7 158267028.40207       640.726 7        42.717    39305510.058 6 166314503.14406       673.216 6        39.508
S48        51.000    77358872.192 6 406525037.97006      -472.983 6        38.285
G21        52.000    21227013.046 7 111548780.25207     -1792.537 7        45.264                                    21227007.330 6  86921149.83106     -1396.779 6        37.516
C09        53.000                                                                                                                                    40253108.534 6 209608513.88506      1141.826 6        38.426    40253106.301 7 162082587.11907       882.961 7        43.005    40253104.328 6 170324064.83006       927.720 6        39.156
C60        54.000                                                                                                                                    40711138.585 6 211993798.27006      -521.448 6        38.432                                                                    40711122.650 6 172262298.01206      -423.653 6        39.877
C27        55.000                                                                                                                                    22436156.019 8 116830969.30708     -2506.738 8        50.699                                                                    22436154.037 8  94934736.52408     -2036.965 8        48.179
R14        56.000    24440965.351 6 130284107.46706      1516.674 6        40.656                                                                    24440965.852 6 101332100.71806      1179.496 6        36.578
C02        57.000                                                                                                                                    40698175.052 5 211926142.73305      -488.185 5        33.826    40698168.968 6 163874733.42106      -377.521 6        40.203    40698173.068 6 172207356.11406      -396.497 6        36.181
I03        58.000   105403956.524 6 337842537.25806       959.684 6        40.784
R07        59.000    22851184.226 7 122324232.83407      3567.450 7        46.108                                                                    22851183.097 6  95141120.83106      2774.686 6        40.520
C28        60.000                                                                                                                                    25773521.656 6 134209797.20906     -3826.727 6        40.706                                                                    25773520.660 6 109056588.07506     -3109.511 6        41.094
> 2025 01 02 00 00 15.0000000  0 55
G10         1.000    25382617.082 6 133386652.09306     -3582.255 6        37.966                                    25382615.615 4 103937712.26404     -2791.365 4        29.166    25382615.151 5 103937689.25905     -2791.546 5        34.462
G14         2.000    24907697.311 6 130890882.58906     -2554.033 6        37.164                                    24907693.302 3 101992897.70303     -1990.170 3        18.418    24907694.354 5 101992893.68705     -1990.186 5        35.005
C33         3.000                                                                                                                                    26325868.112 6 137085727.47206     -3610.429 6        41.173                                                                    26325879.871 6 111393440.96506     -2933.880 6        41.652
E31         4.000    28182316.462 6 148099108.18806     -3035.649 6        37.059                                                                    28182316.620 6 110593500.31806     -2266.627 6        39.243    28182316.114 6 113478544.91006     -2326.084 6        39.598
S21         5.000    38603141.550 7 202860660.37007      -464.381 7        42.273
G28         7.000    24268627.729 6 127532505.19406      1823.877 6        40.100                                    24268623.127 4  99375959.27704      1421.200 4        24.602    24268623.284 6  99375967.26606      1421.110 6        39.318
G03         8.000    21127819.924 7 111027542.00607      1606.662 7        47.513                                    21127817.625 8  86515009.66008      1251.942 8        48.495    21127818.180 7  86515007.65907      1251.882 7        44.880
G02         9.000    20842270.703 8 109526926.51408      -331.557 8        50.234                                    20842263.757 7  85345652.56007      -258.355 7        44.144
G31        10.000    24968616.897 6 131210963.97806      2758.557 6        39.790                                    24968611.996 5 102242290.95205      2149.525 5        31.645    24968612.131 6 102242295.97306      2149.385 6        36.352
C30        11.000                                                                                                                                    22248368.376 8 115853110.12508       462.821 8        50.720                                                                    22248368.550 8  94140145.34808       376.056 8        48.657
S27        12.000    39258446.143 5 206304536.47805      -441.103 5        35.890
R20        13.000    21281139.450 6 113799861.77206     -3653.008 6        37.353                                                                    21281140.966 7  88511069.95507     -2841.231 7        44.983
S36        14.000    38370886.073 7 201640897.74507      -464.210 7        44.048
G19        16.000    25372194.861 6 133331791.36506      3201.025 6        37.006                                    25372189.143 3 103894882.58503      2494.309 3        19.910
S45        17.000    63572570.288 6 334077748.89606      -505.866 6        37.739
E08        18.000    28645042.130 6 150530744.43006     -3319.800 6        36.389                                                                    28645041.487 6 112409321.34506     -2478.985 6        39.859    28645040.925 6 115341734.44906     -2543.530 6        40.553
E12        19.000    27409407.264 6 144037413.26106      2072.826 6        37.017                                                                    27409403.652 6 107560393.75506      1547.882 6        40.238    27409403.667 6 110366316.63106      1588.261 6        40.880
G17        20.000    23289868.883 7 122389109.76007      1765.267 7        44.072                                    23289863.878 6  95368127.58406      1375.531 6        40.307    23289864.319 6  95368126.59306      1375.553 6        40.255
E26        21.000    24590175.840 7 129222594.73007     -2079.084 7        46.455                                                                    24590173.233 8  96497589.56908     -1552.564 8        48.852    24590173.002 8  99014893.51508     -1593.087 8        50.419
I06        22.000    38448186.487 7 150879179.78707      -240.755 7        42.252
S28        23.000    41048388.637 5 215710746.40105      -456.819 5        34.286
G08        24.000    23904816.041 6 125620663.82306     -4105.822 6        40.901                                    23904814.213 6  97886230.52606     -3199.341 6        36.087    23904815.201 6  97886231.53006     -3199.351 6        38.456
S23        25.000    38322717.429 7 201387218.91507      -461.217 7        44.987
C13        26.000                                                                                                                                    41064967.726 6 213836251.67706     -1184.609 6        36.526    41064968.468 6 165351863.36106      -915.969 6        37.686    41064967.354 6 173759556.19706      -962.674 6        36.461
E24        27.000    28115480.706 6 147747885.35906     -1435.444 6        38.480                                                                    28115478.863 6 110331226.53606     -1071.874 6        40.465    28115478.520 6 113209428.88806     -1099.911 6        41.859
R21        29.000    19340924.056 8 103497199.00708        30.626 8        51.398                                                                    19340922.451 7  80497825.16107        23.799 7        46.163
E19        30.000    27050777.387 5 142152816.55805      2750.134 5        34.776                                                                    27050776.451 6 106153075.74406      2053.613 6        37.962    27050776.118 6 108922283.62606      2107.151 6        38.934
R05        31.000    20958899.331 8 112037367.91108     -3646.575 8        49.376                                                                    20958897.903 7  87140185.24507     -2836.220 7        45.657
R13        32.000    24117674.653 6 128787060.76806     -1735.150 6        38.192
E29        33.000    24488933.238 7 128690293.17907      1489.618 7        47.693                                                                    24488931.216 8  96099908.56408      1112.458 8        49.181    24488931.083 8  98606857.27008      1141.448 8        50.286
C16        35.000                                                                                                                                    39616153.178 6 206291734.00506       710.052 6        41.185    39616152.688 7 159517865.87807       549.028 7        42.449    39616150.578 6 167628931.51206       576.929 6        38.042
C32        36.000                                                                                                                                    22685170.648 8 118127693.08808      1319.524 8        50.362                                                                    22685170.152 8  95988448.27008      1072.185 8        49.209
G32        37.000    22961947.522 7 120665891.63707     -2786.188 7        45.624                                    22961945.349 7  94025372.69107     -2171.055 7        44.017    22961946.020 7  94025381.69307     -2170.980 7        42.210
E07        38.000    24806919.394 7 130361259.89307     -1474.328 7        45.694                                                                    24806919.332 8  97347732.32908     -1100.880 8        48.687    24806919.069 8  99887230.73508     -1129.650 8        49.607
C41        39.000                                                                                                                                    22585717.075 8 117609786.32008     -1922.616 8        50.143                                                                    22585721.799 8  95567614.67008     -1562.297 8        50.374
C39        40.000                                                                                                                                    39339062.011 7 204848847.01407       311.468 7        42.821                                                                    39339057.956 7 166456463.43107       253.061 7        42.794
E33        41.000    23548218.693 8 123746814.13808       283.565 8        48.098                                                                    23548216.782 8  92408368.61208       211.767 8        51.126    23548216.191 8  94819017.58608       217.317 8        51.599
S44        42.000    40711640.638 6 213941306.71006      -526.006 6        37.259
R06        43.000    19674183.129 6 104985276.29406      1148.506 6        41.762
C05        44.000                                                                                                                                    39288743.615 6 204586838.40906      -445.177 6        38.369    39288738.059 7 158199546.59307      -344.222 7        43.350    39288740.388 6 166243669.05706      -361.669 6        40.269
C29        45.000                                                                                                                                    25974124.051 6 135254089.79806      2679.675 6        41.340                                                                    25974122.099 6 109905022.69906      2177.537 6        40.868
G04        46.000    24661094.308 6 129594945.32706      3370.596 6        38.718                                    24661092.017 3 100983056.44503      2626.439 3        22.210    24661092.032 6 100983058.45806      2626.226 6        38.550
E25        47.000    28931716.102 5 152037204.65105       717.920 5        35.010                                                                    28931717.610 6 113534277.68306       536.073 6        38.694    28931717.023 6 116496039.02706       550.115 6        40.276
R22        48.000    22260351.061 7 118827288.14407      3268.742 7        47.531                                                                    22260349.272 7  92421220.60307      2542.283 7        43.443
C06        50.000                                                                                                                                    39304721.095 6 204670022.72206       827.836 6        39.574    39304715.294 7 158263826.57507       640.207 7        42.705    39304714.922 6 166311138.49206       672.650 6        39.784
S48        51.000    77359315.773 6 406527403.22206      -473.136 6        38.195
G21        52.000    21228719.377 7 111557747.12107     -1794.182 7        45.279                                    21228713.656 6  86928136.99706     -1398.066 6        37.482
C09        53.000                                                                                                                                    40252012.529 6 209602806.61406      1141.198 6        38.580    40252010.240 7 162078173.89207       882.524 7        43.215    40252008.333 6 170319427.18506       927.443 6        39.345
C60        54.000                                                                                                                                    40711639.224 6 211996405.27806      -521.357 6        38.571                                                                    40711623.168 6 172264416.43106      -423.770 6        39.715
C27        55.000                                                                                                                                    22438563.885 8 116843507.97808     -2508.698 8        50.350                                                                    22438561.942 8  94944925.20608     -2038.562 8        48.141
R14        56.000    24439543.606 6 130276531.49706      1513.657 6        41.611                                                                    24439545.148 6 101326208.34806      1177.128 6        37.406
C02        57.000                                                                                                                                    40698644.518 5 211928583.60505      -488.120 5        33.629    40698637.504 6 163876620.86706      -377.447 6        40.098    40698641.578 6 172209339.55006      -396.714 6        36.060
I03        58.000   105402733.706 6 337837738.18306       959.937 6        40.937
R07        59.000    22847852.827 7 122306398.47707      3566.313 7        46.269                                                                    22847851.763 6  95127249.69606      2773.743 6        41.635
C28        60.000                                                                                                                                    25777196.151 6 134228931.56406     -3827.083 6        40.741                                                                    25777195.220 6 109072136.29406     -3109.852 6        41.263
> 2025 01 02 00 00 20.0000000  0 55
G10         1.000    25386025.023 6 133404563.61206     -3582.080 6        37.720                                    25386024.087 4 103951669.28404     -2791.230 4        29.251    25386024.093 5 103951646.30405     -2791.360 5        34.762
G14         2.000    24910129.101 6 130903656.95106     -2555.556 6        37.399                                    24910124.063 3 102002851.74203     -1991.308 3        18.418    24910125.531 5 102002847.75505     -1991.411 5        35.676
C33         3.000                                                                                                                                    26329335.442 6 137103780.67606     -3610.673 6        41.471                                                                    26329346.729 6 111408110.68206     -2933.971 6        41.542
E31         4.000    28185204.514 6 148114288.09906     -3036.204 6        37.134                                                                    28185205.105 6 110604835.93906     -2267.187 6        39.210    28185204.900 6 113490176.24006     -2326.358 6        39.661
S21         5.000    38603586.794 7 202862982.55007      -464.300 7        42.294
G28         7.000    24266893.211 6 127523390.88806      1822.073 6        39.910                                    24266888.625 4  99368857.21604      1419.790 4        24.812    24266889.325 6  99368865.21506      1419.766 6        39.928
G03         8.000    21126292.117 7 111019513.24507      1604.989 7        47.761                                    21126289.783 8  86508753.48208      1250.639 8        48.541    21126290.004 7  86508751.48807      1250.620 7        44.671
G02         9.000    20842587.344 8 109528589.84908      -333.540 8        50.226                                    20842580.286 7  85346948.66707      -259.906 7        44.179
G31        10.000    24965992.486 6 131197172.90006      2758.071 6        39.453                                    24965987.650 5 102231544.65905      2149.147 5        31.751    24965988.229 6 102231549.65606      2149.082 6        36.639
C30        11.000                                                                                                                                    22247925.211 8 115850802.39908       460.485 8        50.680                                                                    22247925.396 8  94138270.14108       374.200 8        48.594
S27        12.000    39258862.133 5 206306743.46705      -441.208 5        35.662
R20        13.000    21284557.120 6 113818132.86506     -3655.278 6        37.456                                                                    21284558.084 7  88525280.81907     -2842.926 7        44.969
S36        14.000    38371322.946 7 201643217.41007      -463.759 7        43.805
G19        16.000    25369149.830 6 133315788.90906      3200.105 6        37.705                                    25369144.147 3 103882413.12103      2493.600 3        20.119
S45        17.000    63573009.066 6 334078578.46916      -505.632 6        37.709
E08        18.000    28648201.289 6 150547344.27306     -3319.971 6        36.129                                                                    28648200.318 6 112421717.33506     -2479.329 6        39.486    28648199.495 6 115354453.81406     -2543.944 6        40.286
E12        19.000    27407435.072 6 144027049.41706      2072.791 6        37.062                                                                    27407431.596 6 107552654.50206      1547.959 6        40.291    27407431.529 6 110358375.49406      1588.275 6        40.839
G17        20.000    23288189.959 7 122380288.88907      1763.216 7        44.298                                    23288185.307 6  95361254.18506      1373.936 6        40.276    23288185.475 6  95361253.18006      1373.936 6        39.925
