     3.04           OBSERVATION DATA    M                   RINEX VERSION / TYPE
ssrcrin-15.6.1x                         20250102 030000 UTC PGM / RUN BY / DATE 
(00000000023479385599111004) Septentrio proprietary         COMMENT             
rref                                                        MARKER NAME         
01                                                          MARKER NUMBER       
geodetic                                                    MARKER TYPE         
NFB                 CLIMERS@TUW                             OBSERVER / AGENCY   
3297213             SEPT ASTERX SB3 PROB4.14.4              REC # / TYPE / VERS 
Unknown             Unknown                                 ANT # / TYPE        
  4127831.9588  1207193.2927  4695247.3478                  APPROX POSITION XYZ 
        0.0000        0.0000        0.0000                  ANTENNA: DELTA H/E/N
G   23 X1  C1C L1C D1C S1C C1W S1W C2W L2W D2W S2W C2L L2L  SYS / # / OBS TYPES 
       D2L S2L C5Q L5Q D5Q S5Q C1L L1L D1L S1L              SYS / # / OBS TYPES 
E   21 X1  C1C L1C D1C S1C C6C L6C D6C S6C C5Q L5Q D5Q S5Q  SYS / # / OBS TYPES 
       C7Q L7Q D7Q S7Q C8Q L8Q D8Q S8Q                      SYS / # / OBS TYPES 
S    9 X1  C1C L1C D1C S1C C5I L5I D5I S5I                  SYS / # / OBS TYPES 
R   17 X1  C1C L1C D1C S1C C2P L2P D2P S2P C2C L2C D2C S2C  SYS / # / OBS TYPES 
       C3Q L3Q D3Q S3Q                                      SYS / # / OBS TYPES 
C   25 X1  C1P L1P D1P S1P C5P L5P D5P S5P C2I L2I D2I S2I  SYS / # / OBS TYPES 
       C7I L7I D7I S7I C6I L6I D6I S6I C7D L7D D7D S7D      SYS / # / OBS TYPES 
J   17 X1  C1C L1C D1C S1C C2L L2L D2L S2L C5Q L5Q D5Q S5Q  SYS / # / OBS TYPES 
       C1L L1L D1L S1L                                      SYS / # / OBS TYPES 
I    5 X1  C5A L5A D5A S5A                                  SYS / # / OBS TYPES 
SEPTENTRIO RECEIVERS OUTPUT ALIGNED CARRIER PHASES.         COMMENT             
NO FURTHER PHASE SHIFT APPLIED IN THE RINEX ENCODER.        COMMENT             
G L1C                                                       SYS / PHASE SHIFT   
G L2W                                                       SYS / PHASE SHIFT   
G L2L  0.00000                                              SYS / PHASE SHIFT   
G L5Q  0.00000                                              SYS / PHASE SHIFT   
G L1L  0.00000                                              SYS / PHASE SHIFT   
E L1C  0.00000                                              SYS / PHASE SHIFT   
E L6C  0.00000                                              SYS / PHASE SHIFT   
E L5Q  0.00000                                              SYS / PHASE SHIFT   
E L7Q  0.00000                                              SYS / PHASE SHIFT   
E L8Q  0.00000                                              SYS / PHASE SHIFT   
S L1C                                                       SYS / PHASE SHIFT   
S L5I                                                       SYS / PHASE SHIFT   
R L1C                                                       SYS / PHASE SHIFT   
R L2P  0.00000                                              SYS / PHASE SHIFT   
R L2C                                                       SYS / PHASE SHIFT   
R L3Q  0.00000                                              SYS / PHASE SHIFT   
C L1P  0.00000                                              SYS / PHASE SHIFT   
C L5P  0.00000                                              SYS / PHASE SHIFT   
C L2I                                                       SYS / PHASE SHIFT   
C L7I                                                       SYS / PHASE SHIFT   
C L6I                                                       SYS / PHASE SHIFT   
C L7D                                                       SYS / PHASE SHIFT   
J L1C                                                       SYS / PHASE SHIFT   
J L2L  0.00000                                              SYS / PHASE SHIFT   
J L5Q  0.00000                                              SYS / PHASE SHIFT   
J L1L  0.00000                                              SYS / PHASE SHIFT   
I L5A                                                       SYS / PHASE SHIFT   
  2025     1     2     3     0    0.0000000     GPS         TIME OF FIRST OBS   
 C1C    0.000 C2C    0.000 C2P    0.000                     GLONASS COD/PHS/BIS 
DBHZ                                                        SIGNAL STRENGTH UNIT
    18                                                      LEAP SECONDS        
 24 R01  1 R02 -4 R03  5 R04  6 R05  1 R06 -4 R07  5 R08  6 GLONASS SLOT / FRQ #
    R09 -2 R10 -7 R11  0 R12 -1 R13 -2 R14 -7 R15  0 R16 -1 GLONASS SLOT / FRQ #
    R17  4 R18 -3 R19  3 R20  2 R21  4 R22 -3 R23  3 R24  2 GLONASS SLOT / FRQ #
                                                            END OF HEADER       
> 2025 01 02 03 00  0.0000000  0 57
G09         1.000    20361918.085 8 107002637.26508      1028.474 8        50.001                                    20361915.347 8  83378684.45208       801.408 8        52.022    20361915.743 7  83378684.45707       801.370 7        44.858
G06         2.000    21578537.388 7 113396001.12507      1274.820 7        46.854                                    21578535.900 7  88360525.38207       993.367 7        47.112    21578536.767 7  88360533.38907       993.337 7        44.307
E11         3.000    26030998.842 6 136793838.87906      1940.156 6        39.039                                                                    26030994.608 6 102151233.54006      1448.772 6        41.654    26030994.710 6 104816044.56206      1486.542 6        41.938
R15         4.000    24538639.438 6 131127053.80106     -3666.618 6        40.408                                                                    24538639.115 5 101987694.56705     -2851.895 5        35.829
S21         5.000    38367990.233 7 201624852.01207      -476.238 7        42.106
E10         6.000    24362533.461 7 128025987.08007       738.961 7        47.279                                                                    24362531.616 8  95603818.74508       551.783 8        49.803    24362531.627 8  98097830.82108       566.170 8        50.400
G28         7.000    25522243.439 5 134120304.08405     -3852.185 5        35.410                                    25522239.648 2 104509309.02002     -3001.723 2        14.667    25522240.203 5 104509317.02105     -3001.761 5        34.919
G03         8.000    21018951.620 7 110455435.37807     -2609.708 7        47.857                                    21018949.269 8  86069212.16808     -2033.537 8        48.028    21018949.749 7  86069210.16707     -2033.556 7        44.098
G02         9.000    24863074.078 6 130656380.01306     -4040.212 6        37.841                                    24863068.068 2 101810159.17602     -3148.243 2        17.509
G31        10.000    23161019.172 7 121711988.31407     -3066.564 7        43.500                                    23161013.933 6  94840494.66906     -2389.532 6        36.639    23161014.149 6  94840499.68006     -2389.591 6        38.204
C30        11.000                                                                                                                                    25461812.093 7 132586347.07107     -3828.990 7        42.144                                                                    25461813.276 6 107737269.03806     -3111.489 6        41.692
S27        12.000    38996249.415 5 204926713.25705      -474.151 5        35.924
G26        13.000    24460282.558 6 128539653.94606      1038.428 6        38.592                                    24460281.561 4 100160775.55204       809.170 4        29.668    24460281.301 5 100160775.55605       809.064 5        35.852
S36        14.000    38135414.606 7 200403462.22507      -476.177 7        44.700
I09        15.000    37394410.154 7 146743700.00307      -630.553 7        43.189
G19        16.000    23076031.859 6 121265384.83006     -2765.683 6        41.390                                    23076024.847 4  94492491.72704     -2155.074 4        28.265
S45        17.000    63327085.176 6 332786067.08806      -516.065 6        37.474
E12        19.000    23868331.684 7 125428939.89907      -657.279 7        45.252                                                                    23868327.264 8  93664457.71608      -490.833 8        48.201    23868327.401 8  96107877.70208      -503.624 8        48.399
G17        20.000    24370019.249 6 128065331.48906     -3331.825 6        40.217                                    24370014.709 5  99791155.69005     -2596.225 5        32.060    24370015.059 5  99791154.66705     -2595.970 5        34.743
G11        21.000    24557376.678 6 129049890.18406      2919.901 6        39.432                                    24557372.009 3 100558336.22303      2275.246 3        23.448    24557372.502 6 100558349.22906      2275.363 6        39.471
I06        22.000    37966755.711 7 148989946.17307      -290.868 7        42.828
S28        23.000    40800201.972 5 214406523.39505      -471.637 5        34.786
R08        24.000    20375133.321 8 109107952.54508      1438.438 8        50.148                                                                    20375130.892 7  84861745.20407      1118.763 7        46.424
S23        25.000    38079806.022 7 200110737.14207      -472.105 7        44.710
C25        26.000                                                                                                                                    25950707.766 6 135132138.84306     -2281.870 6        39.429                                                                    25950705.316 6 109805927.36506     -1854.449 6        39.778
R16        27.000    22129167.323 7 118210055.83707      -773.954 7        45.678                                                                    22129167.479 7  91941156.82007      -601.961 7        43.793
R24        29.000    23195791.856 7 124038326.88907      3274.413 7        44.218                                                                    23195791.514 6  96474240.50006      2546.719 6        41.099
E19        30.000    22785253.543 7 119737349.87307      -250.276 7        43.211                                                                    22785250.782 7  89414257.64807      -186.856 7        45.938    22785250.812 7  91746800.19907      -191.779 7        46.564
C23        31.000                                                                                                                                    24529871.174 7 127733487.93407       293.555 7        46.042                                                                    24529862.743 7 103793889.70107       238.454 7        45.508
R23        32.000    19931957.874 8 106622548.67308      -437.878 8        49.728
E29        33.000    24658062.215 7 129579075.94007     -2421.780 7        45.556                                                                    24658060.020 8  96763610.96708     -1808.464 8        48.459    24658059.990 8  99287873.53008     -1855.667 8        48.879
E04        34.000    26246360.919 7 137925586.34107      2043.454 7        42.250                                                                    26246358.452 7 102996389.27607      1526.012 7        44.394    26246358.256 7 105683247.26607      1565.717 7        44.883
C16        35.000                                                                                                                                    38938361.091 7 202762298.57607     -1106.498 7        42.421    38938360.517 7 156788683.55707      -855.684 7        43.505    38938358.708 6 164760976.97406      -899.287 6        39.006
C32        36.000                                                                                                                                    22938078.210 8 119444649.55608     -2289.510 8        49.547                                                                    22938077.694 8  97058583.39808     -1860.481 8        49.448
I01        37.000   379954439.746 7 187882025.43707     -2737.697 7        42.281
E27        38.000    28518977.755 5 149868231.96105      1702.830 5        35.919                                                                    28518977.706 6 111914597.50006      1271.615 6        40.884    28518977.069 6 114834105.35706      1304.653 6        39.462
C19        39.000                                                                                                                                    25364961.781 7 132082011.38707      2156.140 7        43.048                                                                    25364956.509 7 107327430.92007      1751.960 7        43.079
C39        40.000                                                                                                                                    39536857.380 6 205878820.90406     -1449.443 6        41.318                                                                    39536853.625 6 167293401.66406     -1177.983 6        41.037
E33        41.000    25403573.372 7 133496765.96207     -3269.601 7        44.420                                                                    25403571.525 7  99689176.00607     -2441.651 7        47.093    25403571.025 7 102289759.17807     -2505.292 7        47.264
S44        42.000    40627162.101 6 213497362.87106      -554.182 6        38.556
R06        43.000    22470316.386 6 119905969.02806     -3725.671 6        36.117
C05        44.000                                                                                                                                    39071640.093 6 203456323.22206      -503.336 6        39.225    39071633.866 7 157325361.84607      -389.195 7        43.854    39071635.198 6 165325033.88306      -408.972 6        39.691
C29        45.000                                                                                                                                    23275094.272 7 121199547.83707     -2023.245 7        47.057                                                                    23275091.457 7  98484559.16407     -1644.044 7        46.611
G04        46.000    20005778.083 8 105131110.28208      -851.768 8        49.271                                    20005774.293 7  81920332.49007      -663.715 7        42.491    20005774.502 8  81920334.48908      -663.707 8        48.813
E30        47.000    28613338.550 5 150364129.06505       -74.591 5        35.562                                                                    28613338.286 6 112284893.86206       -55.624 6        39.562    28613337.838 6 115214063.50706       -57.085 6        39.919
R22        48.000    20843794.575 8 111265620.04208     -3955.742 8        49.563                                                                    20843793.078 7  86539924.21907     -3076.645 7        47.066
C20        49.000                                                                                                                                    22108158.139 8 115123007.76908       500.684 8        51.822                                                                    22108151.944 8  93546858.32708       406.818 8        49.163
C06        50.000                                                                                                                                    38402473.584 6 199971789.34806     -1036.782 6        40.470    38402467.370 7 154630855.98507      -801.783 7        43.471    38402467.238 6 162493440.27106      -842.626 6        41.046
S48        51.000    77114013.765 6 405235862.91706      -466.166 6        37.433
E06        52.000    28662786.736 6 150623960.62706      2308.703 6        36.299                                                                    28662787.834 6 112478935.77406      1723.842 6        37.970    28662787.590 6 115413167.58806      1769.112 6        38.751
C09        53.000                                                                                                                                    38393784.417 7 199926534.38207      -545.207 7        42.188    38393780.645 7 154595869.23107      -421.732 7        45.899    38393779.092 7 162456665.69407      -443.195 7        42.133
C60        54.000                                                                                                                                    40627159.305 6 211556497.30406      -549.033 6        39.844                                                                    40627143.539 6 171906955.32606      -446.296 6        39.535
R09        55.000    22174161.621 7 118408803.09107      2577.886 7        46.145                                                                    22174160.205 7  92095729.09507      2004.910 7        44.885
G07        56.000    24171904.582 6 127024228.60006      2916.390 6        41.333                                    24171900.727 5  98979899.75405      2272.511 5        34.319    24171900.746 6  98979908.76606      2272.437 6        37.437
C02        57.000                                                                                                                                    40574628.628 5 211282792.25605      -545.807 5        34.871    40574620.255 6 163377254.29606      -421.981 6        39.348    40574623.371 5 171684581.41205      -443.580 5        35.967
I03        58.000   101694269.047 6 323284928.00706       872.621 6        41.170
R07        59.000    19565897.300 8 104737846.27608     -1660.331 8        50.587                                                                    19565896.042 8  81462823.15108     -1291.342 8        48.085
> 2025 01 02 03 00  5.0000000  0 57
G09         1.000    20360940.841 8 106997501.14308      1026.020 8        50.022                                    20360937.967 8  83374682.28108       799.497 8        52.074    20360938.215 7  83374682.28107       799.503 7        44.548
G06         2.000    21577325.916 7 113389634.87807      1271.831 7        46.873                                    21577324.439 7  88355564.67307       991.034 7        47.205    21577325.158 7  88355572.67007       991.087 7        44.280
E11         3.000    26029153.911 6 136784141.52706      1938.832 6        39.453                                                                    26029149.354 6 102143991.99806      1447.891 6        41.521    26029149.307 6 104808614.10606      1485.762 6        41.828
R15         4.000    24542071.116 6 131145394.10306     -3669.237 6        40.381                                                                    24542071.160 6 102001959.24006     -2853.986 6        36.223
S21         5.000    38368437.677 7 201627233.08707      -476.283 7        42.148
E10         6.000    24361831.338 7 128022298.24307       736.682 7        47.601                                                                    24361829.651 8  95601064.10008       550.100 8        49.740    24361829.683 8  98095004.31608       564.475 8        50.391
G28         7.000    25525909.254 5 134139568.83305     -3853.461 5        34.905                                    25525905.685 2 104524320.53602     -3002.699 2        14.905    25525905.828 5 104524328.54105     -3002.904 5        35.167
G03         8.000    21021435.703 7 110468488.48007     -2611.511 7        47.827                                    21021433.216 8  86079383.41408     -2034.945 8        48.075    21021433.947 7  86079381.41307     -2034.968 7        44.203
G02         9.000    24866918.552 6 130676582.32606     -4040.661 6        37.871                                    24866912.515 2 101825901.23902     -3148.558 2        17.358
G31        10.000    23163938.345 7 121727328.44507     -3069.399 7        43.896                                    23163932.968 6  94852448.01506     -2391.736 6        36.798    23163933.753 6  94852453.01506     -2391.676 6        37.841
C30        11.000                                                                                                                                    25465488.946 7 132605493.18107     -3829.322 7        42.527                                                                    25465489.987 6 107752826.79806     -3111.599 6        41.914
S27        12.000    38996699.797 5 204929083.97905      -474.001 5        35.876
G26        13.000    24459295.441 6 128534469.23706      1035.807 6        37.406                                    24459294.660 4 100156735.51504       807.131 4        29.289    24459294.427 5 100156735.52305       807.049 5        34.805
S36        14.000    38135869.897 7 200405843.84307      -476.353 7        44.686
I09        15.000    37395214.122 7 146746853.50807      -630.807 7        43.202
G19        16.000    23078663.856 7 121279219.49907     -2768.193 7        42.091                                    23078657.532 4  94503271.98104     -2157.029 4        28.455
S45        17.000    63327535.455 6 332788648.20106      -516.341 6        37.720
E12        19.000    23868958.400 7 125432232.56607      -659.789 7        45.454                                                                    23868953.911 8  93666916.52308      -492.652 8        48.104    23868953.957 8  96110400.64608      -505.506 8        48.337
G17        20.000    24373189.537 6 128081992.79406     -3332.680 6        40.832                                    24373185.295 5  99804138.51605     -2596.889 5        31.992    24373185.573 5  99804137.51705     -2597.065 5        34.557
G11        21.000    24554599.140 6 129035293.96606      2918.648 6        40.608                                    24554594.617 3 100546962.55803      2274.285 3        23.943    24554594.860 6 100546975.57406      2274.235 6        39.643
I06        22.000    37967126.011 7 148991400.97607      -291.005 7        42.692
S28        23.000    40800649.966 5 214408882.50405      -471.948 5        34.795
R08        24.000    20373790.957 8 109100765.73208      1436.381 8        49.915                                                                    20373788.557 7  84856155.48207      1117.246 7        46.787
S23        25.000    38080254.776 7 200113098.29407      -472.323 7        44.587
C25        26.000                                                                                                                                    25952900.153 6 135143555.32406     -2284.535 6        39.300                                                                    25952897.774 6 109815204.16106     -1856.418 6        39.895
R16        27.000    22129894.074 7 118213937.58707      -778.637 7        46.092                                                                    22129893.701 7  91944175.96007      -605.588 7        44.047
R24        29.000    23192731.589 7 124021960.75607      3272.029 7        44.676                                                                    23192731.015 6  96461511.28106      2545.053 6        41.130
E19        30.000    22785492.417 7 119738605.60207      -252.051 7        43.336                                                                    22785489.736 7  89415195.37207      -188.193 7        45.815    22785489.756 7  91747762.38107      -193.126 7        46.540
C23        31.000                                                                                                                                    24529590.794 7 127732027.26107       290.725 7        46.106                                                                    24529582.300 7 103792702.76507       236.288 7        45.714
R23        32.000    19932368.984 8 106624750.63108      -442.832 8        49.283
E29        33.000    24660366.933 7 129591187.81907     -2422.876 7        45.618                                                                    24660364.836 8  96772655.55308     -1809.222 8        48.349    24660364.754 8  99297154.06208     -1856.467 8        48.826
E04        34.000    26244416.707 7 137915371.87207      2042.436 7        42.409                                                                    26244414.733 7 102988761.60607      1525.209 7        44.319    26244414.579 7 105675420.61407      1564.961 7        44.805
C16        35.000                                                                                                                                    38939424.142 7 202767833.40507     -1107.350 7        42.415    38939423.330 7 156792963.43407      -856.166 7        43.154    38939421.488 6 164765474.44806      -899.823 6        39.234
C32        36.000                                                                                                                                    22940277.144 8 119456100.39808     -2290.681 8        49.704                                                                    22940276.772 8  97067888.12208     -1861.315 8        49.471
I01        37.000   379957928.083 7 187895714.50607     -2737.898 7        42.391
E27        38.000    28517357.999 5 149859722.04905      1701.219 5        35.871                                                                    28517358.311 6 111908242.69706      1270.542 6        40.820    28517357.656 6 114827584.78706      1303.557 6        39.330
C19        39.000                                                                                                                                    25362892.343 7 132071232.68007      2155.460 7        43.767                                                                    25362886.471 7 107318672.32107      1751.414 7        43.064
C39        40.000                                                                                                                                    39538249.412 6 205886070.69406     -1450.136 6        41.285                                                                    39538245.854 6 167299292.69206     -1178.503 6        41.242
E33        41.000    25406685.145 7 133513117.83007     -3270.965 7        44.421                                                                    25406683.037 7  99701386.82007     -2442.668 7        46.897    25406682.617 7 102302288.53707     -2506.358 7        47.185
S44        42.000    40627690.356 6 213500133.97306      -554.236 6        38.583
R06        43.000    22473806.847 6 119924599.61906     -3726.241 6        36.246
C05        44.000                                                                                                                                    39072123.292 6 203458840.32706      -503.455 6        39.477    39072117.338 7 157327308.22807      -389.267 7        43.888    39072118.594 6 165327079.21406      -409.042 6        39.979
C29        45.000                                                                                                                                    23277038.111 7 121209670.63807     -2025.793 7        46.816                                                                    23277035.360 7  98492784.74607     -1646.093 7        46.707
G04        46.000    20006589.959 8 105135375.76808      -854.343 8        49.189                                    20006585.991 7  81923656.24807      -665.720 7        42.527    20006586.072 8  81923658.24908      -665.743 8        48.796
E30        47.000    28613410.649 5 150364508.14305       -77.023 5        35.757                                                                    28613410.388 6 112285176.95106       -57.435 6        39.595    28613410.120 6 115214353.99406       -59.158 6        40.093
R22        48.000    20847501.591 8 111285406.09208     -3958.668 8        50.011                                                                    20847499.256 7  86555313.36607     -3078.918 7        46.906
C20        49.000                                                                                                                                    22107678.027 8 115120508.44708       499.127 8        51.783                                                                    22107671.939 8  93544827.40908       405.572 8        49.231
C06        50.000                                                                                                                                    38403469.519 6 199976975.76906     -1037.627 6        40.398    38403463.241 7 154634866.45007      -802.382 7        43.399    38403463.213 6 162497654.64006      -843.104 6        41.216
S48        51.000    77114459.514 6 405238195.14106      -466.500 6        37.784
E06        52.000    28660590.007 5 150612418.19605      2307.968 5        34.252                                                                    28660591.329 6 112470316.43806      1723.806 6        36.809    28660591.222 6 115404323.40506      1768.699 6        37.845
C09        53.000                                                                                                                                    38394308.597 7 199929263.54207      -546.210 7        42.172    38394305.008 7 154597979.59507      -422.445 7        45.875    38394303.210 7 162458883.33607      -443.826 7        42.315
C60        54.000                                                                                                                                    40627686.741 6 211559243.22606      -549.245 6        39.790                                                                    40627670.739 6 171909186.60906      -446.308 6        39.742
R09        55.000    22171749.054 7 118395920.87107      2575.139 7        45.539                                                                    22171747.719 7  92085709.59007      2002.900 7        44.742
G07        56.000    24169130.580 6 127009648.34706      2915.741 6        41.242                                    24169126.189 5  98968538.53005      2272.004 5        34.348    24169126.520 6  98968547.54306      2272.040 6        37.679
C02        57.000                                                                                                                                    40575152.689 5 211285521.57405      -545.945 5        34.795    40575144.275 6 163379364.77506      -422.026 6        39.117    40575147.450 5 171686799.18005      -443.581 5        35.952
I03        58.000   101693156.953 6 323280565.95606       872.442 6        41.187
R07        59.000    19567449.517 8 104746153.58108     -1662.554 8        50.658                                                                    19567447.834 8  81469284.38908     -1293.106 8        48.075
> 2025 01 02 03 00 10.0000000  0 57
G09         1.000    20359965.728 8 106992376.39408      1023.731 8        50.005                                    20359962.764 8  83370688.97308       797.713 8        52.131    20359963.291 7  83370688.97707       797.727 7        44.916
G06         2.000    21576117.267 7 113383282.59707      1269.076 7        46.497                                    21576115.634 7  88350614.84307       988.889 7        47.271    21576116.515 7  88350622.84107       988.948 7        44.218
E11         3.000    26027309.365 6 136774450.28406      1937.796 6        39.441                                                                    26027305.222 6 102136755.04206      1447.023 6        41.564    26027305.074 6 104801188.36606      1484.722 6        41.945
R15         4.000    24545505.542 6 131163746.69806     -3671.850 6        40.815                                                                    24545505.685 6 102016233.45706     -2855.646 6        37.221
S21         5.000    38368892.298 7 201629614.02807      -476.128 7        42.174
E10         6.000    24361130.974 7 128018619.60207       734.685 7        47.430                                                                    24361129.652 8  95598317.06008       548.645 8        49.655    24361129.629 8  98092185.61708       562.958 8        50.392
G28         7.000    25529576.614 5 134158839.26505     -3854.584 5        34.290                                    25529572.648 2 104539336.44402     -3003.601 2        14.952    25529573.054 5 104539344.42905     -3003.629 5        35.552
G03         8.000    21023920.722 7 110481550.05807     -2613.164 7        47.957                                    21023918.803 8  86089561.26308     -2036.230 8        48.107    21023919.230 7  86089559.26607     -2036.250 7        44.218
G02         9.000    24870762.962 6 130696785.75806     -4040.819 6        37.739                                    24870757.220 2 101841644.17502     -3148.679 2        17.509
G31        10.000    23166860.168 7 121742681.45607     -3071.825 7        43.642                                    23166854.498 6  94864411.40106     -2393.630 6        36.885    23166855.295 6  94864416.40506     -2393.710 6        38.318
C30        11.000                                                                                                                                    25469166.081 7 132624640.33007     -3829.389 7        42.609                                                                    25469167.063 7 107768385.44007     -3111.662 7        42.034
S27        12.000    38997151.614 5 204931454.97205      -474.154 5        35.757
G26        13.000    24458311.411 6 128529296.79606      1033.097 6        37.043                                    24458310.067 4 100152705.03604       805.016 4        29.090    24458310.223 5 100152705.05705       805.040 5        34.162
S36        14.000    38136321.039 7 200408225.58307      -476.419 7        44.716
I09        15.000    37396017.354 7 146750007.57707      -630.791 7        43.300
G19        16.000    23081298.970 7 121293065.60207     -2770.379 7        43.450                                    23081292.355 4  94514061.15104     -2158.738 4        28.531
S45        17.000    63327983.883 6 332791229.36906      -516.344 6        37.539
E12        19.000    23869586.743 7 125435536.79007      -662.029 7        45.451                                                                    23869582.681 8  93669383.96708      -494.355 8        48.025    23869582.767 8  96112932.45908      -507.279 8        48.383
G17        20.000    24376360.925 6 128098656.93506     -3333.111 6        41.161                                    24376356.293 5  99817123.55805     -2597.232 5        32.216    24376356.440 5  99817122.56705     -2597.100 5        34.476
G11        21.000    24551821.983 6 129020703.22106      2917.594 6        40.546                                    24551818.102 4 100535593.14304      2273.449 4        24.090    24551817.956 6 100535606.16606      2273.324 6        38.640
I06        22.000    37967496.742 7 148992855.90907      -290.999 7        42.669
S28        23.000    40801101.922 5 214411241.79905      -471.718 5        34.576
R08        24.000    20372450.441 8 109093588.23308      1434.571 8        50.438                                                                    20372448.679 7  84850572.97707      1115.750 7        46.730
S23        25.000    38080703.329 7 200115459.43507      -472.296 7        44.567
C25        26.000                                                                                                                                    25955094.533 6 135154982.87306     -2286.532 6        39.072                                                                    25955092.314 6 109824489.98706     -1858.019 6        40.024
R16        27.000    22130624.878 7 118217841.61307      -782.987 7        46.340                                                                    22130624.379 7  91947212.42707      -609.031 7        43.924
R24        29.000    23189673.129 7 124005605.18307      3269.993 7        44.120                                                                    23189672.637 6  96448790.30406      2543.215 6        40.984
E19        30.000    22785733.036 7 119739869.58207      -253.680 7        43.458                                                                    22785730.299 7  89416139.25507      -189.346 7        45.804    22785730.330 7  91748730.88507      -194.297 7        46.543
C23        31.000                                                                                                                                    24529312.430 7 127730579.80107       288.129 7        45.977                                                                    24529304.239 7 103791526.58207       234.257 7        45.908
R23        32.000    19932784.737 8 106626976.53808      -447.545 8        49.105
E29        33.000    24662672.770 7 129603304.34707     -2423.767 7        45.676                                                                    24662670.562 8  96781703.61608     -1809.919 8        48.272    24662670.576 8  99306438.16308     -1857.169 8        48.835
E04        34.000    26242473.432 7 137905161.58407      2041.579 7        42.070                                                                    26242471.855 7 102981137.04507      1524.590 7        44.340    26242471.448 7 105667597.14807      1564.304 7        45.002
C16        35.000                                                                                                                                    38940488.101 7 202773371.04107     -1107.722 7        42.521    38940486.744 7 156797245.50807      -856.651 7        43.264    38940485.049 6 164769974.24506      -899.922 6        39.123
C32        36.000                                                                                                                                    22942477.260 8 119467556.18408     -2291.674 8        49.649                                                                    22942476.730 8  97077196.88708     -1862.010 8        49.547
I01        37.000   379961416.695 7 187909404.07607     -2738.042 7        42.472
E27        38.000    28515739.526 6 149851217.85806      1700.210 6        36.064                                                                    28515740.119 6 111901892.15106      1269.759 6        40.698    28515739.440 6 114821068.57606      1302.755 6        39.153
C19        39.000                                                                                                                                    25360822.599 7 132060456.34707      2155.077 7        43.642                                                                    25360816.970 7 107309915.67507      1751.247 7        43.149
C39        40.000                                                                                                                                    39539642.137 6 205893322.59706     -1450.429 6        41.130                                                                    39539638.487 6 167305185.45906     -1178.612 6        41.240
E33        41.000    25409797.895 7 133529475.72307     -3272.162 7        44.399                                                                    25409795.751 7  99713602.12207     -2443.499 7        46.814    25409795.602 7 102314822.50207     -2507.261 7        47.310
S44        42.000    40628215.517 6 213502905.05406      -554.165 6        38.444
R06        43.000    22477298.290 5 119943232.27905     -3726.776 5        35.600
C05        44.000                                                                                                                                    39072606.871 6 203461357.47806      -503.292 6        39.387    39072600.443 7 157329254.66407      -389.323 7        43.962    39072601.963 6 165329124.61206      -408.828 6        40.000
C29        45.000                                                                                                                                    23278984.321 7 121219805.67707     -2028.236 7        46.666                                                                    23278981.775 7  98501020.29607     -1648.015 7        46.732
G04        46.000    20007403.877 8 105139653.37708      -856.780 8        49.172                                    20007400.005 7  81926989.44807      -667.618 7        42.561    20007400.171 8  81926991.44608      -667.540 8        48.821
E30        47.000    28613484.876 5 150364898.74005       -79.146 5        35.514                                                                    28613484.735 6 112285468.62806       -59.090 6        39.369    28613484.493 6 115214653.26706       -60.629 6        40.215
R22        48.000    20851211.298 8 111305206.29008     -3961.484 8        50.253                                                                    20851208.651 7  86570713.51907     -3081.140 7        47.062
C20        49.000                                                                                                                                    22107199.487 8 115118016.01308       497.867 8        51.753                                                                    22107193.361 8  93542802.09808       404.648 8        49.311
C06        50.000                                                                                                                                    38404465.608 6 199982165.32406     -1038.266 6        40.377    38404459.885 7 154638879.34607      -802.824 7        43.524    38404459.911 6 162501871.58006      -843.553 6        41.211
S48        51.000    77114911.184 6 405240527.25006      -466.509 6        37.641
E06        52.000    28658393.877 5 150600877.07205      2308.444 5        33.299                                                                    28658395.163 5 112461698.13105      1723.531 5        35.967    28658395.073 6 115395480.28906      1768.430 6        36.983
C09        53.000                                                                                                                                    38394833.763 7 199931996.18407      -546.897 7        42.292    38394829.864 7 154600092.65707      -422.932 7        45.985    38394827.972 7 162461103.83307      -444.298 7        42.428
C60        54.000                                                                                                                                    40628214.192 6 211561989.11306      -549.145 6        39.859                                                                    40628198.252 6 171911417.84406      -445.803 6        39.405
R09        55.000    22169338.432 7 118383051.35907      2572.613 7        45.591                                                                    22169337.341 7  92075699.97807      2000.918 7        44.751
G07        56.000    24166356.387 6 126995070.18706      2915.421 6        41.271                                    24166352.079 5  98957178.93605      2271.753 5        34.276    24166352.430 6  98957187.92106      2271.860 6        37.550
C02        57.000                                                                                                                                    40575676.548 5 211288250.97905      -546.008 5        34.767    40575667.786 6 163381475.30806      -422.074 6        39.216    40575671.770 6 171689017.02706      -443.418 6        36.117
I03        58.000   101692045.837 6 323276204.01906       872.380 6        41.106
R07        59.000    19569003.457 8 104754470.76008     -1664.417 8        50.898                                                                    19569001.408 8  81475753.30208     -1294.538 8        48.021
> 2025 01 02 03 00 15.0000000  0 57
G09         1.000    20358992.817 8 106987263.35108      1021.477 8        50.242                                    20358989.771 8  83366704.78108       795.953 8        52.155    20358990.108 7  83366704.78707       795.940 7        44.916
G06         2.000    21574911.158 7 113376944.63607      1266.128 7        46.312                                    21574909.571 7  88345676.17607       986.591 7        47.334    21574910.414 7  88345684.17807       986.535 7        44.342
E11         3.000    26025466.419 6 136764765.55606      1936.368 6        39.550                                                                    26025462.215 6 102129522.93406      1446.101 6        41.490    26025462.060 6 104793767.59106      1483.739 6        41.933
R15         4.000    24548943.297 6 131182112.01906     -3674.205 6        41.182                                                                    24548942.620 6 102030517.63006     -2857.822 6        36.450
S21         5.000    38369345.107 7 201631994.99407      -476.158 7        42.104
E10         6.000    24360432.795 7 128014951.49607       732.655 7        47.699                                                                    24360431.588 8  95595577.88808       547.045 8        49.578    24360431.623 8  98089374.98708       561.338 8        50.445
G28         7.000    25533244.787 5 134178115.69805     -3856.193 5        34.052                                    25533240.899 2 104554357.02702     -3004.848 2        14.286    25533241.753 5 104554365.01705     -3004.490 5        35.700
G03         8.000    21026408.267 8 110494620.40708     -2614.895 8        48.029                                    21026406.040 8  86099745.95308     -2037.582 8        48.162    21026406.124 7  86099743.94907     -2037.523 7        43.915
G02         9.000    24874607.966 6 130716990.64706     -4041.107 6        37.467                                    24874602.158 2 101857388.22302     -3148.938 2        17.245
G31        10.000    23169783.786 7 121758047.69207     -3074.580 7        42.500                                    23169778.675 6  94876385.09506     -2395.778 6        36.790    23169779.378 6  94876390.10006     -2395.796 6        38.730
C30        11.000                                                                                                                                    25472843.449 7 132643788.86507     -3829.782 7        42.707                                                                    25472844.157 6 107783945.19006     -3111.988 6        41.762
S27        12.000    38997606.230 5 204933826.40505      -474.395 5        35.990
G26        13.000    24457329.335 6 128524136.96706      1030.604 6        37.456                                    24457328.023 4 100148684.38304       803.071 4        29.194    24457329.044 5 100148684.36705       803.183 5        35.029
S36        14.000    38136774.355 7 200410607.88507      -476.524 7        44.611
I09        15.000    37396821.613 7 146753162.46407      -631.104 7        43.304
G19        16.000    23083936.346 7 121306923.50207     -2772.783 7        42.844                                    23083929.472 4  94524859.51004     -2160.617 4        28.588
S45        17.000    63328433.406 6 332793810.94606      -516.190 6        37.690
E12        19.000    23870217.740 7 125438852.96007      -664.359 7        45.475                                                                    23870213.662 7  93671860.32307      -496.101 7        47.944    23870213.764 8  96115473.42308      -509.093 8        48.464
G17        20.000    24379532.428 6 128115324.28306     -3333.710 6        41.359                                    24379527.992 5  99830111.10905     -2597.696 5        32.527    24379528.991 5  99830110.12705     -2597.866 5        35.481
G11        21.000    24549046.512 6 129006118.29206      2916.466 6        40.119                                    24549042.593 3 100524228.27903      2272.572 3        23.886    24549042.743 6 100524241.27006      2272.484 6        38.339
I06        22.000    37967867.582 7 148994311.22607      -291.112 7        42.645
S28        23.000    40801545.060 5 214413601.54205      -471.629 5        34.843
R08        24.000    20371112.134 8 109086420.29508      1432.636 8        50.595                                                                    20371109.522 7  84844997.91007      1114.271 7        46.772
S23        25.000    38081153.746 7 200117820.69407      -472.278 7        44.620
C25        26.000                                                                                                                                    25957291.053 6 135166421.90406     -2288.851 6        39.532                                                                    25957289.148 6 109833785.12406     -1859.914 6        40.124
R16        27.000    22131360.349 7 118221768.13107      -787.631 7        46.207                                                                    22131359.688 7  91950266.38607      -612.550 7        43.771
R24        29.000    23186615.846 7 123989260.51007      3267.763 7        43.346                                                                    23186615.782 6  96436077.79206      2541.638 6        41.118
E19        30.000    22785975.169 7 119741142.07707      -255.412 7        43.363                                                                    22785972.428 7  89417089.49307      -190.777 7        45.610    22785972.429 7  91749705.91107      -195.737 7        46.626
C23        31.000                                                                                                                                    24529037.219 7 127729145.89407       285.446 7        46.200                                                                    24529028.893 7 103790361.42207       231.969 7        45.913
R23        32.000    19933205.894 8 106629226.71208      -452.406 8        49.547
E29        33.000    24664979.368 7 129615425.85907     -2424.804 7        45.827                                                                    24664977.177 8  96790755.38908     -1810.710 8        48.221    24664977.249 8  99315726.06808     -1857.964 8        48.880
E04        34.000    26240531.708 7 137894955.77107      2040.717 7        42.286                                                                    26240529.775 7 102973515.82107      1523.891 7        44.160    26240529.453 7 105659777.10907      1563.591 7        44.950
C16        35.000                                                                                                                                    38941552.596 7 202778911.90807     -1108.523 7        42.650    38941550.871 7 156801530.04107      -857.125 7        43.073    38941548.999 6 164774476.65306      -900.673 6        39.084
C32        36.000                                                                                                                                    22944678.175 8 119479017.26208     -2292.732 8        49.678                                                                    22944677.778 8  97086509.95308     -1862.980 8        49.492
I01        37.000   379964905.510 7 187923094.40507     -2737.998 7        42.516
E27        38.000    28514122.975 5 149842719.71705      1699.123 5        35.667                                                                    28514122.950 6 111895546.16806      1268.666 6        40.551    28514122.397 6 114814557.01606      1301.979 6        39.153
C19        39.000                                                                                                                                    25358753.000 7 132049682.77207      2154.431 7        43.862                                                                    25358747.967 7 107301161.25607      1750.682 7        43.098
C39        40.000                                                                                                                                    39541034.886 6 205900576.97806     -1450.988 6        41.354                                                                    39541031.539 6 167311080.23106     -1179.113 6        41.404
E33        41.000    25412912.097 7 133545839.94807     -3273.419 7        44.465                                                                    25412909.933 7  99725822.16807     -2444.498 7        46.681    25412909.823 7 102327361.32207     -2508.238 7        47.449
S44        42.000    40628743.321 6 213505676.43006      -554.322 6        38.676
R06        43.000    22480789.696 5 119961867.32905     -3727.520 5        34.943
C05        44.000                                                                                                                                    39073090.500 6 203463875.06906      -503.303 6        39.339    39073083.768 7 157331201.41707      -389.390 7        43.790    39073085.449 6 165331170.36206      -409.003 6        39.751
C29        45.000                                                                                                                                    23280933.185 7 121229953.29707     -2030.791 7        46.648                                                                    23280930.483 7  98509266.07107     -1650.177 7        46.760
G04        46.000    20008220.232 8 105143943.43308      -859.263 8        49.133                                    20008216.367 7  81930332.35307      -669.556 7        42.557    20008216.577 8  81930334.34708      -669.519 8        48.956
E30        47.000    28613562.039 5 150365301.17205       -81.665 5        35.671                                                                    28613561.465 6 112285769.14206       -60.873 6        39.258    28613561.159 6 115214961.62806       -62.583 6        40.303
R22        48.000    20854923.023 8 111325020.93808     -3964.349 8        50.600                                                                    20854920.555 7  86586124.91907     -3083.391 7        47.152
C20        49.000                                                                                                                                    22106722.161 8 115115530.79808       496.361 8        51.989                                                                    22106716.093 8  93540782.66608       403.381 8        49.299
C06        50.000                                                                                                                                    38405463.065 6 199987358.29106     -1038.915 6        40.579    38405457.331 7 154642894.87907      -803.284 7        43.630    38405457.119 6 162506091.30006      -844.236 6        41.349
S48        51.000    77115355.073 6 405242859.66106      -466.604 6        37.554
E06        52.000    28656198.389 5 150589337.78105      2307.629 5        35.119                                                                    28656199.362 5 112453081.12205      1723.203 5        34.843    28656198.975 6 115386638.44306      1768.467 6        36.144
C09        53.000                                                                                                                                    38395359.254 7 199934732.64907      -547.628 7        42.178    38395355.431 7 154602208.66007      -423.582 7        45.986    38395353.602 7 162463327.43207      -444.965 7        42.307
C60        54.000                                                                                                                                    40628741.432 6 211564735.30306      -549.340 6        39.892                                                                    40628725.608 6 171913649.35706      -446.172 6        39.577
R09        55.000    22166930.864 7 118370195.08807      2569.904 7        45.472                                                                    22166930.051 7  92065700.65707      1998.838 7        44.545
G07        56.000    24163582.423 6 126980494.48506      2914.928 6        41.244                                    24163578.385 5  98945821.25405      2271.369 5        34.248    24163578.533 6  98945830.25206      2271.309 6        37.762
C02        57.000                                                                                                                                    40576200.323 5 211290980.72105      -545.956 5        34.695    40576192.499 6 163383586.14106      -422.191 6        39.450    40576195.772 6 171691235.19306      -443.579 6        36.026
I03        58.000   101690934.339 6 323271842.43006       872.322 6        41.247
R07        59.000    19570558.630 8 104762798.02608     -1666.427 8        51.163                                                                    19570556.693 7  81482230.06307     -1296.137 7        47.592
> 2025 01 02 03 00 20.0000000  0 57
G09         1.000    20358021.789 8 106982161.83708      1019.223 8        49.927                                    20358018.981 8  83362729.57808       794.200 8        52.029    20358019.105 7  83362729.57807       794.257 7        45.204
G06         2.000    21573707.679 7 113370620.78707      1263.444 7        46.348                                    21573706.185 7  88340748.50407       984.506 7        47.154    21573706.758 7  88340756.50807       984.490 7        44.295
E11         3.000    26023624.628 6 136755087.12206      1935.212 6        39.273                                                                    26023620.323 6 102122295.53806      1445.101 6        41.364    26023620.357 6 104786351.65906      1482.819 6        41.850
R15         4.000    24552382.414 6 131200489.73206     -3676.729 6        40.920                                                                    24552381.713 6 102044811.36606     -2859.747 6        36.609
S21         5.000    38369797.095 7 201634376.00407      -476.130 7        42.197
E10         6.000    24359737.114 7 128011293.73707       730.594 7        47.427                                                                    24359735.558 8  95592846.45008       545.578 8        49.533    24359735.525 8  98086572.29308       559.851 8        50.509
G28         7.000    25536913.268 5 134197397.87905     -3856.664 5        34.190                                    25536910.210 2 104569382.10902     -3005.159 2        14.286    25536910.428 5 104569390.14305     -3005.604 5        35.581
G03         8.000    21028897.180 7 110507699.37107     -2616.600 7        46.910                                    21028894.882 7  86109937.35407     -2038.907 7        47.937    21028895.244 7  86109935.35307     -2038.898 7        43.945
G02         9.000    24878453.491 6 130737196.75806     -4041.229 6        36.926                                    24878447.123 2 101873133.24202     -3149.031 2        16.302
G31        10.000    23172710.571 6 121773426.95806     -3077.078 6        41.666                                    23172705.361 6  94888368.94206     -2397.719 6        36.503    23172706.151 6  94888373.93506     -2397.776 6        38.492
C30        11.000                                                                                                                                    25476521.273 7 132662938.55707     -3829.997 7        42.411                                                                    25476521.604 6 107799505.87806     -3112.181 6        41.492
S27        12.000    38998052.588 6 204936197.71906      -474.257 6        36.064
G26        13.000    24456350.317 6 128518989.56406      1028.302 6        38.078                                    24456348.634 4 100144673.41804       801.277 4        29.498    24456349.318 6 100144673.44006       801.160 6        36.567
S36        14.000    38137228.591 7 200412989.79007      -476.247 7        44.647
I09        15.000    37397625.895 7 146756318.02707      -631.139 7        43.196
G19        16.000    23086575.245 7 121320792.96507     -2774.917 7        42.362                                    23086568.696 4  94535666.88304     -2162.274 4        28.502
S45        17.000    63328880.376 6 332796392.59306      -516.357 6        37.573
