     3.04           OBSERVATION DATA    M                   RINEX VERSION / TYPE
ssrcrin-15.6.1x                         20250102 081500 UTC PGM / RUN BY / DATE 
(00000000023479385599111004) Septentrio proprietary         COMMENT             
rref                                                        MARKER NAME         
01                                                          MARKER NUMBER       
geodetic                                                    MARKER TYPE         
NFB                 CLIMERS@TUW                             OBSERVER / AGENCY   
3297213             SEPT ASTERX SB3 PROB4.14.4              REC # / TYPE / VERS 
Unknown             Unknown                                 ANT # / TYPE        
  4127831.8465  1207193.2261  4695248.0430                  APPROX POSITION XYZ 
        0.0000        0.0000        0.0000                  ANTENNA: DELTA H/E/N
G   23 X1  C1C L1C D1C S1C C1W S1W C2W L2W D2W S2W C2L L2L  SYS / # / OBS TYPES 
       D2L S2L C5Q L5Q D5Q S5Q C1L L1L D1L S1L              SYS / # / OBS TYPES 
E   21 X1  C1C L1C D1C S1C C6C L6C D6C S6C C5Q L5Q D5Q S5Q  SYS / # / OBS TYPES 
       C7Q L7Q D7Q S7Q C8Q L8Q D8Q S8Q                      SYS / # / OBS TYPES 
S    9 X1  C1C L1C D1C S1C C5I L5I D5I S5I                  SYS / # / OBS TYPES 
R   17 X1  C1C L1C D1C S1C C2P L2P D2P S2P C2C L2C D2C S2C  SYS / # / OBS TYPES 
       C3Q L3Q D3Q S3Q                                      SYS / # / OBS TYPES 
C   25 X1  C1P L1P D1P S1P C5P L5P D5P S5P C2I L2I D2I S2I  SYS / # / OBS TYPES 
       C7I L7I D7I S7I C6I L6I D6I S6I C7D L7D D7D S7D      SYS / # / OBS TYPES 
J   17 X1  C1C L1C D1C S1C C2L L2L D2L S2L C5Q L5Q D5Q S5Q  SYS / # / OBS TYPES 
       C1L L1L D1L S1L                                      SYS / # / OBS TYPES 
I    5 X1  C5A L5A D5A S5A                                  SYS / # / OBS TYPES 
SEPTENTRIO RECEIVERS OUTPUT ALIGNED CARRIER PHASES.         COMMENT             
NO FURTHER PHASE SHIFT APPLIED IN THE RINEX ENCODER.        COMMENT             
G L1C                                                       SYS / PHASE SHIFT   
G L2W                                                       SYS / PHASE SHIFT   
G L2L  0.00000                                              SYS / PHASE SHIFT   
G L5Q  0.00000                                              SYS / PHASE SHIFT   
G L1L  0.00000                                              SYS / PHASE SHIFT   
E L1C  0.00000                                              SYS / PHASE SHIFT   
E L6C  0.00000                                              SYS / PHASE SHIFT   
E L5Q  0.00000                                              SYS / PHASE SHIFT   
E L7Q  0.00000                                              SYS / PHASE SHIFT   
E L8Q  0.00000                                              SYS / PHASE SHIFT   
S L1C                                                       SYS / PHASE SHIFT   
S L5I                                                       SYS / PHASE SHIFT   
R L1C                                                       SYS / PHASE SHIFT   
R L2P  0.00000                                              SYS / PHASE SHIFT   
R L2C                                                       SYS / PHASE SHIFT   
R L3Q  0.00000                                              SYS / PHASE SHIFT   
C L1P  0.00000                                              SYS / PHASE SHIFT   
C L5P  0.00000                                              SYS / PHASE SHIFT   
C L2I                                                       SYS / PHASE SHIFT   
C L7I                                                       SYS / PHASE SHIFT   
C L6I                                                       SYS / PHASE SHIFT   
C L7D                                                       SYS / PHASE SHIFT   
J L1C                                                       SYS / PHASE SHIFT   
J L2L  0.00000                                              SYS / PHASE SHIFT   
J L5Q  0.00000                                              SYS / PHASE SHIFT   
J L1L  0.00000                                              SYS / PHASE SHIFT   
I L5A                                                       SYS / PHASE SHIFT   
  2025     1     2     8    15    0.0000000     GPS         TIME OF FIRST OBS   
 C1C    0.000 C2C    0.000 C2P    0.000                     GLONASS COD/PHS/BIS 
DBHZ                                                        SIGNAL STRENGTH UNIT
    18                                                      LEAP SECONDS        
 24 R01  1 R02 -4 R03  5 R04  6 R05  1 R06 -4 R07  5 R08  6 GLONASS SLOT / FRQ #
    R09 -2 R10 -7 R11  0 R12 -1 R13 -2 R14 -7 R15  0 R16 -1 GLONASS SLOT / FRQ #
    R17  4 R18 -3 R19  3 R20  2 R21  4 R22 -3 R23  3 R24  2 GLONASS SLOT / FRQ #
                                                            END OF HEADER       
> 2025 01 02 08 15  0.0000000  0 54
E24         1.000    28167212.973 6 148019746.86206      2713.473 6        38.517                                                                    28167220.905 6 110534273.13106      2026.308 6        41.874    28167219.328 6 113417767.31806      2079.191 6        41.626
G15         2.000    22032948.050 7 115783877.96907      2482.010 7        46.448                                    22032945.966 7  90221180.65807      1934.034 7        42.969    22032946.487 6  90221175.66806      1934.061 6        41.795
E15         3.000    28784672.725 6 151264465.66806       537.210 6        36.450                                                                    28784676.525 6 112957229.96206       401.247 6        40.584    28784675.583 6 115903936.60506       411.733 6        41.271
G08         4.000    24617299.921 6 129364804.66006     -1882.330 6        38.273                                    24617305.857 4 100803766.03704     -1466.736 4        29.630    24617306.900 6 100803762.02006     -1466.735 6        36.427
S21         5.000    38598774.456 7 202837580.64907      -505.989 7        42.313
E05         6.000    25604494.455 6 134552485.54306      2065.884 6        40.262                                                                    25604497.801 7 100477479.84207      1542.712 7        43.037    25604497.014 7 103098630.98107      1582.874 7        43.731
G20         7.000    23352009.730 6 122715547.85606     -3925.102 6        41.735                                    23352011.157 4  95622460.54804     -3058.520 4        26.766
R02         8.000    19287278.047 8 102920580.11008      -338.340 8        52.120                                                                    19287279.345 7  80049332.47107      -263.169 7        47.113
R20         9.000    24125182.385 5 129008216.88405      1066.059 5        31.532                                                                    24125188.634 6 100339745.51306       829.136 6        39.568
G24        10.000    25589842.895 5 134475521.76105      3078.964 5        35.024                                    25589844.943 3 104786133.26503      2399.198 3        23.829    25589844.750 5 104786138.29405      2398.798 5        31.026
G30        11.000    21514473.218 7 113059285.88407     -2386.112 7        47.712                                    21514473.839 8  88098125.92708     -1859.306 8        48.205    21514474.328 7  88098133.92307     -1859.347 7        44.274
S27        12.000    39287499.473 5 206457168.34005      -537.111 5        35.338
G13        13.000    20229354.642 8 106305947.60308       603.669 8        48.909                                    20229351.827 6  82835774.22006       470.389 6        40.293
S36        14.000    38367860.305 7 201624939.88007      -506.890 7        44.737
I09        15.000    39965234.184 6 156831977.48706     -1036.955 6        41.578
E09        16.000    23796788.387 8 125052955.75208       318.956 8        48.346                                                                    23796789.888 8  93383690.42608       238.197 8        50.751    23796789.390 8  95819784.03908       244.429 8        51.594
S45        17.000    63549245.885 6 333953619.23906      -553.330 6        36.922
E36        18.000    28574476.703 6 150159798.69806     -3226.722 6        36.284                                                                    28574483.157 6 112132311.70006     -2409.726 6        37.947    28574481.672 6 115057503.69106     -2472.515 6        38.691
R19        19.000    24272778.481 5 129842958.11905     -2562.677 5        32.479                                                                    24272779.525 6 100988960.49606     -1993.055 6        37.841
E21        20.000    28479505.240 6 149660690.75006     -3347.010 6        36.314                                                                    28479514.086 6 111759586.99706     -2499.577 6        40.393    28479512.551 6 114675054.87806     -2564.717 6        40.424
R03        21.000    21766808.455 8 116519391.01908      3117.616 8        48.992                                                                    21766808.901 7  90626183.26607      2424.906 7        44.671
I06        22.000    38205140.700 7 149925309.19107      -446.773 7        43.056
S28        23.000    41036868.285 5 215650033.95705      -514.142 5        35.395
S23        25.000    38300655.946 7 201271238.11707      -505.823 7        44.369
R01        26.000    21267800.997 7 113688513.92207     -3984.381 7        45.558                                                                    21267805.272 6  88424372.64006     -3099.064 6        40.198
C07        27.000                                                                                                                                    39237913.478 6 204322083.15306       174.298 6        40.453    39237912.528 7 157994781.74007       134.855 7        44.102    39237909.942 6 166028405.88106       141.799 6        40.734
C40        29.000                                                                                                                                    39255066.622 7 204411421.28507       266.517 7        42.878                                                                    39255068.717 7 166101025.08607       216.608 7        42.597
G14        31.000    20750760.403 8 109045983.65708       231.981 8        48.246                                    20750758.782 6  84970896.10406       180.763 6        40.269    20750758.827 7  84970882.10207       180.742 7        47.582
G23        32.000    25533218.880 5 134177952.10705      2843.533 5        35.919                                    25533216.021 3 104554231.92103      2215.752 3        18.746    25533216.463 6 104554226.90106      2215.741 6        36.643
I02        33.000    37860502.496 6 148572733.19806       183.006 6        41.912
E04        34.000    24442479.057 7 128446078.71607     -2125.888 7        46.816                                                                    24442480.467 8  95917522.45008     -1587.503 8        49.867    24442480.046 8  98419715.94608     -1628.919 8        50.485
R13        35.000    21289472.303 7 113684611.35907      2832.596 7        44.107
R12        36.000    19256210.312 8 102863208.70708      -360.497 8        51.731                                                                    19256211.998 7  80004719.76407      -280.362 7        47.533
I01        37.000   392777190.159 6 238201003.24806     -3174.744 6        39.378
C10        38.000                                                                                                                                    39327017.164 6 204786086.19006       507.082 6        40.195    39327018.540 7 158353590.54107       392.155 7        44.008    39327015.474 6 166405456.74306       412.169 6        40.844
C19        39.000                                                                                                                                    24130292.438 8 125652681.12508     -3440.369 8        48.089                                                                    24130291.265 7 102103055.75307     -2795.463 7        47.161
E34        40.000    27882744.571 6 146524773.47006     -1703.670 6        38.925                                                                    27882747.949 6 109417838.06406     -1272.205 6        40.474    27882747.379 6 112272217.54206     -1305.306 6        41.323
G05        41.000    21772616.841 7 114415832.54607     -2490.190 7        47.635                                    21772615.678 7  89155162.62407     -1940.409 7        46.703    21772616.107 7  89155171.61807     -1940.339 7        43.469
S44        42.000    41045946.000 6 215697929.68206      -516.144 6        38.003
C36        43.000                                                                                                                                    21621995.551 8 112591384.31908      -160.524 8        51.417                                                                    21622001.454 8  91489738.12208      -130.319 8        49.952
C05        44.000                                                                                                                                    39501873.873 6 205696551.53306      -563.492 6        38.501    39501875.252 7 159057618.14007      -435.771 7        42.603    39501875.945 6 167145378.55706      -457.882 6        39.922
G18        46.000    25357809.704 6 133256156.63406     -1720.493 6        39.120                                    25357808.023 3 103835943.92103     -1340.641 3        20.119    25357808.674 6 103835933.91006     -1340.586 6        37.327
R11        47.000    21924053.233 7 117155411.89107     -4183.879 7        47.945                                                                    21924055.688 7  91120863.68207     -3254.025 7        44.277
C45        50.000                                                                                                                                    24157152.923 7 125792636.76207      2250.648 7        46.571                                                                    24157148.574 7 102216804.89307      1828.954 7        46.684
S48        51.000    77315255.427 6 406293155.75306      -493.644 6        37.614
E06        52.000    23426229.309 8 123105655.34408      -927.514 8        48.592                                                                    23426231.204 8  91929549.04508      -692.628 8        50.653    23426230.852 8  94327710.26208      -710.702 8        51.158
C09        53.000                                                                                                                                    40946473.036 5 213218901.36705     -1145.364 5        35.938    40946477.362 6 164874333.04506      -885.839 6        40.112    40946473.570 6 173257772.51506      -930.753 6        37.127
C60        54.000                                                                                                                                    41045949.142 6 213737057.27706      -511.168 6        40.460                                                                    41045941.359 6 173678800.65806      -415.292 6        38.541
E31        55.000    24340061.879 7 127907887.52307      1368.033 7        47.794                                                                    24340065.288 8  95515661.32108      1021.623 8        49.230    24340064.444 8  98007370.46608      1048.215 8        50.026
G07        56.000    24167183.281 6 126999314.06306     -3240.016 6        41.487                                    24167185.084 5  98960460.68105     -2524.680 5        34.624    24167184.102 6  98960469.68606     -2524.771 6        38.580
C02        57.000                                                                                                                                    41082352.863 5 213926464.63905      -557.593 5        33.611    41082358.401 6 165421460.35406      -431.011 6        37.471    41082358.749 5 173832742.30205      -453.448 5        33.257
I03        58.000    96092512.693 6 301302183.24406       847.501 6        41.156
C21        59.000                                                                                                                                    24667416.281 7 128449662.68807      2173.359 7        45.767                                                                    24667411.952 7 104375840.06007      1766.127 7        45.986
C22        60.000                                                                                                                                    21833847.029 8 113694532.19408      -635.726 8        52.032                                                                    21833841.978 8  92386088.56808      -516.465 8        49.789
> 2025 01 02 08 15  5.0000000  0 54
E24         1.000    28164631.195 6 148006179.88906      2713.430 6        38.646                                                                    28164639.105 6 110524141.99206      2026.296 6        41.831    28164637.431 6 113407371.86906      2079.189 6        41.316
G15         2.000    22030587.030 7 115771471.74607      2480.582 7        46.347                                    22030585.146 7  90211513.47107      1932.922 7        42.940    22030585.371 6  90211508.47406      1932.893 6        41.425
E15         3.000    28784162.516 6 151261784.41506       535.214 6        36.287                                                                    28784166.563 6 112955227.70406       399.751 6        41.046    28784165.351 6 115901882.12906       410.176 6        41.259
G08         4.000    24619093.171 6 129374224.25306     -1885.257 6        38.015                                    24619098.401 4 100811105.91604     -1469.024 4        29.621    24619099.499 6 100811101.90406     -1469.113 6        36.132
S21         5.000    38599255.670 6 202840111.19206      -505.949 6        41.866
E05         6.000    25602528.214 6 134542156.15706      2065.928 6        39.937                                                                    25602532.216 7 100469766.33107      1542.844 7        43.145    25602531.477 7 103090716.25307      1583.018 7        43.814
G20         7.000    23355744.697 6 122735175.95706     -3925.981 6        41.900                                    23355746.321 4  95637755.13704     -3059.192 4        26.443
R02         8.000    19287597.119 8 102922281.18508      -341.928 8        52.166                                                                    19287598.154 7  80050655.51207      -265.970 7        46.648
R20         9.000    24124187.529 5 129002895.60805      1062.697 5        30.732                                                                    24124193.759 6 100335606.75006       826.284 6        38.955
G24        10.000    25586913.359 5 134460127.42005      3078.975 5        34.752                                    25586915.373 3 104774137.65503      2399.195 3        23.676    25586915.288 5 104774142.67205      2399.554 5        32.671
G30        11.000    21516744.254 7 113071219.75307     -2387.311 7        47.731                                    21516744.798 8  88107425.03308     -1860.240 8        48.172    21516745.281 7  88107433.03407     -1860.304 7        44.056
S27        12.000    39288015.879 5 206459854.33405      -537.234 5        35.800
G13        13.000    20228781.445 8 106302934.69608       601.627 8        48.970                                    20228778.485 6  82833426.49806       468.805 6        40.260
S36        14.000    38368339.368 7 201627474.23907      -506.572 7        44.473
I09        15.000    39966555.620 6 156837162.01306     -1036.738 6        41.697
E09        16.000    23796485.441 8 125051363.95508       317.838 8        48.528                                                                    23796486.964 8  93382501.74208       237.345 8        50.896    23796486.475 8  95818564.34808       243.511 8        51.648
S45        17.000    63549732.348 6 333956385.45906      -553.163 6        36.597
E36        18.000    28577546.757 5 150175934.24705     -3226.954 5        35.648                                                                    28577554.130 6 112144360.95906     -2409.953 6        38.285    28577552.541 6 115069867.27406     -2472.698 6        38.790
R19        19.000    24275176.082 5 129855779.27505     -2565.725 5        34.243                                                                    24275176.005 6 100998932.49706     -1995.572 6        38.724
E21        20.000    28482690.506 5 149677428.12005     -3347.878 5        35.781                                                                    28482699.156 6 111772085.62106     -2499.875 6        40.563    28482697.540 6 114687879.56506     -2565.067 6        40.367
R03        21.000    21763897.368 8 116503806.70608      3116.257 8        48.890                                                                    21763897.866 7  90614062.14707      2423.706 7        45.387
I06        22.000    38205709.859 7 149927543.07007      -446.642 7        43.192
S28        23.000    41037357.172 5 215652604.74505      -514.084 5        34.676
S23        25.000    38301135.929 7 201273767.39407      -505.686 7        44.140
R01        26.000    21271529.731 7 113708441.57907     -3986.527 7        45.848                                                                    21271533.615 6  88439871.88606     -3100.693 6        40.420
C07        27.000                                                                                                                                    39237746.539 6 204321213.02706       173.781 6        40.358    39237745.362 7 157994108.89307       134.422 7        43.824    39237742.767 6 166027698.82406       141.205 6        40.765
C40        29.000                                                                                                                                    39254811.346 7 204410091.16707       265.670 7        42.936                                                                    39254813.263 7 166099944.25307       215.872 7        42.495
G14        31.000    20750541.145 8 109044831.35608       229.107 8        48.344                                    20750539.516 6  84969998.20506       178.521 6        40.188    20750539.727 7  84969984.21307       178.516 7        47.659
G23        32.000    25530513.649 6 134163736.26706      2842.839 6        36.601                                    25530510.948 3 104543154.59003      2215.193 3        18.687    25530510.517 6 104543149.57806      2215.227 6        37.739
I02        33.000    37860269.269 7 148571819.19607       182.886 7        42.119
E04        34.000    24444502.557 7 128456711.08407     -2126.984 7        46.953                                                                    24444503.805 8  95925462.19708     -1588.310 8        50.001    24444503.283 8  98427862.82008     -1629.774 8        50.548
R13        35.000    21286821.608 7 113670454.40507      2830.412 7        44.227
R12        36.000    19256549.678 8 102865020.33208      -363.999 8        51.894                                                                    19256551.121 7  80006128.80507      -283.142 7        47.266
I01        37.000   392781235.258 6 238216876.56106     -3174.399 6        39.646
C10        38.000                                                                                                                                    39326530.315 6 204783552.18706       506.608 6        40.191    39326531.731 7 158351631.07407       391.735 7        43.543    39326528.707 6 166403397.62406       411.581 6        40.872
C19        39.000                                                                                                                                    24133596.915 7 125669886.40407     -3441.582 7        47.572                                                                    24133595.497 7 102117036.41507     -2796.596 7        47.118
E34        40.000    27884366.645 6 146533296.89506     -1705.609 6        38.793                                                                    27884369.767 6 109424202.95606     -1273.662 6        40.565    27884369.371 6 112278748.47706     -1306.956 6        41.201
G05        41.000    21774987.744 7 114428290.61507     -2492.912 7        47.334                                    21774986.376 7  89164870.19807     -1942.526 7        46.603    21774986.693 7  89164879.19707     -1942.593 7        43.109
S44        42.000    41046434.136 6 215700508.55206      -515.586 6        37.569
C36        43.000                                                                                                                                    21622150.586 8 112592192.07508      -162.483 8        51.335                                                                    21622156.537 8  91490394.47808      -132.069 8        49.916
C05        44.000                                                                                                                                    39502415.253 6 205699369.36706      -563.404 6        38.147    39502416.337 7 159059797.07107      -435.699 7        42.112    39502417.150 6 167147668.25306      -457.626 6        39.916
G18        46.000    25359448.232 6 133264765.32006     -1722.760 6        38.342                                    25359446.336 3 103842651.95803     -1342.419 3        19.731    25359446.922 6 103842641.98006     -1342.620 6        37.531
R11        47.000    21927968.620 7 117176334.51507     -4185.021 7        47.782                                                                    21927970.926 7  91137136.79107     -3254.906 7        44.086
C45        50.000                                                                                                                                    24154992.473 7 125781386.23707      2249.639 7        46.455                                                                    24154988.010 7 102207662.91907      1828.048 7        46.613
S48        51.000    77315732.831 6 406295625.72506      -493.605 6        37.875
E06        52.000    23427112.613 8 123110296.58008      -928.770 8        48.734                                                                    23427114.444 8  91933014.90208      -693.616 8        50.781    23427114.074 8  94331266.53308      -711.694 8        51.261
C09        53.000                                                                                                                                    40947572.807 6 213224629.01006     -1145.430 6        36.348    40947577.793 6 164878761.99706      -885.572 6        40.226    40947573.599 6 173262426.66406      -930.560 6        37.350
C60        54.000                                                                                                                                    41046439.862 6 213739612.70906      -510.802 6        40.455                                                                    41046431.985 6 173680877.14106      -415.280 6        38.360
E31        55.000    24338761.175 7 127901051.81107      1366.321 7        47.931                                                                    24338764.495 8  95510556.74308      1020.355 8        49.415    24338763.673 8  98002132.72108      1046.954 8        50.041
G07        56.000    24170265.932 6 127015515.10706     -3240.137 6        41.285                                    24170268.040 5  98973084.84305     -2524.776 5        34.671    24170267.414 6  98973093.84106     -2524.837 6        38.081
C02        57.000                                                                                                                                    41082888.577 5 213929252.46405      -557.401 5        33.293    41082894.048 6 165423616.07306      -430.999 6        37.119    41082894.445 5 173835007.59205      -452.857 5        33.102
I03        58.000    96091432.734 6 301297945.65906       847.571 6        40.982
C21        59.000                                                                                                                                    24665329.597 7 128438799.21707      2172.139 7        45.681                                                                    24665325.778 7 104367012.58607      1765.071 7        45.845
C22        60.000                                                                                                                                    21834458.736 8 113697717.42808      -638.273 8        51.957                                                                    21834453.703 8  92388676.81608      -518.675 8        49.629
> 2025 01 02 08 15 10.0000000  0 54
E24         1.000    28162049.540 6 147992613.91906      2713.191 6        38.336                                                                    28162057.410 6 110514011.62506      2026.081 6        41.833    28162055.712 6 113396977.22906      2078.898 6        41.442
G15         2.000    22028227.418 7 115759073.78907      2479.002 7        45.843                                    22028225.918 7  90201852.72607      1931.690 7        42.817    22028226.488 7  90201847.73007      1931.637 7        42.030
E15         3.000    28783654.301 5 151259114.37405       533.115 5        35.795                                                                    28783658.522 6 112953233.83806       397.980 6        41.201    28783657.362 6 115899836.24406       408.429 6        41.349
G08         4.000    24620887.914 6 129383658.73206     -1888.288 6        37.157                                    24620893.829 4 100818457.40304     -1471.387 4        29.384    24620895.004 6 100818453.37806     -1471.277 6        36.268
S21         5.000    38599740.850 6 202842641.46106      -505.968 6        41.805
E05         6.000    25600562.772 6 134531827.58606      2065.680 6        40.043                                                                    25600566.910 7 100462053.43307      1542.576 7        43.221    25600565.962 7 103082802.14107      1582.908 7        43.985
G20         7.000    23359481.010 6 122754809.04906     -3927.017 6        41.237                                    23359482.348 4  95653053.62504     -3060.006 4        26.371
R02         8.000    19287919.345 8 102924001.23608      -345.805 8        52.035                                                                    19287920.508 7  80051993.32407      -268.957 7        46.759
R20         9.000    24123193.987 5 128997593.15605      1058.671 5        31.223                                                                    24123202.018 6 100331482.54506       823.607 6        39.054
G24        10.000    25583983.247 5 134444733.95905      3078.981 5        34.171                                    25583986.151 3 104762142.74203      2399.206 3        23.581    25583986.920 5 104762147.78405      2399.025 5        32.677
G30        11.000    21519016.391 7 113083160.57907     -2388.775 7        47.509                                    21519017.071 8  88116729.55708     -1861.379 8        48.046    21519017.393 7  88116737.55407     -1861.322 7        44.011
S27        12.000    39288523.613 5 206462539.96805      -537.084 5        35.138
G13        13.000    20228210.205 8 106299933.00808       599.400 8        48.597                                    20228207.302 6  82831087.51406       467.066 6        40.174
S36        14.000    38368824.096 7 201630007.82407      -506.416 7        44.191
I09        15.000    39967876.652 7 156842346.54107     -1036.786 7        42.155
E09        16.000    23796183.815 8 125049778.70708       316.552 8        48.311                                                                    23796185.335 8  93381317.94808       236.359 8        50.855    23796184.836 8  95817349.66908       242.542 8        51.686
S45        17.000    63550214.612 6 333959151.43406      -552.992 6        36.764
E36        18.000    28580617.954 5 150192072.10705     -3227.657 5        34.700                                                                    28580624.788 6 112156411.93906     -2410.312 6        38.255    28580623.676 6 115082232.62106     -2473.075 6        38.802
R19        19.000    24277575.861 5 129868617.30005     -2569.023 5        32.168                                                                    24277575.931 6 101008917.64806     -1998.225 6        38.027
E21        20.000    28485875.980 5 149694168.61205     -3348.261 5        35.648                                                                    28485884.686 6 111784586.60006     -2500.324 6        40.625    28485883.317 6 114700706.67506     -2565.553 6        40.667
R03        21.000    21760987.292 8 116488229.73908      3114.886 8        49.566                                                                    21760987.714 7  90601946.70607      2422.708 7        44.719
I06        22.000    38206279.091 7 149929776.94407      -446.716 7        43.359
S28        23.000    41037841.037 5 215655175.44405      -513.998 5        34.633
S23        25.000    38301619.674 7 201276296.31007      -505.610 7        43.790
R01        26.000    21275259.784 7 113728380.82307     -3988.836 7        46.228                                                                    21275263.212 6  88455380.13706     -3102.286 6        40.219
C07        27.000                                                                                                                                    39237580.685 6 204320346.77606       172.941 6        40.567    39237579.188 7 157993439.06107       133.859 7        43.877    39237576.491 6 166026994.94306       140.280 6        40.660
C40        29.000                                                                                                                                    39254556.707 7 204408765.84707       264.701 7        42.817                                                                    39254558.713 7 166098867.36407       214.891 7        42.521
G14        31.000    20750324.739 8 109043694.34508       225.996 8        48.165                                    20750323.130 6  84969112.22206       176.102 6        40.138    20750323.398 7  84969098.21207       176.169 7        47.620
G23        32.000    25527809.897 6 134149526.66806      2841.362 6        37.108                                    25527807.025 3 104532082.13303      2214.062 3        19.433    25527807.420 6 104532077.10906      2214.176 6        38.288
I02        33.000    37860036.533 7 148570906.19607       182.661 7        42.451
E04        34.000    24446526.892 7 128467349.73307     -2128.247 7        46.833                                                                    24446528.325 8  95933406.62308     -1589.254 8        50.016    24446527.662 8  98436014.49508     -1630.714 8        50.597
R13        35.000    21284172.540 7 113656308.82307      2828.181 7        44.761
R12        36.000    19256892.266 8 102866850.60208      -367.773 8        52.032                                                                    19256893.726 7  80007552.33007      -286.038 7        47.488
I01        37.000   392785280.011 6 238232749.74506     -3174.531 6        39.934
C10        38.000                                                                                                                                    39326044.699 6 204781021.41106       505.959 6        40.389    39326045.638 7 158349674.12707       391.247 7        43.642    39326042.733 6 166401341.18206       410.915 6        40.849
C19        39.000                                                                                                                                    24136902.002 7 125687098.71607     -3442.979 7        47.523                                                                    24136901.090 7 102131022.80907     -2797.865 7        47.099
E34        40.000    27885990.699 6 146541831.10106     -1707.887 6        38.640                                                                    27885993.690 6 109430575.87206     -1275.309 6        40.651    27885993.405 6 112285287.65406     -1308.579 6        41.333
G05        41.000    21777361.182 7 114440763.27407     -2495.779 7        47.692                                    21777359.837 7  89174589.13807     -1944.761 7        46.423    21777360.394 7  89174598.14207     -1944.797 7        43.081
S44        42.000    41046924.020 6 215703087.10906      -515.515 6        37.036
C36        43.000                                                                                                                                    21622307.925 8 112593010.62908      -164.660 8        51.378                                                                    21622313.756 8  91491059.63108      -133.919 8        49.914
C05        44.000                                                                                                                                    39502956.118 6 205702186.97106      -563.167 6        38.483    39502957.349 7 159061975.83107      -435.771 7        42.377    39502958.185 6 167149957.82006      -457.895 6        40.019
G18        46.000    25361088.587 6 133273387.05206     -1725.520 6        38.291                                    25361087.024 3 103849370.18103     -1344.562 3        19.403    25361087.211 6 103849360.19006     -1344.632 6        36.820
R11        47.000    21931884.725 7 117197263.45007     -4186.270 7        47.157                                                                    21931887.220 7  91153414.83207     -3256.014 7        44.304
C45        50.000                                                                                                                                    24152832.660 7 125770141.61907      2248.471 7        46.273                                                                    24152828.500 7 102198525.76907      1826.924 7        46.692
S48        51.000    77316204.032 6 406298095.26206      -493.688 6        36.862
E06        52.000    23427997.148 8 123114945.27208      -930.372 8        48.563                                                                    23427999.035 8  91936486.31508      -694.729 8        50.786    23427998.670 8  94334828.50808      -712.864 8        51.323
C09        53.000                                                                                                                                    40948672.819 6 213230355.97806     -1145.235 6        36.219    40948677.604 6 164883190.43706      -885.489 6        40.253    40948673.401 6 173267080.28806      -930.659 6        37.633
C60        54.000                                                                                                                                    41046930.967 6 213742167.83306      -510.982 6        40.391                                                                    41046922.705 6 173682953.35906      -415.203 6        38.628
E31        55.000    24337462.152 8 127894225.43508      1364.516 8        48.007                                                                    24337465.528 8  95505459.12808      1018.939 8        49.468    24337464.687 8  97996902.12608      1045.547 8        50.098
G07        56.000    24173349.291 6 127031717.98306     -3240.571 6        41.523                                    24173351.197 5  98985710.42805     -2525.114 5        34.514    24173350.736 6  98985719.42706     -2525.164 6        37.890
C02        57.000                                                                                                                                    41083423.964 5 213932039.94305      -557.573 5        33.006    41083428.903 6 165425771.50206      -430.866 6        37.013    41083429.475 5 173837272.65805      -453.195 5        33.234
I03        58.000    96090353.344 6 301293707.79506       847.643 6        41.092
C21        59.000                                                                                                                                    24663244.565 7 128427942.45007      2170.859 7        45.592                                                                    24663240.895 7 104358190.58707      1763.831 7        45.839
C22        60.000                                                                                                                                    21835072.957 8 113700915.95808      -640.862 8        51.948                                                                    21835067.912 8  92391275.88908      -520.934 8        49.726
> 2025 01 02 08 15 15.0000000  0 54
E24         1.000    28159468.010 6 147979049.07106      2712.626 6        38.411                                                                    28159476.097 6 110503882.07406      2025.616 6        41.573    28159474.442 6 113386583.42106      2078.451 6        41.406
G15         2.000    22025869.538 7 115746684.22307      2476.851 7        45.583                                    22025868.277 7  90192198.51807      1930.017 7        42.751    22025868.857 6  90192193.53006      1929.882 6        41.831
E15         3.000    28783148.433 5 151256455.70905       530.482 5        35.948                                                                    28783152.495 6 112951248.43606       396.022 6        40.729    28783151.584 6 115897799.05206       406.441 6        41.194
G08         4.000    24622686.533 6 129393108.20806     -1891.842 6        36.900                                    24622692.177 4 100825820.57004     -1474.148 4        29.223    24622693.283 6 100825816.54806     -1473.943 6        36.665
S21         5.000    38600220.923 7 202845171.51207      -506.370 7        42.466
E05         6.000    25598598.059 6 134521499.92706      2065.132 6        39.952                                                                    25598601.387 7 100454341.21607      1542.184 7        42.959    25598600.687 7 103074888.74507      1582.460 7        43.807
G20         7.000    23363217.905 6 122774447.26506     -3928.445 6        40.551                                    23363219.471 4  95668356.08204     -3061.111 4        26.443
R02         8.000    19288245.274 8 102925740.67908      -350.030 8        52.037                                                                    19288246.670 7  80053346.21807      -272.209 7        46.906
R20         9.000    24122206.204 5 128992309.45605      1054.455 5        31.011                                                                    24122214.448 6 100327373.03106       820.226 6        39.622
G24        10.000    25581054.835 5 134429341.55305      3078.150 5        35.176                                    25581057.002 3 104750148.66703      2398.557 3        23.333    25581056.795 5 104750153.68205      2398.427 5        32.156
G30        11.000    21521289.999 7 113095108.44307     -2390.551 7        47.655                                    21521290.703 7  88126039.56807     -1862.764 7        47.982    21521290.971 7  88126047.56507     -1862.807 7        44.129
S27        12.000    39289040.363 5 206465225.73405      -537.464 5        35.552
G13        13.000    20227641.111 8 106296942.58708       596.681 8        48.393                                    20227638.252 6  82828757.31206       464.948 6        40.112
S36        14.000    38369304.563 7 201632540.77107      -506.787 7        44.167
I09        15.000    39969197.634 6 156847531.18006     -1037.128 6        41.781
E09        16.000    23795883.245 8 125048200.13508       314.787 8        48.480                                                                    23795884.967 8  93380139.13208       235.097 8        50.702    23795884.440 8  95816140.10408       241.186 8        51.609
S45        17.000    63550694.847 6 333961917.26206      -553.229 6        36.820
E36        18.000    28583689.106 5 150208212.35505     -3228.488 5        34.990                                                                    28583695.921 6 112168464.70206     -2410.997 6        38.084    28583695.340 6 115094599.80306     -2473.878 6        38.736
R19        19.000    24279979.780 5 129881472.45205     -2572.613 5        32.910                                                                    24279978.929 6 101018916.09506     -2001.326 6        36.771
E21        20.000    28489062.236 5 149710912.38105     -3349.410 5        35.062                                                                    28489070.948 6 111797090.04506     -2501.188 6        40.348    28489069.843 6 114713536.28006     -2566.267 6        40.496
R03        21.000    21758079.057 8 116472659.89608      3112.922 8        49.679                                                                    21758079.029 7  90589836.80807      2421.162 7        44.244
I06        22.000    38206848.148 7 149932010.93707      -446.987 7        43.306
S28        23.000    41038330.854 5 215657745.78405      -514.306 5        34.786
S23        25.000    38302096.944 7 201278825.07307      -506.120 7        43.917
R01        26.000    21278992.219 7 113748331.93207     -3991.691 7        46.320                                                                    21278995.926 6  88470897.63806     -3104.617 6        40.219
C07        27.000                                                                                                                                    39237415.444 6 204319484.41806       171.772 6        40.582    39237413.446 7 157992772.22407       132.798 7        43.687    39237410.780 6 166026294.16906       139.806 6        40.744
C40        29.000                                                                                                                                    39254303.540 7 204407445.47307       263.403 7        42.783                                                                    39254305.048 7 166097794.45507       213.956 7        42.540
G14        31.000    20750111.385 7 109042572.72007       222.536 7        47.901                                    20750109.686 6  84968238.22906       173.404 6        40.129    20750109.900 7  84968224.22907       173.400 7        47.895
G23        32.000    25525107.175 6 134135323.43206      2839.643 6        37.301                                    25525104.019 3 104521014.61103      2212.715 3        19.313    25525103.893 6 104521009.61306      2212.656 6        37.943
I02        33.000    37859804.078 7 148569994.34807       181.951 7        42.468
E04        34.000    24448552.645 7 128477994.75607     -2129.850 7        46.874                                                                    24448554.004 8  95941355.82408     -1590.474 8        49.808    24448553.307 8  98444171.06708     -1631.956 8        50.508
R13        35.000    21281525.836 7 113642175.03507      2825.413 7        44.432
R12        36.000    19257238.135 8 102868699.66908      -371.986 8        51.834                                                                    19257239.881 7  80008990.50707      -289.328 7        47.174
I01        37.000   392789325.318 6 238248622.86806     -3174.832 6        39.904
C10        38.000                                                                                                                                    39325559.074 6 204778494.07506       504.822 6        40.346    39325560.494 7 158347719.81407       390.368 7        43.300    39325557.393 6 166399287.47906       410.349 6        40.636
C19        39.000                                                                                                                                    24140208.625 7 125704318.15907     -3444.884 7        47.600                                                                    24140207.921 7 102145014.98607     -2799.269 7        47.025
E34        40.000    27887616.330 6 146550376.12606     -1710.384 6        38.501                                                                    27887619.871 6 109436956.90506     -1277.255 6        40.348    27887619.519 6 112291835.14206     -1310.623 6        41.421
G05        41.000    21779737.667 7 114453250.67007     -2499.208 7        47.137                                    21779736.116 7  89184319.55807     -1947.428 7        46.424    21779736.908 7  89184328.55107     -1947.483 7        43.217
S44        42.000    41047413.878 6 215705665.43706      -516.051 6        37.267
C36        43.000                                                                                                                                    21622467.132 8 112593840.11008      -167.260 8        51.351                                                                    21622473.075 8  91491733.63908      -135.894 8        49.876
C05        44.000                                                                                                                                    39503497.358 6 205705004.50206      -563.661 6        38.553    39503498.393 7 159064154.50507      -435.819 7        42.271    39503499.310 6 167152247.28306      -458.126 6        39.916
G18        46.000    25362731.703 6 133282021.95406     -1728.645 6        38.087                                    25362730.095 3 103856098.67503     -1346.995 3        19.701    25362729.925 6 103856088.66606     -1346.876 6        37.040
R11        47.000    21935802.739 7 117218198.82107     -4188.006 7        47.366                                                                    21935805.175 7  91169697.86507     -3257.336 7        43.617
C45        50.000                                                                                                                                    24150674.800 7 125758903.05307      2246.827 7        46.334                                                                    24150670.169 7 102189393.51407      1825.772 7        46.619
S48        51.000    77316676.294 6 406300564.42606      -494.165 6        37.724
E06        52.000    23428883.125 8 123119601.51108      -932.260 8        48.600                                                                    23428885.066 8  91939963.36908      -696.171 8        50.671    23428884.739 8  94338396.26608      -714.320 8        51.215
C09        53.000                                                                                                                                    40949770.702 6 213236082.43406     -1145.522 6        36.102    40949777.022 6 164887618.48406      -885.832 6        40.379    40949773.371 6 173271733.47606      -930.794 6        37.550
C60        54.000                                                                                                                                    41047421.187 6 213744722.69206      -511.187 6        40.338                                                                    41047413.515 6 173685029.40106      -415.420 6        38.520
E31        55.000    24336164.868 7 127887408.52507      1362.226 7        47.787                                                                    24336168.339 8  95500368.58408      1017.228 8        49.354    24336167.473 8  97991678.78608      1043.758 8        50.068
G07        56.000    24176433.186 6 127047922.78506     -3241.573 6        41.018                                    24176434.850 5  98998337.52205     -2525.897 5        34.338    24176434.529 6  98998346.52506     -2525.861 6        37.561
C02        57.000                                                                                                                                    41083958.949 5 213934827.25605      -558.029 5        33.419    41083964.013 6 165427926.79706      -431.224 6        37.168    41083964.773 5 173839537.50905      -453.118 5        33.263
I03        58.000    96089273.764 6 301289469.73706       847.451 6        41.225
C21        59.000                                                                                                                                    24661161.042 7 128417092.54407      2169.008 7        46.001                                                                    24661157.273 7 104349374.13107      1762.479 7        45.839
C22        60.000                                                                                                                                    21835689.825 8 113704127.94008      -644.014 8        52.002                                                                    21835684.737 8  92393885.87508      -523.295 8        49.696
> 2025 01 02 08 15 20.0000000  0 54
E24         1.000    28156887.160 6 147965486.00006      2712.546 6        38.619                                                                    28156895.021 6 110493753.86206      2025.534 6        41.306    28156893.289 6 113376190.97906      2078.481 6        41.399
G15         2.000    22023513.972 7 115734303.66907      2475.264 7        46.063                                    22023512.318 7  90182551.33807      1928.780 7        42.950    22023512.639 6  90182546.34006      1928.751 6        41.595
E15         3.000    28782644.884 5 151253809.06905       528.246 5        35.705                                                                    28782648.831 6 112949272.01906       394.540 6        40.837    28782647.911 6 115895771.09206       404.695 6        41.237
G08         4.000    24624488.275 6 129402573.26206     -1894.476 6        36.284                                    24624493.472 4 100833195.88404     -1476.204 4        29.204    24624494.122 6 100833191.87706     -1476.305 6        36.325
S21         5.000    38600702.910 7 202847702.06907      -506.091 7        42.370
E05         6.000    25596633.019 6 134511173.80206      2065.255 6        40.143                                                                    25596636.491 7 100446630.16107      1542.099 7        43.109    25596635.788 7 103066976.52807      1582.303 7        43.778
G20         7.000    23366956.406 6 122794091.16206     -3929.291 6        41.445                                    23366957.676 4  95683662.98104     -3061.771 4        26.503
R02         8.000    19288575.169 8 102927499.72108      -353.806 8        52.278                                                                    19288576.153 7  80054714.34807      -275.187 7        47.075
R20         9.000    24121221.003 5 128987045.20105      1050.501 5        30.445                                                                    24121229.324 6 100323278.62006       817.481 6        39.180
G24        10.000    25578126.229 5 134413950.79605      3078.112 5        35.638                                    25578128.151 3 104738155.85403      2398.526 3        23.562    25578128.480 5 104738160.88105      2398.388 5        32.335
G30        11.000    21523565.210 7 113107063.98607     -2391.834 7        47.743                                    21523565.784 8  88135355.56308     -1863.764 8        48.144    21523566.161 7  88135363.55907     -1863.873 7        44.241
S27        12.000    39289552.480 6 206467912.34006      -537.422 6        36.049
G13        13.000    20227074.455 8 106293964.21308       594.544 8        48.779                                    20227071.479 6  82826436.49406       463.284 6        40.298
S36        14.000    38369785.737 7 201635074.46007      -506.686 7        43.867
I09        15.000    39970519.040 6 156852716.40506     -1037.079 6        41.666
E09        16.000    23795584.263 8 125046628.86808       313.536 8        48.437                                                                    23795585.952 8  93378965.77508       234.176 8        50.793    23795585.455 8  95814936.13908       240.266 8        51.540
S45        17.000    63551180.631 6 333964683.65306      -553.343 6        36.737
E36        18.000    28586761.859 6 150224355.60806     -3228.911 6        36.042                                                                    28586768.177 6 112180519.70906     -2411.016 6        38.456    28586767.499 6 115106969.29706     -2474.003 6        38.748
R19        19.000    24282384.579 5 129894345.42005     -2576.009 5        32.808                                                                    24282385.611 6 101028928.42406     -2003.790 6        37.244
E21        20.000    28492249.270 5 149727660.08705     -3349.898 5        35.771                                                                    28492258.116 6 111809596.37806     -2501.416 6        40.286    28492256.711 6 114726368.87506     -2566.731 6        40.608
R03        21.000    21755171.710 8 116457098.23408      3111.576 8        49.335                                                                    21755172.003 7  90577733.29107      2420.163 7        44.441
I06        22.000    38207417.560 7 149934245.47107      -446.897 7        43.289
S28        23.000    41038823.832 5 215660316.72705      -514.199 5        34.576
S23        25.000    38302580.675 7 201281354.55107      -505.907 7        44.140
R01        26.000    21282726.462 7 113768295.36707     -3993.859 7        46.767                                                                    21282730.965 6  88486424.71906     -3106.467 6        40.687
C07        27.000                                                                                                                                    39237250.888 6 204318626.63206       171.117 6        40.563    39237248.649 7 157992108.93307       132.350 7        43.482    39237245.943 6 166025597.16606       139.093 6        40.977
C40        29.000                                                                                                                                    39254051.042 7 204406130.65707       262.394 7        42.703                                                                    39254052.631 7 166096726.07807       213.200 7        42.720
G14        31.000    20749900.984 7 109041467.13507       219.572 7        47.657                                    20749899.296 6  84967376.73206       171.095 6        40.141    20749899.482 7  84967362.72507       171.107 7        47.704
G23        32.000    25522405.796 6 134121127.20306      2838.416 6        37.115                                    25522402.609 3 104509952.57903      2211.771 3        19.851    25522402.887 6 104509947.56006      2211.773 6        38.420
I02        33.000    37859572.529 7 148569084.15707       181.912 7        42.425
E04        34.000    24450579.701 7 128488646.81707     -2131.059 7        47.004                                                                    24450581.064 8  95949310.26608     -1591.344 8        49.914    24450580.317 8  98452333.01508     -1632.846 8        50.436
R13        35.000    21278881.162 7 113628053.33807      2823.211 7        44.662
R12        36.000    19257587.943 8 102870568.17308      -375.598 8        51.986                                                                    19257589.584 7  80010443.77407      -292.122 7        47.082
I01        37.000   392793370.202 6 238264496.39906     -3174.718 6        39.988
C10        38.000                                                                                                                                    39325074.612 6 204775970.73606       504.293 6        40.236    39325075.841 7 158345768.60107       389.939 7        43.179    39325072.689 6 166397237.07506       409.719 6        40.825
