     3.04           OBSERVATION DATA    M                   RINEX VERSION / TYPE
ssrcrin-15.6.1x                         20250102 083000 UTC PGM / RUN BY / DATE 
(00000000023479385599111004) Septentrio proprietary         COMMENT             
rref                                                        MARKER NAME         
01                                                          MARKER NUMBER       
geodetic                                                    MARKER TYPE         
NFB                 CLIMERS@TUW                             OBSERVER / AGENCY   
3297213             SEPT ASTERX SB3 PROB4.14.4              REC # / TYPE / VERS 
Unknown             Unknown                                 ANT # / TYPE        
  4127832.0653  1207193.3227  4695247.8306                  APPROX POSITION XYZ 
        0.0000        0.0000        0.0000                  ANTENNA: DELTA H/E/N
G   23 X1  C1C L1C D1C S1C C1W S1W C2W L2W D2W S2W C2L L2L  SYS / # / OBS TYPES 
       D2L S2L C5Q L5Q D5Q S5Q C1L L1L D1L S1L              SYS / # / OBS TYPES 
E   21 X1  C1C L1C D1C S1C C6C L6C D6C S6C C5Q L5Q D5Q S5Q  SYS / # / OBS TYPES 
       C7Q L7Q D7Q S7Q C8Q L8Q D8Q S8Q                      SYS / # / OBS TYPES 
S    9 X1  C1C L1C D1C S1C C5I L5I D5I S5I                  SYS / # / OBS TYPES 
R   17 X1  C1C L1C D1C S1C C2P L2P D2P S2P C2C L2C D2C S2C  SYS / # / OBS TYPES 
       C3Q L3Q D3Q S3Q                                      SYS / # / OBS TYPES 
C   25 X1  C1P L1P D1P S1P C5P L5P D5P S5P C2I L2I D2I S2I  SYS / # / OBS TYPES 
       C7I L7I D7I S7I C6I L6I D6I S6I C7D L7D D7D S7D      SYS / # / OBS TYPES 
J   17 X1  C1C L1C D1C S1C C2L L2L D2L S2L C5Q L5Q D5Q S5Q  SYS / # / OBS TYPES 
       C1L L1L D1L S1L                                      SYS / # / OBS TYPES 
I    5 X1  C5A L5A D5A S5A                                  SYS / # / OBS TYPES 
SEPTENTRIO RECEIVERS OUTPUT ALIGNED CARRIER PHASES.         COMMENT             
NO FURTHER PHASE SHIFT APPLIED IN THE RINEX ENCODER.        COMMENT             
G L1C                                                       SYS / PHASE SHIFT   
G L2W                                                       SYS / PHASE SHIFT   
G L2L  0.00000                                              SYS / PHASE SHIFT   
G L5Q  0.00000                                              SYS / PHASE SHIFT   
G L1L  0.00000                                              SYS / PHASE SHIFT   
E L1C  0.00000                                              SYS / PHASE SHIFT   
E L6C  0.00000                                              SYS / PHASE SHIFT   
E L5Q  0.00000                                              SYS / PHASE SHIFT   
E L7Q  0.00000                                              SYS / PHASE SHIFT   
E L8Q  0.00000                                              SYS / PHASE SHIFT   
S L1C                                                       SYS / PHASE SHIFT   
S L5I                                                       SYS / PHASE SHIFT   
R L1C                                                       SYS / PHASE SHIFT   
R L2P  0.00000                                              SYS / PHASE SHIFT   
R L2C                                                       SYS / PHASE SHIFT   
R L3Q  0.00000                                              SYS / PHASE SHIFT   
C L1P  0.00000                                              SYS / PHASE SHIFT   
C L5P  0.00000                                              SYS / PHASE SHIFT   
C L2I                                                       SYS / PHASE SHIFT   
C L7I                                                       SYS / PHASE SHIFT   
C L6I                                                       SYS / PHASE SHIFT   
C L7D                                                       SYS / PHASE SHIFT   
J L1C                                                       SYS / PHASE SHIFT   
J L2L  0.00000                                              SYS / PHASE SHIFT   
J L5Q  0.00000                                              SYS / PHASE SHIFT   
J L1L  0.00000                                              SYS / PHASE SHIFT   
I L5A                                                       SYS / PHASE SHIFT   
  2025     1     2     8    30    0.0000000     GPS         TIME OF FIRST OBS   
 C1C    0.000 C2C    0.000 C2P    0.000                     GLONASS COD/PHS/BIS 
DBHZ                                                        SIGNAL STRENGTH UNIT
    18                                                      LEAP SECONDS        
 24 R01  1 R02 -4 R03  5 R04  6 R05  1 R06 -4 R07  5 R08  6 GLONASS SLOT / FRQ #
    R09 -2 R10 -7 R11  0 R12 -1 R13 -2 R14 -7 R15  0 R16 -1 GLONASS SLOT / FRQ #
    R17  4 R18 -3 R19  3 R20  2 R21  4 R22 -3 R23  3 R24  2 GLONASS SLOT / FRQ #
                                                            END OF HEADER       
> 2025 01 02 08 30  0.0000000  0 55
E24         1.000    27408293.451 6 144031610.64406      2641.995 6        39.246                                                                    27408301.302 7 107556122.52407      1972.946 7        42.377    27408299.835 7 110361925.46007      2024.374 7        43.308
G15         2.000    21336968.530 7 112126480.39907      2133.309 7        46.911                                    21336966.803 7  87371260.12607      1662.322 7        44.614    21336967.034 7  87371255.12107      1662.329 7        43.082
E15         3.000    28429506.708 5 149398043.49505       106.839 5        35.633                                                                    28429510.909 6 111563469.98406        79.711 6        40.412    28429509.993 6 114473818.04106        81.759 6        41.251
G08         4.000    24685834.822 6 129724946.14406     -2409.749 6        36.938                                    24685840.093 4 101084394.45204     -1877.725 4        29.659    24685840.373 6 101084390.45706     -1877.637 6        36.484
S21         5.000    38386349.208 6 201721220.88506      -512.848 6        41.962
E05         6.000    24955334.539 6 131141129.08506      2010.613 6        40.553                                                                    24955338.789 7  97930037.87007      1501.391 7        44.239    24955337.799 7 100484734.06207      1540.496 7        44.933
G20         7.000    23738582.577 6 124746973.37506     -4074.138 6        40.565                                    23738585.110 3  97205382.50303     -3174.647 3        23.410
R02         8.000    19104598.860 8 101945762.44108     -1054.091 8        51.921                                                                    19104600.344 7  79291139.53007      -819.881 7        46.862
R20         9.000    23705819.527 5 126765694.93805       346.031 5        30.747                                                                    23705826.172 6  98595561.95206       269.036 6        40.491
G24        10.000    24767577.822 6 130154474.15306      3018.861 6        37.047                                    24767580.830 4 101419079.05004      2352.372 4        27.497    24767581.574 5 101419084.01805      2352.466 5        34.710
G30        11.000    21645165.696 7 113746071.12807     -2635.005 7        46.875                                    21645166.915 7  88633280.93707     -2053.245 7        46.084    21645167.443 7  88633288.92907     -2053.220 7        43.107
S27        12.000    39080457.281 5 205369103.47205      -544.812 5        35.067
G13        13.000    19863178.187 8 104381673.09108       166.595 8        48.774                                    19863175.139 6  81336338.80106       129.816 6        40.517
S36        14.000    38155545.739 7 200509229.38807      -513.955 7        44.000
I09        15.000    39904523.117 6 156593708.36906     -1046.604 6        39.850
E09        16.000    23464574.384 8 123307155.58608        56.438 8        48.711                                                                    23464576.006 8  92080007.47308        42.143 8        50.479    23464575.519 8  94482092.08008        43.231 8        51.712
S45        17.000    63336985.326 6 332839149.44506      -560.487 6        36.291
E36        18.000    28833900.472 5 151523070.16205     -3291.874 5        32.928                                                                    28833906.934 5 113150337.32405     -2458.037 5        34.148    28833905.474 5 116102086.71405     -2522.614 5        34.690
R19        19.000    24454065.843 5 130812722.62405     -3137.544 5        31.381                                                                    24454065.420 6 101743222.87806     -2440.261 6        36.945
E21        20.000    28762655.383 5 151148627.34305     -3451.127 5        32.593                                                                    28762665.973 6 112870700.47306     -2577.333 6        37.323    28762664.787 6 115815154.87206     -2644.471 6        38.297
R03        21.000    20968892.103 8 112248076.46108      2791.246 8        50.917                                                                    20968891.302 7  87304049.35007      2170.980 7        44.727
I06        22.000    38009119.997 7 149156087.08407      -457.219 7        43.280
S28        23.000    40825843.576 5 214541126.68505      -521.111 5        34.776
S23        25.000    38088201.471 7 200154810.13007      -512.826 7        43.672
R01        26.000    21673327.409 7 115856254.11607     -4380.190 7        44.229                                                                    21673333.270 6  90110385.47406     -3406.897 6        38.895
C07        27.000                                                                                                                                    38921171.996 6 202672725.65406        22.721 6        41.111    38921169.862 7 156719394.88207        17.554 7        44.176    38921167.373 6 164688168.60806        18.310 6        41.395
C40        29.000                                                                                                                                    38925555.507 7 202695567.25407        78.127 7        43.092                                                                    38925557.385 7 164706752.74907        63.434 7        42.806
G17        30.000    24318749.699 6 127795915.57606      2472.064 6        39.856                                    24318755.629 5  99581267.70405      1926.269 5        32.515    24318756.302 6  99581264.72006      1926.401 6        37.202
G14        31.000    20459850.531 8 107517240.49408      -335.147 8        48.126                                    20459849.228 6  83779667.20206      -261.151 6        40.319    20459849.284 8  83779653.19708      -261.163 8        48.457
G23        32.000    24769188.440 6 130162924.42006      2564.811 6        38.393                                    24769187.951 3 101425633.05403      1998.563 3        22.114    24769188.227 6 101425628.04706      1998.629 6        38.775
I02        33.000    37524363.990 7 147253660.50707       134.569 7        42.783
E04        34.000    24527289.245 7 128891751.39707     -2363.555 7        45.904                                                                    24527291.222 8  96250327.80408     -1765.028 8        49.038    24527290.413 8  98761203.42008     -1811.050 8        50.000
R13        35.000    20550007.408 7 109735916.05107      2376.491 7        45.437
R12        36.000    19074051.716 8 101890146.11408     -1027.914 8        51.595                                                                    19074053.477 7  79247892.40607      -799.507 7        47.266
I01        37.000   393206042.834 5 239883873.54805     -3177.736 5        35.605
C10        38.000                                                                                                                                    38951196.085 6 202829090.54306       372.960 6        40.627    38951197.149 7 156840318.32707       288.526 7        44.757    38951194.146 6 164815238.23306       303.176 6        40.853
C19        39.000                                                                                                                                    24446905.105 7 127301342.85907     -3683.139 7        45.872                                                                    24446905.564 7 103442723.47207     -2992.798 7        46.215
E34        40.000    27907998.548 6 146657471.31006     -2084.315 6        37.176                                                                    27908002.580 6 109516927.21106     -1556.073 6        39.628    27908001.889 6 112373892.02006     -1596.866 6        40.398
G05        41.000    21943533.976 7 115313992.73707     -2993.080 7        46.637                                    21943532.998 7  89855024.37907     -2332.268 7        44.773    21943533.794 7  89855033.37207     -2332.199 7        42.828
S44        42.000    40834726.968 6 214587970.44006      -517.654 6        37.214
C36        43.000                                                                                                                                    21384396.524 8 111354139.87808      -555.336 8        51.306                                                                    21384402.544 8  90484374.96708      -451.184 8        50.068
C05        44.000                                                                                                                                    39300062.486 6 204645671.56906      -569.049 6        37.970    39300064.237 7 158245011.89807      -440.094 7        43.177    39300064.706 6 166291453.16606      -462.613 6        40.102
G18        46.000    25392448.613 6 133438175.75206     -2173.239 6        37.214                                    25392447.459 2 103977774.67702     -1693.441 2        17.434    25392447.432 5 103977764.65105     -1693.192 5        35.929
R11        47.000    22346734.968 7 119414075.67907     -4378.832 7        45.661                                                                    22346738.206 7  92877597.15207     -3405.673 7        42.808
C45        50.000                                                                                                                                    23488821.465 7 122312457.93207      2010.738 7        47.137                                                                    23488815.797 7  99388875.33807      1633.891 7        47.750
S48        51.000    77101741.848 6 405170998.95906      -501.335 6        37.788
E06        52.000    23309828.898 8 122493962.55408     -1214.707 8        48.369                                                                    23309831.250 8  91472763.99708      -907.099 8        50.466    23309830.938 8  93859009.25408      -930.753 8        51.504
C09        53.000                                                                                                                                    40844086.673 5 212685742.72605     -1138.256 5        35.771    40844093.939 6 164462057.16106      -880.304 6        41.013    40844089.478 6 172824534.36306      -924.943 6        36.786
C60        54.000                                                                                                                                    40834731.456 6 212637188.54706      -512.715 6        40.405                                                                    40834723.127 6 172785066.98506      -416.611 6        38.480
E31        55.000    23836808.926 8 125263277.71808      1004.782 8        48.348                                                                    23836812.202 8  93540790.91808       750.340 8        49.685    23836811.563 8  95980981.64308       769.934 8        50.771
G07        56.000    24428634.155 6 128373219.58806     -3309.847 6        40.019                                    24428637.614 5 100031029.14805     -2579.085 5        31.834    24428638.040 6 100031038.11806     -2579.053 6        37.066
C02        57.000                                                                                                                                    40879257.275 5 212868887.92205      -560.319 5        33.228    40879263.435 6 164603672.88306      -433.220 6        37.062    40879264.248 5 172973372.89905      -455.296 5        33.168
I03        58.000    95598519.196 6 299363635.99206       846.975 6        40.977
C21        59.000                                                                                                                                    24015911.659 7 125057105.97807      1887.439 7        46.344                                                                    24015908.132 7 101619108.93107      1533.700 7        46.779
C22        60.000                                                                                                                                    21686904.747 8 112929359.95108     -1132.832 8        52.307                                                                    21686900.175 8  91764322.17008      -920.502 8        49.939
> 2025 01 02 08 30  5.0000000  0 55
E24         1.000    27405780.339 6 144018402.38106      2641.339 6        39.003                                                                    27405787.691 7 107546259.23207      1972.289 7        42.332    27405786.191 7 110351804.86207      2023.841 7        43.029
G15         2.000    21334939.640 7 112115819.81507      2131.014 7        47.133                                    21334938.184 7  87362953.17307      1660.531 7        44.695    21334938.147 7  87362948.16907      1660.554 7        42.631
E15         3.000    28429406.121 5 149397516.53505       103.882 5        34.924                                                                    28429410.751 6 111563076.43306        77.683 6        40.451    28429409.995 6 114473414.23106        79.774 6        41.511
G08         4.000    24688128.623 6 129737002.25406     -2412.508 6        36.442                                    24688134.483 4 101093788.80504     -1879.870 4        29.763    24688135.292 6 101093784.81206     -1880.092 6        37.093
S21         5.000    38386833.878 6 201723786.10306      -513.136 6        41.948
E05         6.000    24953422.311 6 131131077.81806      2010.069 6        40.482                                                                    24953426.064 7  97922532.04607      1500.948 7        44.256    24953425.055 7 100477032.43007      1540.189 7        44.962
G20         7.000    23742459.490 6 124767345.79906     -4074.826 6        40.467                                    23742462.230 3  97221257.07203     -3175.179 3        23.657
R02         8.000    19105588.590 8 101951043.84108     -1058.344 8        52.089                                                                    19105590.326 7  79295247.27807      -823.197 7        46.956
R20         9.000    23705496.683 5 126763977.02605       341.553 5        30.106                                                                    23705503.793 6  98594225.76306       265.554 6        39.003
G24        10.000    24764705.515 6 130139380.90806      3018.393 6        37.667                                    24764708.810 4 101407318.03404      2352.009 4        27.748    24764708.436 5 101407323.00905      2351.926 5        34.743
G30        11.000    21647673.805 7 113759249.86907     -2636.384 7        47.309                                    21647674.784 7  88643550.07007     -2054.322 7        46.161    21647675.076 7  88643558.07407     -2054.428 7        42.950
S27        12.000    39080978.095 5 205371827.63105      -545.008 5        35.267
G13        13.000    19863020.744 8 104380847.32908       163.880 8        48.644                                    19863018.028 6  81335695.34806       127.701 6        40.517
S36        14.000    38156036.303 7 200511798.81507      -513.863 7        44.004
I09        15.000    39905856.577 6 156598942.20406     -1046.761 6        39.784
E09        16.000    23464521.490 8 123306878.14708        54.715 8        48.575                                                                    23464523.186 8  92079800.29108        40.819 8        50.518    23464522.760 8  94481879.49108        41.908 8        51.622
S45        17.000    63337477.952 6 332841952.58106      -560.662 6        36.495
E36        18.000    28837032.555 5 151539530.70005     -3292.193 5        31.351                                                                    28837039.186 5 113162629.26205     -2458.382 5        32.880    28837038.139 5 116114699.28705     -2522.086 5        32.988
R19        19.000    24456997.558 4 130828417.86604     -3140.261 4        28.341                                                                    24456998.395 5 101755430.36605     -2442.877 5        34.243
E21        20.000    28765939.312 5 151165886.06105     -3452.108 5        31.804                                                                    28765950.414 6 112883588.37906     -2577.718 6        37.123    28765949.086 6 115828379.00206     -2645.152 6        37.796
R03        21.000    20966285.678 8 112234126.36908      2788.916 8        50.337                                                                    20966285.574 7  87293199.28407      2169.115 7        45.348
I06        22.000    38009703.019 7 149158374.35407      -457.537 7        43.238
S28        23.000    40826344.670 5 214543735.15805      -521.615 5        34.929
S23        25.000    38088690.980 7 200157375.86307      -513.182 7        43.824
R01        26.000    21677425.660 7 115878161.02407     -4382.361 7        44.596                                                                    21677430.844 6  90127424.13406     -3408.336 6        38.607
C07        27.000                                                                                                                                    38921150.998 6 202672615.12306        21.680 6        41.023    38921148.568 7 156719309.40007        16.732 7        44.141    38921146.208 6 164688078.78806        17.580 6        41.156
C40        29.000                                                                                                                                    38925481.557 7 202695179.86907        76.803 7        43.098                                                                    38925482.962 7 164706437.97207        62.394 7        42.787
G17        30.000    24316397.680 6 127783557.11406      2471.376 6        39.604                                    24316403.851 5  99571637.79605      1925.733 5        32.521    24316403.485 6  99571634.83606      1925.738 6        37.350
G14        31.000    20460171.292 8 107518925.06608      -338.483 8        48.048                                    20460169.798 6  83780979.85206      -263.753 6        40.410    20460170.007 8  83780965.84808      -263.793 8        48.695
G23        32.000    24766748.869 6 130150105.49506      2562.936 6        39.339                                    24766748.359 3 101415644.25403      1997.093 3        22.286    24766748.902 6 101415639.25106      1997.085 6        38.847
I02        33.000    37524192.647 7 147252988.84207       134.300 7        42.650
E04        34.000    24529538.841 7 128903573.50107     -2365.157 7        45.848                                                                    24529540.944 8  96259155.98108     -1766.199 8        49.106    24529540.054 8  98770261.90508     -1812.242 8        49.938
R13        35.000    20547783.444 7 109724040.83907      2373.743 7        45.196
R12        36.000    19075015.566 8 101895295.51208     -1031.652 8        51.390                                                                    19075017.579 7  79251897.48507      -802.441 7        47.517
I01        37.000   393210090.904 5 239899763.07805     -3178.050 5        35.005
C10        38.000                                                                                                                                    38950838.524 6 202827228.01706       372.095 6        40.787    38950839.369 7 156838878.11207       287.681 7        44.751    38950836.443 6 164813724.78306       302.456 6        40.815
C19        39.000                                                                                                                                    24450442.081 7 127319762.44507     -3684.512 7        45.678                                                                    24450443.000 7 103457690.86407     -2994.035 7        46.081
E34        40.000    27909982.583 6 146667896.78106     -2086.056 6        37.565                                                                    27909986.615 6 109524712.47006     -1557.816 6        39.751    27909985.833 6 112381880.36006     -1598.564 6        40.472
G05        41.000    21946382.899 7 115328965.63207     -2995.912 7        46.484                                    21946382.285 7  89866691.55107     -2334.469 7        44.813    21946382.572 7  89866700.54307     -2334.453 7        42.758
S44        42.000    40835216.682 6 214590558.41906      -517.674 6        37.301
C36        43.000                                                                                                                                    21384930.832 8 111356922.70408      -557.679 8        51.345                                                                    21384936.957 8  90486636.24808      -453.168 8        49.926
C05        44.000                                                                                                                                    39300609.115 6 204648517.84806      -569.343 6        38.012    39300611.089 7 158247212.82507      -440.218 7        43.365    39300611.371 6 166293766.00306      -462.675 6        39.883
G18        46.000    25394517.081 6 133449047.94106     -2175.444 6        37.043                                    25394516.344 2 103986246.49602     -1695.154 2        17.170    25394517.342 6 103986236.49506     -1695.363 6        36.008
R11        47.000    22350832.103 7 119435972.29707     -4379.722 7        44.816                                                                    22350836.135 7  92894627.83307     -3406.429 7        42.641
C45        50.000                                                                                                                                    23486891.431 7 122302408.63407      2009.050 7        47.626                                                                    23486885.878 7  99380709.46907      1632.579 7        47.620
S48        51.000    77102228.088 6 405173506.77206      -501.588 6        38.051
E06        52.000    23310985.618 8 122500041.06208     -1216.524 8        48.192                                                                    23310987.935 8  91477303.13308      -908.476 8        50.493    23310987.644 8  93863666.80408      -932.183 8        51.442
C09        53.000                                                                                                                                    40845181.011 6 212691434.97406     -1138.465 6        36.042    40845186.658 6 164466458.73606      -880.274 6        40.694    40845182.500 6 172829159.79606      -925.326 6        36.461
C60        54.000                                                                                                                                    40835223.746 6 212639753.03006      -512.954 6        40.479                                                                    40835215.631 6 172787150.83006      -416.793 6        38.417
E31        55.000    23835854.061 8 125258259.63008      1002.524 8        48.244                                                                    23835857.266 8  93537043.63808       748.672 8        49.691    23835856.660 8  95977136.61208       768.183 8        50.679
G07        56.000    24431783.572 6 128389770.35806     -3310.362 6        40.048                                    24431787.174 5 100043925.79105     -2579.489 5        31.864    24431787.416 6 100043934.76206     -2579.535 6        37.350
C02        57.000                                                                                                                                    40879796.625 5 212871689.79705      -560.269 5        33.216    40879801.362 6 164605839.47206      -433.490 6        37.108    40879802.659 5 172975649.65205      -455.665 5        33.174
I03        58.000    95597440.130 6 299359401.87006       846.803 6        40.973
C21        59.000                                                                                                                                    24014100.246 7 125047674.24207      1885.442 7        46.412                                                                    24014096.877 7 101611444.88707      1532.027 7        46.655
C22        60.000                                                                                                                                    21687994.214 8 112935032.03208     -1135.850 8        52.266                                                                    21687989.469 8  91768931.19308      -922.945 8        49.820
> 2025 01 02 08 30 10.0000000  0 55
E24         1.000    27403267.474 6 144005196.68706      2640.834 6        40.036                                                                    27403274.650 7 107536397.83507      1972.163 7        42.299    27403273.015 7 110341686.21507      2023.530 7        42.936
G15         2.000    21332913.274 7 112105169.97007      2128.889 7        46.931                                    21332911.573 7  87354654.58607      1658.875 7        44.822    21332912.170 7  87354649.59307      1658.917 7        42.988
E15         3.000    28429307.723 5 149397001.78105       101.673 5        35.471                                                                    28429312.720 6 111562692.03406        76.026 6        40.598    28429312.262 6 114473019.79806        77.901 6        41.454
G08         4.000    24690425.862 6 129749072.29406     -2415.188 6        36.314                                    24690431.448 4 101103194.01204     -1881.959 4        29.820    24690432.482 6 101103190.00806     -1882.084 6        37.425
S21         5.000    38387323.136 6 201726351.82806      -513.204 6        41.866
E05         6.000    24951509.846 6 131121028.43906      2009.721 6        40.834                                                                    24951513.706 7  97915027.65007      1500.783 7        44.239    24951512.706 7 100469332.27107      1539.924 7        44.792
G20         7.000    23746336.344 6 124787721.09406     -4075.171 6        40.105                                    23746339.704 3  97237133.87803     -3175.460 3        23.619
R02         8.000    19106582.029 8 101956345.55208     -1062.285 8        51.960                                                                    19106583.491 7  79299370.81807      -826.212 7        46.785
R20         9.000    23705176.674 4 126762279.87804       337.101 4        29.678                                                                    23705186.376 6  98592905.73706       262.318 6        38.369
G24        10.000    24761833.221 6 130124289.70406      3018.084 6        36.499                                    24761837.129 4 101395558.61804      2351.752 4        27.976    24761836.617 5 101395563.59205      2351.645 5        35.562
G30        11.000    21650182.855 7 113772435.10507     -2637.616 7        46.745                                    21650183.870 7  88653824.26207     -2055.285 7        46.307    21650184.346 7  88653832.25407     -2055.244 7        42.891
S27        12.000    39081500.984 5 205374551.84705      -544.850 5        35.233
G13        13.000    19862866.232 8 104380034.20708       161.435 8        48.864                                    19862863.310 6  81335061.74006       125.792 6        40.670
S36        14.000    38156525.158 7 200514367.75107      -513.701 7        43.761
I09        15.000    39907190.515 6 156604176.27506     -1046.915 6        39.766
E09        16.000    23464470.145 8 123306608.36208        53.186 8        48.701                                                                    23464471.847 8  92079598.82008        39.798 8        50.522    23464471.405 8  94481672.76908        40.752 8        51.512
S45        17.000    63337969.218 6 332844755.89106      -560.724 6        36.412
E36        18.000    28840164.671 5 151555992.15905     -3292.314 5        30.558                                                                    28840172.007 5 113174921.88305     -2458.450 5        31.940    28840170.650 5 116127312.63505     -2522.839 5        31.879
R19        19.000    24459935.632 5 130844127.72305     -3143.354 5        32.982                                                                    24459936.120 5 101767649.16205     -2444.728 5        35.081
E21        20.000    28769223.910 5 151183146.96005     -3452.221 5        31.660                                                                    28769235.054 6 112896477.97706     -2577.938 6        36.741    28769233.733 6 115841604.85306     -2645.266 6        37.323
R03        21.000    20963680.778 8 112220186.81108      2786.916 8        50.385                                                                    20963681.848 7  87282357.41207      2167.607 7        45.151
I06        22.000    38010285.714 7 149160661.87907      -457.459 7        43.020
S28        23.000    40826837.318 5 214546343.48005      -521.787 5        34.324
S23        25.000    38089184.530 7 200159941.76507      -513.223 7        44.119
R01        26.000    21681525.766 7 115900077.81907     -4384.301 7        44.360                                                                    21681531.322 6  90144470.49106     -3409.833 6        38.520
C07        27.000                                                                                                                                    38921130.615 6 202672508.83106        20.745 6        41.151    38921128.389 7 156719227.19207        16.157 7        44.158    38921125.655 6 164687992.39106        16.971 6        41.089
C40        29.000                                                                                                                                    38925408.050 7 202694797.72907        75.916 7        43.251                                                                    38925409.499 7 164706127.44407        61.701 7        42.529
G17        30.000    24314046.470 6 127771201.38506      2471.004 6        40.029                                    24314052.672 5  99562010.02205      1925.443 5        32.701    24314053.075 6  99562007.05406      1925.510 6        37.327
G14        31.000    20460494.693 8 107520625.38308      -341.545 8        48.154                                    20460493.374 6  83782304.77306      -266.137 6        40.517    20460493.285 8  83782290.77308      -266.184 8        48.516
G23        32.000    24764311.509 6 130137295.47106      2561.222 6        39.105                                    24764310.668 3 101405662.40503      1995.758 3        22.210    24764311.095 6 101405657.41606      1995.654 6        39.330
I02        33.000    37524021.602 7 147252318.78207       133.964 7        42.514
E04        34.000    24531789.610 7 128915402.12407     -2366.328 7        46.010                                                                    24531791.851 8  96267989.03608     -1767.142 8        49.080    24531790.997 8  98779325.38608     -1813.176 8        49.650
R13        35.000    20545562.499 7 109712179.02407      2371.139 7        45.169
R12        36.000    19075983.201 8 101900462.86108     -1035.184 8        51.893                                                                    19075984.893 7  79255916.53107      -805.137 7        47.516
I01        37.000   393214140.015 5 239915652.63905     -3178.081 5        34.595
C10        38.000                                                                                                                                    38950481.015 6 202825369.28106       371.421 6        40.763    38950482.173 7 156837440.83807       287.184 7        44.686    38950479.464 6 164812214.41306       301.870 6        40.732
C19        39.000                                                                                                                                    24453980.347 7 127338188.05507     -3685.641 7        45.863                                                                    24453981.253 7 103472663.15707     -2994.849 7        45.678
E34        40.000    27911968.112 6 146678332.21106     -2088.172 6        38.321                                                                    27911972.493 6 109532505.13006     -1559.220 6        39.682    27911971.825 6 112389876.32806     -1600.057 6        40.415
G05        41.000    21949234.758 7 115343951.39307     -2998.450 7        46.696                                    21949234.027 7  89878368.74607     -2336.454 7        44.919    21949234.712 7  89878377.73207     -2336.459 7        42.341
S44        42.000    40835709.299 6 214593146.45106      -517.514 6        37.025
C36        43.000                                                                                                                                    21385467.185 8 111359716.24208      -559.741 8        51.206                                                                    21385473.448 8  90488906.21508      -454.732 8        49.729
C05        44.000                                                                                                                                    39301155.579 6 204651364.29706      -569.296 6        37.985    39301157.920 7 158249413.87807      -440.196 7        43.585    39301157.995 6 166296078.96306      -462.574 6        39.892
G18        46.000    25396587.658 6 133459931.79106     -2177.993 6        37.701                                    25396587.493 2 103994727.39002     -1697.129 2        17.774    25396588.356 6 103994717.38006     -1697.129 6        37.365
R11        47.000    22354930.504 7 119457873.04807     -4380.469 7        44.734                                                                    22354934.390 7  92911661.73307     -3407.133 7        42.946
C45        50.000                                                                                                                                    23484962.699 7 122292366.34607      2007.801 7        47.365                                                                    23484957.376 7  99372549.29407      1631.579 7        47.474
S48        51.000    77102706.087 6 405176015.32706      -501.870 6        37.705
E06        52.000    23312143.962 8 122506127.68808     -1218.130 8        48.523                                                                    23312146.223 8  91481848.33108      -909.597 8        50.548    23312145.884 8  93868330.57208      -933.346 8        51.239
C09        53.000                                                                                                                                    40846274.401 6 212697127.09006     -1138.336 6        36.068    40846279.878 6 164470860.20506      -880.256 6        40.682    40846275.842 6 172833785.06906      -925.049 6        36.370
C60        54.000                                                                                                                                    40835716.304 6 212642317.54006      -512.886 6        40.546                                                                    40835708.029 6 172789234.72106      -417.067 6        38.339
E31        55.000    23834901.168 8 125253251.95908      1000.523 8        48.541                                                                    23834904.293 8  93533304.14508       747.157 8        49.726    23834903.746 8  95973299.56308       766.640 8        50.534
G07        56.000    24434933.667 6 128406322.83806     -3310.834 6        39.435                                    24434937.110 5 100056823.75305     -2579.862 5        31.721    24434936.735 6 100056832.72906     -2579.708 6        36.760
C02        57.000                                                                                                                                    40880334.869 5 212874491.73905      -560.123 5        33.000    40880339.848 6 164608006.11106      -433.348 6        37.157    40880340.698 5 172977926.44705      -455.208 5        32.988
I03        58.000    95596361.428 6 299355167.76506       846.854 6        40.887
C21        59.000                                                                                                                                    24012290.593 7 125038251.31807      1883.776 7        46.458                                                                    24012287.315 7 101603787.98007      1530.777 7        46.573
C22        60.000                                                                                                                                    21689086.052 8 112940717.96008     -1138.497 8        52.071                                                                    21689081.401 8  91773551.46308      -925.064 8        49.668
> 2025 01 02 08 30 15.0000000  0 55
E24         1.000    27400755.209 6 143991993.63106      2640.414 6        40.462                                                                    27400762.258 7 107526538.40307      1971.849 7        42.506    27400760.619 7 110331569.58607      2023.300 7        43.071
G15         2.000    21330888.379 7 112094530.85907      2126.995 7        46.400                                    21330887.037 7  87346364.36507      1657.402 7        44.820    21330887.494 7  87346359.36807      1657.429 7        42.995
E15         3.000    28429212.319 5 149396499.23805        99.658 5        35.010                                                                    28429217.300 6 111562316.75206        74.428 6        40.746    28429216.703 6 114472634.74406        76.226 6        41.733
G08         4.000    24692725.609 6 129761156.25806     -2417.926 6        37.025                                    24692731.087 4 101112610.06304     -1884.099 4        29.953    24692732.125 6 101112606.06406     -1884.124 6        37.471
S21         5.000    38387807.807 6 201728917.93106      -513.010 6        41.647
E05         6.000    24949597.655 6 131110980.99406      2009.559 6        40.841                                                                    24949601.795 7  97907524.69007      1500.617 7        44.470    24949600.748 7 100461633.57607      1539.740 7        44.733
G20         7.000    23750214.707 6 124808099.30706     -4075.723 6        40.563                                    23750217.522 3  97253012.96503     -3175.878 3        23.105
R02         8.000    19107579.494 8 101961667.45608     -1066.235 8        52.304                                                                    19107581.023 7  79303510.05807      -829.235 7        46.542
R20         9.000    23704863.256 5 126760603.42505       333.484 5        31.011                                                                    23704873.540 6  98591601.83606       259.244 6        39.393
G24        10.000    24758962.136 6 130109200.49706      3017.986 6        36.355                                    24758965.654 4 101383800.76504      2351.686 4        27.737    24758965.208 5 101383805.76605      2351.759 5        35.090
G30        11.000    21652692.798 7 113785626.82207     -2638.750 7        46.068                                    21652694.171 7  88664103.50707     -2056.165 7        46.215    21652694.960 7  88664111.49507     -2056.091 7        43.020
S27        12.000    39082012.891 5 205377276.49505      -544.671 5        35.290
G13        13.000    19862713.917 8 104379233.73408       159.061 8        48.780                                    19862710.975 6  81334437.99106       123.943 6        40.577
S36        14.000    38157016.129 7 200516936.42507      -513.699 7        44.120
I09        15.000    39908524.294 6 156609410.55206     -1046.825 6        39.877
E09        16.000    23464420.239 8 123306346.22608        51.801 8        48.554                                                                    23464421.998 8  92079403.06208        38.753 8        50.712    23464421.540 8  94481471.90408        39.737 8        51.393
S45        17.000    63338453.503 6 332845959.36016      -560.545 6        36.015
E36        18.000    28843296.621 4 151572454.51504     -3292.274 4        28.209                                                                    28843304.496 5 113187215.24005     -2458.842 5        31.117    28843303.159 5 116139926.66605     -2523.064 5        30.445
R19        19.000    24462876.817 5 130859852.02905     -3146.307 5        31.011                                                                    24462876.135 6 101779879.14406     -2446.996 6        36.601
E21        20.000    28772509.781 5 151200410.13005     -3452.707 5        31.230                                                                    28772520.140 6 112909369.23406     -2578.023 6        36.586    28772518.911 6 115854832.41306     -2645.544 6        37.217
R03        21.000    20961079.040 8 112206257.97908      2784.924 8        50.209                                                                    20961079.861 7  87271523.87507      2166.035 7        45.371
I06        22.000    38010868.693 7 149162949.70307      -457.435 7        43.054
S28        23.000    40827335.868 5 214548952.09005      -521.238 5        34.557
S23        25.000    38089671.691 7 200162508.08007      -512.991 7        43.924
R01        26.000    21685627.260 7 115922004.39807     -4386.087 7        44.328                                                                    21685633.743 6  90161524.46606     -3411.356 6        39.183
C07        27.000                                                                                                                                    38921111.257 6 202672406.75206        20.146 6        41.335    38921108.616 7 156719148.24107        15.629 7        44.224    38921106.001 6 164687909.40906        16.500 6        40.942
C40        29.000                                                                                                                                    38925335.961 7 202694420.83407        75.021 7        43.429                                                                    38925337.166 7 164705821.18107        60.750 7        42.336
G17        30.000    24311695.667 6 127758848.40106      2470.576 6        40.169                                    24311701.976 5  99552384.38605      1925.109 5        32.808    24311702.544 6  99552381.41106      1924.958 6        37.554
G14        31.000    20460821.480 8 107522341.45308      -344.580 8        48.119                                    20460819.932 6  83783641.97006      -268.508 6        40.336    20460819.733 8  83783627.96608      -268.498 8        48.474
G23        32.000    24761875.545 6 130124494.39206      2559.462 6        39.021                                    24761874.760 3 101395687.50703      1994.391 3        22.114    24761875.057 6 101395682.50306      1994.451 6        39.985
I02        33.000    37523851.438 7 147251649.54407       133.877 7        42.364
E04        34.000    24534041.766 7 128927237.27007     -2367.430 7        46.000                                                                    24534043.928 8  96276826.94708     -1767.872 8        49.246    24534043.181 8  98788393.85708     -1814.015 8        49.698
R13        35.000    20543344.120 7 109700330.57907      2368.507 7        45.648
R12        36.000    19076954.207 8 101905648.07408     -1038.614 8        51.884                                                                    19076955.588 7  79259949.47207      -807.779 7        47.817
I01        37.000   393218189.190 5 239931542.21905     -3177.768 5        34.357
C10        38.000                                                                                                                                    38950124.655 6 202823514.32406       370.846 6        40.708    38950125.969 7 156836006.46307       286.755 7        44.621    38950123.180 6 164810707.10406       301.177 6        40.582
C19        39.000                                                                                                                                    24457520.199 7 127356619.69107     -3686.729 7        46.204                                                                    24457520.541 7 103487640.32807     -2995.848 7        45.246
E34        40.000    27913955.428 6 146688777.57906     -2089.840 6        37.777                                                                    27913959.987 6 109540305.21406     -1560.559 6        39.952    27913959.321 6 112397879.89106     -1601.372 6        40.276
G05        41.000    21952088.963 7 115358950.05607     -3000.853 7        46.093                                    21952088.214 7  89890055.99807     -2338.320 7        44.709    21952088.561 7  89890064.98907     -2338.268 7        42.461
S44        42.000    40836200.596 6 214595734.54006      -517.585 6        37.323
C36        43.000                                                                                                                                    21386005.666 8 111362520.48608      -561.712 8        51.330                                                                    21386011.963 8  90491184.87708      -456.507 8        49.669
C05        44.000                                                                                                                                    39301701.944 6 204654210.89606      -569.230 6        38.027    39301704.741 7 158251615.03407      -440.023 7        43.704    39301704.638 6 166298392.03506      -462.680 6        39.724
G18        46.000    25398662.420 6 133470827.23706     -2179.990 6        36.673                                    25398660.895 2 104003217.34802     -1698.688 2        16.943    25398661.677 6 104003207.32706     -1698.674 6        36.919
R11        47.000    22359030.173 7 119479777.92607     -4381.182 7        45.099                                                                    22359034.074 7  92928698.81107     -3407.543 7        43.302
C45        50.000                                                                                                                                    23483035.192 7 122282331.08207      2006.527 7        47.643                                                                    23483030.245 7  99364394.80907      1630.433 7        47.436
S48        51.000    77103191.732 6 405178523.85706      -501.303 6        37.437
E06        52.000    23313303.639 8 122512222.42008     -1219.495 8        48.384                                                                    23313306.018 8  91486399.58008      -910.704 8        50.621    23313305.669 8  93873000.55008      -934.447 8        51.278
C09        53.000                                                                                                                                    40847367.333 6 212702819.03006     -1138.184 6        36.132    40847373.719 6 164475261.54906      -880.011 6        40.944    40847368.895 6 172838410.19106      -924.835 6        36.386
C60        54.000                                                                                                                                    40836209.197 6 212644882.08806      -512.750 6        40.617                                                                    40836200.833 6 172791318.59506      -416.665 6        38.189
E31        55.000    23833950.144 8 125248254.72008       998.611 8        48.424                                                                    23833953.410 8  93529572.43708       745.726 8        49.888    23833952.759 8  95969470.50808       765.137 8        50.536
G07        56.000    24438083.322 6 128422876.97606     -3311.042 6        38.691                                    24438087.283 5 100069723.01405     -2580.019 5        31.019    24438086.175 6 100069731.98506     -2579.914 6        36.495
C02        57.000                                                                                                                                    40880872.667 5 212877293.74905      -560.085 5        33.030    40880877.749 6 164610172.77906      -433.219 6        36.888    40880878.777 5 172980203.29905      -455.197 5        32.862
I03        58.000    95595282.442 6 299350933.66906       846.940 6        41.135
C21        59.000                                                                                                                                    24010482.808 7 125028837.20007      1882.188 7        46.702                                                                    24010479.439 7 101596138.23007      1529.365 7        46.564
C22        60.000                                                                                                                                    21690180.558 8 112946417.73808     -1141.108 8        52.113                                                                    21690176.001 8  91778182.97608      -927.280 8        49.715
> 2025 01 02 08 30 20.0000000  0 55
E24         1.000    27398243.004 6 143978792.75106      2639.924 6        40.319                                                                    27398250.286 7 107516680.62307      1971.337 7        42.717    27398248.562 7 110321454.63307      2022.830 7        43.209
G15         2.000    21328865.370 7 112083902.09607      2124.760 7        46.611                                    21328864.455 7  87338082.20707      1655.658 7        44.692    21328864.353 7  87338077.21307      1655.580 7        42.610
E15         3.000    28429119.406 5 149396008.56805        96.933 5        34.814                                                                    28429123.752 6 111561950.34906        72.490 6        40.505    28429123.010 6 114472258.77006        74.325 6        41.251
G08         4.000    24695027.615 6 129773253.75306     -2420.819 6        38.273                                    24695033.226 5 101122036.66605     -1886.349 5        30.053    24695033.508 6 101122032.66206     -1886.217 6        37.202
S21         5.000    38388292.244 6 201731483.99206      -513.338 6        41.442
E05         6.000    24947685.996 6 131100935.10106      2009.001 6        40.706                                                                    24947690.088 7  97900022.89407      1500.294 7        44.369    24947689.044 7 100453936.07807      1539.381 7        44.743
G20         7.000    23754093.044 6 124828479.94706     -4076.366 6        40.822                                    23754095.711 3  97268893.93703     -3176.366 3        23.010
R02         8.000    19108580.594 8 101967009.01808     -1070.276 8        52.408                                                                    19108582.004 7  79307664.61207      -832.435 7        46.813
R20         9.000    23704556.936 5 126758947.31505       329.101 5        30.536                                                                    23704563.598 6  98590313.77706       256.041 6        38.940
G24        10.000    24756091.694 6 130094113.04606      3017.442 6        37.777                                    24756094.564 4 101372044.26304      2351.261 4        27.389    24756094.591 5 101372049.24505      2351.310 5        33.461
G30        11.000    21655204.119 7 113798824.67107     -2640.149 7        46.294                                    21655205.640 7  88674387.52507     -2057.255 7        46.049    21655206.089 7  88674395.51607     -2057.231 7        43.088
S27        12.000    39082532.288 5 205380000.73605      -544.862 5        34.952
G13        13.000    19862563.967 8 104378445.53508       156.445 8        48.866                                    19862560.988 6  81333823.80706       121.905 6        40.472
S36        14.000    38157506.702 7 200519504.82007      -513.619 7        43.962
I09        15.000    39909858.119 6 156614644.79106     -1046.835 6        40.026
E09        16.000    23464371.711 8 123306091.36608        50.264 8        48.422                                                                    23464373.471 8  92079212.74208        37.624 8        50.591    23464373.056 8  94481276.62008        38.546 8        51.351
S45        17.000    63338945.212 6 332848762.64006      -560.649 6        36.159
E36        18.000    28846430.628 4 151588917.46404     -3292.663 4        24.917                                                                    28846437.332 4 113199509.00304     -2458.825 4        29.801    28846435.839 4 116152541.10904     -2522.742 4        28.938
R19        19.000    24465817.940 5 130875590.23105     -3148.849 5        33.084                                                                    24465819.546 6 101792119.98506     -2449.185 6        36.291
E21        20.000    28775794.517 5 151217675.14005     -3453.171 5        30.785                                                                    28775805.526 6 112922261.87206     -2578.566 6        36.507    28775804.285 6 115868061.41506     -2646.080 6        37.146
R03        21.000    20958479.369 8 112192339.45108      2782.660 8        50.765                                                                    20958479.230 7  87260698.34507      2164.367 7        45.139
I06        22.000    38011452.032 7 149165237.53207      -457.530 7        43.084
S28        23.000    40827831.096 5 214551560.43305      -521.426 5        34.571
S23        25.000    38090157.386 7 200165074.26007      -513.114 7        43.617
R01        26.000    21689731.676 7 115943940.51407     -4388.178 7        44.474                                                                    21689737.403 6  90178585.83406     -3413.141 6        39.667
C07        27.000                                                                                                                                    38921092.859 6 202672308.51906        19.448 6        41.228    38921089.826 7 156719072.28207        14.957 7        44.098    38921087.283 6 164687829.57406        15.716 6        40.894
C40        29.000                                                                                                                                    38925264.422 7 202694048.81507        73.966 7        43.253                                                                    38925265.702 7 164705518.86007        60.223 7        42.423
G17        30.000    24309345.616 6 127746497.76506      2469.944 6        40.226                                    24309351.740 5  99542760.57805      1924.619 5        32.892    24309352.196 6  99542757.60106      1924.551 6        37.580
G14        31.000    20461150.937 8 107524072.89808      -347.763 8        48.042                                    20461149.410 6  83784991.14706      -270.984 6        40.403    20461149.317 8  83784977.14508      -271.010 8        48.029
G23        32.000    24759440.864 6 130111701.84106      2557.808 6        39.261                                    24759440.530 3 101385719.27603      1993.102 3        22.705    24759440.294 6 101385714.27906      1993.053 6        39.718
I02        33.000    37523681.086 7 147250981.68707       133.418 7        42.252
