     3.04           OBSERVATION DATA    M                   RINEX VERSION / TYPE
ssrcrin-15.6.1x                         20250102 003000 UTC PGM / RUN BY / DATE 
(00000000023479385599111004) Septentrio proprietary         COMMENT             
rref                                                        MARKER NAME         
01                                                          MARKER NUMBER       
geodetic                                                    MARKER TYPE         
NFB                 CLIMERS@TUW                             OBSERVER / AGENCY   
3297213             SEPT ASTERX SB3 PROB4.14.4              REC # / TYPE / VERS 
Unknown             Unknown                                 ANT # / TYPE        
  4127832.0503  1207193.3026  4695247.5639                  APPROX POSITION XYZ 
        0.0000        0.0000        0.0000                  ANTENNA: DELTA H/E/N
G   23 X1  C1C L1C D1C S1C C1W S1W C2W L2W D2W S2W C2L L2L  SYS / # / OBS TYPES 
       D2L S2L C5Q L5Q D5Q S5Q C1L L1L D1L S1L              SYS / # / OBS TYPES 
E   21 X1  C1C L1C D1C S1C C6C L6C D6C S6C C5Q L5Q D5Q S5Q  SYS / # / OBS TYPES 
       C7Q L7Q D7Q S7Q C8Q L8Q D8Q S8Q                      SYS / # / OBS TYPES 
S    9 X1  C1C L1C D1C S1C C5I L5I D5I S5I                  SYS / # / OBS TYPES 
R   17 X1  C1C L1C D1C S1C C2P L2P D2P S2P C2C L2C D2C S2C  SYS / # / OBS TYPES 
       C3Q L3Q D3Q S3Q                                      SYS / # / OBS TYPES 
C   25 X1  C1P L1P D1P S1P C5P L5P D5P S5P C2I L2I D2I S2I  SYS / # / OBS TYPES 
       C7I L7I D7I S7I C6I L6I D6I S6I C7D L7D D7D S7D      SYS / # / OBS TYPES 
J   17 X1  C1C L1C D1C S1C C2L L2L D2L S2L C5Q L5Q D5Q S5Q  SYS / # / OBS TYPES 
       C1L L1L D1L S1L                                      SYS / # / OBS TYPES 
I    5 X1  C5A L5A D5A S5A                                  SYS / # / OBS TYPES 
SEPTENTRIO RECEIVERS OUTPUT ALIGNED CARRIER PHASES.         COMMENT             
NO FURTHER PHASE SHIFT APPLIED IN THE RINEX ENCODER.        COMMENT             
G L1C                                                       SYS / PHASE SHIFT   
G L2W                                                       SYS / PHASE SHIFT   
G L2L  0.00000                                              SYS / PHASE SHIFT   
G L5Q  0.00000                                              SYS / PHASE SHIFT   
G L1L  0.00000                                              SYS / PHASE SHIFT   
E L1C  0.00000                                              SYS / PHASE SHIFT   
E L6C  0.00000                                              SYS / PHASE SHIFT   
E L5Q  0.00000                                              SYS / PHASE SHIFT   
E L7Q  0.00000                                              SYS / PHASE SHIFT   
E L8Q  0.00000                                              SYS / PHASE SHIFT   
S L1C                                                       SYS / PHASE SHIFT   
S L5I                                                       SYS / PHASE SHIFT   
R L1C                                                       SYS / PHASE SHIFT   
R L2P  0.00000                                              SYS / PHASE SHIFT   
R L2C                                                       SYS / PHASE SHIFT   
R L3Q  0.00000                                              SYS / PHASE SHIFT   
C L1P  0.00000                                              SYS / PHASE SHIFT   
C L5P  0.00000                                              SYS / PHASE SHIFT   
C L2I                                                       SYS / PHASE SHIFT   
C L7I                                                       SYS / PHASE SHIFT   
C L6I                                                       SYS / PHASE SHIFT   
C L7D                                                       SYS / PHASE SHIFT   
J L1C                                                       SYS / PHASE SHIFT   
J L2L  0.00000                                              SYS / PHASE SHIFT   
J L5Q  0.00000                                              SYS / PHASE SHIFT   
J L1L  0.00000                                              SYS / PHASE SHIFT   
I L5A                                                       SYS / PHASE SHIFT   
  2025     1     2     0    30    0.0000000     GPS         TIME OF FIRST OBS   
 C1C    0.000 C2C    0.000 C2P    0.000                     GLONASS COD/PHS/BIS 
DBHZ                                                        SIGNAL STRENGTH UNIT
    18                                                      LEAP SECONDS        
 24 R01  1 R02 -4 R03  5 R04  6 R05  1 R06 -4 R07  5 R08  6 GLONASS SLOT / FRQ #
    R09 -2 R10 -7 R11  0 R12 -1 R13 -2 R14 -7 R15  0 R16 -1 GLONASS SLOT / FRQ #
    R17  4 R18 -3 R19  3 R20  2 R21  4 R22 -3 R23  3 R24  2 GLONASS SLOT / FRQ #
                                                            END OF HEADER       
> 2025 01 02 00 30  0.0000000  0 53
C33         3.000                                                                                                                                    27268479.752 6 141994152.75806     -3615.830 6        36.378                                                                    27268491.696 6 115381938.08906     -2938.078 6        36.934
S21         5.000    38460053.035 7 202108711.04707      -459.827 7        42.231
E10         6.000    28434073.738 6 149422066.55306      2290.851 6        37.660                                                                    28434073.061 6 111581407.48306      1710.779 6        40.076    28434072.593 6 114492226.56806      1755.481 6        40.091
G28         7.000    23482435.272 7 123401043.78807       987.917 7        42.152                                    23482432.013 4  96156639.58404       769.794 4        28.635    23482431.692 7  96156647.60807       769.688 7        42.629
G03         8.000    20396212.365 8 107182918.14308       925.662 8        48.803                                    20396209.943 8  83519198.73008       721.292 8        50.437    20396210.514 7  83519196.72307       721.254 7        45.020
G02         9.000    20786028.008 8 109231369.83808     -1115.137 8        49.653                                    20786020.945 7  85115348.75407      -868.940 7        42.902
G31        10.000    23780305.629 6 124966353.56706      2405.518 6        40.768                                    23780300.750 5  97376361.90205      1874.424 5        34.948    23780300.769 6  97376366.90006      1874.438 6        37.002
C30        11.000                                                                                                                                    21945353.656 8 114275232.22608      -462.236 8        51.793                                                                    21945353.404 8  92857990.59208      -375.644 8        49.016
S27        12.000    39107999.618 5 205513911.09805      -439.499 5        35.971
R20        13.000    22328857.008 5 119402470.80205     -4379.928 5        34.243                                                                    22328857.299 6  92868653.98206     -3406.734 6        41.917
S36        14.000    38227648.059 7 200888172.43007      -459.398 7        43.941
I09        15.000    37137294.364 7 145734722.03607      -350.103 7        43.179
G19        16.000    24059310.028 6 126432540.83306      2706.036 6        39.958                                    24059304.141 4  98518844.92904      2108.594 4        25.564
S45        17.000    63427712.182 6 333316063.43506      -501.066 6        37.327
E12        19.000    26418722.834 6 138831332.12306      1976.528 6        39.111                                                                    26418719.074 7 103672736.17707      1475.921 7        42.550    26418718.940 7 106377241.85707      1514.476 7        42.487
G17        20.000    22535601.617 7 118425411.73007       873.732 7        45.117                                    22535596.737 7  92279532.20207       680.831 7        42.794    22535596.823 6  92279531.20506       680.795 6        41.430
E26        21.000    25068575.891 7 131736602.14607     -2502.132 7        44.855                                                                    25068573.508 8  98374932.18908     -1868.433 8        48.107    25068573.178 8 100941210.35208     -1917.229 8        48.812
I06        22.000    38257468.456 7 150130761.66107      -240.480 7        43.537
S28        23.000    40902728.832 5 214945306.03405      -452.581 5        34.210
G08        24.000    25014358.626 6 131451345.78906     -4145.716 6        37.051                                    25014356.962 4 102429617.67204     -3230.431 4        29.232    25014358.331 5 102429618.67305     -3230.310 5        35.552
S23        25.000    38178483.083 7 200629249.04707      -456.462 7        44.912
C13        26.000                                                                                                                                    41162795.091 6 214345660.56706     -1141.070 6        36.060    41162797.323 6 165745769.06006      -882.404 6        38.465    41162795.167 5 174173491.37505      -927.170 5        35.833
E24        27.000    28425505.161 6 149377079.80006     -2129.851 6        37.093                                                                    28425503.015 6 111547833.96906     -1590.442 6        39.033    28425502.940 6 114457773.76306     -1631.979 6        39.859
R21        29.000    19257057.380 8 103048411.09208     -1346.454 8        51.353                                                                    19257055.418 7  80148768.09007     -1047.289 7        46.371
E19        30.000    25847809.006 6 135831179.12006      2536.983 6        37.323                                                                    25847807.411 6 101432373.99206      1894.524 6        39.937    25847807.022 6 104078432.97806      1943.840 6        40.875
R05        31.000    21983530.403 7 117514611.17207     -4220.335 7        46.141                                                                    21983530.826 7  91400262.58807     -3282.458 7        42.957
R13        32.000    24608046.223 6 131405605.69306     -2937.311 6        38.435
E29        33.000    23801168.455 8 125076068.12508       776.943 8        48.408                                                                    23801166.418 8  93400975.10508       580.215 8        50.563    23801166.270 8  95837516.75908       595.331 8        50.769
C16        35.000                                                                                                                                    39125612.456 7 203737360.99407       397.153 7        42.191    39125612.024 7 157542663.19307       307.053 7        43.003    39125609.477 6 165553294.65006       322.762 6        39.129
C32        36.000                                                                                                                                    22056668.448 8 114854918.21008       592.349 8        51.520                                                                    22056667.817 8  93329050.82108       481.244 8        49.862
G32        37.000    23724542.171 7 124673349.40607     -3424.996 7        43.010                                    23724539.928 6  97148066.36306     -2668.830 6        38.538    23724540.508 6  97148075.36406     -2668.852 6        40.117
E07        38.000    25131158.107 7 132065147.46907     -2176.707 7        44.363                                                                    25131158.379 8  98620116.04808     -1625.476 8        48.061    25131157.847 8 101192807.05808     -1667.918 8        48.355
C41        39.000                                                                                                                                    23047896.010 8 120016472.62708     -2493.836 8        49.569                                                                    23047900.666 8  97523244.33608     -2026.502 8        49.712
C39        40.000                                                                                                                                    38992119.018 7 203042223.23607       -38.742 7        43.541                                                                    38992114.510 7 164988433.88007       -31.482 7        43.376
E33        41.000    23233823.554 8 122094656.29508      -215.421 8        48.288                                                                    23233821.125 8  91174614.61008      -160.868 8        50.790    23233821.002 8  93553078.67408      -165.083 8        51.162
S44        42.000    40590465.306 6 213304554.95406      -527.287 6        37.924
R06        43.000    19208214.078 6 102498779.66606      -155.100 6        40.925
C05        44.000                                                                                                                                    39141832.181 6 203821832.19006      -448.571 6        38.544    39141826.329 7 157607995.35107      -346.976 7        43.490    39141828.815 6 165622038.90006      -364.557 6        40.343
C29        45.000                                                                                                                                    24805607.517 7 129169328.38507      2348.395 7        43.342                                                                    24805605.695 7 104960657.34007      1908.266 7        43.418
G04        46.000    23246776.047 6 122162654.98906      3145.360 6        41.066                                    23246772.333 4  95191663.26404      2450.926 4        28.218    23246772.290 6  95191665.26906      2450.939 6        41.940
E25        47.000    28521328.511 6 149880614.54306       -81.124 6        36.476                                                                    28521329.266 6 111923840.02606       -60.591 6        40.405    28521328.674 6 114843589.61106       -62.123 6        40.226
R22        48.000    20947283.483 8 111818048.08908      2724.363 8        50.312                                                                    20947281.077 7  86969590.57807      2118.959 7        46.410
C20        49.000                                                                                                                                    25864877.918 7 134685219.48507      2623.530 7        42.991                                                                    25864872.644 6 109442754.63906      2131.755 6        41.564
C06        50.000                                                                                                                                    38772790.747 6 201900126.16706       520.057 6        40.641    38772785.119 7 156121967.57107       402.078 7        43.365    38772784.955 6 164060371.25206       422.525 6        40.946
S48        51.000    77215492.740 6 405771270.51806      -464.628 6        37.561
G21        52.000    21644656.873 7 113743513.10107     -2413.991 7        45.302                                    21644651.559 5  88631330.89905     -1881.029 5        35.967
C09        53.000                                                                                                                                    39598957.528 6 206202175.14106       910.779 6        41.147    39598953.694 7 159448591.09107       704.257 7        44.057    39598951.663 6 167556136.50506       740.106 6        40.794
C60        54.000                                                                                                                                    40590469.901 6 211365442.15906      -522.516 6        40.777                                                                    40590453.009 6 171751707.36506      -424.487 6        39.339
C27        55.000                                                                                                                                    23117618.936 8 120379524.70008     -3178.311 8        49.055                                                                    23117617.611 7  97818227.93107     -2582.729 7        47.084
R14        56.000    23844679.475 7 127105576.30207       204.021 7        43.333                                                                    23844680.725 6  98859911.05006       158.711 6        40.086
C02        57.000                                                                                                                                    40566792.418 5 211241990.69205      -493.376 5        34.400    40566784.420 6 163345704.01506      -381.683 6        40.560    40566787.626 5 171651426.84705      -400.992 5        35.800
I03        58.000   104668860.749 6 334957864.75606       947.607 6        41.218
R07        59.000    21455746.002 8 114854346.49908      2939.199 8        49.718                                                                    21455744.145 7  89331210.81207      2286.005 7        44.570
> 2025 01 02 00 30  5.0000000  0 53
C33         3.000                                                                                                                                    27271951.114 6 142012230.80706     -3615.729 6        36.257                                                                    27271963.378 6 115396627.96206     -2937.897 6        36.881
S21         5.000    38460490.861 6 202111009.83706      -459.797 6        41.988
E10         6.000    28431893.866 6 149410610.66406      2291.028 6        37.478                                                                    28431893.103 6 111572852.74406      1710.937 6        40.176    28431892.531 6 114483448.67606      1755.512 6        40.367
G28         7.000    23481496.464 6 123396110.08306       985.320 6        41.902                                    23481493.299 4  96152795.14704       767.781 4        28.626    23481492.813 7  96152803.15907       767.691 7        42.222
G03         8.000    20395332.482 8 107178294.09108       923.742 8        48.889                                    20395330.004 8  83515595.57308       719.798 8        50.586    20395330.695 7  83515593.57607       719.806 7        44.819
G02         9.000    20787090.178 8 109236950.65908     -1117.426 8        49.936                                    20787082.951 7  85119697.44707      -870.722 7        43.016
G31        10.000    23778017.830 6 124954328.88206      2404.002 6        40.737                                    23778012.290 5  97366992.01705      1873.248 5        34.986    23778013.535 6  97366997.00906      1873.360 6        37.346
C30        11.000                                                                                                                                    21945798.680 8 114277549.76408      -464.929 8        52.000                                                                    21945798.470 8  92859873.77708      -377.798 8        49.112
S27        12.000    39108416.132 5 205516109.28405      -439.742 5        35.486
R20        13.000    22332952.261 5 119424374.41605     -4381.756 5        34.638                                                                    22332953.378 7  92885690.15307     -3407.935 7        42.074
S36        14.000    38228087.870 7 200890469.10407      -459.465 7        43.862
I09        15.000    37137740.509 7 145736472.20307      -350.158 7        43.141
G19        16.000    24056736.521 6 126419014.76706      2704.186 6        40.546                                    24056730.190 4  98508305.15004      2107.151 4        25.684
S45        17.000    63428144.141 6 333318567.60706      -501.011 6        37.543
E12        19.000    26416842.069 6 138821449.94306      1976.253 6        39.021                                                                    26416838.653 7 103665356.61907      1475.661 7        42.616    26416838.331 7 106369669.79107      1514.128 7        42.605
G17        20.000    22534771.483 7 118421049.40207       871.024 7        45.391                                    22534766.643 7  92276132.98607       678.718 7        42.857    22534767.221 6  92276131.98706       678.736 6        41.454
E26        21.000    25070957.083 7 131749114.91307     -2503.284 7        44.971                                                                    25070954.642 8  98384276.12708     -1869.322 8        48.081    25070954.252 8 100950798.04608     -1918.060 8        48.797
I06        22.000    38257775.019 7 150131963.79907      -240.489 7        43.424
S28        23.000    40903159.646 5 214947568.29105      -452.354 5        34.071
G08        24.000    25018302.861 6 131472071.68806     -4145.085 6        36.922                                    25018301.027 4 102445767.71104     -3229.938 4        29.270    25018302.479 5 102445768.72105     -3230.324 5        35.329
S23        25.000    38178917.769 7 200631530.66807      -456.378 7        44.968
C13        26.000                                                                                                                                    41163890.556 6 214351365.50006     -1140.821 6        36.140    41163892.481 6 165750180.49206      -882.465 6        37.947    41163890.604 5 174178127.12405      -927.313 5        35.995
E24        27.000    28427531.940 6 149387732.48506     -2131.302 6        36.945                                                                    28427530.192 6 111555788.90006     -1591.648 6        38.922    28427529.889 6 114465936.21506     -1633.085 6        39.673
R21        29.000    19258316.970 8 103055152.43108     -1350.332 8        51.431                                                                    19258315.348 7  80154011.36007     -1050.202 7        46.251
E19        30.000    25845395.601 6 135818495.30406      2536.361 6        37.527                                                                    25845393.970 6 101422902.31906      1894.121 6        40.122    25845393.311 6 104068714.20506      1943.371 6        40.934
R05        31.000    21987478.743 7 117535714.62307     -4221.291 7        46.668                                                                    21987478.699 7  91416676.38007     -3283.230 7        43.994
R13        32.000    24610796.933 6 131420297.41706     -2939.718 6        36.968
E29        33.000    23800430.040 8 125072187.94408       774.892 8        48.397                                                                    23800428.043 8  93398077.56808       578.650 8        50.561    23800427.892 8  95834543.63008       593.745 8        50.830
C16        35.000                                                                                                                                    39125231.178 7 203735376.46707       396.306 7        42.516    39125230.462 7 157541128.62807       306.555 7        42.969    39125228.280 6 165551682.05506       322.166 6        38.835
C32        36.000                                                                                                                                    22056100.588 8 114851961.19808       590.307 8        51.786                                                                    22056099.945 8  93326648.00008       479.698 8        49.903
G32        37.000    23727801.612 7 124690477.06407     -3426.303 7        42.563                                    23727799.352 6  97161412.58306     -2669.844 6        38.700    23727799.403 6  97161421.58906     -2669.831 6        40.010
E07        38.000    25133230.086 7 132076034.95207     -2178.315 7        44.272                                                                    25133230.218 7  98628246.30607     -1626.684 7        47.927    25133229.653 8 101201149.41308     -1669.144 8        48.385
C41        39.000                                                                                                                                    23050291.311 8 120028944.68208     -2495.169 8        49.354                                                                    23050295.802 8  97533378.89308     -2027.456 8        49.687
C39        40.000                                                                                                                                    38992156.268 7 203042418.71507       -39.701 7        43.609                                                                    38992152.108 7 164988592.70707       -32.181 7        43.386
E33        41.000    23234029.103 8 122095736.27908      -216.894 8        48.507                                                                    23234026.665 8  91175421.09108      -161.936 8        50.731    23234026.445 8  93553906.19408      -166.149 8        51.197
S44        42.000    40590968.837 6 213307190.51106      -527.107 6        38.189
R06        43.000    19208361.481 6 102499562.61806      -158.379 6        41.230
C05        44.000                                                                                                                                    39142262.731 6 203824074.78406      -448.473 6        38.592    39142257.389 7 157609729.46907      -346.815 7        43.380    39142259.549 6 165623861.19706      -364.469 6        40.484
C29        45.000                                                                                                                                    24803353.294 7 129157588.48107      2347.312 7        44.020                                                                    24803351.069 7 104951117.71107      1907.436 7        43.365
G04        46.000    23243783.302 6 122146930.17406      3144.445 6        40.586                                    23243780.044 4  95179410.17004      2450.215 4        28.322    23243780.003 6  95179412.17106      2450.179 6        41.735
E25        47.000    28521406.976 6 149881025.21006       -83.462 6        36.560                                                                    28521407.450 6 111924146.69206       -62.226 6        40.384    28521406.901 6 114843904.27806       -63.816 6        40.784
R22        48.000    20944732.265 8 111804430.54708      2722.326 8        50.029                                                                    20944730.102 7  86958999.14807      2117.311 7        46.024
C20        49.000                                                                                                                                    25862358.974 7 134672102.93507      2622.954 7        43.270                                                                    25862353.733 6 109432096.37506      2131.284 6        41.666
C06        50.000                                                                                                                                    38772292.078 6 201897527.66806       519.300 6        40.851    38772285.944 7 156119958.23907       401.486 7        43.225    38772285.985 6 164058259.73006       421.964 6        41.163
S48        51.000    77215926.868 6 405773593.17606      -464.851 6        37.452
G21        52.000    21646954.538 7 113755586.44607     -2415.595 7        45.085                                    21646948.998 6  88640738.70106     -1882.281 6        36.163
C09        53.000                                                                                                                                    39598083.020 6 206197622.44606       910.169 6        41.266    39598079.113 7 159445070.66407       703.735 7        44.144    39598077.515 6 167552437.06706       739.583 6        40.808
C60        54.000                                                                                                                                    40590970.946 6 211368053.76806      -522.368 6        41.035                                                                    40590954.497 6 171753829.50406      -424.367 6        39.550
C27        55.000                                                                                                                                    23120671.671 8 120395419.87308     -3179.944 8        49.655                                                                    23120670.098 7  97831144.06007     -2583.998 7        47.062
R14        56.000    23844491.260 7 127104565.31707       200.130 7        43.852                                                                    23844491.396 6  98859124.68406       155.648 6        39.919
C02        57.000                                                                                                                                    40567265.730 5 211244457.10805      -493.596 5        34.510    40567258.014 6 163347611.18606      -381.492 6        40.429    40567261.175 5 171653430.98905      -400.717 5        35.933
I03        58.000   104667653.250 6 334953126.79006       947.478 6        40.989
R07        59.000    21453001.497 8 114839654.88408      2937.157 8        49.389                                                                    21452999.382 7  89319784.00107      2284.520 7        44.351
> 2025 01 02 00 30 10.0000000  0 53
C33         3.000                                                                                                                                    27275423.248 6 142030307.88606     -3615.399 6        36.189                                                                    27275435.050 6 115411317.07106     -2937.633 6        36.669
S21         5.000    38460928.409 6 202113308.90606      -459.802 6        41.819
E10         6.000    28429713.723 6 149399154.01706      2291.473 6        37.233                                                                    28429713.065 6 111564297.47306      1711.072 6        40.088    28429712.422 6 114474670.22606      1755.702 6        40.360
G28         7.000    23480560.590 7 123391190.04507       982.589 7        42.356                                    23480556.906 4  96148961.35604       765.654 4        28.588    23480556.246 6  96148969.34706       765.703 6        41.602
G03         8.000    20394454.492 8 107173679.84408       921.707 8        48.955                                    20394451.938 8  83512000.05508       718.212 8        50.462    20394452.565 7  83511998.05907       718.223 7        44.543
G02         9.000    20788154.343 8 109242542.80808     -1119.574 8        49.978                                    20788147.089 7  85124054.96607      -872.399 7        42.853
G31        10.000    23775730.624 6 124942311.86206      2402.538 6        41.006                                    23775725.435 5  97357628.11005      1872.107 5        34.929    23775726.658 6  97357633.10906      1872.145 6        38.000
C30        11.000                                                                                                                                    21946246.124 8 114279880.78508      -467.575 8        52.100                                                                    21946246.165 8  92861767.91408      -379.730 8        49.070
S27        12.000    39108834.658 6 205518307.56606      -439.768 6        36.136
R20        13.000    22337049.103 5 119446286.31505     -4383.250 5        34.414                                                                    22337051.302 7  92902732.73007     -3409.201 7        42.131
S36        14.000    38228522.789 7 200892765.59607      -459.231 7        43.742
I09        15.000    37138186.394 7 145738223.27807      -350.341 7        43.221
G19        16.000    24054164.061 6 126405497.97806      2702.389 6        40.229                                    24054158.113 4  98497772.59004      2105.755 4        25.805
S45        17.000    63428577.643 6 333319471.59016      -500.840 6        37.580
E12        19.000    26414962.400 6 138811569.81406      1975.882 6        38.991                                                                    26414958.495 7 103657978.60607      1475.377 7        42.641    26414958.184 7 106362099.31107      1513.844 7        42.392
G17        20.000    22533943.781 7 118416700.86007       868.255 7        45.541                                    22533939.143 7  92272744.51307       676.561 7        42.770    22533939.181 6  92272743.51406       676.573 6        41.192
E26        21.000    25073339.299 7 131761633.40807     -2504.250 7        44.876                                                                    25073336.924 8  98393624.36008     -1870.073 8        48.229    25073336.509 8 100960390.14408     -1918.886 8        48.701
I06        22.000    38258080.971 7 150133165.90207      -240.474 7        43.340
S28        23.000    40903590.943 5 214949830.45905      -452.567 5        34.029
G08        24.000    25022246.569 6 131492796.11306     -4145.007 6        36.870                                    25022244.703 4 102461916.61004     -3229.879 4        28.976    25022246.441 5 102461917.58305     -3229.523 5        35.076
S23        25.000    38179351.638 7 200633812.06907      -456.372 7        44.864
C13        26.000                                                                                                                                    41164985.736 6 214357069.97706     -1140.874 6        36.140    41164988.059 6 165754591.56206      -882.071 6        37.955    41164986.171 6 174182762.46906      -926.799 6        36.185
E24        27.000    28429561.157 6 149398393.65006     -2132.988 6        36.238                                                                    28429559.011 6 111563750.17006     -1592.988 6        39.069    28429558.760 6 114474105.17106     -1634.582 6        39.796
R21        29.000    19259580.491 8 103061913.64908     -1354.255 8        51.439                                                                    19259579.058 7  80159270.08607     -1053.303 7        46.295
E19        30.000    25842983.029 6 135805815.61306      2535.625 6        38.108                                                                    25842981.008 6 101413433.73406      1893.355 6        40.217    25842980.622 6 104058998.61606      1942.743 6        40.984
R05        31.000    21991428.036 7 117556823.05507     -4222.276 7        47.079                                                                    21991427.163 7  91433094.05107     -3284.002 7        43.970
R13        32.000    24613548.896 6 131435003.21606     -2942.639 6        38.153
E29        33.000    23799693.740 8 125068318.27708       772.865 8        48.322                                                                    23799691.678 8  93395187.88608       577.141 8        50.662    23799691.490 8  95831578.57408       592.129 8        50.779
C16        35.000                                                                                                                                    39124851.107 7 203733396.42407       395.461 7        42.631    39124850.725 7 157539597.54607       305.803 7        43.206    39124847.931 6 165550073.10406       321.573 6        39.039
C32        36.000                                                                                                                                    22055534.642 8 114849014.42508       588.273 8        51.913                                                                    22055534.083 8  93324253.49608       478.211 8        49.870
G32        37.000    23731061.617 7 124707611.67707     -3427.457 7        42.205                                    23731060.054 6  97174764.22306     -2670.747 6        38.483    23731059.962 6  97174773.22806     -2670.959 6        39.898
E07        38.000    25135303.487 7 132086931.13407     -2180.238 7        44.301                                                                    25135303.774 8  98636383.07008     -1628.073 8        48.028    25135303.183 8 101209498.43408     -1670.469 8        48.288
C41        39.000                                                                                                                                    23052687.300 8 120041423.37208     -2496.470 8        49.156                                                                    23052692.174 8  97543518.83608     -2028.363 8        49.710
C39        40.000                                                                                                                                    38992194.596 7 203042619.03807       -40.557 7        43.642                                                                    38992190.689 7 164988755.48507       -32.812 7        43.416
E33        41.000    23234236.125 8 122096823.87708      -218.289 8        48.293                                                                    23234233.630 8  91176233.26308      -163.049 8        50.849    23234233.414 8  93554739.55108      -167.252 8        51.098
S44        42.000    40591468.349 6 213309826.04106      -527.333 6        38.063
R06        43.000    19208510.943 6 102500363.43406      -162.126 6        41.080
C05        44.000                                                                                                                                    39142692.628 6 203826317.40306      -448.497 6        38.697    39142688.002 7 157611463.59807      -346.764 7        43.405    39142690.027 6 165625683.48606      -364.305 6        40.522
C29        45.000                                                                                                                                    24801100.041 7 129145854.82807      2346.018 7        43.954                                                                    24801097.854 7 104941583.15407      1906.573 7        43.522
G04        46.000    23240792.481 6 122131210.33806      3143.439 6        41.735                                    23240788.681 4  95167160.95504      2449.431 4        28.341    23240788.871 6  95167162.96006      2449.393 6        41.919
E25        47.000    28521486.821 6 149881447.43106       -85.614 6        36.318                                                                    28521487.879 6 111924462.00306       -63.903 6        40.663    28521487.349 6 114844227.81706       -65.660 6        40.896
R22        48.000    20942182.570 8 111790823.41208      2720.426 8        49.493                                                                    20942181.227 7  86948415.82607      2115.862 7        46.561
C20        49.000                                                                                                                                    25859840.878 7 134658989.83407      2622.261 7        43.312                                                                    25859835.743 6 109421440.90106      2131.060 6        41.890
C06        50.000                                                                                                                                    38771794.307 6 201894933.62106       518.266 6        41.018    38771787.716 7 156117952.35907       400.815 7        43.194    38771787.810 6 164056151.84906       421.355 6        41.154
S48        51.000    77216359.372 6 405775915.81506      -464.705 6        37.471
G21        52.000    21649253.367 7 113767668.05307     -2417.158 7        45.342                                    21649248.079 6  88650152.93806     -1883.495 6        36.026
C09        53.000                                                                                                                                    39597209.425 6 206193073.21806       909.407 6        41.411    39597205.565 7 159441552.91807       703.283 7        44.087    39597203.755 6 167548740.43506       739.162 6        40.675
C60        54.000                                                                                                                                    40591472.725 6 211370665.31906      -522.378 6        41.197                                                                    40591456.137 6 171755951.60906      -424.281 6        39.595
C27        55.000                                                                                                                                    23123725.951 8 120411323.22408     -3181.527 8        49.139                                                                    23123724.077 7  97844066.82207     -2585.123 7        47.030
R14        56.000    23844305.325 7 127103574.05007       196.218 7        42.863                                                                    23844305.562 6  98858353.64006       152.700 6        40.198
C02        57.000                                                                                                                                    40567738.819 5 211246923.59405      -493.349 5        34.510    40567731.572 6 163349518.44206      -381.497 6        40.398    40567734.818 5 171655435.23105      -400.796 5        35.714
I03        58.000   104666446.223 6 334948388.96006       947.578 6        41.061
R07        59.000    21450258.417 8 114824973.72608      2935.110 8        48.555                                                                    21450256.640 7  89308365.31407      2283.015 7        43.405
> 2025 01 02 00 30 15.0000000  0 53
C33         3.000                                                                                                                                    27278895.301 6 142048384.45206     -3615.231 6        36.363                                                                    27278906.539 6 115426005.77306     -2937.733 6        37.157
S21         5.000    38461366.758 6 202115608.32106      -459.930 6        41.597
E10         6.000    28427533.604 6 149387697.03806      2291.438 6        37.217                                                                    28427532.703 6 111555741.92906      1711.230 6        40.167    28427532.360 6 114465891.49606      1755.786 6        40.269
G28         7.000    23479627.008 7 123386284.07907       979.799 7        42.330                                    23479623.083 4  96145138.52704       763.479 4        28.654    23479623.136 6  96145146.52306       763.542 6        41.507
G03         8.000    20393578.416 8 107169075.81408       919.820 8        49.051                                    20393575.817 8  83508412.49708       716.744 8        50.496    20393576.440 7  83508410.49407       716.745 7        44.549
G02         9.000    20789220.451 8 109248146.71508     -1121.992 8        49.802                                    20789213.500 7  85128421.64307      -874.279 7        42.900
G31        10.000    23773445.325 6 124930302.97706      2400.977 6        40.498                                    23773440.266 5  97348270.53405      1870.892 5        34.929    23773441.161 6  97348275.53806      1870.887 6        38.141
C30        11.000                                                                                                                                    21946696.494 8 114282225.69908      -470.315 8        51.992                                                                    21946696.478 8  92863673.35908      -382.130 8        49.371
S27        12.000    39109254.534 5 205520506.02605      -439.614 5        35.819
R20        13.000    22341148.389 5 119468206.76605     -4385.044 5        33.904                                                                    22341150.681 7  92919781.97407     -3410.514 7        42.260
S36        14.000    38228959.894 7 200895062.33507      -459.358 7        43.651
I09        15.000    37138633.327 7 145739975.52207      -350.495 7        42.980
G19        16.000    24051592.872 6 126391990.87506      2700.392 6        39.396                                    24051587.775 4  98487247.57204      2104.201 4        25.940
S45        17.000    63429009.923 6 333321975.85506      -500.889 6        37.433
E12        19.000    26413082.499 6 138801692.14706      1975.332 6        39.165                                                                    26413078.876 7 103650602.41607      1475.079 7        42.749    26413078.599 7 106354530.68507      1513.675 7        42.351
G17        20.000    22533119.324 7 118412366.55207       865.658 7        45.460                                    22533114.352 7  92269367.12807       674.540 7        42.811    22533114.656 6  92269366.15006       674.423 6        41.478
E26        21.000    25075722.564 7 131774158.04807     -2505.483 7        44.948                                                                    25075720.273 8  98402977.16808     -1870.987 8        48.249    25075719.954 8 100969986.93908     -1919.820 8        48.646
I06        22.000    38258387.456 7 150134368.27407      -240.467 7        43.141
S28        23.000    40904021.440 5 214952092.87605      -452.561 5        34.324
G08        24.000    25026189.974 6 131513519.34406     -4144.401 6        36.975                                    25026188.272 4 102478064.58004     -3229.405 4        29.043    25026189.587 5 102478065.60105     -3229.581 5        35.124
S23        25.000    38179786.150 7 200636093.92307      -456.335 7        44.858
C13        26.000                                                                                                                                    41166081.387 5 214362774.37205     -1140.771 5        35.538    41166083.526 6 165759002.54706      -882.263 6        37.807    41166081.852 6 174187397.75706      -926.975 6        36.431
E24        27.000    28431591.855 6 149409063.68206     -2134.979 6        37.338                                                                    28431589.552 6 111571718.03406     -1594.038 6        38.919    28431589.014 6 114482280.90406     -1635.811 6        39.718
R21        29.000    19260847.930 8 103068695.04408     -1358.265 8        51.608                                                                    19260846.099 7  80164544.49407     -1056.415 7        46.397
E19        30.000    25840570.809 6 135793140.58706      2534.554 6        37.501                                                                    25840568.803 6 101403968.59606      1892.705 6        40.203    25840568.805 6 104049286.57006      1942.049 6        40.915
R05        31.000    21995377.838 7 117577937.25407     -4223.367 7        46.218                                                                    21995376.933 7  91449516.18907     -3284.808 7        43.443
R13        32.000    24616305.888 6 131449723.82206     -2945.400 6        36.741
E29        33.000    23798959.350 8 125064459.54408       770.664 8        48.341                                                                    23798957.374 8  93392306.36308       575.549 8        50.661    23798957.209 8  95828621.87508       590.548 8        50.760
C16        35.000                                                                                                                                    39124471.750 7 203731421.24907       394.655 7        42.353    39124471.414 7 157538070.22207       305.014 7        43.333    39124468.673 6 165548468.13906       320.550 6        39.405
C32        36.000                                                                                                                                    22054970.741 8 114846078.29008       586.251 8        51.760                                                                    22054970.216 8  93321867.65808       476.412 8        50.185
G32        37.000    23734324.014 7 124724753.64307     -3429.129 7        42.817                                    23734322.049 6  97188121.59106     -2672.044 6        38.468    23734322.030 6  97188130.59106     -2672.175 6        39.796
E07        38.000    25137378.922 7 132097836.37807     -2181.892 7        44.132                                                                    25137378.927 8  98644526.59108     -1629.342 8        48.031    25137378.376 8 101217854.40208     -1671.867 8        48.239
C41        39.000                                                                                                                                    23055085.026 8 120053909.09308     -2497.811 8        49.408                                                                    23055089.912 8  97553664.52308     -2029.604 8        50.014
C39        40.000                                                                                                                                    38992234.104 7 203042824.63007       -41.637 7        43.350                                                                    38992229.987 7 164988922.56107       -33.748 7        43.793
E33        41.000    23234444.590 8 122097919.49108      -219.898 8        48.351                                                                    23234442.121 8  91177051.41308      -164.225 8        50.837    23234441.867 8  93555579.04608      -168.515 8        51.055
S44        42.000    40591970.454 6 213312461.91606      -527.011 6        38.141
R06        43.000    19208665.189 6 102501182.58806      -165.614 6        41.142
C05        44.000                                                                                                                                    39143123.876 6 203828560.40306      -448.624 6        38.547    39143118.552 7 157613198.03607      -346.925 7        43.490    39143120.730 6 165627506.12606      -364.383 6        40.818
C29        45.000                                                                                                                                    24798847.727 7 129134127.82707      2344.770 7        43.812                                                                    24798845.792 7 104932054.02407      1905.491 7        43.826
G04        46.000    23237801.714 7 122115495.91107      3142.361 7        42.243                                    23237798.417 4  95154915.95504      2448.596 4        28.427    23237798.105 6  95154917.95206      2448.620 6        41.881
E25        47.000    28521569.529 5 149881881.63105       -87.917 5        35.905                                                                    28521570.585 6 111924786.25006       -65.741 6        40.479    28521570.045 6 114844560.51806       -67.300 6        40.841
R22        48.000    20939635.798 8 111777227.13008      2718.269 8        50.074                                                                    20939633.975 7  86937840.95207      2114.091 7        46.415
C20        49.000                                                                                                                                    25857323.430 7 134645880.59007      2621.543 7        43.598                                                                    25857318.295 7 109410788.58107      2130.288 7        42.241
C06        50.000                                                                                                                                    38771296.940 6 201892344.40506       517.539 6        41.011    38771290.649 7 156115950.21107       400.106 7        43.164    38771290.552 6 164054047.91306       420.553 6        41.580
S48        51.000    77216793.115 6 405778238.81806      -464.474 6        37.425
G21        52.000    21651554.429 7 113779758.29407     -2418.823 7        45.350                                    21651548.831 6  88659573.90306     -1884.797 6        36.060
C09        53.000                                                                                                                                    39596336.459 6 206188527.86006       908.809 6        41.328    39596332.546 7 159438038.15707       702.700 7        44.277    39596330.824 6 167545046.97706       738.370 6        40.913
C60        54.000                                                                                                                                    40591974.307 6 211373277.25506      -522.477 6        40.911                                                                    40591957.634 6 171758074.02606      -424.412 6        39.607
C27        55.000                                                                                                                                    23126781.355 8 120427235.13408     -3183.201 8        49.066                                                                    23126779.641 7  97856996.56307     -2586.594 7        47.337
R14        56.000    23844122.022 7 127102603.22907       192.229 7        42.749                                                                    23844123.191 6  98857598.53606       149.579 6        39.670
C02        57.000                                                                                                                                    40568213.177 5 211249390.44405      -493.360 5        34.667    40568205.274 6 163351425.96206      -381.594 6        40.303    40568208.613 6 171657439.76806      -401.105 6        36.200
I03        58.000   104665238.964 6 334943651.54406       947.420 6        40.851
R07        59.000    21447517.707 8 114810303.64408      2932.968 8        49.081                                                                    21447516.067 7  89296955.26807      2281.109 7        44.166
> 2025 01 02 00 30 20.0000000  0 53
C33         3.000                                                                                                                                    27282366.242 6 142066460.18106     -3614.785 6        36.049                                                                    27282377.631 6 115440693.76306     -2937.273 6        36.571
S21         5.000    38461806.318 6 202117907.80906      -459.718 6        41.819
E10         6.000    28425353.049 6 149376239.43106      2291.738 6        36.851                                                                    28425352.270 6 111547185.93106      1711.479 6        39.871    28425352.056 6 114457112.29306      1755.969 6        40.024
G28         7.000    23478695.920 6 123381391.90706       977.254 6        41.683                                    23478691.930 4  96141326.45104       761.495 4        28.171    23478692.135 6  96141334.45606       761.463 6        41.409
G03         8.000    20392704.081 8 107164481.69408       918.007 8        49.020                                    20392701.584 8  83504832.66308       715.331 8        50.392    20392702.451 7  83504830.65207       715.447 7        44.629
G02         9.000    20790288.908 8 109253762.04408     -1124.025 8        49.750                                    20790282.061 7  85132797.22607      -875.867 7        42.781
G31        10.000    23771161.887 6 124918301.89706      2399.684 6        40.243                                    23771156.559 5  97338919.04805      1869.878 5        34.848    23771157.372 6  97338924.05106      1870.058 6        38.297
C30        11.000                                                                                                                                    21947149.483 8 114284584.22108      -472.895 8        51.840                                                                    21947149.407 8  92865589.84008      -384.171 8        49.191
S27        12.000    39109671.955 5 205522704.61805      -439.343 5        35.776
R20        13.000    22345249.906 5 119490135.64005     -4386.668 5        34.205                                                                    22345251.996 7  92936837.75507     -3411.616 7        42.400
S36        14.000    38229399.178 7 200897358.64507      -458.917 7        43.704
I09        15.000    37139080.114 7 145741728.73007      -350.584 7        43.082
G19        16.000    24049025.197 6 126378493.18306      2698.740 6        39.631                                    24049019.244 4  98476729.90004      2102.909 4        26.024
S45        17.000    63429442.052 6 333324480.21806      -500.668 6        37.380
E12        19.000    26411202.846 6 138791816.65906      1975.005 6        38.925                                                                    26411199.568 7 103643227.85807      1474.972 7        42.853    26411199.270 7 106346963.75107      1513.437 7        42.656
G17        20.000    22532297.349 7 118408046.20407       862.891 7        45.561                                    22532292.240 7  92266000.62307       672.383 7        42.707    22532292.651 6  92265999.62606       672.387 6        41.263
E26        21.000    25078107.006 7 131786688.53307     -2506.506 7        44.585                                                                    25078104.551 8  98412334.34708     -1871.691 8        48.239    25078104.448 8 100979588.22208     -1920.544 8        48.792
I06        22.000    38258693.783 7 150135570.70607      -240.346 7        42.919
S28        23.000    40904451.038 5 214954354.92205      -452.314 5        34.319
G08        24.000    25030133.513 6 131534241.20206     -4144.039 6        36.934                                    25030131.510 4 102494211.47904     -3229.120 4        29.024    25030132.809 5 102494212.48005     -3229.146 5        35.271
S23        25.000    38180219.848 7 200638375.78907      -456.203 7        44.859
C13        26.000                                                                                                                                    41167176.801 5 214368478.39605     -1140.489 5        35.671    41167178.806 6 165763413.29006      -881.998 6        37.924    41167177.298 6 174192032.74706      -926.811 6        36.310
E24        27.000    28433623.933 6 149419742.25906     -2136.525 6        36.741                                                                    28433621.621 6 111579692.29606     -1595.404 6        38.967    28433621.009 6 114490463.17806     -1636.972 6        40.072
R21        29.000    19262119.112 8 103075496.31108     -1362.079 8        52.014                                                                    19262116.855 7  80169834.36707     -1059.353 7        46.134
E19        30.000    25838159.451 6 135780469.73906      2534.188 6        37.267                                                                    25838157.513 6 101394506.61906      1892.240 6        40.138    25838157.430 6 104039577.74606      1941.720 6        41.135
R05        31.000    21999328.008 7 117599056.72907     -4224.308 7        46.222                                                                    21999327.156 7  91465942.45907     -3285.653 7        42.675
R13        32.000    24619066.503 6 131464458.61106     -2948.417 6        37.550
E29        33.000    23798227.067 8 125060611.45108       768.691 8        48.159                                                                    23798225.099 8  93389432.78808       574.085 8        50.663    23798224.957 8  95825673.33608       589.023 8        50.836
C16        35.000                                                                                                                                    39124092.624 7 203729450.67007       393.813 7        42.245    39124092.825 7 157536546.44107       304.562 7        43.386    39124090.399 6 165546866.86706       320.029 6        39.258
C32        36.000                                                                                                                                    22054408.752 8 114843152.50808       584.356 8        51.716                                                                    22054408.378 8  93319490.21708       474.875 8        50.018
G32        37.000    23737587.492 7 124741902.61107     -3430.251 7        43.661                                    23737585.373 6  97201484.42206     -2672.924 6        38.459    23737585.174 6  97201493.44306     -2673.068 6        39.973
