     3.04           OBSERVATION DATA    M                   RINEX VERSION / TYPE
ssrcrin-15.6.1x                         20250102 151500 UTC PGM / RUN BY / DATE 
(00000000023479385599111004) Septentrio proprietary         COMMENT             
rref                                                        MARKER NAME         
01                                                          MARKER NUMBER       
geodetic                                                    MARKER TYPE         
NFB                 CLIMERS@TUW                             OBSERVER / AGENCY   
3297213             SEPT ASTERX SB3 PROB4.14.4              REC # / TYPE / VERS 
Unknown             Unknown                                 ANT # / TYPE        
  4127831.4939  1207193.2405  4695247.4853                  APPROX POSITION XYZ 
        0.0000        0.0000        0.0000                  ANTENNA: DELTA H/E/N
G   23 X1  C1C L1C D1C S1C C1W S1W C2W L2W D2W S2W C2L L2L  SYS / # / OBS TYPES 
       D2L S2L C5Q L5Q D5Q S5Q C1L L1L D1L S1L              SYS / # / OBS TYPES 
E   21 X1  C1C L1C D1C S1C C6C L6C D6C S6C C5Q L5Q D5Q S5Q  SYS / # / OBS TYPES 
       C7Q L7Q D7Q S7Q C8Q L8Q D8Q S8Q                      SYS / # / OBS TYPES 
S    9 X1  C1C L1C D1C S1C C5I L5I D5I S5I                  SYS / # / OBS TYPES 
R   17 X1  C1C L1C D1C S1C C2P L2P D2P S2P C2C L2C D2C S2C  SYS / # / OBS TYPES 
       C3Q L3Q D3Q S3Q                                      SYS / # / OBS TYPES 
C   25 X1  C1P L1P D1P S1P C5P L5P D5P S5P C2I L2I D2I S2I  SYS / # / OBS TYPES 
       C7I L7I D7I S7I C6I L6I D6I S6I C7D L7D D7D S7D      SYS / # / OBS TYPES 
J   17 X1  C1C L1C D1C S1C C2L L2L D2L S2L C5Q L5Q D5Q S5Q  SYS / # / OBS TYPES 
       C1L L1L D1L S1L                                      SYS / # / OBS TYPES 
I    5 X1  C5A L5A D5A S5A                                  SYS / # / OBS TYPES 
SEPTENTRIO RECEIVERS OUTPUT ALIGNED CARRIER PHASES.         COMMENT             
NO FURTHER PHASE SHIFT APPLIED IN THE RINEX ENCODER.        COMMENT             
G L1C                                                       SYS / PHASE SHIFT   
G L2W                                                       SYS / PHASE SHIFT   
G L2L  0.00000                                              SYS / PHASE SHIFT   
G L5Q  0.00000                                              SYS / PHASE SHIFT   
G L1L  0.00000                                              SYS / PHASE SHIFT   
E L1C  0.00000                                              SYS / PHASE SHIFT   
E L6C  0.00000                                              SYS / PHASE SHIFT   
E L5Q  0.00000                                              SYS / PHASE SHIFT   
E L7Q  0.00000                                              SYS / PHASE SHIFT   
E L8Q  0.00000                                              SYS / PHASE SHIFT   
S L1C                                                       SYS / PHASE SHIFT   
S L5I                                                       SYS / PHASE SHIFT   
R L1C                                                       SYS / PHASE SHIFT   
R L2P  0.00000                                              SYS / PHASE SHIFT   
R L2C                                                       SYS / PHASE SHIFT   
R L3Q  0.00000                                              SYS / PHASE SHIFT   
C L1P  0.00000                                              SYS / PHASE SHIFT   
C L5P  0.00000                                              SYS / PHASE SHIFT   
C L2I                                                       SYS / PHASE SHIFT   
C L7I                                                       SYS / PHASE SHIFT   
C L6I                                                       SYS / PHASE SHIFT   
C L7D                                                       SYS / PHASE SHIFT   
J L1C                                                       SYS / PHASE SHIFT   
J L2L  0.00000                                              SYS / PHASE SHIFT   
J L5Q  0.00000                                              SYS / PHASE SHIFT   
J L1L  0.00000                                              SYS / PHASE SHIFT   
I L5A                                                       SYS / PHASE SHIFT   
  2025     1     2    15    15    0.0000000     GPS         TIME OF FIRST OBS   
 C1C    0.000 C2C    0.000 C2P    0.000                     GLONASS COD/PHS/BIS 
DBHZ                                                        SIGNAL STRENGTH UNIT
    18                                                      LEAP SECONDS        
 24 R01  1 R02 -4 R03  5 R04  6 R05  1 R06 -4 R07  5 R08  6 GLONASS SLOT / FRQ #
    R09 -2 R10 -7 R11  0 R12 -1 R13 -2 R14 -7 R15  0 R16 -1 GLONASS SLOT / FRQ #
    R17  4 R18 -3 R19  3 R20  2 R21  4 R22 -3 R23  3 R24  2 GLONASS SLOT / FRQ #
                                                            END OF HEADER       
> 2025 01 02 15 15  0.0000000  0 56
E24         1.000    26615273.649 6 139864314.28806     -2793.886 6        40.779                                                                    26615276.565 7 104444196.32607     -2086.277 7        44.405    26615276.094 7 107168816.72107     -2140.647 7        45.473
E11         2.000    24133214.478 7 126821060.65707       663.997 7        44.131                                                                    24133213.715 7  94704153.31407       495.816 7        46.239    24133213.200 7  97174683.90507       508.684 7        46.735
E03         3.000    27806316.587 6 146123083.04206     -3353.169 6        37.395                                                                    27806330.183 6 109117869.64606     -2503.774 6        40.298    27806328.298 6 111964427.16306     -2569.301 6        40.770
G05         4.000    25032781.020 6 131548168.02906      2542.084 6        39.697                                    25032782.052 5 102505070.02005      1980.841 5        30.830    25032781.844 5 102505069.03905      1980.793 5        35.790
S21         5.000    38335761.840 7 201455399.77407      -491.687 7        43.060
G26         6.000    24127363.111 6 126790241.51906      2878.933 6        38.577                                    24127371.791 5  98797685.72705      2243.306 5        31.042    24127370.980 6  98797672.75206      2243.202 6        36.355
G25         7.000    19953011.635 8 104853954.10608     -1641.363 8        49.543                                    19953012.402 8  81704463.96408     -1278.988 8        50.138    19953012.997 7  81704464.97807     -1279.081 7        44.974
E36         9.000    26239907.061 7 137891746.19007      2646.920 7        42.108                                                                    26239914.285 7 102971226.37607      1976.466 7        45.077    26239913.172 7 105657422.61707      2028.135 7        45.871
R08        10.000    23899827.484 6 127982486.51906       870.297 6        38.673                                                                    23899827.209 6  99541929.72106       676.951 6        38.871
G20        11.000    23891775.677 6 125552203.31906      1025.923 6        40.260                                    23891775.437 3  97832935.77703       799.410 3        23.200
S27        12.000    39133962.570 6 205650354.13906      -490.912 6        36.590
E08        13.000    26831119.500 6 140998604.95206     -2042.079 6        40.925                                                                    26831126.668 7 105291260.91807     -1524.874 7        42.722    26831125.278 7 108037977.02907     -1564.561 7        43.562
S36        14.000    38107068.360 7 200254437.06107      -491.742 7        44.710
G06        15.000    25612379.140 5 134594149.69005     -4007.897 5        30.883                                    25612379.689 2 104878648.60902     -3123.061 2        17.472    25612381.251 5 104878650.62005     -3123.184 5        30.815
G18        16.000    24415995.451 6 128307017.31406      3298.466 6        40.510                                    24416000.144 4  99979557.02004      2570.218 4        25.353    24416000.648 6  99979565.04606      2570.248 6        40.825
G12        17.000    22622859.189 7 118884099.91807     -3451.883 7        45.297                                    22622857.987 6  92637043.02406     -2689.779 6        41.669    22622858.578 6  92637040.02806     -2689.750 6        41.802
G32        18.000    24958416.094 6 131157304.80106     -3377.771 6        38.880                                    24958426.328 4 102200523.59104     -2632.018 4        29.194    24958426.592 5 102200527.57105     -2631.896 5        34.143
E02        19.000    24552915.913 7 129026575.66107      1345.226 7        45.172                                                                    24552918.835 8  96351107.74708      1004.636 8        48.574    24552917.842 8  98864601.88008      1030.777 8        49.073
E10        21.000    24734219.710 7 129979396.02607      -972.269 7        45.711                                                                    24734221.917 8  97062662.51508      -726.013 8        48.713    24734221.420 8  99594717.81708      -745.038 8        49.384
I06        22.000    38556502.346 6 151304125.53306      -429.840 6        41.008
S28        23.000    40813910.179 5 214478492.54505      -493.811 5        34.690
S23        25.000    38054337.261 7 199976798.37907      -496.142 7        45.145
S45        26.000    63310993.059 6 332701811.78306      -555.416 6        36.348
R09        27.000    23877377.635 7 127503900.93507      3533.494 7        43.439                                                                    23877386.589 6  99169770.31806      2748.159 6        40.088
R18        28.000    19850689.868 8 105964583.43208      2196.315 8        51.520                                                                    19850692.631 7  82417039.61507      1708.252 7        47.244
C38        29.000                                                                                                                                    39257160.076 7 204422403.24107       795.242 7        42.394                                                                    39257160.478 6 166109981.57506       646.072 6        41.757
C44        30.000                                                                                                                                    21484241.786 8 111874273.11308       679.988 8        51.344                                                                    21484241.868 8  90907089.08208       552.494 8        49.716
E12        31.000    26189443.428 6 137626602.48206     -2220.817 6        38.393                                                                    26189444.448 7 102773213.43607     -1658.515 7        42.639    26189443.589 7 105454238.05307     -1701.723 7        42.724
G11        32.000    22967313.471 7 120694221.27007     -2616.331 7        43.951                                    22967312.967 5  94047538.50305     -2038.699 5        30.694    22967312.797 7  94047529.50907     -2038.767 7        42.087
I02        33.000    37514384.939 7 147214509.45207      -743.519 7        42.167
R15        34.000    19679210.405 8 105159874.88308     -2360.950 8        51.762                                                                    19679212.803 7  81791082.77107     -1836.285 7        47.172
R07        35.000    23449510.740 7 125527005.93507     -2009.161 7        44.324                                                                    23449519.265 6  97632103.74306     -1562.681 6        40.758
G29        36.000    20392224.103 8 107162129.06408       410.259 8        49.896                                    20392222.229 8  83503060.48208       319.680 8        51.768    20392222.632 7  83503070.49007       319.695 7        46.337
G31        37.000    22399676.590 7 117711265.88307      1838.119 7        45.347                                    22399676.417 6  91723148.39206      1432.296 6        40.920    22399676.690 6  91723154.40206      1432.376 6        41.302
C10        38.000                                                                                                                                    40371568.296 6 210225342.26806     -1174.773 6        37.217    40371567.148 6 162559571.40406      -908.332 6        38.547    40371564.176 6 170825300.26206      -954.649 6        36.620
E25        39.000    23236545.510 8 122109065.79008      -952.287 8        48.253                                                                    23236548.375 8  91185465.53908      -711.157 8        50.948    23236547.427 8  93564201.75408      -729.722 8        51.187
C12        40.000                                                                                                                                    22981501.365 7 119670862.31707      2006.226 7        45.953    22981502.032 8  92537184.72808      1551.295 8        51.272    22981500.128 8  97242440.36308      1630.179 8        48.460
E07        41.000    27834009.307 6 146268671.77606       295.768 6        37.660                                                                    27834019.678 7 109226613.34707       220.865 7        42.116    27834018.264 7 112076000.43907       226.608 7        42.337
S44        42.000    40540545.157 6 213042122.59406      -410.612 6        36.798
G28        43.000    21271912.968 7 111784829.58607       236.065 7        47.244                                    21271912.315 6  87105147.76306       183.944 6        37.350    21271912.339 7  87105147.76407       183.959 7        46.913
C05        44.000                                                                                                                                    39330688.866 6 204805177.03206      -448.922 6        38.495    39330687.964 7 158368359.68307      -347.202 7        43.164    39330688.442 6 166421070.93206      -364.856 6        40.496
R14        45.000    23640316.559 7 126016250.03907     -4407.341 7        42.698                                                                    23640322.839 6  98012708.81706     -3427.862 6        41.583
R16        46.000    19679152.752 8 105122672.14208      1628.658 8        51.522                                                                    19679155.369 8  81762184.66208      1266.702 8        48.258
R17        47.000    19342805.339 8 103507480.43308     -1733.455 8        51.868                                                                    19342806.056 7  80505946.97807     -1348.220 7        47.384
C35        48.000                                                                                                                                    22362106.220 8 116445504.99008     -2195.688 8        48.955                                                                    22362106.850 8  94621572.66708     -1784.291 8        49.033
C24        49.000                                                                                                                                    21318639.642 8 111011805.27808      -186.659 8        51.525                                                                    21318638.162 8  90206203.61908      -151.717 8        50.198
R19        50.000    23274181.493 5 124501305.83705      3958.215 5        32.748                                                                    23274190.810 6  96834426.11606      3078.696 6        37.747
S48        51.000    77049840.785 6 404900382.56706      -519.137 6        37.955
C08        52.000                                                                                                                                    39249196.526 6 204380909.64306      1376.712 6        39.432    39249193.645 7 158040298.75207      1064.649 7        42.853    39249191.811 6 166076236.89106      1118.631 6        40.148
C34        53.000                                                                                                                                    24947172.819 7 129906629.03007      2756.174 7        42.880                                                                    24947178.540 7 105559867.43807      2239.582 7        42.883
C60        54.000                                                                                                                                    40540546.832 6 211105394.82606      -406.967 6        39.670                                                                    40540533.817 6 171540380.27206      -330.808 6        39.772
C25        55.000                                                                                                                                    24340857.820 7 126749391.06207      2366.846 7        44.545                                                                    24340860.429 7 102994337.49807      1923.160 7        44.330
C26        56.000                                                                                                                                    23162444.842 8 120613017.51708     -3006.776 8        48.739                                                                    23162446.348 7  98007999.41107     -2443.319 7        47.291
C02        57.000                                                                                                                                    40741466.971 5 212151485.07805      -404.964 5        33.808    40741464.183 6 164048961.05406      -313.051 6        38.222    40741466.745 5 172390448.07105      -328.996 5        35.362
I03        58.000    87344207.950 6 266972086.51206      1058.949 6        38.556
R24        60.000    23036616.554 7 123187280.71407     -4622.153 7        44.393                                                                    23036618.613 6  95812398.12306     -3594.994 6        39.444
> 2025 01 02 15 15  5.0000000  0 56
E24         1.000    26617931.856 6 139878285.14606     -2794.423 6        40.548                                                                    26617935.177 7 104454629.11307     -2086.712 7        44.573    26617934.652 7 107179521.66407     -2141.176 7        45.681
E11         2.000    24132584.015 7 126817747.40307       661.626 7        44.321                                                                    24132583.205 7  94701679.13407       494.095 7        46.369    24132582.723 7  97172145.18307       506.945 7        46.723
E03         3.000    27809507.189 6 146139849.13606     -3353.052 6        37.826                                                                    27809520.805 6 109130389.77506     -2504.061 6        40.501    27809518.853 6 111977273.87106     -2569.129 6        40.589
G05         4.000    25030362.668 6 131535460.28006      2541.483 6        39.480                                    25030363.812 5 102495167.91705      1980.359 5        30.966    25030364.543 6 102495166.94206      1980.317 6        36.072
S21         5.000    38336231.951 7 201457858.62707      -491.574 7        43.310
G26         6.000    24124624.418 6 126775848.55106      2878.577 6        38.757                                    24124632.842 5  98786470.47605      2243.034 5        30.966    24124632.151 6  98786457.48906      2242.981 6        36.257
G25         7.000    19954574.695 8 104862167.41608     -1643.626 8        49.619                                    19954575.354 8  81710863.95108     -1280.748 8        50.235    19954576.160 7  81710864.94907     -1280.737 7        45.199
E36         9.000    26237389.028 6 137878514.12606      2646.193 6        41.883                                                                    26237396.509 7 102961345.33307      1975.995 7        45.341    26237395.203 7 105647283.80607      2027.581 7        45.822
R08        10.000    23899015.806 6 127978145.59706       866.308 6        39.036                                                                    23899017.897 6  99538553.44806       673.979 6        38.838
G20        11.000    23890801.394 6 125547080.14606      1023.444 6        40.217                                    23890800.757 3  97828943.70003       797.490 3        23.524
S27        12.000    39134432.103 6 205652809.49406      -490.826 6        36.813
E08        13.000    26833064.163 6 141008820.62206     -2044.133 6        40.613                                                                    26833070.727 7 105298889.49807     -1526.377 7        42.734    26833069.386 7 108045804.61407     -1566.146 7        43.338
S36        14.000    38107537.616 7 200256896.95107      -491.816 7        44.801
G06        15.000    25616192.530 5 134614192.55205     -4008.908 5        30.158                                    25616193.608 2 104894266.45002     -3123.837 2        17.396    25616193.811 5 104894268.45305     -3123.666 5        30.619
G18        16.000    24412857.084 6 128290527.00506      3297.878 6        39.793                                    24412862.147 4  99966707.51704      2569.749 4        25.248    24412862.672 6  99966715.54206      2569.911 6        40.908
G12        17.000    22626143.923 7 118901362.81707     -3453.023 7        45.375                                    22626143.061 6  92650494.62906     -2690.668 6        41.685    22626143.019 6  92650491.63406     -2690.572 6        41.464
G32        18.000    24961629.988 6 131174195.83506     -3378.422 6        38.513                                    24961640.522 4 102213685.39604     -2632.526 4        28.844    24961641.063 5 102213689.38305     -2632.538 5        33.760
E02        19.000    24551635.932 7 129019851.94107      1344.538 7        45.236                                                                    24551639.291 8  96346086.79508      1004.049 8        48.635    24551638.373 8  98859449.94408      1030.191 8        49.063
E10        21.000    24735145.731 7 129984264.19807      -974.663 7        45.570                                                                    24735148.306 8  97066297.83908      -727.853 8        48.789    24735147.770 8  99598447.97208      -746.878 8        49.319
I06        22.000    38557049.890 6 151306275.14206      -429.860 6        41.008
S28        23.000    40814377.003 5 214480962.31505      -494.069 5        34.295
S23        25.000    38054808.932 7 199979280.02807      -496.193 7        45.217
S45        26.000    63311465.593 6 332704590.30006      -555.763 6        36.495
R09        27.000    23874068.315 7 127486234.01307      3533.534 7        42.635                                                                    23874077.640 6  99156029.40106      2748.389 6        39.805
R18        28.000    19848634.504 8 105953611.33408      2192.813 8        51.463                                                                    19848637.232 7  82408505.78507      1705.502 7        47.401
C38        29.000                                                                                                                                    39256397.092 7 204418430.31707       794.158 7        42.258                                                                    39256397.517 7 166106753.23107       645.306 7        42.068
C44        30.000                                                                                                                                    21483590.050 8 111870879.74308       677.644 8        51.397                                                                    21483590.195 8  90904331.68308       550.661 8        49.741
E12        31.000    26191557.808 6 137637712.99206     -2222.849 6        38.565                                                                    26191558.724 7 102781510.23607     -1659.964 7        42.614    26191557.936 7 105462751.30507     -1703.357 7        42.686
G11        32.000    22969804.097 7 120707310.54507     -2618.979 7        43.928                                    22969803.750 5  94057737.94705     -2040.766 5        30.800    22969803.949 7  94057728.95107     -2040.859 7        42.679
I02        33.000    37515332.577 7 147218227.94507      -743.670 7        42.178
R15        34.000    19681421.319 8 105171687.91708     -2364.020 8        51.656                                                                    19681423.324 7  81800270.66907     -1838.636 7        47.272
R07        35.000    23451389.205 7 125537061.98007     -2012.894 7        45.165                                                                    23451396.515 6  97639925.09006     -1565.450 6        41.416
G29        36.000    20391835.143 8 107160084.46908       407.815 8        49.997                                    20391833.148 8  83501467.29708       317.776 8        51.909    20391833.394 7  83501477.29907       317.800 7        46.148
G31        37.000    22397929.296 7 117702082.50507      1835.458 7        45.077                                    22397928.862 6  91715992.53206      1430.221 6        41.085    22397929.115 6  91715998.54906      1430.163 6        41.259
C10        38.000                                                                                                                                    40372695.444 6 210231216.74406     -1174.868 6        36.968    40372695.022 6 162564113.93006      -908.352 6        38.757    40372692.705 6 170830073.75006      -954.534 6        36.643
E25        39.000    23237452.385 8 122113831.02608      -953.483 8        48.169                                                                    23237455.154 8  91189024.00108      -712.079 8        51.010    23237454.241 8  93567853.04308      -730.616 8        51.165
C12        40.000                                                                                                                                    22979576.577 7 119660836.53907      2004.304 7        46.068    22979576.543 8  92529432.16508      1549.932 8        51.232    22979574.758 8  97234293.58708      1628.730 8        48.498
E07        41.000    27833729.550 6 146267200.09406       293.353 6        37.637                                                                    27833739.595 7 109225514.37607       218.956 7        42.207    27833738.292 7 112074872.79107       224.758 7        42.360
S44        42.000    40540941.052 6 213044176.63506      -410.697 6        36.609
G28        43.000    21271690.019 7 111783658.34107       232.760 7        46.946                                    21271689.431 6  87104235.11306       181.368 6        37.607    21271689.873 7  87104235.12007       181.379 7        47.016
C05        44.000                                                                                                                                    39331120.154 6 204807422.53006      -448.708 6        38.237    39331119.369 7 158370096.07307      -347.199 7        43.300    39331119.722 6 166422895.57906      -364.710 6        40.286
R14        45.000    23644451.031 7 126038289.60407     -4408.111 7        42.064                                                                    23644457.312 6  98029850.70906     -3428.547 6        41.733
R16        46.000    19677629.251 8 105114535.87808      1626.142 8        51.713                                                                    19677631.814 7  81755856.46007      1264.728 7        47.645
R17        47.000    19344427.076 8 103516158.11208     -1737.420 8        51.974                                                                    19344427.641 7  80512696.28507     -1351.328 7        47.476
C35        48.000                                                                                                                                    22364215.701 8 116456489.13708     -2197.619 8        49.004                                                                    22364216.271 8  94630498.17208     -1785.764 8        49.077
C24        49.000                                                                                                                                    21318819.972 8 111012745.12108      -188.959 8        51.565                                                                    21318818.631 8  90206967.31108      -153.547 8        50.252
R19        50.000    23270482.256 5 124481517.43105      3957.853 5        32.599                                                                    23270491.139 6  96819035.23706      3078.068 6        37.463
S48        51.000    77050314.970 6 404902978.87006      -519.104 6        37.898
C08        52.000                                                                                                                                    39247874.696 6 204374028.54206      1375.786 6        39.381    39247872.079 7 158034977.87807      1064.088 7        43.035    39247870.346 6 166070645.43406      1118.019 6        40.238
C34        53.000                                                                                                                                    24944526.541 7 129892850.94707      2755.323 7        42.686                                                                    24944532.349 7 105548671.63407      2238.998 7        42.732
C60        54.000                                                                                                                                    40540937.375 6 211107430.19606      -406.960 6        39.456                                                                    40540924.731 6 171542034.17806      -330.833 6        39.691
C25        55.000                                                                                                                                    24338585.446 7 126737559.91707      2365.949 7        44.346                                                                    24338588.388 7 102984723.74007      1922.446 7        44.311
C26        56.000                                                                                                                                    23165332.687 8 120628055.86408     -3008.332 8        48.657                                                                    23165334.297 7  98020219.28807     -2444.592 7        47.327
C02        57.000                                                                                                                                    40741855.595 5 212153510.42705      -404.940 5        33.257    40741853.160 6 164050527.18106      -312.982 6        38.312    40741855.897 5 172392093.80805      -328.946 5        35.157
I03        58.000    87342859.031 6 266966792.82006      1059.053 6        38.835
R24        60.000    23040937.805 7 123210394.37907     -4623.098 7        44.259                                                                    23040940.801 6  95830375.42606     -3595.708 6        39.429
> 2025 01 02 15 15 10.0000000  0 56
E24         1.000    26620590.742 6 139892258.26006     -2794.803 6        40.191                                                                    26620594.160 7 104465063.57207     -2087.057 7        44.646    26620593.658 7 107190228.33607     -2141.510 7        45.568
E11         2.000    24131955.740 7 126814445.19207       659.499 7        44.561                                                                    24131954.790 7  94699213.21207       492.491 7        46.247    24131954.326 7  97169614.93107       505.287 7        46.626
E03         3.000    27812697.879 6 146156615.12706     -3353.164 6        38.090                                                                    27812711.344 6 109142909.77606     -2503.995 6        40.636    27812709.675 6 111990120.50006     -2569.252 6        40.808
G05         4.000    25027944.713 6 131522754.83106      2540.981 6        39.141                                    25027945.961 5 102485267.60705      1979.980 5        30.770    25027946.813 5 102485266.63705      1979.976 5        35.743
S21         5.000    38336699.517 7 201460316.59007      -491.472 7        43.276
G26         6.000    24121885.650 6 126761456.55206      2878.295 6        37.887                                    24121894.027 5  98775255.97905      2242.816 5        30.725    24121894.146 6  98775243.01206      2242.760 6        36.023
G25         7.000    19956139.713 8 104870391.61408     -1645.911 8        49.482                                    19956140.364 8  81717272.42208     -1282.531 8        50.071    19956140.861 7  81717273.42507     -1282.512 7        45.118
E36         9.000    26234871.595 6 137865285.15606      2645.499 6        41.924                                                                    26234879.279 7 102951466.61107      1975.504 7        45.484    26234877.899 7 105637147.37407      2027.037 7        45.663
R08        10.000    23898209.272 6 127973822.98206       862.701 6        38.745                                                                    23898209.916 6  99535191.36106       671.056 6        38.120
G20        11.000    23889828.568 6 125541968.29206      1021.202 6        40.288                                    23889828.072 3  97824960.45803       795.758 3        23.810
S27        12.000    39134893.195 6 205655263.65506      -490.572 6        36.809
E08        13.000    26835009.527 6 141019045.11906     -2045.681 6        40.565                                                                    26835016.471 7 105306524.67207     -1527.686 7        42.624    26835014.914 7 108053638.97307     -1567.497 7        43.376
S36        14.000    38108004.543 7 200259355.86407      -491.720 7        44.554
G06        15.000    25620006.750 4 134634239.03904     -4009.428 4        29.251                                    25620008.385 2 104909887.04202     -3124.190 2        16.075    25620008.892 4 104909889.06704     -3124.312 4        29.280
G18        16.000    24409719.207 6 128274037.55806      3297.830 6        39.111                                    24409724.231 4  99953858.69704      2569.717 4        24.737    24409724.962 6  99953866.73306      2569.672 6        40.908
G12        17.000    22629430.311 7 118918630.76707     -3453.973 7        44.742                                    22629428.961 6  92663950.17206     -2691.408 6        41.325    22629428.982 6  92663947.17206     -2691.420 6        40.348
G32        18.000    24964844.889 6 131191088.57106     -3378.680 6        39.195                                    24964855.180 4 102226848.53204     -2632.726 4        28.796    24964855.219 5 102226852.51805     -2632.975 5        35.400
E02        19.000    24550357.198 7 129013130.76607      1343.985 7        45.502                                                                    24550360.270 8  96341067.75608      1003.610 8        48.575    24550359.417 8  98854299.96908      1029.799 8        49.001
E10        21.000    24736074.652 7 129989143.95207      -977.094 7        45.741                                                                    24736076.875 8  97069941.81308      -729.622 8        48.737    24736076.378 8  99602187.00808      -748.708 8        49.251
I06        22.000    38557597.840 6 151308423.91906      -429.687 6        41.070
S28        23.000    40814847.659 5 214483431.11405      -493.620 5        34.381
S23        25.000    38055281.591 7 199981760.71907      -495.987 7        45.181
S45        26.000    63311943.364 6 332707367.92606      -555.574 6        36.386
R09        27.000    23870759.095 7 127468565.38107      3533.895 7        43.560                                                                    23870768.761 6  99142287.19506      2748.595 6        40.167
R18        28.000    19846581.771 8 105942655.64808      2189.521 8        51.496                                                                    19846584.885 7  82399984.70407      1703.001 7        46.897
C38        29.000                                                                                                                                    39255634.980 7 204414461.24507       793.474 7        42.210                                                                    39255635.343 6 166103528.04806       644.794 6        41.936
C44        30.000                                                                                                                                    21482940.170 8 111867497.29108       675.399 8        51.455                                                                    21482940.618 8  90901583.16308       548.759 8        49.650
E12        31.000    26193673.877 6 137648832.67506     -2224.792 6        39.084                                                                    26193674.826 7 102789813.91207     -1661.452 7        42.516    26193673.965 7 105471271.59207     -1704.738 7        42.703
G11        32.000    22972297.181 7 120720412.14907     -2621.478 7        43.890                                    22972296.939 5  94067946.99405     -2042.709 5        30.634    22972297.245 7  94067937.99807     -2042.798 7        42.931
I02        33.000    37516280.030 6 147221946.41106      -743.637 6        41.971
R15        34.000    19683634.630 8 105183515.12908     -2366.848 8        51.855                                                                    19683636.449 7  81809469.61907     -1840.881 7        46.909
R07        35.000    23453271.297 7 125547135.72107     -2016.502 7        45.005                                                                    23453278.569 6  97647760.21106     -1568.456 6        40.410
G29        36.000    20391448.122 8 107158051.13508       405.554 8        50.013                                    20391446.214 8  83499882.89008       316.015 8        51.713    20391446.686 7  83499892.89407       316.029 7        45.925
G31        37.000    22396183.215 7 117692911.05307      1833.076 7        45.323                                    22396183.592 6  91708845.96906      1428.366 6        40.806    22396183.650 6  91708851.98206      1428.324 6        40.903
C10        38.000                                                                                                                                    40373822.785 6 210237090.20006     -1174.676 6        36.654    40373822.994 6 162568655.66606      -908.038 6        38.601    40373820.529 6 170834846.41006      -954.411 6        36.560
E25        39.000    23238360.252 8 122118601.63108      -954.635 8        48.327                                                                    23238362.964 8  91192586.47308      -712.923 8        50.945    23238362.020 8  93571508.44708      -731.488 8        51.123
C12        40.000                                                                                                                                    22977652.715 7 119650818.73707      2002.790 7        46.026    22977652.495 8  92521685.78008      1548.700 8        50.940    22977650.901 8  97226153.31608      1627.392 8        48.387
E07        41.000    27833451.092 6 146265739.07806       291.130 6        38.135                                                                    27833461.633 7 109224423.36507       217.360 7        42.159    27833460.040 7 112073753.32207       222.986 7        42.231
S44        42.000    40541329.337 6 213046229.84506      -410.701 6        36.393
G28        43.000    21271470.182 7 111782502.74507       229.580 7        46.931                                    21271469.503 6  87103334.66106       178.893 6        37.214    21271469.439 7  87103334.66307       178.898 7        46.729
C05        44.000                                                                                                                                    39331551.048 6 204809667.07806      -448.756 6        38.408    39331550.442 7 158371831.71807      -346.987 7        43.367    39331550.799 6 166424719.48106      -364.741 6        40.305
R14        45.000    23648585.320 6 126060332.47306     -4408.940 6        41.731                                                                    23648592.696 6  98046995.16606     -3429.141 6        41.509
R16        46.000    19676108.678 8 105106411.35008      1623.776 8        51.816                                                                    19676110.709 7  81749537.38807      1262.944 7        47.445
R17        47.000    19346051.401 8 103524854.85808     -1741.170 8        51.291                                                                    19346053.053 7  80519460.43707     -1354.237 7        47.191
C35        48.000                                                                                                                                    22366326.683 8 116467482.16408     -2199.448 8        48.916                                                                    22366327.346 8  94639430.90008     -1787.252 8        49.104
C24        49.000                                                                                                                                    21319002.714 8 111013695.85508      -191.201 8        51.657                                                                    21319001.199 8  90207739.85908      -155.432 8        50.203
R19        50.000    23266784.744 5 124461732.89405      3956.716 5        32.623                                                                    23266792.962 6  96803647.37206      3077.343 6        37.543
S48        51.000    77050782.880 6 404905574.65506      -518.964 6        37.784
C08        52.000                                                                                                                                    39246554.099 6 204367150.60806      1375.225 6        39.276    39246551.312 7 158029659.46807      1063.393 7        43.132    39246549.433 6 166065056.58306      1117.530 6        40.122
C34        53.000                                                                                                                                    24941881.318 7 129879075.76907      2754.721 7        42.861                                                                    24941886.934 7 105537478.22207      2238.410 7        42.736
C60        54.000                                                                                                                                    40541328.195 6 211109464.72506      -406.885 6        39.474                                                                    40541315.376 6 171543687.39606      -330.581 6        39.811
C25        55.000                                                                                                                                    24336313.652 7 126725732.36107      2365.057 7        44.144                                                                    24336316.977 7 102975112.88607      1921.805 7        44.363
C26        56.000                                                                                                                                    23168221.791 8 120643101.32708     -3009.792 8        48.564                                                                    23168223.668 7  98032444.94307     -2445.715 7        47.307
C02        57.000                                                                                                                                    40742244.313 5 212155534.79205      -404.952 5        33.036    40742241.946 6 164052092.59206      -312.939 6        38.144    40742244.798 5 172393738.81205      -329.183 5        35.290
I03        58.000    87341509.850 6 266961498.33206      1059.047 6        38.898
R24        60.000    23045260.965 7 123233511.88907     -4623.908 7        44.367                                                                    23045264.048 6  95848355.75006     -3596.567 6        39.532
> 2025 01 02 15 15 15.0000000  0 56
E24         1.000    26623250.605 6 139906234.57206     -2795.457 6        40.269                                                                    26623253.852 7 104475500.43907     -2087.580 7        44.743    26623253.085 7 107200937.46207     -2141.999 7        45.749
E11         2.000    24131329.696 7 126811155.07207       656.989 7        44.700                                                                    24131328.642 7  94696756.32707       490.621 7        46.386    24131328.275 7  97167093.94307       503.438 7        46.714
E03         3.000    27815888.437 6 146173381.97906     -3353.529 6        38.162                                                                    27815902.146 6 109155430.41406     -2504.095 6        40.984    27815900.655 6 112002967.77906     -2569.455 6        41.147
G05         4.000    25025527.964 6 131510052.66306      2540.113 6        39.174                                    25025528.745 5 102475369.85505      1979.295 5        30.287    25025529.069 5 102475368.87505      1979.533 5        35.571
S21         5.000    38337165.733 7 201462774.67107      -491.616 7        42.874
G26         6.000    24119147.586 6 126747066.57706      2877.823 6        38.108                                    24119155.547 5  98764043.06105      2242.450 5        30.740    24119156.200 6  98764030.06806      2242.594 6        36.412
G25         7.000    19957706.955 8 104878627.68208     -1648.215 8        49.764                                    19957707.646 8  81723690.14108     -1284.323 8        50.081    19957708.193 7  81723691.14807     -1284.379 7        45.400
E36         9.000    26232354.915 7 137852060.31907      2644.724 7        42.087                                                                    26232362.611 7 102941590.96607      1974.916 7        45.753    26232361.254 7 105627014.09407      2026.467 7        45.555
R08        10.000    23897404.259 6 127969519.66006       858.910 6        37.342                                                                    23897405.968 6  99531844.38406       668.097 6        39.249
G20        11.000    23888857.880 6 125536868.74706      1018.906 6        40.212                                    23888857.645 3  97820986.80003       793.957 3        23.657
S27        12.000    39135360.949 6 205657717.84206      -490.850 6        36.635
E08        13.000    26836957.054 6 141029279.48806     -2047.608 6        40.746                                                                    26836963.950 7 105314167.20507     -1529.240 7        42.762    26836962.506 7 108061480.87807     -1569.045 7        43.416
S36        14.000    38108471.296 7 200261814.68707      -491.528 7        44.537
G06        15.000    25623825.188 4 134654290.24304     -4010.406 4        28.057                                    25623824.011 2 104925511.41302     -3124.983 2        15.571    25623825.130 4 104925513.42704     -3124.946 4        29.431
G18        16.000    24406581.909 6 128257550.02006      3297.473 6        39.267                                    24406586.475 4  99941011.36404      2569.436 4        24.406    24406586.864 6  99941019.39306      2569.417 6        40.760
G12        17.000    22632717.129 7 118935904.76107     -3455.210 7        44.841                                    22632715.885 6  92677410.43206     -2692.370 6        41.125    22632716.528 6  92677407.43706     -2692.444 6        40.010
G32        18.000    24968060.984 6 131207984.02906     -3379.207 6        39.802                                    24968070.433 4 102240013.79004     -2633.132 4        29.374    24968071.671 5 102240017.76205     -2633.174 5        35.700
E02        19.000    24549078.812 7 129006413.17307      1343.247 7        45.643                                                                    24549081.958 8  96336051.37508      1003.138 8        48.698    24549081.114 8  98849152.72308      1029.316 8        49.125
E10        21.000    24737005.883 7 129994036.30207      -979.605 7        46.087                                                                    24737007.849 8  97073595.19708      -731.554 8        48.844    24737007.362 8  99605935.69208      -750.567 8        49.342
I06        22.000    38558145.006 6 151310572.62006      -429.613 6        41.156
S28        23.000    40815319.916 5 214485899.78005      -493.742 5        34.462
S23        25.000    38055754.439 7 199984241.59607      -496.127 7        45.074
S45        26.000    63312412.880 6 332710145.76306      -555.496 6        36.174
R09        27.000    23867451.542 7 127450896.09807      3534.094 7        43.585                                                                    23867460.350 6  99128544.43606      2748.836 6        40.257
R18        28.000    19844532.734 8 105931717.46208      2186.015 8        51.532                                                                    19844535.661 7  82391477.23607      1700.217 7        47.058
C38        29.000                                                                                                                                    39254873.481 7 204410497.07207       792.587 7        42.118                                                                    39254874.022 7 166100306.87207       643.923 7        42.182
C44        30.000                                                                                                                                    21482292.910 8 111864126.75308       673.070 8        51.294                                                                    21482293.331 8  90898844.35108       546.849 8        49.822
E12        31.000    26195791.773 6 137659962.53206     -2226.863 6        39.033                                                                    26195792.688 7 102798125.17107     -1662.779 7        42.590    26195791.894 7 105479799.66407     -1706.295 7        42.707
G11        32.000    22974793.080 7 120733527.06007     -2624.158 7        44.089                                    22974792.637 5  94078166.41005     -2044.802 5        30.634    22974792.730 7  94078157.40807     -2044.769 7        42.650
I02        33.000    37517227.693 7 147225665.39807      -743.699 7        42.163
R15        34.000    19685850.884 8 105195357.55408     -2369.880 8        51.915                                                                    19685852.911 7  81818680.39607     -1843.214 7        47.510
R07        35.000    23455157.160 7 125557228.21607     -2020.152 7        45.186                                                                    23455163.984 6  97655609.88506     -1571.288 6        40.307
G29        36.000    20391063.522 8 107156030.04508       403.081 8        50.060                                    20391061.606 8  83498308.02008       314.088 8        51.715    20391062.154 7  83498318.03107       314.088 7        46.145
G31        37.000    22394440.921 7 117683752.56107      1830.531 7        45.846                                    22394440.764 6  91701709.49706      1426.382 6        40.923    22394441.158 6  91701715.51806      1426.311 6        41.018
C10        38.000                                                                                                                                    40374951.087 6 210242963.49906     -1174.480 6        36.265    40374950.906 6 162573197.31006      -908.281 6        38.946    40374948.254 6 170839618.95706      -954.258 6        36.764
E25        39.000    23239269.398 8 122123378.61108      -955.939 8        48.458                                                                    23239272.005 8  91196153.70008      -713.820 8        51.006    23239271.058 8  93575168.73508      -732.437 8        51.182
C12        40.000                                                                                                                                    22975730.747 7 119640809.93507      2000.881 7        46.294    22975730.399 8  92513946.35008      1547.322 8        50.899    22975728.840 8  97218020.36108      1625.953 8        48.566
E07        41.000    27833175.774 6 146264289.76006       288.943 6        38.330                                                                    27833185.835 7 109223341.04907       215.645 7        42.328    27833184.357 7 112072642.78307       221.258 7        42.360
S44        42.000    40541716.950 6 213048283.17906      -410.536 6        36.416
G28        43.000    21271253.158 7 111781363.81507       226.327 7        46.690                                    21271252.759 6  87102447.18806       176.355 6        37.384    21271252.980 7  87102447.19307       176.288 7        46.797
C05        44.000                                                                                                                                    39331982.300 6 204811911.64606      -448.911 6        38.435    39331981.319 7 158373567.38707      -347.015 7        43.371    39331981.909 6 166426543.39206      -364.585 6        40.293
R14        45.000    23652721.674 7 126082379.93307     -4409.833 7        42.021                                                                    23652729.124 6  98064143.19606     -3429.834 6        41.559
R16        46.000    19674590.404 8 105098299.70708      1621.222 8        52.125                                                                    19674592.780 7  81743228.34607      1260.948 7        47.940
R17        47.000    19347680.236 8 103533571.62008     -1745.209 8        51.378                                                                    19347681.607 7  80526240.14407     -1357.361 7        47.290
C35        48.000                                                                                                                                    22368439.651 8 116478485.06408     -2201.553 8        48.886                                                                    22368440.292 8  94648371.66908     -1788.915 8        49.161
C24        49.000                                                                                                                                    21319187.656 8 111014658.49408      -193.582 8        51.630                                                                    21319186.052 8  90208522.10108      -157.317 8        50.263
R19        50.000    23263087.990 5 124441953.08605      3955.612 5        33.006                                                                    23263095.634 6  96788263.14006      3076.402 6        37.660
S48        51.000    77051261.447 6 404908170.31706      -519.041 6        37.716
C08        52.000                                                                                                                                    39245233.720 6 204360276.90006      1374.480 6        38.940    39245231.620 7 158024344.31307      1062.775 7        43.331    39245229.410 6 166059471.16206      1116.901 6        40.238
C34        53.000                                                                                                                                    24939237.151 7 129865304.49907      2754.011 7        43.342                                                                    24939242.307 7 105526287.99507      2237.775 7        42.770
C60        54.000                                                                                                                                    40541718.724 6 211111499.40906      -406.771 6        39.550                                                                    40541706.209 6 171545340.77506      -330.643 6        39.985
C25        55.000                                                                                                                                    24334043.521 7 126713909.36907      2364.280 7        43.723                                                                    24334046.443 7 102965505.77907      1921.141 7        44.480
C26        56.000                                                                                                                                    23171112.798 8 120658154.89108     -3011.389 8        48.698                                                                    23171114.516 7  98044677.21607     -2447.062 7        47.491
C02        57.000                                                                                                                                    40742632.853 5 212157559.23705      -404.953 5        33.659    40742630.802 6 164053658.07006      -313.095 6        38.375    40742633.454 5 172395383.87105      -328.885 5        35.305
I03        58.000    87340161.222 6 266956203.78606      1058.990 6        38.916
R24        60.000    23049585.273 7 123256634.30807     -4624.842 7        44.343                                                                    23049588.423 6  95866339.86906     -3597.078 6        39.513
> 2025 01 02 15 15 20.0000000  0 56
E24         1.000    26625911.001 6 139920214.29206     -2796.287 6        41.054                                                                    26625914.081 7 104485939.82007     -2088.032 7        44.841    26625912.981 7 107211649.17407     -2142.515 7        45.658
E11         2.000    24130705.839 7 126807877.20707       654.461 7        44.596                                                                    24130704.912 7  94694308.56607       488.740 7        46.390    24130704.488 7  97164582.33207       501.471 7        46.799
E03         3.000    27819079.374 6 146190149.83406     -3353.555 6        38.153                                                                    27819093.251 6 109167951.82006     -2504.392 6        41.256    27819091.646 6 112015815.83906     -2569.600 6        41.385
G05         4.000    25023111.531 6 131497353.91706      2539.410 6        39.012                                    25023112.169 5 102465474.76605      1978.753 5        30.189    25023112.607 5 102465473.77605      1978.979 5        35.714
S21         5.000    38337632.946 7 201465233.20107      -491.671 7        43.088
G26         6.000    24116409.760 6 126732678.77406      2877.339 6        38.429                                    24116417.452 5  98752831.83205      2242.072 5        30.838    24116417.919 5  98752818.82705      2242.398 5        35.381
G25         7.000    19959276.658 8 104886875.82708     -1650.729 8        49.585                                    19959277.221 8  81730117.27108     -1286.283 8        50.036    19959277.427 7  81730118.27007     -1286.237 7        45.252
E36         9.000    26229839.145 6 137838839.79106      2643.620 6        41.917                                                                    26229846.659 7 102931718.52807      1974.216 7        45.779    26229845.229 7 105616884.10807      2025.680 7        45.436
R08        10.000    23896604.955 6 127965235.82106       854.882 6        39.126                                                                    23896606.696 6  99528512.48606       664.943 6        40.050
G20        11.000    23887890.148 6 125531781.74106      1016.125 6        40.193                                    23887889.623 3  97817022.91103       791.797 3        23.086
S27        12.000    39135832.777 6 205660172.44406      -490.815 6        36.771
E08        13.000    26838906.300 6 141039523.84906     -2049.857 6        41.159                                                                    26838913.299 7 105321817.19707     -1530.560 7        42.792    26838911.981 7 108069330.44407     -1570.622 7        43.482
S36        14.000    38108939.770 7 200264272.61207      -491.442 7        44.606
G06        15.000    25627640.271 4 134674346.29404     -4011.359 4        27.713                                    25627640.506 2 104941139.51002     -3125.789 2        14.810    25627641.581 4 104941141.45704     -3125.720 4        29.412
