     3.04           OBSERVATION DATA    M                   RINEX VERSION / TYPE
ssrcrin-15.6.1x                         20250102 171500 UTC PGM / RUN BY / DATE 
(00000000023479385599111004) Septentrio proprietary         COMMENT             
rref                                                        MARKER NAME         
01                                                          MARKER NUMBER       
geodetic                                                    MARKER TYPE         
NFB                 CLIMERS@TUW                             OBSERVER / AGENCY   
3297213             SEPT ASTERX SB3 PROB4.14.4              REC # / TYPE / VERS 
Unknown             Unknown                                 ANT # / TYPE        
  4127831.7003  1207193.2471  4695247.5680                  APPROX POSITION XYZ 
        0.0000        0.0000        0.0000                  ANTENNA: DELTA H/E/N
G   23 X1  C1C L1C D1C S1C C1W S1W C2W L2W D2W S2W C2L L2L  SYS / # / OBS TYPES 
       D2L S2L C5Q L5Q D5Q S5Q C1L L1L D1L S1L              SYS / # / OBS TYPES 
E   21 X1  C1C L1C D1C S1C C6C L6C D6C S6C C5Q L5Q D5Q S5Q  SYS / # / OBS TYPES 
       C7Q L7Q D7Q S7Q C8Q L8Q D8Q S8Q                      SYS / # / OBS TYPES 
S    9 X1  C1C L1C D1C S1C C5I L5I D5I S5I                  SYS / # / OBS TYPES 
R   17 X1  C1C L1C D1C S1C C2P L2P D2P S2P C2C L2C D2C S2C  SYS / # / OBS TYPES 
       C3Q L3Q D3Q S3Q                                      SYS / # / OBS TYPES 
C   25 X1  C1P L1P D1P S1P C5P L5P D5P S5P C2I L2I D2I S2I  SYS / # / OBS TYPES 
       C7I L7I D7I S7I C6I L6I D6I S6I C7D L7D D7D S7D      SYS / # / OBS TYPES 
J   17 X1  C1C L1C D1C S1C C2L L2L D2L S2L C5Q L5Q D5Q S5Q  SYS / # / OBS TYPES 
       C1L L1L D1L S1L                                      SYS / # / OBS TYPES 
I    5 X1  C5A L5A D5A S5A                                  SYS / # / OBS TYPES 
SEPTENTRIO RECEIVERS OUTPUT ALIGNED CARRIER PHASES.         COMMENT             
NO FURTHER PHASE SHIFT APPLIED IN THE RINEX ENCODER.        COMMENT             
G L1C                                                       SYS / PHASE SHIFT   
G L2W                                                       SYS / PHASE SHIFT   
G L2L  0.00000                                              SYS / PHASE SHIFT   
G L5Q  0.00000                                              SYS / PHASE SHIFT   
G L1L  0.00000                                              SYS / PHASE SHIFT   
E L1C  0.00000                                              SYS / PHASE SHIFT   
E L6C  0.00000                                              SYS / PHASE SHIFT   
E L5Q  0.00000                                              SYS / PHASE SHIFT   
E L7Q  0.00000                                              SYS / PHASE SHIFT   
E L8Q  0.00000                                              SYS / PHASE SHIFT   
S L1C                                                       SYS / PHASE SHIFT   
S L5I                                                       SYS / PHASE SHIFT   
R L1C                                                       SYS / PHASE SHIFT   
R L2P  0.00000                                              SYS / PHASE SHIFT   
R L2C                                                       SYS / PHASE SHIFT   
R L3Q  0.00000                                              SYS / PHASE SHIFT   
C L1P  0.00000                                              SYS / PHASE SHIFT   
C L5P  0.00000                                              SYS / PHASE SHIFT   
C L2I                                                       SYS / PHASE SHIFT   
C L7I                                                       SYS / PHASE SHIFT   
C L6I                                                       SYS / PHASE SHIFT   
C L7D                                                       SYS / PHASE SHIFT   
J L1C                                                       SYS / PHASE SHIFT   
J L2L  0.00000                                              SYS / PHASE SHIFT   
J L5Q  0.00000                                              SYS / PHASE SHIFT   
J L1L  0.00000                                              SYS / PHASE SHIFT   
I L5A                                                       SYS / PHASE SHIFT   
  2025     1     2    17    15    0.0000000     GPS         TIME OF FIRST OBS   
 C1C    0.000 C2C    0.000 C2P    0.000                     GLONASS COD/PHS/BIS 
DBHZ                                                        SIGNAL STRENGTH UNIT
    18                                                      LEAP SECONDS        
 24 R01  1 R02 -4 R03  5 R04  6 R05  1 R06 -4 R07  5 R08  6 GLONASS SLOT / FRQ #
    R09 -2 R10 -7 R11  0 R12 -1 R13 -2 R14 -7 R15  0 R16 -1 GLONASS SLOT / FRQ #
    R17  4 R18 -3 R19  3 R20  2 R21  4 R22 -3 R23  3 R24  2 GLONASS SLOT / FRQ #
                                                            END OF HEADER       
> 2025 01 02 17 15  0.0000000  0 55
G23         1.000    24469937.317 6 128590409.83706      3096.123 6        38.736                                    24469937.321 3 100200327.02403      2412.569 3        23.771    24469937.949 6 100200325.04606      2412.606 6        40.555
E11         2.000    24931495.313 7 131016087.46007     -2460.874 7        42.442                                                                    24931491.780 7  97836813.04507     -1837.727 7        43.772    24931491.378 7 100389064.02907     -1885.561 7        44.111
G16         3.000    22311092.295 7 117245764.59607      2535.004 7        43.805                                    22311088.723 4  91360415.14804      1975.317 4        29.090
G05         4.000    22867888.483 7 120171660.29807      -995.102 7        44.340                                    22867885.519 6  93640278.30506      -775.405 6        39.946    22867885.887 6  93640277.31006      -775.468 6        40.737
S21         5.000    38394080.979 7 201761906.19807      -468.819 7        42.952
G26         6.000    20672448.839 8 108634681.21908       689.404 8        48.894                                    20672448.019 8  84650531.18508       537.197 8        50.269    20672448.354 7  84650518.18307       537.204 7        45.591
G25         7.000    23564641.194 6 123833196.85606     -4126.890 6        40.307                                    23564641.295 6  96493485.37806     -3215.758 6        36.140    23564642.096 6  96493486.37606     -3215.903 6        39.453
E36         9.000    23443507.589 8 123196650.60008       215.285 8        48.931                                                                    23443508.473 8  91997640.80808       160.719 8        50.796    23443507.993 8  94397566.71708       164.943 8        50.852
G27        10.000    24833812.605 5 130502605.67405      2944.652 5        35.767                                    24833818.582 4 101690382.69104      2294.517 4        26.862    24833819.325 5 101690384.73005      2294.528 5        33.377
G20        11.000    24707336.698 6 129838052.99506     -3000.891 6        37.456                                    24707333.366 2 101172570.93102     -2338.370 2        16.981
S27        12.000    39179009.454 6 205887167.23706      -450.673 6        36.975
C23        13.000                                                                                                                                    25317134.499 7 131832990.22107      2184.447 7        42.483                                                                    25317128.002 7 107125090.03307      1775.029 7        43.892
S36        14.000    38164969.326 7 200558759.31907      -468.362 7        44.376
C13        15.000                                                                                                                                    37769608.277 7 196676313.90107       113.109 7        44.883    37769610.293 7 152082634.03307        87.477 7        44.718    37769608.362 7 159815636.74507        91.929 7        43.094
G18        16.000    20666937.553 8 108605716.62208       660.720 8        49.338                                    20666934.329 6  84627927.23506       514.846 6        41.924    20666934.653 8  84627935.22708       514.863 8        48.630
R10        17.000    22625650.414 6 120607458.64006      3456.764 6        39.553
R01        18.000    23807634.330 6 127265444.63406     -1865.825 6        38.811                                                                    23807635.698 5  98984109.74605     -1451.268 5        34.224
E02        19.000    23126126.542 8 121528799.78308      -419.941 8        48.922                                                                    23126125.891 8  90752134.46508      -313.572 8        51.244    23126125.177 8  93119566.64908      -321.774 8        50.945
E10        21.000    27386416.123 6 143916809.25106     -3287.376 6        38.667                                                                    27386416.523 7 107470479.18107     -2454.862 7        42.140    27386415.769 6 110274041.80406     -2518.939 6        41.850
I06        22.000    38679014.157 6 151784959.70206      -355.696 6        40.949
S28        23.000    40871300.454 5 214780126.23005      -465.199 5        34.476
E29        24.000    28714264.746 6 150894499.74106      -799.974 6        36.257                                                                    28714265.734 6 112680958.64506      -597.599 6        38.874    28714265.597 6 115620462.28506      -612.985 6        40.341
S23        25.000    38117946.615 7 200311080.28607      -471.602 7        45.159
S45        26.000    63375509.526 6 333041251.83606      -527.660 6        37.342
R09        27.000    19566333.250 8 104483329.79608       919.761 8        51.988                                                                    19566332.616 8  81264922.52608       715.370 8        48.929
R18        28.000    19890984.004 8 106179719.42208     -2801.823 8        50.408                                                                    19890984.670 7  82584377.92707     -2179.191 7        47.858
C38        29.000                                                                                                                                    38565281.291 7 200819654.13507      -663.349 7        44.268                                                                    38565279.052 7 163182462.64707      -539.027 7        43.784
C44        30.000                                                                                                                                    22114276.131 8 115155060.70508     -2189.541 8        49.370                                                                    22114274.777 8  93573004.57008     -1779.176 8        49.147
C43        31.000                                                                                                                                    25250930.479 7 131488257.23607      2398.637 7        42.969                                                                    25250932.599 6 106845007.40506      1949.088 6        41.545
R02        32.000    23484342.318 7 125316963.30007      1289.712 7        42.607                                                                    23484342.557 6  97468754.33706      1003.278 6        38.805
I02        33.000    38411340.806 6 150734399.81206      -887.751 6        40.472
E34        35.000    26075605.142 7 137028398.43507      2401.509 7        43.907                                                                    26075608.127 7 102326500.84907      1793.373 7        45.479    26075607.471 7 104995877.94307      1840.092 7        46.042
G29        36.000    21377133.688 7 112337893.82207     -2465.042 7        47.689                                    21377129.920 7  87536131.47907     -1920.815 7        46.533    21377130.125 7  87536141.49207     -1920.881 7        43.242
G31        37.000    22364717.421 7 117527604.87007     -2657.223 7        46.218                                    22364714.017 7  91580048.90307     -2070.565 7        43.308    22364714.763 6  91580054.91206     -2070.637 6        41.774
C10        38.000                                                                                                                                    41377869.215 4                     -1187.195 4        25.609    41377868.411 5 166611525.86505      -918.552 5        30.151    41377863.931 4                      -963.853 4        25.880
E25        39.000    25226585.237 7 132566812.86307     -2815.529 7        44.879                                                                    25226586.495 7  98994827.48207     -2102.575 7        47.542    25226586.177 8 101577285.55208     -2157.381 8        48.173
C12        40.000                                                                                                                                    21612726.097 8 112543344.43708      -896.895 8        48.492    21612722.574 8  87025749.57208      -693.505 8        51.910    21612721.996 8  91450759.34008      -728.776 8        49.186
S44        42.000    40498006.598 6 212818656.08206      -405.925 6        38.018
G28        43.000    23409730.326 7 123019137.63707     -3695.011 7        43.429                                    23409729.062 4  95859154.97004     -2879.233 4        29.081    23409729.359 6  95859154.98406     -2879.260 6        41.788
C05        44.000                                                                                                                                    39318321.140 6 204740836.78606      -403.008 6        37.531    39318318.665 7 158318621.16307      -311.638 7        43.154    39318320.448 6 166368800.04006      -327.409 6        40.255
C11        45.000                                                                                                                                    23286303.435 7 121258014.10607      1812.129 7        46.781    23286302.128 8  93764442.98508      1401.245 8        50.133    23286300.243 7  98532104.14407      1472.526 7        47.403
R16        46.000    20197648.426 8 107892413.65908     -3487.340 8        51.648                                                                    20197649.254 7  83916435.48807     -2712.420 7        47.082
R17        47.000    23550307.866 7 126022698.37007     -4390.116 7        43.395                                                                    23550307.829 6  98017788.12306     -3414.656 6        40.010
C35        48.000                                                                                                                                    25989305.801 6 135333304.93206     -3446.071 6        39.796                                                                    25989305.704 6 109969461.28106     -2800.232 6        41.440
C24        49.000                                                                                                                                    23332335.593 7 121497663.58407     -3371.247 7        47.990                                                                    23332333.137 7  98726825.78007     -2739.353 7        47.365
R19        50.000    19378765.780 7 103663591.42807       335.297 7        42.051                                                                    19378765.855 7  80627350.00107       260.733 7        44.921
S48        51.000    77119044.971 6 405263423.55106      -505.638 6        38.538
C08        52.000                                                                                                                                    37722433.103 7 196430713.16407      -111.503 7        42.375    37722428.002 7 151892716.09907       -86.210 7        45.482    37722427.615 7 159616061.93207       -90.612 7        42.599
C34        53.000                                                                                                                                    21744935.640 8 113231859.40308       771.555 8        50.781                                                                    21744935.737 8  92010275.90208       626.936 8        49.158
C60        54.000                                                                                                                                    40498012.553 6 210883960.29406      -402.363 6        40.794                                                                    40497997.490 6 171360457.55006      -327.008 6        40.131
C25        55.000                                                                                                                                    22123326.614 8 115202209.14108      -520.847 8        50.392                                                                    22123325.177 8  93611323.82208      -423.163 8        49.052
C02        57.000                                                                                                                                    40677868.286 5 211820361.77405      -374.786 5        34.319    40677862.936 6 163792928.87806      -289.890 6        38.853    40677865.891 5 172121394.02005      -304.808 5        35.786
I03        58.000    84754800.450 6 256810770.30106      1103.926 6        40.925
E30        59.000    26030092.315 7 136789254.12507      1924.409 7        43.554                                                                    26030093.570 7 102147932.68807      1437.045 7        45.880    26030093.107 7 104812645.43407      1474.555 7        46.689
R20        60.000    23520652.557 6 125775608.86706      3372.684 6        36.045                                                                    23520659.235 6  97825518.88506      2623.250 6        39.778
> 2025 01 02 17 15  5.0000000  0 55
G23         1.000    24466991.246 6 128574927.82806      3096.288 6        38.336                                    24466991.300 3 100188263.17803      2412.679 3        23.962    24466991.355 6 100188261.20006      2412.698 6        40.701
E11         2.000    24933837.296 7 131028394.86907     -2462.062 7        42.273                                                                    24933833.785 7  97846003.63907     -1838.622 7        43.551    24933833.502 7 100398494.38007     -1886.566 7        44.057
G16         3.000    22308680.754 7 117233092.62707      2533.651 7        44.197                                    22308677.257 4  91350540.91004      1974.271 4        28.976
G05         4.000    22868836.816 7 120176643.28307      -998.304 7        44.176                                    22868833.767 6  93644161.15506      -777.898 6        39.949    22868834.077 6  93644160.15906      -778.024 6        40.777
S21         5.000    38394525.574 7 201764248.87907      -468.550 7        42.853
G26         6.000    20671793.846 8 108631240.22908       686.810 8        48.766                                    20671793.208 8  84647849.90208       535.175 8        50.273    20671793.539 7  84647836.90507       535.150 7        45.592
G25         7.000    23568567.675 6 123853832.29706     -4127.638 6        40.222                                    23568568.194 5  96509564.94205     -3216.341 5        35.981    23568568.243 6  96509565.93406     -3216.174 6        39.309
E36         9.000    23443303.448 8 123195578.70608       213.268 8        48.914                                                                    23443304.507 8  91996840.36908       159.324 8        50.723    23443304.008 8  94396745.39608       163.466 8        50.891
G27        10.000    24831011.022 6 130487881.58606      2944.486 6        36.151                                    24831016.739 4 101678909.45404      2294.389 4        26.898    24831016.510 5 101678911.48305      2294.370 5        32.623
G20        11.000    24710192.604 6 129853061.46906     -3002.705 6        36.892                                    24710189.391 2 101184265.84502     -2339.769 2        17.283
S27        12.000    39179436.292 6 205889419.26606      -450.434 6        37.100
C23        13.000                                                                                                                                    25315037.204 7 131822070.77607      2183.182 7        42.140                                                                    25315031.140 7 107116217.08707      1773.957 7        43.801
S36        14.000    38165412.611 7 200561099.51207      -468.042 7        44.537
C13        15.000                                                                                                                                    37769500.058 7 196675750.40607       112.096 7        44.889    37769501.784 7 152082198.30907        86.803 7        44.695    37769500.189 7 159815178.86507        91.240 7        42.959
G18        16.000    20666310.232 8 108602419.32208       657.999 8        49.032                                    20666306.867 6  84625357.91606       512.729 6        41.862    20666307.223 8  84625365.92208       512.720 8        48.946
R10        17.000    22622409.448 6 120590177.47306      3455.325 6        39.327
R01        18.000    23809380.705 6 127274781.99106     -1869.375 6        37.603                                                                    23809382.780 5  98991372.10205     -1453.970 5        35.176
E02        19.000    23126526.845 8 121530902.85108      -421.479 8        48.880                                                                    23126526.090 8  90753704.94708      -314.781 8        51.043    23126525.371 8  93121178.10108      -322.999 8        50.966
E10        21.000    27389543.899 6 143933246.80706     -3287.821 6        38.459                                                                    27389544.281 6 107482753.98206     -2455.181 6        41.976    27389543.768 6 110286636.81206     -2519.183 6        41.917
I06        22.000    38679467.312 6 151786737.38006      -355.474 6        40.987
S28        23.000    40871740.564 5 214782451.75105      -464.995 5        34.705
E29        24.000    28715026.761 6 150898504.86506      -802.148 6        36.087                                                                    28715027.896 6 112683949.42206      -599.061 6        39.021    28715027.890 6 115623531.10406      -614.654 6        40.632
S23        25.000    38118392.601 7 200313437.63607      -471.474 7        45.391
S45        26.000    63375963.257 6 333043889.13906      -527.242 6        37.611
R09        27.000    19565473.873 8 104478739.96908       915.910 8        51.879                                                                    19565472.900 8  81261352.67308       712.380 8        49.208
R18        28.000    19893609.343 8 106193732.99108     -2803.903 8        50.493                                                                    19893610.106 8  82595277.36708     -2180.730 8        48.096
C38        29.000                                                                                                                                    38565918.561 7 200822972.02007      -664.061 7        44.439                                                                    38565916.268 7 163185158.70107      -539.565 7        43.657
C44        30.000                                                                                                                                    22116379.080 8 115166010.88008     -2190.678 8        49.292                                                                    22116377.635 8  93581902.47408     -1780.080 8        49.035
C43        31.000                                                                                                                                    25248627.227 7 131476264.53007      2398.290 7        42.821                                                                    25248629.400 6 106835262.39106      1948.794 6        41.449
R02        32.000    23483134.655 7 125310522.07907      1286.452 7        42.453                                                                    23483135.743 6  97463744.52906      1000.611 6        38.877
I02        33.000    38412471.482 6 150738838.38606      -887.880 6        40.272
E34        35.000    26073320.528 7 137016392.45407      2400.658 7        44.172                                                                    26073323.427 7 102317535.38907      1792.742 7        45.476    26073322.803 7 104986678.58807      1839.505 7        46.051
G29        36.000    21379479.677 7 112350221.70207     -2466.334 7        47.394                                    21379475.832 7  87545737.62507     -1921.819 7        46.556    21379476.097 7  87545747.61907     -1921.752 7        43.187
G31        37.000    22367246.713 7 117540896.30307     -2659.569 7        45.481                                    22367243.283 7  91590405.87107     -2072.394 7        43.198    22367243.931 7  91590411.87707     -2072.365 7        42.193
C10        38.000                                                                                                                                    41379008.128 4                     -1187.842 4        24.917    41379006.922 4 166616116.10104      -918.145 4        29.488    41379005.737 4                      -964.762 4        26.898
E25        39.000    25229264.698 7 132580892.52607     -2816.530 7        45.207                                                                    25229265.814 7  99005341.51107     -2103.179 7        47.553    25229265.409 8 101588073.86508     -2158.070 8        48.209
C12        40.000                                                                                                                                    21613587.718 8 112547832.36408      -898.523 8        48.483    21613584.589 8  87029219.92908      -694.795 8        52.090    21613583.889 8  91454406.14008      -729.999 8        49.103
S44        42.000    40498393.711 6 212820685.35306      -405.708 6        38.108
G28        43.000    23413246.330 7 123037615.15707     -3696.164 7        42.474                                    23413245.233 4  95873553.03804     -2880.124 4        28.882    23413245.544 7  95873553.03907     -2880.196 7        42.516
C05        44.000                                                                                                                                    39318708.329 6 204742850.91406      -402.996 6        37.577    39318705.518 7 158320178.62507      -311.463 7        43.134    39318707.123 6 166370436.67906      -327.209 6        40.043
C11        45.000                                                                                                                                    23284564.751 7 121248955.77107      1810.962 7        46.718    23284562.495 8  93757438.52708      1400.339 8        50.217    23284560.687 7  98524743.50807      1471.661 7        47.419
R16        46.000    20200914.063 8 107909857.56108     -3490.454 8        51.861                                                                    20200914.679 7  83930002.97007     -2714.751 7        47.017
R17        47.000    23554409.547 7 126044647.52207     -4389.890 7        43.680                                                                    23554409.872 6  98034859.67706     -3414.116 6        40.257
C35        48.000                                                                                                                                    25992614.273 6 135350533.95506     -3445.745 6        39.904                                                                    25992614.341 6 109983461.25506     -2799.919 6        40.977
C24        49.000                                                                                                                                    23335573.066 7 121514522.27507     -3372.508 7        47.518                                                                    23335570.671 7  98740524.83507     -2740.402 7        47.206
R19        50.000    19378453.512 7 103661922.49807       332.103 7        42.305                                                                    19378453.369 7  80626051.96307       258.265 7        45.168
S48        51.000    77119498.474 6 405265950.30706      -505.492 6        38.682
C08        52.000                                                                                                                                    37722541.147 7 196431272.37007      -112.417 7        42.792    37722535.581 7 151893148.52507       -86.952 7        45.803    37722534.917 7 159616516.32007       -91.255 7        42.616
C34        53.000                                                                                                                                    21744195.628 8 113228005.02908       770.030 8        50.899                                                                    21744195.569 8  92007143.90508       625.746 8        49.051
C60        54.000                                                                                                                                    40498398.731 6 210885971.09706      -402.101 6        40.861                                                                    40498383.534 6 171362091.49006      -326.730 6        40.207
C25        55.000                                                                                                                                    22123827.959 8 115204819.23608      -523.439 8        50.503                                                                    22123826.441 8  93613444.73308      -425.250 8        48.896
C02        57.000                                                                                                                                    40678226.995 5 211822235.18005      -374.538 5        34.338    40678222.432 6 163794377.51506      -289.549 6        38.652    40678225.499 5 172122916.28605      -304.413 5        35.924
I03        58.000    84753393.184 6 256805249.36006      1104.186 6        40.734
E30        59.000    26028261.237 7 136779632.71307      1923.705 7        43.551                                                                    26028262.677 7 102140747.87807      1436.719 7        45.679    26028262.219 7 104805273.19507      1474.102 7        46.708
R20        60.000    23517498.359 6 125758746.30206      3371.830 6        36.783                                                                    23517506.191 6  97812403.64106      2622.748 6        39.312
> 2025 01 02 17 15 10.0000000  0 55
G23         1.000    24464044.773 6 128559445.75406      3096.263 6        38.820                                    24464045.109 3 100176199.26903      2412.658 3        23.981    24464045.475 6 100176197.28706      2412.738 6        40.656
E11         2.000    24936180.590 7 131040709.14007     -2463.649 7        42.717                                                                    24936177.139 7  97855199.35807     -1839.683 7        43.581    24936176.850 7 100407929.99007     -1887.685 7        44.113
G16         3.000    22306270.655 7 117220427.88907      2532.201 7        44.367                                    22306267.187 4  91340672.29304      1973.140 4        29.109
G05         4.000    22869788.237 7 120181643.33107     -1001.800 7        44.466                                    22869785.274 6  93648057.29506      -780.624 6        39.997    22869785.404 6  93648056.30206      -780.624 6        40.925
S21         5.000    38394973.085 7 201766591.00807      -468.425 7        42.912
G26         6.000    20671141.563 8 108627812.68308       684.052 8        49.135                                    20671140.950 8  84645179.09308       533.026 8        50.295    20671141.051 7  84645166.09807       532.997 7        45.546
G25         7.000    23572495.126 6 123874471.39806     -4128.266 6        39.901                                    23572495.709 5  96525647.35405     -3216.828 5        35.767    23572495.697 6  96525648.35606     -3216.740 6        38.997
E36         9.000    23443101.482 8 123194517.28508       211.152 8        49.116                                                                    23443102.511 8  91996047.76408       157.670 8        50.684    23443102.044 8  94395932.11308       161.788 8        50.887
G27        10.000    24828210.759 6 130473158.57606      2944.300 6        36.597                                    24828215.062 4 101667437.06904      2294.236 4        26.850    24828215.629 5 101667439.10205      2294.267 5        33.263
G20        11.000    24713050.909 6 129868080.06206     -3004.792 6        37.115                                    24713047.313 2 101195968.61502     -2341.389 2        17.321
S27        12.000    39179869.691 6 205891670.85106      -450.120 6        36.953
C23        13.000                                                                                                                                    25312942.261 7 131811158.55107      2181.552 7        42.500                                                                    25312935.527 7 107107350.03807      1772.793 7        44.038
S36        14.000    38165857.846 7 200563439.41407      -468.087 7        44.507
C13        15.000                                                                                                                                    37769392.661 7 196675191.63007       111.173 7        44.968    37769394.400 7 152081766.24007        85.924 7        44.617    37769392.866 7 159814724.82907        90.259 7        43.244
G18        16.000    20665685.270 8 108599136.06608       655.111 8        49.097                                    20665682.087 6  84622799.54406       510.475 6        41.828    20665682.277 8  84622807.54808       510.446 8        48.726
R10        17.000    22619168.880 6 120572903.48606      3453.886 6        41.197
R01        18.000    23811127.975 6 127284138.23306     -1873.512 6        36.185                                                                    23811130.963 5  98998649.10305     -1457.220 5        34.500
E02        19.000    23126928.610 8 121533014.59108      -423.355 8        49.244                                                                    23126927.954 8  90755281.89508      -316.097 8        51.043    23126927.198 8  93122796.18508      -324.375 8        51.021
E10        21.000    27392672.349 6 143949686.81406     -3288.391 6        38.390                                                                    27392672.663 6 107495030.60506     -2455.674 6        41.754    27392672.377 7 110299233.68807     -2519.661 7        42.066
I06        22.000    38679920.059 6 151788514.55006      -355.466 6        40.968
S28        23.000    40872187.892 5 214784777.35705      -465.281 5        34.609
E29        24.000    28715791.354 5 150902521.07905      -804.505 5        34.962                                                                    28715792.332 6 112686948.55406      -600.786 6        38.387    28715791.917 6 115626608.48306      -616.516 6        39.640
S23        25.000    38118840.483 7 200315794.66407      -471.543 7        45.178
S45        26.000    63376411.381 6 333046525.97606      -527.608 6        37.263
R09        27.000    19564618.108 8 104474169.77708       911.929 8        51.935                                                                    19564617.271 8  81257798.08608       709.267 8        49.217
R18        28.000    19896236.912 8 106207757.36608     -2806.092 8        50.487                                                                    19896237.102 8  82606185.22108     -2182.514 8        48.109
C38        29.000                                                                                                                                    38566556.406 7 200826294.32807      -665.094 7        44.448                                                                    38566554.306 7 163187858.35207      -540.346 7        43.780
C44        30.000                                                                                                                                    22118483.114 8 115176967.29108     -2192.068 8        49.045                                                                    22118481.673 8  93590805.46808     -1781.191 8        49.229
C43        31.000                                                                                                                                    25246324.522 7 131464274.86207      2397.522 7        42.595                                                                    25246326.864 6 106825519.84206      1948.170 6        41.671
R02        32.000    23481931.051 7 125304098.40707      1282.977 7        42.326                                                                    23481932.743 6  97458748.35206       997.774 6        39.712
I02        33.000    38413603.251 6 150743277.20606      -887.955 6        40.400
E34        35.000    26071036.465 7 137004391.04807      2399.715 7        43.500                                                                    26071039.562 7 102308573.34207      1791.970 7        45.518    26071039.033 7 104977482.74507      1838.737 7        46.062
G29        36.000    21381826.695 7 112362556.31607     -2467.720 7        47.365                                    21381822.991 7  87555349.01507     -1922.895 7        46.546    21381823.620 7  87555359.02007     -1922.933 7        43.156
G31        37.000    22369777.922 7 117554199.92507     -2662.024 7        46.301                                    22369774.847 7  91600772.32507     -2074.308 7        43.143    22369775.444 7  91600778.34407     -2074.328 7        42.184
C10        38.000                                                                                                                                    41380147.788 4                     -1187.566 4        25.323    41380147.837 5 166620706.50405      -918.292 5        30.219    41380144.029 4                      -964.778 4        26.012
E25        39.000    25231944.787 7 132594977.64507     -2817.694 7        45.571                                                                    25231946.098 7  99015859.62907     -2104.104 7        47.615    25231945.758 8 101598866.36808     -2159.025 8        48.275
C12        40.000                                                                                                                                    21614451.023 8 112552328.98408      -900.318 8        48.610    21614448.104 8  87032697.00808      -696.191 8        52.053    21614447.397 8  91458060.02708      -731.574 8        49.305
S44        42.000    40498784.079 6 212822714.34506      -405.914 6        38.057
G28        43.000    23416763.222 7 123056098.36107     -3697.310 7        42.967                                    23416762.526 4  95887955.53204     -2881.018 4        28.777    23416762.632 7  95887955.52907     -2881.031 7        42.237
C05        44.000                                                                                                                                    39319095.325 6 204744864.59906      -402.865 6        37.637    39319092.264 7 158321735.74807      -311.514 7        43.139    39319093.941 6 166372072.98706      -327.313 6        40.200
C11        45.000                                                                                                                                    23282825.931 7 121239903.64207      1809.698 7        46.728    23282824.015 8  93750438.85708      1399.373 8        50.115    23282822.289 7  98517387.94407      1470.537 7        47.503
R16        46.000    20204182.772 8 107927317.20108     -3493.625 8        52.178                                                                    20204183.746 7  83943582.69607     -2717.245 7        47.643
R17        47.000    23558511.949 7 126066595.87507     -4389.724 7        43.412                                                                    23558511.399 6  98051930.64406     -3414.293 6        40.119
C35        48.000                                                                                                                                    25995923.014 6 135367762.73906     -3445.940 6        39.940                                                                    25995922.887 6 109997461.06806     -2799.948 6        41.025
C24        49.000                                                                                                                                    23338811.638 7 121531387.87907     -3373.891 7        47.452                                                                    23338809.496 7  98754229.52907     -2741.580 7        47.366
R19        50.000    19378144.713 6 103660269.60706       328.839 6        41.845                                                                    19378144.796 7  80624766.38907       255.742 7        45.254
S48        51.000    77119949.522 6 405268476.87106      -505.318 6        38.363
C08        52.000                                                                                                                                    37722650.456 7 196431836.76607      -113.525 7        42.789    37722644.007 7 151893584.96107       -87.731 7        45.752    37722643.254 7 159616974.96507       -92.247 7        42.773
C34        53.000                                                                                                                                    21743457.003 8 113224158.91408       768.269 8        50.970                                                                    21743456.989 8  92004018.63708       624.328 8        49.236
C60        54.000                                                                                                                                    40498784.780 6 210887981.64806      -402.203 6        40.872                                                                    40498769.614 6 171363725.23906      -326.740 6        40.329
C25        55.000                                                                                                                                    22124331.812 8 115207443.00608      -526.292 8        50.403                                                                    22124330.308 8  93615576.77908      -427.584 8        49.164
C02        57.000                                                                                                                                    40678588.065 5 211824108.27405      -374.973 5        34.257    40678582.044 6 163795825.90006      -289.808 6        39.012    40678585.326 6 172124438.34006      -304.576 6        36.072
I03        58.000    84751986.347 6 256799728.09506      1104.108 6        40.632
E30        59.000    26026430.888 7 136770014.60707      1923.112 7        43.846                                                                    26026432.397 7 102133565.54607      1436.138 7        45.699    26026431.931 7 104797903.49507      1473.591 7        46.714
R20        60.000    23514345.265 6 125741888.62306      3370.888 6        36.030                                                                    23514352.634 6  97799292.22206      2621.689 6        38.405
> 2025 01 02 17 15 15.0000000  0 55
G23         1.000    24461098.678 6 128543964.02106      3096.428 6        39.237                                    24461098.864 3 100164135.64303      2412.792 3        23.962    24461098.872 6 100164133.65506      2412.642 6        40.422
E11         2.000    24938525.297 7 131053030.62607     -2465.029 7        42.692                                                                    24938521.781 7  97864400.47407     -1840.772 7        43.625    24938521.579 7 100417371.14107     -1888.891 7        44.172
G16         3.000    22303862.021 7 117207770.72707      2530.717 7        44.209                                    22303858.641 4  91330809.58004      1971.983 4        28.938
G05         4.000    22870743.056 7 120186660.90707     -1005.299 7        44.331                                    22870740.100 6  93651967.09806      -783.351 6        39.832    22870740.191 6  93651966.09806      -783.293 6        40.636
S21         5.000    38395416.344 7 201768933.13407      -468.370 7        42.679
G26         6.000    20670492.071 8 108624398.96008       681.413 8        49.510                                    20670491.335 8  84642519.06308       530.971 8        50.241    20670491.581 7  84642506.06407       530.981 7        45.520
G25         7.000    23576423.484 6 123895114.55306     -4129.122 6        40.238                                    23576424.066 5  96541732.92805     -3217.497 5        35.719    23576423.953 6  96541733.92706     -3217.474 6        39.384
E36         9.000    23442901.629 8 123193466.74308       209.076 8        48.856                                                                    23442902.600 8  91995263.27608       156.057 8        50.681    23442902.142 8  94395127.15908       160.137 8        51.034
G27        10.000    24825409.920 6 130458437.07606      2944.035 6        36.560                                    24825413.733 4 101655965.85304      2294.029 4        26.707    24825414.854 5 101655967.86405      2294.405 5        33.629
G20        11.000    24715911.245 6 129883109.17106     -3006.809 6        37.263                                    24715907.349 2 101207679.58702     -2342.959 2        17.698
S27        12.000    39180300.335 6 205893922.40606      -450.332 6        36.866
C23        13.000                                                                                                                                    25310848.532 7 131800253.95507      2180.137 7        42.521                                                                    25310841.351 7 107098489.18407      1771.444 7        43.920
S36        14.000    38166302.965 7 200565779.75307      -468.016 7        44.355
C13        15.000                                                                                                                                    37769286.769 7 196674638.01707       110.285 7        45.130    37769288.261 7 152081338.16107        85.254 7        44.700    37769286.504 7 159814274.99607        89.403 7        43.094
G18        16.000    20665063.318 8 108595867.23608       652.310 8        48.936                                    20665060.022 6  84620252.41106       508.294 6        41.762    20665060.210 8  84620260.41508       508.285 8        48.780
R10        17.000    22615929.319 6 120555636.88306      3452.452 6        40.224
R01        18.000    23812884.806 6 127293514.04506     -1877.045 6        37.225                                                                    23812886.267 5  99005941.40805     -1460.142 5        34.195
E02        19.000    23127332.062 8 121535135.36708      -425.083 8        48.991                                                                    23127331.525 8  90756865.59708      -317.423 8        51.023    23127330.778 8  93124421.19908      -325.704 8        51.090
E10        21.000    27395801.818 6 143966129.60306     -3288.868 6        38.694                                                                    27395801.622 6 107507309.31706     -2455.913 6        41.678    27395801.520 7 110311832.71507     -2520.004 7        42.245
I06        22.000    38680373.033 6 151790291.49806      -355.397 6        40.899
S28        23.000    40872627.054 5 214787103.10405      -464.810 5        34.367
E29        24.000    28716557.908 6 150906548.87306      -806.714 6        36.155                                                                    28716558.382 6 112689956.44806      -602.428 6        38.399    28716558.250 6 115629694.81606      -618.143 6        40.224
S23        25.000    38119291.115 7 200318151.53607      -471.323 7        45.105
S45        26.000    63376852.265 6 333049162.85606      -527.372 6        37.183
R09        27.000    19563766.329 8 104469619.66308       908.025 8        52.358                                                                    19563765.147 8  81254259.11508       706.163 8        49.048
R18        28.000    19898866.245 8 106221792.83008     -2808.244 8        50.567                                                                    19898866.693 8  82617101.69208     -2184.107 8        48.000
C38        29.000                                                                                                                                    38567195.090 7 200829621.40807      -665.916 7        44.591                                                                    38567193.193 7 163190561.90207      -541.116 7        43.644
C44        30.000                                                                                                                                    22120588.293 8 115187930.30508     -2193.214 8        49.143                                                                    22120587.022 8  93599713.82408     -1782.245 8        49.096
C43        31.000                                                                                                                                    25244022.814 7 131452288.57107      2396.906 7        42.540                                                                    25244024.947 6 106815780.04906      1947.593 6        41.423
R02        32.000    23480730.546 7 125297692.38107      1279.332 7        42.299                                                                    23480731.746 6  97453765.89506       995.026 6        38.805
I02        33.000    38414734.088 6 150747716.44306      -887.836 6        40.346
E34        35.000    26068753.684 7 136992394.59707      2398.775 7        42.948                                                                    26068756.711 7 102299614.99507      1791.326 7        45.445    26068756.154 7 104968290.70307      1837.960 7        46.103
G29        36.000    21384175.221 7 112374898.06107     -2469.154 7        47.564                                    21384171.528 7  87564965.96007     -1924.016 7        46.441    21384172.201 7  87564975.95807     -1923.940 7        43.079
G31        37.000    22372312.289 7 117567516.13807     -2664.493 7        46.146                                    22372308.804 7  91611148.59607     -2076.231 7        43.081    22372309.434 7  91611154.58307     -2076.122 7        42.138
C10        38.000                                                                                                                                    41381289.416 4                     -1189.323 4        24.286    41381287.754 5 166625297.30205      -918.175 5        30.257    41381285.979 4                      -965.118 4        27.054
E25        39.000    25234626.373 7 132609068.60207     -2818.787 7        45.261                                                                    25234627.457 7  99026382.10507     -2104.958 7        47.603    25234627.161 8 101609663.33908     -2159.857 8        48.313
C12        40.000                                                                                                                                    21615316.589 8 112556834.64408      -902.047 8        48.747    21615313.106 8  87036181.07408      -697.522 8        52.020    21615312.651 8  91461721.25608      -733.032 8        49.122
S44        42.000    40499165.853 6 212824743.42106      -405.699 6        37.750
G28        43.000    23420282.039 7 123074587.63007     -3698.468 7        42.582                                    23420280.928 4  95902362.76004     -2881.924 4        28.768    23420280.929 6  95902362.76106     -2881.896 6        41.900
C05        44.000                                                                                                                                    39319481.624 6 204746878.26906      -402.745 6        37.376    39319478.899 7 158323292.83907      -311.408 7        43.111    39319480.660 6 166373709.25606      -327.223 6        40.105
C11        45.000                                                                                                                                    23281088.473 7 121230858.06107      1808.513 7        46.464    23281086.834 8  93743444.25908      1398.477 8        49.971    23281085.154 7  98510037.69107      1469.454 7        47.348
R16        46.000    20207454.452 8 107944792.95908     -3496.748 8        52.524                                                                    20207454.982 7  83957174.95707     -2719.733 7        47.937
R17        47.000    23562612.950 7 126088544.06507     -4389.676 7        43.285                                                                    23562612.267 6  98069001.46506     -3414.146 6        39.820
C35        48.000                                                                                                                                    25999231.324 6 135384991.66806     -3445.882 6        40.250                                                                    25999231.324 6 110011460.99306     -2800.103 6        40.269
C24        49.000                                                                                                                                    23342052.071 7 121548260.76107     -3375.276 7        47.473                                                                    23342049.756 7  98767940.13207     -2742.773 7        47.175
R19        50.000    19377839.158 7 103658633.18807       325.569 7        42.125                                                                    19377838.939 7  80623493.61607       253.286 7        45.333
S48        51.000    77120405.619 6 405271003.36306      -505.493 6        38.255
C08        52.000                                                                                                                                    37722759.865 7 196432406.81507      -114.551 7        43.014    37722753.459 7 151894025.77907       -88.628 7        45.866    37722752.720 7 159617438.18307       -93.132 7        42.663
C34        53.000                                                                                                                                    21742719.951 8 113220321.44208       766.636 8        50.974                                                                    21742720.032 8  92000900.39508       622.873 8        49.114
C60        54.000                                                                                                                                    40499170.940 6 210889992.29206      -402.115 6        41.120                                                                    40499155.667 6 171365359.06306      -326.795 6        40.269
C25        55.000                                                                                                                                    22124838.262 8 115210080.83408      -528.952 8        50.579                                                                    22124836.867 8  93617720.24208      -429.902 8        48.957
C02        57.000                                                                                                                                    40678947.476 5 211825981.35605      -374.597 5        34.481    40678941.880 6 163797274.31206      -289.728 6        38.919    40678945.086 5 172125960.38105      -304.420 5        35.819
I03        58.000    84750579.524 6 256794206.81506      1104.183 6        40.729
E30        59.000    26024601.317 7 136760400.19707      1922.439 7        43.524                                                                    26024602.834 7 102126385.97007      1435.620 7        45.657    26024602.331 7 104790536.62407      1473.042 7        46.767
R20        60.000    23511193.410 5 125725036.18105      3369.961 5        35.286                                                                    23511201.508 6  97786184.87606      2620.999 6        38.141
> 2025 01 02 17 15 20.0000000  0 55
G23         1.000    24458152.920 6 128528482.70206      3096.325 6        39.559                                    24458152.924 4 100152072.32604      2412.713 4        24.406    24458153.297 6 100152070.34706      2412.726 6        40.472
E11         2.000    24940871.290 7 131065359.39007     -2466.397 7        42.565                                                                    24940867.925 7  97873607.02207     -1841.783 7        43.517    24940867.643 7 100426817.85607     -1889.849 7        44.190
G16         3.000    22301455.066 7 117195121.21607      2529.164 7        44.552                                    22301451.527 4  91320952.84004      1970.780 4        28.967
G05         4.000    22871701.121 7 120191696.00507     -1008.722 7        44.170                                    22871698.239 6  93655890.55306      -786.020 6        39.826    22871698.361 6  93655889.54806      -785.950 6        40.548
S21         5.000    38395860.573 7 201771275.23107      -468.260 7        42.489
G26         6.000    20669845.094 8 108620999.12908       678.743 8        49.567                                    20669844.372 8  84639869.85108       528.888 8        50.213    20669844.570 7  84639856.85507       528.861 7        45.643
G25         7.000    23580352.598 6 123915761.76006     -4129.686 6        40.291                                    23580353.182 5  96557821.66005     -3217.939 5        35.795    23580353.394 6  96557822.66006     -3217.893 6        39.510
E36         9.000    23442703.905 8 123192427.12308       206.896 8        48.770                                                                    23442704.774 8  91994486.94108       154.506 8        50.730    23442704.252 8  94394330.57608       158.488 8        50.972
G27        10.000    24822606.804 6 130443717.08606      2944.074 6        36.382                                    24822612.633 4 101644495.80804      2294.059 4        26.874    24822612.630 5 101644497.84105      2294.023 5        33.144
G20        11.000    24718772.920 6 129898148.85306     -3008.939 6        36.998                                    24718769.273 3 101219398.82203     -2344.647 3        18.179
S27        12.000    39180726.803 6 205896174.28506      -450.461 6        36.741
C23        13.000                                                                                                                                    25308755.878 7 131789357.06407      2178.630 7        42.950                                                                    25308748.781 7 107089634.57207      1770.377 7        43.941
S36        14.000    38166748.830 7 200568120.05807      -468.072 7        44.149
C13        15.000                                                                                                                                    37769181.278 7 196674089.60507       109.346 7        45.154    37769182.721 7 152080914.09307        84.519 7        44.664    37769181.191 7 159813829.35607        88.741 7        43.109
G18        16.000    20664444.238 8 108592612.88508       649.571 8        49.076                                    20664440.724 6  84617716.56006       506.155 6        41.790    20664440.911 8  84617724.56308       506.159 8        48.877
R10        17.000    22612691.137 6 120538377.77006      3451.203 6        39.339
R01        18.000    23814643.129 6 127302909.25606     -1880.825 6        36.325                                                                    23814643.800 5  99013248.69205     -1462.979 5        35.014
