     3.04           OBSERVATION DATA    M                   RINEX VERSION / TYPE
ssrcrin-15.6.1x                         20250102 121500 UTC PGM / RUN BY / DATE 
(00000000023479385599111004) Septentrio proprietary         COMMENT             
rref                                                        MARKER NAME         
01                                                          MARKER NUMBER       
geodetic                                                    MARKER TYPE         
NFB                 CLIMERS@TUW                             OBSERVER / AGENCY   
3297213             SEPT ASTERX SB3 PROB4.14.4              REC # / TYPE / VERS 
Unknown             Unknown                                 ANT # / TYPE        
  4127831.2632  1207193.0072  4695248.7485                  APPROX POSITION XYZ 
        0.0000        0.0000        0.0000                  ANTENNA: DELTA H/E/N
G   23 X1  C1C L1C D1C S1C C1W S1W C2W L2W D2W S2W C2L L2L  SYS / # / OBS TYPES 
       D2L S2L C5Q L5Q D5Q S5Q C1L L1L D1L S1L              SYS / # / OBS TYPES 
E   21 X1  C1C L1C D1C S1C C6C L6C D6C S6C C5Q L5Q D5Q S5Q  SYS / # / OBS TYPES 
       C7Q L7Q D7Q S7Q C8Q L8Q D8Q S8Q                      SYS / # / OBS TYPES 
S    9 X1  C1C L1C D1C S1C C5I L5I D5I S5I                  SYS / # / OBS TYPES 
R   17 X1  C1C L1C D1C S1C C2P L2P D2P S2P C2C L2C D2C S2C  SYS / # / OBS TYPES 
       C3Q L3Q D3Q S3Q                                      SYS / # / OBS TYPES 
C   25 X1  C1P L1P D1P S1P C5P L5P D5P S5P C2I L2I D2I S2I  SYS / # / OBS TYPES 
       C7I L7I D7I S7I C6I L6I D6I S6I C7D L7D D7D S7D      SYS / # / OBS TYPES 
J   17 X1  C1C L1C D1C S1C C2L L2L D2L S2L C5Q L5Q D5Q S5Q  SYS / # / OBS TYPES 
       C1L L1L D1L S1L                                      SYS / # / OBS TYPES 
I    5 X1  C5A L5A D5A S5A                                  SYS / # / OBS TYPES 
SEPTENTRIO RECEIVERS OUTPUT ALIGNED CARRIER PHASES.         COMMENT             
NO FURTHER PHASE SHIFT APPLIED IN THE RINEX ENCODER.        COMMENT             
G L1C                                                       SYS / PHASE SHIFT   
G L2W                                                       SYS / PHASE SHIFT   
G L2L  0.00000                                              SYS / PHASE SHIFT   
G L5Q  0.00000                                              SYS / PHASE SHIFT   
G L1L  0.00000                                              SYS / PHASE SHIFT   
E L1C  0.00000                                              SYS / PHASE SHIFT   
E L6C  0.00000                                              SYS / PHASE SHIFT   
E L5Q  0.00000                                              SYS / PHASE SHIFT   
E L7Q  0.00000                                              SYS / PHASE SHIFT   
E L8Q  0.00000                                              SYS / PHASE SHIFT   
S L1C                                                       SYS / PHASE SHIFT   
S L5I                                                       SYS / PHASE SHIFT   
R L1C                                                       SYS / PHASE SHIFT   
R L2P  0.00000                                              SYS / PHASE SHIFT   
R L2C                                                       SYS / PHASE SHIFT   
R L3Q  0.00000                                              SYS / PHASE SHIFT   
C L1P  0.00000                                              SYS / PHASE SHIFT   
C L5P  0.00000                                              SYS / PHASE SHIFT   
C L2I                                                       SYS / PHASE SHIFT   
C L7I                                                       SYS / PHASE SHIFT   
C L6I                                                       SYS / PHASE SHIFT   
C L7D                                                       SYS / PHASE SHIFT   
J L1C                                                       SYS / PHASE SHIFT   
J L2L  0.00000                                              SYS / PHASE SHIFT   
J L5Q  0.00000                                              SYS / PHASE SHIFT   
J L1L  0.00000                                              SYS / PHASE SHIFT   
I L5A                                                       SYS / PHASE SHIFT   
  2025     1     2    12    15    0.0000000     GPS         TIME OF FIRST OBS   
 C1C    0.000 C2C    0.000 C2P    0.000                     GLONASS COD/PHS/BIS 
DBHZ                                                        SIGNAL STRENGTH UNIT
    18                                                      LEAP SECONDS        
 24 R01  1 R02 -4 R03  5 R04  6 R05  1 R06 -4 R07  5 R08  6 GLONASS SLOT / FRQ #
    R09 -2 R10 -7 R11  0 R12 -1 R13 -2 R14 -7 R15  0 R16 -1 GLONASS SLOT / FRQ #
    R17  4 R18 -3 R19  3 R20  2 R21  4 R22 -3 R23  3 R24  2 GLONASS SLOT / FRQ #
                                                            END OF HEADER       
> 2025 01 02 12 15  0.0000000  0 55
E24         1.000    23679058.298 8 124434413.14508     -1010.739 8        48.911                                                                    23679060.370 8  92921871.82408      -754.745 8        50.886    23679059.297 8  95345909.34908      -774.432 8        50.908
G15         2.000    24569988.688 6 129115942.63506     -4404.494 6        40.527                                    24569997.811 5 100609758.07405     -3432.063 5        32.413    24569998.564 6 100609753.05506     -3432.135 6        37.077
E03         3.000    25084851.751 7 131821795.16507       399.505 7        44.635                                                                    25084857.708 8  98438367.89708       298.327 8        48.022    25084856.568 7 101006326.03807       306.189 7        47.909
G19         4.000    21686863.740 7 113965394.97807     -2209.310 7        46.406                                    21686862.986 5  88804234.77805     -1721.535 5        35.867
S21         5.000    38484766.459 7 202238391.03307      -519.140 7        42.942
E05         6.000    23071705.804 7 121242571.33207     -2419.028 7        47.133                                                                    23071711.206 8  90538251.65408     -1806.362 8        49.286    23071710.294 8  92900119.35108     -1853.536 8        49.527
G25         7.000    22553341.821 7 118518707.72807      2546.593 7        43.409                                    22553346.607 6  92352305.80806      1984.358 6        38.817    22553347.255 6  92352306.81406      1984.381 6        39.610
C29         8.000                                                                                                                                    23009494.190 8 119816504.16008      -134.111 8        48.777                                                                    23009496.053 7  97360741.83307      -108.925 7        47.470
R05         9.000    21091162.000 8 112744413.89708      -341.738 8        49.961                                                                    21091166.294 7  87690154.69207      -265.755 7        46.675
G24        10.000    20362221.743 8 107004200.29508     -1797.042 8        50.030                                    20362223.238 8  83379911.42508     -1400.292 8        52.368    20362223.650 7  83379916.42707     -1400.280 7        46.210
C14        11.000                                                                                                                                    24880959.065 7 129561696.79007     -1011.932 7        42.929    24880961.241 7 100185351.69407      -782.432 7        47.210    24880958.390 7 105279504.64107      -822.221 7        44.144
S27        12.000    39257416.494 6 206298983.59306      -543.197 6        36.321
E08        13.000    28719546.138 6 150922227.25206      2259.597 6        37.077                                                                    28719561.823 6 112701721.50906      1687.550 6        39.351    28719559.453 6 115641758.24306      1731.491 6        39.631
S36        14.000    38255619.570 7 201035056.61707      -519.798 7        44.664
G06        15.000    23784481.128 6 124988356.77806      1663.471 6        40.539                                    23784488.468 6  97393585.27206      1296.206 6        36.945    23784489.198 6  97393587.27806      1296.229 6        40.532
E09        16.000    27868633.857 6 146450455.56906     -3782.203 6        38.583                                                                    27868649.900 6 109362285.76006     -2824.274 6        41.993    27868647.863 7 112215218.93707     -2897.951 7        43.026
G12        17.000    20469707.045 8 107569211.67108       624.311 8        50.039                                    20469705.873 8  83820247.38308       486.476 8        50.611    20469706.483 7  83820244.38707       486.443 7        45.806
G32        18.000    23908022.314 7 125637524.56207      1923.278 7        42.451                                    23908027.727 6  97899415.45106      1498.658 6        38.030    23908027.806 6  97899419.46006      1498.510 6        39.432
R22        19.000    23981556.607 6 128015192.66906     -3953.023 6        40.903                                                                    23981565.980 6  99567352.57006     -3074.456 6        39.532
I06        22.000    38452972.475 6 150897814.67306      -497.956 6        41.542
S28        23.000    40950206.241 5 215194594.02305      -528.532 5        34.667
S23        25.000    38193171.729 7 200706324.53807      -523.787 7        44.655
S45        26.000    63445456.073 6 333409256.18706      -580.488 6        36.299
C07        27.000                                                                                                                                    39939835.037 6 207977103.85506     -1422.486 6        38.054    39939837.533 7 160821058.46907     -1099.990 7        42.038    39939833.942 6 168998395.81006     -1155.798 6        38.742
R04        28.000    21492243.043 8 115089933.34508     -3904.361 8        49.511                                                                    21492247.159 7  89514360.03807     -3036.688 7        44.163
C40        29.000                                                                                                                                    40381010.262 6 210274410.22406     -1705.460 6        39.841                                                                    40381016.661 6 170865164.48706     -1385.675 6        39.414
G17        30.000    24360258.343 6 128014072.49306     -3706.156 6        40.343                                    24360262.505 5  99751266.26005     -2887.908 5        32.389    24360263.774 6  99751263.24906     -2887.850 6        36.605
E12        31.000    27902322.603 5 146627716.11005      2226.530 5        34.805                                                                    27902332.507 6 109494787.11606      1662.447 6        39.213    27902331.007 6 112351161.44706      1705.916 6        38.231
G11        32.000    25193878.158 6 132394722.24306      2621.025 6        37.996                                    25193888.652 3 103164767.81603      2042.360 3        19.254    25193888.271 6 103164758.84406      2042.165 6        37.361
I02        33.000    36978206.608 7 145110404.96007      -489.227 7        42.948
R15        34.000    21668076.819 8 115787718.82108      2261.264 8        48.441                                                                    21668081.662 7  90057170.05007      1758.876 7        44.011
R13        35.000    22183483.778 6 118458524.44506     -3505.303 6        41.311
C42        37.000                                                                                                                                    24728454.591 7 128767514.33607     -2349.641 7        44.664                                                                    24728467.819 7 104634190.44907     -1909.210 7        44.874
C10        38.000                                                                                                                                    39049476.561 6 203340824.11606     -1147.998 6        40.739    39049479.383 7 157236013.43107      -887.650 7        43.132    39049476.425 6 165231055.83206      -932.834 6        40.563
E25        39.000    24870619.739 7 130696142.71307      1296.921 7        45.369                                                                    24870625.627 8  97597880.90008       968.482 8        48.489    24870624.595 8 100143898.93808       993.761 8        48.829
C30        40.000                                                                                                                                    25767860.714 6 134180003.02106     -2940.611 6        40.219                                                                    25767869.273 6 109032274.29306     -2389.319 6        39.456
R23        41.000    21296954.088 7 113924430.87307     -1242.612 7        46.959
S44        42.000    40848718.465 6 214661463.90706      -453.687 6        38.246
C36        43.000                                                                                                                                    26324736.109 6 137079617.66606     -3330.566 6        40.381                                                                    26324750.389 6 111388397.99606     -2706.188 6        40.627
C05        44.000                                                                                                                                    39505753.104 6 205716711.86406      -528.700 6        38.871    39505757.367 7 159073197.15407      -408.680 7        43.001    39505756.687 6 167161752.27006      -429.411 6        39.348
R14        45.000    19496125.701 8 103925433.20308      -468.006 8        51.521                                                                    19496129.845 7  80830974.56207      -363.999 7        47.891
E26        46.000    28560073.819 6 150084249.97706     -1958.583 6        36.185                                                                    28560084.623 6 112075971.00606     -1462.652 6        40.346    28560082.646 6 114999680.93406     -1500.938 6        39.862
G10        47.000    25309294.078 6 133001117.82706     -2658.891 6        38.318                                    25309304.016 4 103637213.87804     -2071.854 4        27.677    25309304.129 5 103637214.89005     -2072.083 5        34.200
C35        48.000                                                                                                                                    24400114.472 7 127057867.55807      2648.120 7        45.714                                                                    24400119.183 7 103244969.08007      2151.761 7        44.337
C45        50.000                                                                                                                                    22525499.508 8 117296190.56908     -2100.170 8        49.248                                                                    22525494.547 8  95312746.99908     -1706.515 8        49.527
S48        51.000    77191950.949 6 405647920.56206      -525.133 6        37.584
C33        52.000                                                                                                                                    25776085.764 7 134222852.65907       363.952 7        42.290                                                                    25776105.122 7 109067146.43707       295.744 7        42.569
E33        53.000    26993987.282 6 141854461.75306       266.830 6        40.691                                                                    26993995.880 7 105930354.41707       199.242 7        43.120    26993994.139 7 108693743.58707       204.306 7        42.827
C60        54.000                                                                                                                                    40848718.606 6 212710013.79606      -449.345 6        40.160                                                                    40848711.712 6 172844240.59406      -365.152 6        38.465
E31        55.000    26233839.481 7 137859686.58107     -2858.806 7        42.053                                                                    26233848.108 7 102947179.04607     -2134.789 7        44.623    26233846.817 7 105632756.26507     -2190.556 7        45.008
C26        56.000                                                                                                                                    22218335.338 8 115696787.58508       797.012 8        50.223                                                                    22218337.160 8  94013158.89408       647.678 8        49.193
C02        57.000                                                                                                                                    41012324.638 5 213561778.84005      -485.661 5        31.924    41012332.827 6 165139453.72906      -375.577 6        36.563    41012332.335 5 173536398.35705      -394.100 5        31.079
I03        58.000    91300581.082 5 282497563.54805       947.879 5        32.497
C21        59.000                                                                                                                                    26336006.299 6 137138272.66506     -3751.356 6        41.294                                                                    26336011.457 6 111436009.91306     -3048.291 6        41.554
R24        60.000    21552110.702 7 115248921.48407      2846.505 7        47.570                                                                    21552116.170 7  89638107.78707      2213.913 7        44.895
> 2025 01 02 12 15  5.0000000  0 56
E24         1.000    23680020.209 8 124439469.04108     -1011.955 8        48.885                                                                    23680022.474 8  92925647.32508      -755.672 8        50.926    23680021.448 8  95349783.34208      -775.370 8        51.003
G15         2.000    24574179.047 6 129137964.15506     -4404.470 6        40.663                                    24574188.482 5 100626917.63505     -3432.042 5        32.228    24574188.527 6 100626912.59306     -3432.044 6        37.422
E03         3.000    25084472.738 7 131819802.39807       397.275 7        44.713                                                                    25084478.491 7  98436879.79607       296.691 7        47.969    25084477.373 8 101004799.12108       304.384 8        48.058
G19         4.000    21688967.293 7 113976448.09907     -2212.279 7        46.408                                    21688966.335 5  88812847.58605     -1723.854 5        35.805
S21         5.000    38485256.433 7 202240985.93807      -519.145 7        42.472
E05         6.000    23074008.148 7 121254670.57707     -2421.039 7        47.054                                                                    23074013.625 8  90547286.79208     -1807.861 8        49.333    23074012.694 8  92909390.18908     -1855.095 8        49.578
G25         7.000    22550918.632 7 118505976.90007      2545.445 7        43.079                                    22550923.962 6  92342385.70806      1983.456 6        38.748    22550924.930 6  92342386.72806      1983.351 6        39.619
C29         8.000                                                                                                                                    23009624.283 8 119817181.15108      -137.039 8        48.732                                                                    23009626.037 7  97361291.94907      -111.381 7        47.571
R05         9.000    21091484.214 8 112746133.68608      -346.509 8        49.994                                                                    21091488.049 7  87691492.29907      -269.456 7        46.397
G24        10.000    20363932.862 8 107013192.09308     -1799.920 8        50.092                                    20363934.335 8  83386918.01708     -1402.533 8        52.297    20363935.085 7  83386923.01707     -1402.522 7        46.631
C14        11.000                                                                                                                                    24881931.497 7 129566762.51007     -1014.793 7        43.018    24881934.266 7 100189268.82307      -784.629 7        47.029    24881931.172 7 105283620.94907      -824.546 7        44.340
S27        12.000    39257931.567 6 206301698.59306      -542.930 6        36.416
E08        13.000    28717396.220 6 150910930.17806      2258.963 6        36.737                                                                    28717412.285 6 112693285.29406      1687.023 6        39.880    28717409.837 6 115633101.96506      1730.957 6        40.424
S36        14.000    38256113.246 7 201037654.39407      -519.693 7        44.456
G06        15.000    23782898.848 6 124980044.09906      1661.153 6        40.429                                    23782906.565 6  97387107.88006      1294.398 6        36.805    23782907.072 6  97387109.90106      1294.412 6        39.967
E09        16.000    27872232.592 6 146469365.99906     -3782.445 6        38.880                                                                    27872248.449 6 109376407.12006     -2824.444 6        41.886    27872246.429 7 112229708.68907     -2898.164 7        42.925
G12        17.000    20469114.119 8 107566095.11108       621.989 8        50.174                                    20469112.810 8  83817818.89708       484.664 8        50.577    20469113.139 7  83817815.90507       484.618 7        45.791
G32        18.000    23906193.511 7 125627913.22907      1920.855 7        43.183                                    23906198.753 6  97891926.11106      1496.767 6        38.012    23906199.405 6  97891930.12306      1496.897 6        39.453
R22        19.000    23985260.282 6 128034962.90306     -3955.538 6        41.020                                                                    23985269.384 6  99582729.44906     -3076.395 6        39.195
R03        21.000    24506096.471 3                     -5028.739 3        21.786
I06        22.000    38453606.786 6 150900303.41606      -497.780 6        41.645
S28        23.000    40950708.672 5 215197236.55505      -528.710 5        34.948
S23        25.000    38193669.071 7 200708942.39507      -523.802 7        44.647
S45        26.000    63445955.643 6 333412157.66706      -580.377 6        36.140
C07        27.000                                                                                                                                    39941200.901 6 207984215.78806     -1422.554 6        38.105    39941203.169 6 160826557.86606     -1100.046 6        41.764    39941199.863 6 169004174.84406     -1156.009 6        38.736
R04        28.000    21495889.419 8 115109461.15808     -3907.137 8        49.339                                                                    21495893.751 7  89529548.33307     -3038.913 7        44.360
C40        29.000                                                                                                                                    40382647.773 6 210282936.58306     -1705.424 6        39.411                                                                    40382654.097 6 170872092.87306     -1385.814 6        39.685
G17        30.000    24363784.875 6 128032605.56006     -3707.336 6        40.346                                    24363789.381 5  99765707.58805     -2888.829 5        32.467    24363790.395 6  99765704.55706     -2888.663 6        37.229
E12        31.000    27900204.224 5 146616585.39105      2225.768 5        34.495                                                                    27900214.358 6 109486475.27206      1662.108 6        39.081    27900212.820 6 112342632.77106      1705.455 6        38.219
G11        32.000    25191384.480 6 132381618.23106      2620.617 6        38.075                                    25191394.971 3 103154556.91503      2042.040 3        19.254    25191394.677 6 103154547.93606      2042.170 6        37.550
I02        33.000    36978829.468 7 145112851.07307      -489.527 7        42.967
R15        34.000    21665961.394 8 115776413.77508      2260.374 8        48.813                                                                    21665966.401 7  90048377.25007      1758.022 7        44.289
R13        35.000    22186766.602 6 118476052.59806     -3506.232 6        40.880
C42        37.000                                                                                                                                    24730711.629 7 128779266.98107     -2351.769 7        44.309                                                                    24730724.777 7 104643740.42207     -1911.024 7        44.915
C10        38.000                                                                                                                                    39050578.814 6 203346563.91806     -1148.222 6        40.832    39050581.784 7 157240451.80507      -887.906 7        43.215    39050578.594 6 165235719.86906      -932.971 6        40.737
E25        39.000    24869386.093 7 130689659.76407      1295.950 7        45.333                                                                    24869391.948 8  97593039.73508       967.740 8        48.556    24869390.920 8 100138931.48008       993.023 8        48.897
C30        40.000                                                                                                                                    25770684.932 6 134194709.55806     -2942.354 6        40.012                                                                    25770693.452 6 109044224.55906     -2390.825 6        39.706
R23        41.000    21298117.244 7 113930655.04207     -1247.371 7        47.397
S44        42.000    40849149.498 6 214663731.60306      -453.558 6        37.784
C36        43.000                                                                                                                                    26327934.285 6 137096270.05906     -3330.760 6        40.322                                                                    26327948.229 6 111401929.42206     -2706.474 6        40.737
C05        44.000                                                                                                                                    39506260.866 6 205719354.24106      -528.610 6        38.667    39506264.396 7 159075240.39907      -408.775 7        43.027    39506264.252 6 167163899.42106      -429.561 6        39.474
R14        45.000    19496566.238 8 103927777.66608      -470.053 8        52.069                                                                    19496569.613 7  80832798.03907      -365.635 7        47.877
E26        46.000    28561938.425 6 150094047.84706     -1961.128 6        36.079                                                                    28561948.883 6 112083287.61706     -1464.088 6        40.162    28561947.149 6 115007188.40406     -1502.235 6        40.055
G10        47.000    25311824.785 6 133014415.75906     -2660.684 6        37.588                                    25311834.615 4 103647575.85404     -2073.257 4        27.952    25311835.053 5 103647576.85505     -2073.144 5        33.928
C35        48.000                                                                                                                                    24397572.097 7 127044629.45907      2646.944 7        45.410                                                                    24397577.131 7 103234212.06707      2150.874 7        44.561
C45        50.000                                                                                                                                    22527516.500 8 117306693.95408     -2101.475 8        49.315                                                                    22527511.626 8  95321281.86108     -1707.671 8        49.620
S48        51.000    77192446.915 6 405650544.94806      -524.779 6        37.985
C33        52.000                                                                                                                                    25775737.188 7 134221038.94007       361.222 7        42.036                                                                    25775756.815 7 109065672.64307       293.495 7        42.760
E33        53.000    26993734.642 6 141853133.52306       264.348 6        40.360                                                                    26993743.023 7 105929362.58807       197.345 7        43.054    26993741.549 7 108692725.86507       202.535 7        42.753
C60        54.000                                                                                                                                    40849150.176 6 212712260.90306      -449.456 6        39.811                                                                    40849143.130 6 172846066.55606      -365.560 6        38.577
E31        55.000    26236559.630 7 137873980.88207     -2859.157 7        42.093                                                                    26236568.119 7 102957853.33507     -2135.115 7        44.685    26236567.026 7 105643709.02307     -2190.812 7        45.168
C26        56.000                                                                                                                                    22217570.531 8 115692804.72408       795.711 8        50.140                                                                    22217572.375 8  94009922.49608       646.577 8        49.196
C02        57.000                                                                                                                                    41012791.444 5 213564205.20405      -485.424 5        31.811    41012798.636 6 165141329.94106      -375.327 6        36.268    41012798.171 5 173538370.02805      -394.544 5        31.502
I03        58.000    91299373.515 5 282492824.12705       947.869 5        32.934
C21        59.000                                                                                                                                    26339607.878 6 137157029.14706     -3751.405 6        40.756                                                                    26339613.674 6 111451251.03306     -3048.393 6        41.614
R24        60.000    21549450.820 8 115234695.06408      2843.742 8        48.093                                                                    21549456.154 7  89627042.81107      2211.830 7        44.781
> 2025 01 02 12 15 10.0000000  0 56
E24         1.000    23680983.685 8 124444531.80208     -1013.253 8        48.788                                                                    23680985.903 8  92929427.95108      -756.619 8        50.858    23680984.853 8  95353662.59408      -776.359 8        51.014
G15         2.000    24578370.364 6 129159986.06306     -4404.564 6        39.513                                    24578379.219 5 100644077.49505     -3432.108 5        32.108    24578379.619 6 100644072.46306     -3431.938 6        37.671
E03         3.000    25084096.152 7 131817821.75507       394.874 7        44.513                                                                    25084101.603 7  98435400.73307       294.838 7        47.938    25084100.490 8 101003281.47908       302.547 8        48.013
G19         4.000    21691073.716 7 113987516.36607     -2215.106 7        46.137                                    21691072.496 5  88821472.19505     -1726.055 5        35.971
S21         5.000    38485754.487 7 202243581.58507      -519.304 7        42.737
E05         6.000    23076312.607 7 121266780.20907     -2422.944 7        46.764                                                                    23076318.076 8  90556329.68608     -1809.367 8        49.277    23076317.053 8  92918668.98208     -1856.546 8        49.613
G25         7.000    22548497.573 7 118493252.53407      2544.155 7        43.619                                    22548502.547 6  92332470.64706      1982.454 6        38.961    22548503.418 6  92332471.65106      1982.566 6        40.026
C29         8.000                                                                                                                                    23009757.377 8 119817873.15308      -139.905 8        48.634                                                                    23009758.892 7  97361854.26307      -113.683 7        47.689
R05         9.000    21091809.911 8 112747877.52308      -351.158 8        49.575                                                                    21091813.661 7  87692848.63307      -273.168 7        45.931
G24        10.000    20365646.695 8 107022198.26508     -1802.738 8        49.972                                    20365648.165 8  83393935.80708     -1404.731 8        52.442    20365648.492 7  83393940.80407     -1404.715 7        46.510
C14        11.000                                                                                                                                    24882907.852 7 129571842.91307     -1017.464 7        42.675    24882909.813 7 100193197.29707      -786.805 7        46.850    24882906.884 7 105287749.18307      -826.822 7        44.372
S27        12.000    39258448.205 6 206304414.27006      -543.294 6        36.174
E08        13.000    28715246.898 6 150899638.06506      2257.839 6        36.185                                                                    28715263.526 6 112684852.77806      1686.169 6        39.432    28715261.460 6 115624449.49706      1730.029 6        40.436
S36        14.000    38256606.309 7 201040252.05907      -519.645 7        44.588
G06        15.000    23781319.524 6 124971743.11106      1659.089 6        40.887                                    23781326.781 6  97380639.60906      1292.788 6        36.885    23781327.246 6  97380641.61706      1292.884 6        40.241
E09        16.000    27875831.142 6 146488277.72706     -3782.467 6        38.501                                                                    27875847.247 6 109390529.44906     -2824.531 6        41.948    27875845.211 7 112244199.44307     -2898.304 7        42.682
G12        17.000    20468523.410 8 107562990.65408       619.694 8        49.666                                    20468522.042 8  83815399.84408       482.879 8        50.731    20468522.622 7  83815396.84407       482.869 7        45.732
G32        18.000    23904366.656 7 125618314.01407      1918.593 7        43.194                                    23904372.064 6  97884446.21106      1495.006 6        38.084    23904372.435 6  97884450.22106      1494.924 6        39.835
R22        19.000    23988967.382 7 128054746.11307     -3957.877 7        42.336                                                                    23988976.085 6  99598116.46006     -3078.336 6        40.074
R03        21.000    24510803.328 3                     -5032.138 3        21.595
I06        22.000    38454241.166 6 150902792.65006      -497.899 6        41.688
S28        23.000    40951207.307 5 215199879.56005      -528.714 5        34.781
S23        25.000    38194164.111 7 200711560.83907      -523.768 7        44.792
S45        26.000    63446455.807 6 333413459.74116      -580.457 6        36.223
C07        27.000                                                                                                                                    39942566.631 6 207991329.03106     -1422.702 6        38.501    39942569.037 6 160832058.27606     -1100.174 6        41.785    39942565.987 6 169009954.95306     -1156.183 6        38.718
R04        28.000    21499539.268 8 115129003.70308     -3910.033 8        49.900                                                                    21499543.257 7  89544748.05707     -3041.099 7        44.489
C40        29.000                                                                                                                                    40384285.601 6 210291464.22406     -1705.756 6        39.649                                                                    40384291.640 6 170879022.27906     -1385.921 6        40.072
G17        30.000    24367312.957 6 128051144.78206     -3708.458 6        40.029                                    24367317.504 5  99780153.70805     -2889.702 5        32.778    24367318.534 6  99780150.71406     -2889.727 6        37.270
E12        31.000    27898087.494 5 146605459.09605      2224.540 5        34.109                                                                    27898097.001 6 109478166.73406      1661.341 6        39.087    27898095.585 6 112334107.48006      1704.803 6        38.513
G11        32.000    25188890.822 6 132368516.08506      2620.221 6        38.471                                    25188901.760 3 103144347.48803      2041.732 3        19.761    25188901.653 6 103144338.49406      2041.844 6        37.974
I02        33.000    36979453.559 7 145115298.66007      -489.476 7        43.103
R15        34.000    21663846.741 8 115765114.18608      2259.331 8        48.505                                                                    21663851.979 7  90039588.70707      1757.198 7        44.033
R13        35.000    22190049.224 6 118493585.68506     -3507.238 6        40.803
C42        37.000                                                                                                                                    24732970.846 7 128791031.17507     -2353.964 7        44.801                                                                    24732983.915 7 104653299.79107     -1912.869 7        45.141
C10        38.000                                                                                                                                    39051681.594 6 203352305.50106     -1148.360 6        41.011    39051684.420 7 157244891.55907      -888.113 7        43.179    39051681.165 6 165240385.38306      -933.108 6        40.703
E25        39.000    24868153.451 7 130683182.36207      1294.915 7        45.448                                                                    24868159.350 8  97588202.72208       966.981 8        48.426    24868158.298 8 100133968.28208       992.191 8        49.013
C30        40.000                                                                                                                                    25773510.958 6 134209425.97006     -2944.253 6        40.365                                                                    25773519.620 6 109056182.83306     -2392.426 6        40.021
R23        41.000    21299285.678 7 113936903.25607     -1252.067 7        47.279
S44        42.000    40849580.365 6 214665999.94006      -453.846 6        37.947
C36        43.000                                                                                                                                    26331132.645 6 137112924.47706     -3331.149 6        40.358                                                                    26331146.663 6 111415462.48006     -2706.751 6        40.942
C05        44.000                                                                                                                                    39506768.091 6 205721997.18106      -528.680 6        38.592    39506772.184 7 159077284.08407      -408.841 7        42.887    39506771.759 6 167166047.02906      -429.618 6        39.595
R14        45.000    19497008.191 8 103930133.15408      -472.266 8        51.925                                                                    19497011.495 8  80834630.07208      -367.258 8        48.068
E26        46.000    28563804.856 5 150103857.13205     -1963.182 5        35.900                                                                    28563815.406 6 112090612.85606     -1465.899 6        40.083    28563813.887 6 115014704.72906     -1504.164 6        39.955
G10        47.000    25314357.397 6 133027722.96806     -2662.318 6        38.520                                    25314366.921 4 103657945.07704     -2074.524 4        28.209    25314366.089 5 103657946.07605     -2074.640 5        34.519
C35        48.000                                                                                                                                    24395031.260 7 127031397.02807      2645.896 7        45.693                                                                    24395036.292 7 103223459.67407      2149.981 7        45.038
C45        50.000                                                                                                                                    22529534.981 8 117317204.42208     -2102.802 8        49.436                                                                    22529530.059 8  95329822.47608     -1708.720 8        49.859
S48        51.000    77192944.365 6 405653170.21006      -525.111 6        38.108
C33        52.000                                                                                                                                    25775391.650 7 134219239.73007       358.297 7        42.057                                                                    25775411.216 7 109064210.63107       291.226 7        42.842
E33        53.000    26993483.936 6 141851818.00306       261.716 6        40.276                                                                    26993492.756 7 105928380.21707       195.521 7        42.954    26993491.247 7 108691717.87107       200.686 7        42.847
C60        54.000                                                                                                                                    40849581.575 6 212714508.60406      -449.611 6        39.814                                                                    40849574.928 6 172847893.00706      -365.517 6        38.604
E31        55.000    26239280.100 7 137888277.42607     -2859.625 7        42.110                                                                    26239288.567 7 102968529.30107     -2135.313 7        44.506    26239287.615 7 105654663.49107     -2191.040 7        45.175
C26        56.000                                                                                                                                    22216806.986 8 115688829.12808       794.337 8        50.186                                                                    22216808.853 8  94006692.00508       645.485 8        49.420
C02        57.000                                                                                                                                    41013257.481 5 213566632.07505      -485.202 5        31.645    41013264.463 6 165143206.59006      -375.268 6        36.548    41013264.310 5 173540342.05205      -394.428 5        31.321
I03        58.000    91298166.203 5 282488084.97505       947.733 5        32.796
C21        59.000                                                                                                                                    26343210.296 6 137175786.66806     -3751.505 6        40.784                                                                    26343215.723 6 111466493.01706     -3048.577 6        41.671
R24        60.000    21546793.109 7 115220483.04107      2840.952 7        47.763                                                                    21546798.412 7  89615989.05607      2209.633 7        44.208
> 2025 01 02 12 15 15.0000000  0 56
E24         1.000    23681948.126 8 124449600.83708     -1014.253 8        48.926                                                                    23681950.506 8  92933213.26808      -757.423 8        50.974    23681949.444 8  95357546.66008      -777.186 8        51.045
G15         2.000    24582560.402 6 129182007.77306     -4404.088 6        39.219                                    24582569.993 5 100661237.20205     -3431.743 5        31.706    24582570.745 6 100661232.17106     -3431.783 6        37.089
E03         3.000    25083721.373 7 131815852.62507       392.776 7        44.719                                                                    25083726.873 8  98433930.27808       293.284 8        48.011    25083725.718 8 101001772.66008       300.943 8        48.086
G19         4.000    21693182.543 7 113998599.19207     -2217.874 7        46.383                                    21693181.429 5  88830108.14505     -1728.207 5        35.724
S21         5.000    38486248.561 7 202246177.42507      -519.020 7        43.211
E05         6.000    23078618.829 7 121278899.63807     -2424.798 7        46.738                                                                    23078624.308 8  90565379.89608     -1810.710 8        49.411    23078623.339 8  92927955.28308     -1857.905 8        49.661
G25         7.000    22546077.361 7 118480534.02107      2543.383 7        43.338                                    22546082.286 6  92322560.14406      1981.851 6        38.880    22546082.773 6  92322561.16006      1981.688 6        40.017
C29         8.000                                                                                                                                    23009892.957 8 119818579.61108      -142.601 8        48.625                                                                    23009894.529 7  97362428.31707      -115.944 7        47.541
R05         9.000    21092140.350 8 112749644.91108      -355.724 8        50.127                                                                    21092144.674 7  87694223.25707      -276.622 7        45.989
G24        10.000    20367363.192 8 107031218.22008     -1805.136 8        50.036                                    20367364.611 8  83400964.34008     -1406.600 8        52.337    20367364.938 7  83400969.34407     -1406.635 7        46.543
C14        11.000                                                                                                                                    24883885.379 7 129576937.43507     -1020.137 7        42.821    24883888.474 7 100197136.69407      -788.837 7        46.989    24883885.197 7 105291888.89307      -829.109 7        44.257
S27        12.000    39258962.303 6 206307130.24906      -543.097 6        36.510
E08        13.000    28713099.251 6 150888350.60306      2257.224 6        36.624                                                                    28713115.397 6 112676423.92906      1685.794 6        39.363    28713113.527 6 115615800.73906      1729.589 6        40.536
S36        14.000    38257102.597 7 201042849.86607      -519.477 7        44.707
G06        15.000    23779741.999 6 124963453.26206      1656.943 6        41.013                                    23779749.076 6  97374180.00506      1291.120 6        36.696    23779750.400 6  97374182.01406      1291.057 6        39.886
E09        16.000    27879430.340 6 146507190.19106     -3782.305 6        39.036                                                                    27879446.373 7 109404652.32807     -2824.561 7        42.144    27879444.003 7 112258690.74607     -2898.263 7        42.569
G12        17.000    20467934.620 8 107559897.68108       617.589 8        49.806                                    20467933.465 8  83812989.73808       481.238 8        50.606    20467934.046 7  83812986.74307       481.160 7        45.771
G32        18.000    23902541.980 7 125608726.32007      1916.566 7        43.217                                    23902547.571 6  97876975.29506      1493.426 6        38.018    23902547.730 6  97876979.29906      1493.334 6        39.796
R22        19.000    23992675.697 6 128074541.65006     -3960.193 6        41.881                                                                    23992683.514 6  99613513.01606     -3080.141 6        39.781
R03        21.000    24515504.023 3                     -5028.233 3        20.238                                                                    24515483.184 3                     -3911.188 3        19.940
I06        22.000    38454875.805 6 150905281.92306      -497.770 6        41.836
S28        23.000    40951714.246 5 215202522.79305      -528.489 5        35.143
S23        25.000    38194664.030 7 200714179.51807      -523.596 7        44.721
S45        26.000    63446960.434 6 333416361.93706      -580.424 6        36.423
C07        27.000                                                                                                                                    39943933.465 6 207998443.02306     -1422.864 6        38.270    39943935.836 6 160837559.25306     -1100.092 6        41.785    39943932.054 6 169015735.63306     -1156.129 6        38.691
R04        28.000    21503191.159 8 115148560.05108     -3912.489 8        49.256                                                                    21503194.746 7  89559958.55007     -3043.036 7        44.358
C40        29.000                                                                                                                                    40385923.210 6 210299992.53506     -1705.645 6        39.742                                                                    40385929.524 6 170885952.24906     -1386.104 6        39.715
G17        30.000    24370841.644 6 128069689.58506     -3709.425 6        39.856                                    24370846.692 5  99794604.17505     -2890.457 5        32.916    24370847.445 6  99794601.16706     -2890.571 6        37.739
E12        31.000    27895970.032 5 146594336.59605      2224.144 5        34.105                                                                    27895980.323 6 109469861.04806      1660.960 6        39.165    27895979.045 6 112325585.10206      1704.360 6        38.709
G11        32.000    25186398.675 6 132355415.19106      2620.184 6        39.441                                    25186408.745 3 103134139.04103      2041.694 3        20.333    25186408.438 6 103134130.05506      2041.458 6        37.845
I02        33.000    36980077.577 7 145117747.09607      -489.673 7        43.213
R15        34.000    21661732.903 8 115753819.51208      2258.705 8        48.130                                                                    21661738.283 7  90030803.97807      1756.734 7        44.552
R13        35.000    22193333.017 6 118511123.13106     -3507.854 6        40.501
C42        37.000                                                                                                                                    24735232.347 7 128802806.35207     -2356.021 7        44.501                                                                    24735245.257 7 104662868.06907     -1914.403 7        44.876
C10        38.000                                                                                                                                    39052784.319 6 203358048.34806     -1148.552 6        41.056    39052787.230 7 157249332.28607      -888.202 7        43.211    39052784.108 6 165245051.91806      -933.450 6        40.579
E25        39.000    24866921.735 7 130676709.94207      1294.062 7        45.694                                                                    24866927.629 8  97583369.42908       966.365 8        48.540    24866926.624 8 100129008.90108       991.590 8        48.916
C30        40.000                                                                                                                                    25776338.623 6 134224151.63806     -2946.035 6        40.725                                                                    25776347.463 6 109068148.63906     -2393.878 6        39.892
R23        41.000    21300458.337 7 113943174.79807     -1256.495 7        46.977
S44        42.000    40850012.302 6 214668268.26606      -453.431 6        37.921
C36        43.000                                                                                                                                    26334330.893 6 137129580.30206     -3331.162 6        40.279                                                                    26334345.405 6 111428996.69806     -2706.939 6        40.665
C05        44.000                                                                                                                                    39507275.767 6 205724640.13906      -528.362 6        38.712    39507280.076 7 159079327.77007      -408.594 7        43.090    39507279.168 6 167168194.64506      -429.489 6        39.279
R14        45.000    19497451.476 8 103932499.18608      -474.111 8        51.842                                                                    19497455.371 7  80836470.32407      -368.747 7        47.836
E26        46.000    28565673.660 6 150113677.14806     -1965.114 6        36.121                                                                    28565684.006 6 112097946.04806     -1467.060 6        40.017    28565682.209 6 115022229.21206     -1505.561 6        39.739
G10        47.000    25316891.118 6 133041038.89306     -2664.160 6        38.583                                    25316900.878 4 103668321.09704     -2075.952 4        28.246    25316899.565 5 103668322.08905     -2075.832 5        34.690
C35        48.000                                                                                                                                    24392490.932 7 127018169.70407      2645.055 7        45.571                                                                    24392496.270 7 103212711.44007      2149.270 7        45.004
C45        50.000                                                                                                                                    22531554.884 8 117327721.40608     -2103.907 8        49.234                                                                    22531549.733 8  95338368.38608     -1709.654 8        49.650
S48        51.000    77193436.650 6 405655795.61006      -525.004 6        37.788
C33        52.000                                                                                                                                    25775049.421 6 134217454.43406       355.682 6        41.776                                                                    25775068.397 7 109062759.93707       289.041 7        42.686
E33        53.000    26993235.441 6 141850514.56106       259.648 6        39.679                                                                    26993244.836 7 105927406.90207       193.867 7        43.158    26993243.082 7 108690719.15707       199.008 7        42.980
C60        54.000                                                                                                                                    40850013.395 6 212716756.31706      -449.415 6        40.126                                                                    40850006.565 6 172849719.46206      -365.344 6        38.544
E31        55.000    26242000.497 6 137902575.60206     -2859.563 6        41.700                                                                    26242009.369 7 102979206.49707     -2135.514 7        44.620    26242008.473 7 105665619.21907     -2191.151 7        45.169
C26        56.000                                                                                                                                    22216044.544 8 115684860.23908       793.262 8        50.121                                                                    22216046.640 8  94003466.96208       644.511 8        49.259
C02        57.000                                                                                                                                    41013723.459 5 213569058.93405      -485.165 5        32.030    41013730.500 6 165145083.20306      -374.960 6        36.333    41013730.437 5 173542314.11105      -394.197 5        30.883
I03        58.000    91296958.868 5 282483345.69705       947.633 5        32.323
C21        59.000                                                                                                                                    26346812.485 6 137194544.61806     -3751.386 6        41.066                                                                    26346817.985 6 111481735.34206     -3048.454 6        41.464
R24        60.000    21544137.692 8 115206284.78008      2838.424 8        48.028                                                                    21544142.846 7  89604945.99207      2207.660 7        44.402
> 2025 01 02 12 15 20.0000000  0 56
E24         1.000    23682914.000 8 124454676.47308     -1015.741 8        48.758                                                                    23682916.350 8  92937003.52008      -758.571 8        51.169    23682915.333 8  95361435.78508      -778.349 8        51.037
G15         2.000    24586751.510 6 129204029.60006     -4404.296 6        39.195                                    24586760.717 5 100678397.00005     -3431.900 5        31.585    24586760.281 6 100678391.96806     -3431.943 6        37.077
E03         3.000    25083349.071 7 131813895.33407       390.371 7        44.847                                                                    25083354.457 8  98432468.66708       291.436 8        48.257    25083353.295 8 101000272.92008       299.054 8        48.070
G19         4.000    21695294.368 7 114009696.90007     -2220.997 7        46.697                                    21695293.220 5  88838755.69805     -1730.647 5        35.871
S21         5.000    38486745.228 7 202248773.66507      -519.210 7        43.185
E05         6.000    23080926.946 7 121291029.17007     -2426.901 7        46.601                                                                    23080932.501 8  90574437.65108     -1812.289 8        49.604    23080931.484 8  92937249.32908     -1859.575 8        49.664
G25         7.000    22543658.296 7 118467821.76107      2541.782 7        43.335                                    22543663.223 6  92312654.51306      1980.606 6        38.913    22543663.974 6  92312655.52306      1980.656 6        40.291
C29         8.000                                                                                                                                    23010031.703 8 119819300.81608      -145.716 8        48.752                                                                    23010033.055 7  97363014.35407      -118.481 7        47.700
R05         9.000    21092476.092 8 112751436.09608      -360.572 8        50.352                                                                    21092479.565 7  87695616.39807      -280.537 7        45.701
G24        10.000    20369082.191 8 107040252.28408     -1808.218 8        50.318                                    20369083.740 8  83408003.86308     -1409.002 8        52.352    20369084.279 7  83408008.86507     -1409.005 7        46.846
C14        11.000                                                                                                                                    24884866.169 7 129582046.39107     -1023.145 7        43.037    24884869.511 7 100201087.24907      -791.198 7        46.559    24884866.339 7 105296040.32107      -831.604 7        44.411
S27        12.000    39259484.409 6 206309846.47106      -543.289 6        36.854
E08        13.000    28710951.806 6 150877067.87006      2256.183 6        36.310                                                                    28710968.365 6 112667998.60406      1684.812 6        39.480    28710966.164 6 115607155.62906      1728.641 6        40.403
S36        14.000    38257596.970 7 201045447.83307      -519.686 7        44.743
