     3.04           OBSERVATION DATA    M                   RINEX VERSION / TYPE
ssrcrin-15.6.1x                         20250102 181500 UTC PGM / RUN BY / DATE 
(00000000023479385599111004) Septentrio proprietary         COMMENT             
rref                                                        MARKER NAME         
01                                                          MARKER NUMBER       
geodetic                                                    MARKER TYPE         
NFB                 CLIMERS@TUW                             OBSERVER / AGENCY   
3297213             SEPT ASTERX SB3 PROB4.14.4              REC # / TYPE / VERS 
Unknown             Unknown                                 ANT # / TYPE        
  4127831.7345  1207193.2207  4695247.5738                  APPROX POSITION XYZ 
        0.0000        0.0000        0.0000                  ANTENNA: DELTA H/E/N
G   23 X1  C1C L1C D1C S1C C1W S1W C2W L2W D2W S2W C2L L2L  SYS / # / OBS TYPES 
       D2L S2L C5Q L5Q D5Q S5Q C1L L1L D1L S1L              SYS / # / OBS TYPES 
E   21 X1  C1C L1C D1C S1C C6C L6C D6C S6C C5Q L5Q D5Q S5Q  SYS / # / OBS TYPES 
       C7Q L7Q D7Q S7Q C8Q L8Q D8Q S8Q                      SYS / # / OBS TYPES 
S    9 X1  C1C L1C D1C S1C C5I L5I D5I S5I                  SYS / # / OBS TYPES 
R   17 X1  C1C L1C D1C S1C C2P L2P D2P S2P C2C L2C D2C S2C  SYS / # / OBS TYPES 
       C3Q L3Q D3Q S3Q                                      SYS / # / OBS TYPES 
C   25 X1  C1P L1P D1P S1P C5P L5P D5P S5P C2I L2I D2I S2I  SYS / # / OBS TYPES 
       C7I L7I D7I S7I C6I L6I D6I S6I C7D L7D D7D S7D      SYS / # / OBS TYPES 
J   17 X1  C1C L1C D1C S1C C2L L2L D2L S2L C5Q L5Q D5Q S5Q  SYS / # / OBS TYPES 
       C1L L1L D1L S1L                                      SYS / # / OBS TYPES 
I    5 X1  C5A L5A D5A S5A                                  SYS / # / OBS TYPES 
SEPTENTRIO RECEIVERS OUTPUT ALIGNED CARRIER PHASES.         COMMENT             
NO FURTHER PHASE SHIFT APPLIED IN THE RINEX ENCODER.        COMMENT             
G L1C                                                       SYS / PHASE SHIFT   
G L2W                                                       SYS / PHASE SHIFT   
G L2L  0.00000                                              SYS / PHASE SHIFT   
G L5Q  0.00000                                              SYS / PHASE SHIFT   
G L1L  0.00000                                              SYS / PHASE SHIFT   
E L1C  0.00000                                              SYS / PHASE SHIFT   
E L6C  0.00000                                              SYS / PHASE SHIFT   
E L5Q  0.00000                                              SYS / PHASE SHIFT   
E L7Q  0.00000                                              SYS / PHASE SHIFT   
E L8Q  0.00000                                              SYS / PHASE SHIFT   
S L1C                                                       SYS / PHASE SHIFT   
S L5I                                                       SYS / PHASE SHIFT   
R L1C                                                       SYS / PHASE SHIFT   
R L2P  0.00000                                              SYS / PHASE SHIFT   
R L2C                                                       SYS / PHASE SHIFT   
R L3Q  0.00000                                              SYS / PHASE SHIFT   
C L1P  0.00000                                              SYS / PHASE SHIFT   
C L5P  0.00000                                              SYS / PHASE SHIFT   
C L2I                                                       SYS / PHASE SHIFT   
C L7I                                                       SYS / PHASE SHIFT   
C L6I                                                       SYS / PHASE SHIFT   
C L7D                                                       SYS / PHASE SHIFT   
J L1C                                                       SYS / PHASE SHIFT   
J L2L  0.00000                                              SYS / PHASE SHIFT   
J L5Q  0.00000                                              SYS / PHASE SHIFT   
J L1L  0.00000                                              SYS / PHASE SHIFT   
I L5A                                                       SYS / PHASE SHIFT   
  2025     1     2    18    15    0.0000000     GPS         TIME OF FIRST OBS   
 C1C    0.000 C2C    0.000 C2P    0.000                     GLONASS COD/PHS/BIS 
DBHZ                                                        SIGNAL STRENGTH UNIT
    18                                                      LEAP SECONDS        
 24 R01  1 R02 -4 R03  5 R04  6 R05  1 R06 -4 R07  5 R08  6 GLONASS SLOT / FRQ #
    R09 -2 R10 -7 R11  0 R12 -1 R13 -2 R14 -7 R15  0 R16 -1 GLONASS SLOT / FRQ #
    R17  4 R18 -3 R19  3 R20  2 R21  4 R22 -3 R23  3 R24  2 GLONASS SLOT / FRQ #
                                                            END OF HEADER       
> 2025 01 02 18 15  0.0000000  0 59
G23         1.000    22220550.670 7 116769859.24507      2355.813 7        46.008                                    22220547.583 5  90989522.14405      1835.697 5        33.731    22220547.435 7  90989520.14707      1835.706 7        44.275
E11         2.000    26585631.776 6 139708633.72306     -3127.434 6        37.633                                                                    26585628.366 6 104328000.50806     -2335.309 6        40.410    26585628.056 6 107049586.80806     -2396.131 6        40.493
G16         3.000    20769830.818 8 109146403.59608       908.962 8        48.482                                    20769826.332 6  85049230.26706       708.281 6        38.778
G05         4.000    24045425.107 6 126359660.74706     -3180.505 6        41.430                                    24045421.379 5  98462097.98505     -2478.316 5        32.904    24045422.345 6  98462096.97906     -2478.310 6        36.870
S21         5.000    38410957.522 7 201850643.95307      -459.047 7        42.085
G26         6.000    20631243.439 8 108418157.32708     -1483.417 8        50.056                                    20631242.457 8  84481813.61108     -1155.911 8        50.650    20631242.962 7  84481800.60807     -1155.872 7        45.783
G10         7.000    24885027.635 6 130771728.55206      3193.692 6        40.260                                    24885028.246 5 101900054.05305      2488.581 5        32.437    24885028.514 6 101900048.07406      2488.300 6        36.529
E15         8.000    28769893.591 5 151186811.92605      2483.434 5        34.967                                                                    28769902.066 5 112899278.97705      1854.385 5        34.757    28769900.542 6 115844469.11206      1902.816 6        36.072
E36         9.000    23505374.284 8 123521769.26308     -1220.700 8        48.407                                                                    23505374.569 8  92240426.24108      -911.591 8        50.834    23505374.315 8  94646685.45108      -935.395 8        51.683
G27        10.000    22632496.779 7 118934701.86107      2527.289 7        43.448                                    22632495.301 6  92676456.43206      1969.314 6        40.551    22632495.719 6  92676458.43306      1969.328 6        39.456
G15        11.000    25107845.359 6 131942618.64006      2203.322 6        37.622                                    25107842.460 4 102812417.73204      1716.875 4        27.413    25107842.808 5 102812420.73305      1716.963 5        35.090
E19        12.000    28405087.733 4 149269749.27404      -631.140 4        27.904                                                                    28405090.097 5 111467668.40005      -471.182 5        33.317    28405089.309 5 114375517.44305      -483.216 5        34.281
C23        13.000                                                                                                                                    23988037.149 7 124912053.27407       652.171 7        46.483                                                                    23988029.023 7 101501266.90707       529.938 7        47.131
S36        14.000    38181396.019 7 200645116.93407      -458.357 7        43.754
C13        15.000                                                                                                                                    37635850.559 7 195979808.71907      -579.232 7        45.056    37635851.923 7 151544053.86207      -447.916 7        45.467    37635850.173 7 159249670.69107      -470.616 7        43.956
G18        16.000    20616590.449 8 108341148.82808     -1346.341 8        48.860                                    20616586.758 7  84421772.42207     -1049.096 7        42.152    20616587.074 8  84421780.42208     -1049.120 8        49.640
R10        17.000    20559233.714 7 109592320.49007      1470.736 7        47.299
E27        18.000    28678177.979 6 150704847.74106      2476.526 6        36.722                                                                    28678178.394 6 112539334.65506      1849.215 6        38.135    28678178.184 6 115475141.05206      1897.443 6        39.321
E02        19.000    23579173.163 8 123909579.97408     -1797.110 8        49.067                                                                    23579171.917 8  92529991.41208     -1342.015 8        50.908    23579171.353 8  94943802.28708     -1377.015 8        51.098
S27        20.000    39181098.582 5 205898054.94405      -435.096 5        35.100
R11        21.000    24462144.790 6 130718289.60706      3829.450 6        41.087                                                                    24462144.755 6 101669780.54306      2978.605 6        38.970
I06        22.000    38687357.794 7 151817718.95607      -318.653 7        42.250
S28        23.000    40885145.760 5 214852885.89405      -453.836 5        33.641
S23        25.000    38136483.896 7 200408505.51707      -460.800 7        44.742
S45        26.000    63393556.691 6 333136604.29906      -514.462 6        36.972
R09        27.000    19695206.920 8 105171514.73208     -2220.395 8        52.425                                                                    19695205.648 8  81800179.37608     -1727.040 8        48.611
R18        28.000    21871675.296 7 116752780.72107     -3767.432 7        46.553                                                                    21871675.831 7  90807869.89007     -2930.246 7        44.299
C38        29.000                                                                                                                                    38937170.724 7 202756187.85607     -1248.751 7        42.978                                                                    38937168.430 7 164756056.14207     -1014.677 7        42.842
C44        30.000                                                                                                                                    23592034.606 7 122850136.91607     -2875.100 7        47.109                                                                    23592033.002 7  99825884.45207     -2336.277 7        45.836
C43        31.000                                                                                                                                    23487212.399 7 122304174.32207      1795.095 7        46.530                                                                    23487211.688 7  99382200.00207      1458.622 7        46.384
R02        32.000    23279217.229 7 124222378.90507     -1639.795 7        44.205                                                                    23279217.486 6  96617412.36806     -1275.462 6        40.687
I02        33.000    38955715.332 6 152870653.52406      -952.302 6        40.365
R03        34.000    22630734.337 7 121144124.42307      1631.286 7        46.488                                                                    22630732.727 6  94223208.74406      1268.806 6        41.950
E34        35.000    24423761.136 7 128347932.42707      1478.844 7        47.690                                                                    24423761.378 8  95844344.56408      1104.292 8        49.791    24423761.138 8  98344620.77808      1133.078 8        50.212
G29        36.000    23066767.384 7 121216976.00407     -3283.162 7        43.390                                    23066763.515 6  94454896.14406     -2558.308 6        39.375    23066763.955 6  94454906.15806     -2558.353 6        39.255
G31        37.000    24345158.149 7 127934881.78307     -3762.831 7        42.203                                    24345155.083 5  99689612.87705     -2932.076 5        34.600    24345155.807 6  99689618.86506     -2932.009 6        37.618
C22        38.000                                                                                                                                    24829388.637 7 129293168.53807       453.614 7        43.568                                                                    24829383.302 7 105061273.65607       368.542 7        44.608
E25        39.000    27098926.916 6 142406030.20106     -3458.981 6        38.799                                                                    27098928.291 7 106342293.86407     -2583.046 7        43.338    27098927.580 7 109116425.09807     -2650.459 7        43.645
C12        40.000                                                                                                                                    22328751.737 7 116271881.63207     -1969.867 7        47.468    22328748.204 8  89908892.11908     -1523.330 8        51.678    22328747.660 8  94480502.07608     -1600.720 8        49.357
R04        41.000    24060958.563 5 128845356.89405      3490.224 5        33.126                                                                    24060960.470 5 100213057.37705      2714.632 5        35.667
S44        42.000    40477327.562 6 212709975.38206      -412.689 6        36.726
G28        43.000                                                                                                                                                                    25771284.779 4                     -2996.439 4        28.123
C05        44.000                                                                                                                                    39290747.823 6 204597267.26106      -388.320 6        37.214    39290744.176 7 158207607.82907      -300.385 7        43.427    39290745.848 6 166252141.00306      -315.530 6        40.341
C11        45.000                                                                                                                                    22073217.131 8 114941176.45808       811.355 8        48.692    22073213.944 8  88879868.76608       627.372 8        52.368    22073212.669 8  93399160.43408       659.257 8        49.468
R16        46.000    22852869.326 7 122076110.61707     -5004.777 7        45.291                                                                    22852870.097 7  94948196.84207     -3892.625 7        42.582
G07        47.000    26236463.480 6 137873546.64606      1883.626 6        38.312                                                                                                    26236461.944 5 107433923.56205      1467.727 5        33.174
C21        48.000                                                                                                                                    25781330.736 6 134250171.51006      2436.098 6        41.909                                                                    25781326.544 7 109089246.05107      1979.394 7        43.663
C24        49.000                                                                                                                                    25610198.284 6 133359080.10206     -3922.643 6        41.619                                                                    25610196.794 7 108365195.52707     -3187.374 7        42.991
R19        50.000    19591449.444 6 104801311.44506     -1743.975 6        41.156                                                                    19591448.676 7  81512245.11307     -1356.409 7        45.216
S48        51.000    77142427.519 6 405386488.53906      -497.887 6        37.319
C08        52.000                                                                                                                                    37762247.567 7 196638038.85907      -849.114 7        42.563    37762241.671 7 152053035.12207      -656.625 7        46.225    37762240.845 7 159784532.34807      -689.858 7        42.882
C34        53.000                                                                                                                                    21332154.738 8 111082411.37708      -431.329 8        51.030                                                                    21332154.428 8  90263675.34508      -350.502 8        49.507
C60        54.000                                                                                                                                    40477328.481 6 210776267.70406      -408.824 6        40.307                                                                    40477313.069 6 171272950.91406      -332.114 6        40.763
C25        55.000                                                                                                                                    22860083.897 8 119038703.46708     -2412.877 8        49.229                                                                    22860082.055 8  96728791.05908     -1960.650 8        48.217
I09        56.000    39814767.112 6 156241708.56306       468.809 6        40.727
C02        57.000                                                                                                                                    40634724.833 5 211595710.81005      -371.988 5        34.567    40634717.586 6 163619217.45006      -287.586 6        39.027    40634721.365 5 171938849.06105      -302.252 5        35.648
I03        58.000    83437347.702 6 251640819.57106      1110.490 6        40.586
E30        59.000    24662730.977 7 129603741.72807      1078.057 7        46.765                                                                    24662730.679 8  96782133.95908       805.031 8        49.229    24662730.356 8  99306868.65008       825.992 8        50.191
R20        60.000    21284267.831 6 113816736.40206      2276.865 6        39.405                                                                    21284269.124 7  88524194.89307      1770.824 7        45.281
> 2025 01 02 18 15  5.0000000  0 59
G23         1.000    22218310.195 7 116758085.15307      2353.964 7        45.445                                    22218306.992 5  90980347.52905      1834.256 5        33.826    22218307.052 7  90980345.53407      1834.283 7        44.224
E11         2.000    26588607.306 6 139724271.14506     -3127.767 6        37.671                                                                    26588604.023 6 104339677.80706     -2335.619 6        40.412    26588603.956 6 107061568.72906     -2396.579 6        40.684
G16         3.000    20768967.456 8 109141866.11208       906.133 8        48.444                                    20768962.870 6  85045694.56606       706.078 6        38.853
G05         4.000    24048452.143 6 126375568.90006     -3182.701 6        41.216                                    24048448.739 5  98474493.93905     -2480.027 5        33.072    24048449.775 6  98474492.93106     -2479.833 6        36.843
S21         5.000    38411395.124 7 201852939.04607      -458.918 7        42.209
G26         6.000    20632656.533 8 108425581.75008     -1486.344 8        49.939                                    20632655.288 8  84487598.87808     -1158.190 8        50.793    20632655.615 7  84487585.87507     -1158.114 7        45.476
G10         7.000    24881989.419 6 130755760.01306      3193.689 6        40.184                                    24881989.608 5 101887611.07405      2488.578 5        32.868    24881989.557 6 101887605.09206      2488.694 6        36.892
E15         8.000    28767530.650 6 151174395.50206      2483.135 6        36.265                                                                    28767539.078 6 112890007.04706      1854.343 6        36.367    28767537.662 6 115834955.27806      1902.633 6        37.573
E36         9.000    23506536.590 8 123527877.43308     -1222.357 8        48.321                                                                    23506536.893 8  92244987.53608      -912.805 8        50.876    23506536.695 8  94651365.73508      -936.628 8        51.698
G27        10.000    22630092.321 7 118922068.16407      2526.338 7        43.316                                    22630091.169 6  92666612.00406      1968.577 6        40.698    22630091.834 6  92666614.01106      1968.556 6        39.751
G15        11.000    25105750.074 6 131931605.74706      2201.988 6        36.915                                    25105746.923 4 102803836.26904      1715.828 4        27.748    25105747.271 5 102803839.26605      1715.948 5        34.967
E19        12.000    28405689.903 4 149272909.40104      -633.191 4        27.964                                                                    28405691.147 5 111470028.24305      -472.637 5        32.659    28405690.806 5 114377938.86505      -485.255 5        33.952
C23        13.000                                                                                                                                    23987412.094 7 124908799.06207       649.636 7        46.418                                                                    23987404.105 7 101498622.60107       527.877 7        47.046
S36        14.000    38181833.692 7 200647408.86007      -458.438 7        43.807
C13        15.000                                                                                                                                    37636407.014 7 195982707.12207      -580.055 7        44.820    37636408.435 7 151546295.09007      -448.571 7        45.359    37636406.835 7 159252025.87807      -471.294 7        43.750
G18        16.000    20617872.759 8 108347886.75608     -1348.724 8        48.929                                    20617868.933 7  84427022.75707     -1050.957 7        42.288    20617869.289 8  84427030.76108     -1050.960 8        49.412
R10        17.000    20557856.489 7 109584976.65607      1466.920 7        46.917
E27        18.000    28675821.742 6 150692465.62506      2476.260 6        36.722                                                                    28675822.513 6 112530088.26106      1849.344 6        38.718    28675822.006 6 115465653.45106      1897.606 6        40.153
E02        19.000    23580883.793 8 123918570.14908     -1798.932 8        49.030                                                                    23580882.755 8  92536704.85008     -1343.347 8        50.875    23580882.159 8  94950690.85808     -1378.401 8        51.197
S27        20.000    39181509.824 5 205900226.80605      -434.819 5        35.381
R11        21.000    24458561.767 6 130699143.97506      3828.865 6        41.485                                                                    24458561.070 6 101654889.47806      2978.237 6        36.847
I06        22.000    38687763.358 7 151819311.92107      -318.462 7        42.284
S28        23.000    40885581.162 5 214855153.79905      -453.460 5        34.048
S23        25.000    38136922.549 7 200410809.73807      -460.741 7        44.846
S45        26.000    63393994.963 6 333139176.60806      -514.440 6        36.972
R09        27.000    19697288.280 8 105182627.15208     -2224.516 8        52.498                                                                    19697287.051 8  81808822.35608     -1730.162 8        48.911
R18        28.000    21875203.997 7 116771619.26007     -3767.821 7        46.255                                                                    21875204.478 7  90822522.08907     -2930.577 7        44.153
C38        29.000                                                                                                                                    38938370.004 7 202762433.13807     -1249.322 7        42.802                                                                    38938367.793 7 164761130.96007     -1015.195 7        42.641
C44        30.000                                                                                                                                    23594795.459 7 122864514.21407     -2875.620 7        46.849                                                                    23594794.050 7  99837567.17207     -2336.667 7        45.701
C43        31.000                                                                                                                                    23485489.328 7 122295201.34307      1794.195 7        46.466                                                                    23485488.583 7  99374908.73107      1457.911 7        46.182
R02        32.000    23280755.130 7 124230588.01007     -1643.800 7        44.084                                                                    23280755.410 6  96623797.23406     -1278.562 6        40.193
I02        33.000    38956929.027 6 152875414.98806      -952.274 6        40.107
R03        34.000    22629211.867 7 121135976.39207      1627.953 7        45.621                                                                    22629211.011 6  94216871.40306      1266.269 6        41.912
E34        35.000    24422354.789 7 128340542.06007      1477.390 7        47.897                                                                    24422355.030 8  95838825.78108      1103.319 8        49.700    24422354.863 8  98338958.02708      1132.047 8        50.260
G29        36.000    23069891.500 7 121233394.00107     -3284.000 7        43.388                                    23069887.623 6  94467689.38806     -2558.960 6        39.336    23069888.220 6  94467699.36806     -2558.698 6        38.904
G31        37.000    24348738.510 6 127953697.31306     -3763.243 6        41.897                                    24348735.632 5  99704274.31605     -2932.396 5        34.571    24348736.413 6  99704280.30706     -2932.386 6        37.448
C22        38.000                                                                                                                                    24828954.795 7 129290907.34807       450.953 7        43.367                                                                    24828949.099 7 105059436.23707       366.481 7        44.555
E25        39.000    27102218.280 6 142423326.97306     -3459.596 6        38.838                                                                    27102219.769 7 106355210.28107     -2583.454 7        43.192    27102219.041 7 109129678.46007     -2650.798 7        43.572
C12        40.000                                                                                                                                    22330644.177 7 116281734.21507     -1971.003 7        47.715    22330640.159 8  89916510.75108     -1524.085 8        51.513    22330639.677 8  94488508.10708     -1601.624 8        49.245
R04        41.000    24057700.711 5 128827905.80905      3489.855 5        33.725                                                                    24057701.055 5 100199484.32505      2714.634 5        35.038
S44        42.000    40477717.550 6 212712038.41006      -412.568 6        37.062
G28        43.000    25774936.732 4 135448287.67214     -3844.402 4        26.132                                                                                                    25774942.397 4                     -2995.281 4        28.303
C05        44.000                                                                                                                                    39291121.275 6 204599209.31306      -388.416 6        36.979    39291117.038 7 158209109.54307      -300.266 7        43.217    39291118.916 6 166253719.07606      -315.468 6        40.341
C11        45.000                                                                                                                                    22072438.769 8 114937123.41208       810.015 8        48.575    22072435.725 8  88876734.69708       626.313 8        52.278    22072434.323 8  93395867.00308       658.238 8        49.282
R16        46.000    22857554.646 7 122101136.25207     -5005.429 7        45.740                                                                    22857554.855 7  94967661.23107     -3893.213 7        42.574
G07        47.000    26234672.075 6 137864133.04206      1882.214 6        37.497                                                                                                    26234669.306 5 107426588.31805      1466.585 5        31.887
C21        48.000                                                                                                                                    25778992.623 7 134237993.67307      2435.334 7        42.148                                                                    25778987.738 7 109079350.57407      1978.903 7        43.367
C24        49.000                                                                                                                                    25613964.702 6 133378693.13806     -3922.530 6        41.433                                                                    25613963.202 7 108381132.71507     -3187.368 7        42.792
R19        50.000    19593080.883 6 104810036.81606     -1746.164 6        41.242                                                                    19593079.599 7  81519031.51107     -1358.038 7        45.055
S48        51.000    77142874.198 6 405388977.24306      -497.614 6        37.614
C08        52.000                                                                                                                                    37763062.985 7 196642286.74307      -849.902 7        42.389    37763057.588 7 152056319.84507      -657.313 7        46.152    37763056.695 7 159787984.09507      -690.762 7        42.789
C34        53.000                                                                                                                                    21332569.707 8 111084572.12208      -432.810 8        50.908                                                                    21332569.309 8  90265431.13208      -351.725 8        49.314
C60        54.000                                                                                                                                    40477721.206 6 210778311.98406      -408.788 6        40.334                                                                    40477705.521 6 171274612.05606      -332.063 6        40.663
C25        55.000                                                                                                                                    22862402.027 8 119050773.60208     -2414.979 8        49.162                                                                    22862399.999 8  96738599.03808     -1962.375 8        48.085
I09        56.000    39814169.801 6 156239364.79506       468.797 6        40.594
C02        57.000                                                                                                                                    40635081.892 5 211597569.84905      -371.603 5        34.638    40635074.516 6 163620654.97606      -287.426 6        38.958    40635078.594 5 171940359.68005      -302.065 5        35.229
I03        58.000    83435932.922 6 251635267.13706      1110.612 6        40.462
E30        59.000    24661705.957 7 129598355.73807      1076.478 7        47.020                                                                    24661705.747 8  96778111.95908       803.846 8        49.143    24661705.388 8  99302741.72408       824.799 8        50.250
R20        60.000    21282138.854 6 113805357.12306      2274.888 6        39.366                                                                    21282141.095 7  88515344.34907      1769.422 7        44.798
> 2025 01 02 18 15 10.0000000  0 59
G23         1.000    22216071.826 7 116746321.50007      2351.768 7        45.254                                    22216068.399 5  90971181.06105      1832.545 5        33.515    22216068.464 7  90971179.07007      1832.523 7        44.420
E11         2.000    26591583.281 6 139739911.20006     -3128.281 6        37.932                                                                    26591580.136 6 104351357.05506     -2335.953 6        40.493    26591579.967 6 107073552.65906     -2396.945 6        40.672
G16         3.000    20768107.006 8 109137343.80508       903.064 8        48.667                                    20768102.298 6  85042170.69206       703.686 6        38.775
G05         4.000    24051481.600 6 126391489.08506     -3185.117 6        40.675                                    24051478.376 5  98486899.27705     -2481.907 5        32.928    24051478.670 6  98486898.27006     -2482.063 6        36.594
S21         5.000    38411831.397 7 201855234.44507      -458.923 7        42.449
G26         6.000    20634072.265 8 108433021.75808     -1489.461 8        50.204                                    20634071.067 8  84493396.28808     -1160.620 8        50.700    20634071.137 7  84493383.28407     -1160.543 7        45.120
G10         7.000    24878950.230 6 130739791.58606      3193.868 6        40.055                                    24878950.993 5 101875168.17805      2488.721 5        32.916    24878951.315 6 101875162.19506      2488.588 6        36.941
E15         8.000    28765168.233 6 151161980.89906      2482.992 6        36.276                                                                    28765176.495 6 112880736.49106      1854.156 6        36.601    28765175.416 6 115825442.85506      1902.541 6        38.222
E36         9.000    23507700.619 8 123533994.61608     -1224.274 8        48.600                                                                    23507701.011 8  92249555.56508      -914.218 8        50.746    23507700.736 8  94656052.93108      -938.070 8        51.805
G27        10.000    22627689.000 7 118909439.45807      2525.256 7        43.170                                    22627687.998 6  92656771.46206      1967.725 6        40.629    22627688.412 6  92656773.47306      1967.781 6        39.913
G15        11.000    25103655.287 6 131920599.72706      2200.451 6        37.546                                    25103652.733 4 102795260.14904      1714.630 4        27.856    25103653.507 5 102795263.13305      1714.852 5        35.314
E19        12.000    28406294.026 4 149276081.66804      -635.621 4        28.445                                                                    28406294.867 5 111472397.16205      -474.248 5        32.713    28406294.062 5 114380369.55105      -486.658 5        33.599
C23        13.000                                                                                                                                    23986789.883 7 124905558.45107       646.890 7        46.640                                                                    23986781.747 7 101495989.34607       525.591 7        46.931
S36        14.000    38182268.893 7 200649701.30907      -458.586 7        44.004
C13        15.000                                                                                                                                    37636964.460 7 195985610.28307      -581.072 7        44.882    37636965.774 7 151548539.99207      -449.305 7        45.415    37636964.309 7 159254384.94207      -472.231 7        43.681
G18        16.000    20619157.603 8 108354637.59908     -1351.348 8        49.251                                    20619153.581 7  84432283.15507     -1053.000 7        42.218    20619153.825 8  84432291.15508     -1053.057 8        49.455
R10        17.000    20556482.922 7 109577652.97707      1462.862 7        46.625
E27        18.000    28673465.755 6 150680084.58606      2476.238 6        36.450                                                                    28673466.463 6 112520842.70206      1849.015 6        38.580    28673466.067 6 115456166.71506      1897.362 6        40.093
E02        19.000    23582596.303 8 123927570.33408     -1800.946 8        49.069                                                                    23582595.389 8  92543425.77108     -1344.875 8        50.783    23582594.789 8  94957587.10808     -1379.953 8        51.232
S27        20.000    39181927.268 5 205902399.45105      -434.406 5        35.543
R11        21.000    24454979.443 6 130680002.72606      3827.962 6        41.175                                                                    24454979.081 6 101640001.97906      2977.355 6        38.790
I06        22.000    38688169.168 7 151820904.94307      -318.505 7        42.307
S28        23.000    40886010.880 5 214857421.71105      -453.563 5        33.874
S23        25.000    38137361.335 7 200413114.47907      -460.800 7        44.957
S45        26.000    63394433.621 6 333140149.19716      -514.403 6        37.021
R09        27.000    19699373.231 8 105193761.02308     -2228.842 8        52.616                                                                    19699371.789 8  81817482.04608     -1733.568 8        48.556
R18        28.000    21878733.474 7 116790461.10607     -3768.617 7        45.326                                                                    21878734.466 7  90837176.85807     -2931.203 7        44.194
C38        29.000                                                                                                                                    38939570.352 7 202768682.12607     -1250.072 7        42.982                                                                    38939567.930 7 164766208.76707     -1015.758 7        42.720
C44        30.000                                                                                                                                    23597557.065 7 122878895.11007     -2876.438 7        46.695                                                                    23597555.800 7  99849252.82207     -2337.345 7        45.669
C43        31.000                                                                                                                                    23483767.314 7 122286233.68407      1792.974 7        46.668                                                                    23483766.452 7  99367621.77307      1457.051 7        46.243
R02        32.000    23282297.242 7 124238817.85907     -1647.944 7        44.327                                                                    23282298.469 6  96630198.24506     -1281.770 6        40.083
I02        33.000    38958141.749 6 152880176.86206      -952.433 6        40.515
R03        34.000    22627692.543 7 121127845.95307      1624.381 7        45.962                                                                    22627692.107 7  94210547.74307      1263.377 7        42.305
E34        35.000    24420950.108 8 128333159.61508      1475.822 8        48.206                                                                    24420950.203 8  95833312.92808      1102.062 8        49.692    24420950.020 8  98333301.35808      1130.797 8        50.355
G29        36.000    23073016.801 7 121249816.72407     -3284.994 7        43.511                                    23073012.648 6  94480486.31906     -2559.734 6        39.126    23073014.070 6  94480496.30406     -2559.667 6        38.931
G31        37.000    24352319.674 7 127972515.82307     -3763.775 7        42.118                                    24352316.655 5  99718938.08605     -2932.810 5        34.343    24352317.237 6  99718944.09706     -2933.030 6        36.673
C22        38.000                                                                                                                                    24828523.472 7 129288659.82007       448.259 7        43.725                                                                    24828517.366 7 105057609.94407       364.200 7        44.516
E25        39.000    27105510.320 6 142440627.00106     -3460.192 6        38.889                                                                    27105511.973 7 106368129.13307     -2583.907 7        43.304    27105511.142 7 109142934.32607     -2651.279 7        43.615
C12        40.000                                                                                                                                    22332538.023 7 116291593.13207     -1972.351 7        47.800    22332533.706 8  89924134.28808     -1525.081 8        51.603    22332533.035 8  94496519.28808     -1602.662 8        49.144
R04        41.000    24054441.989 5 128810456.97805      3489.400 5        34.681                                                                    24054442.143 5 100185913.03505      2714.058 5        34.876
S44        42.000    40478109.993 6 212714101.91106      -412.800 6        36.828
G28        43.000    25778594.392 4 135467506.42604     -3843.078 4        26.251                                                                                                    25778598.749 4                     -2994.617 4        28.597
C05        44.000                                                                                                                                    39291493.654 6 204601151.67506      -388.318 6        37.399    39291489.913 7 158210611.51107      -300.345 7        43.177    39291491.871 6 166255297.43106      -315.735 6        40.217
C11        45.000                                                                                                                                    22071661.811 8 114933077.91708       808.410 8        48.634    22071658.862 8  88873606.46108       625.121 8        52.294    22071657.445 8  93392579.70308       656.904 8        49.298
R16        46.000    22862239.977 7 122126166.89107     -5006.505 7        45.833                                                                    22862240.952 7  94987129.48907     -3893.886 7        42.770
G07        47.000    26232882.123 6 137854728.71006      1880.178 6        36.450                                    26232878.560 4 107419252.30514      1465.062 4        24.827    26232880.527 5 107419260.38705      1464.659 5        33.323
C21        48.000                                                                                                                                    25776654.698 7 134225820.36107      2434.219 7        42.354                                                                    25776649.987 7 109069458.75507      1978.118 7        43.035
C24        49.000                                                                                                                                    25617731.313 6 133398306.90706     -3922.740 6        41.499                                                                    25617729.979 7 108397070.50107     -3187.533 7        42.751
R19        50.000    19594713.426 6 104818774.25806     -1748.553 6        41.051                                                                    19594712.870 7  81525827.30207     -1360.031 7        45.335
S48        51.000    77143318.297 6 405391466.62806      -497.693 6        37.709
C08        52.000                                                                                                                                    37763879.576 7 196646539.48207      -850.975 7        42.267    37763874.129 7 152059608.33107      -658.028 7        46.246    37763873.396 7 159791439.79207      -691.459 7        42.646
C34        53.000                                                                                                                                    21332986.232 8 111086741.18608      -434.536 8        50.975                                                                    21332985.839 8  90267193.66908      -353.091 8        49.287
C60        54.000                                                                                                                                    40478113.886 6 210780356.72406      -408.937 6        40.215                                                                    40478098.197 6 171276273.57206      -332.222 6        40.496
C25        55.000                                                                                                                                    22864722.256 8 119062855.32708     -2417.361 8        49.206                                                                    22864720.205 8  96748416.42908     -1964.324 8        48.081
I09        56.000    39813572.477 6 156237021.14006       468.751 6        40.651
C02        57.000                                                                                                                                    40635438.924 5 211599429.32305      -371.742 5        34.600    40635431.638 6 163622092.83606      -287.489 6        38.976    40635435.559 5 171941870.64505      -301.985 5        35.281
I03        58.000    83434518.295 6 251629715.00306      1110.483 6        40.841
E30        59.000    24660682.733 7 129592978.35707      1074.697 7        47.363                                                                    24660682.489 8  96774096.38708       802.568 8        49.111    24660682.111 8  99298621.39808       823.457 8        50.316
R20        60.000    21280012.668 6 113793987.77306      2272.945 6        39.592                                                                    21280014.877 7  88506501.54207      1767.826 7        44.576
> 2025 01 02 18 15 15.0000000  0 59
G23         1.000    22213835.618 7 116734568.51407      2349.793 7        45.029                                    22213831.805 5  90962022.89205      1831.007 5        33.497    22213832.000 7  90962020.89407      1830.992 7        43.553
E11         2.000    26594560.385 6 139755554.10906     -3128.738 6        38.072                                                                    26594556.749 6 104363038.47106     -2336.441 6        39.991    26594556.566 6 107085538.80106     -2397.334 6        40.386
G16         3.000    20767249.107 8 109132836.89608       900.118 8        48.638                                    20767244.636 6  85038658.81706       701.392 6        38.832
G05         4.000    24054513.303 6 126407421.55506     -3187.556 6        40.160                                    24054510.310 5  98499314.18605     -2483.804 5        32.647    24054510.807 6  98499313.17806     -2483.745 6        36.745
S21         5.000    38412269.912 7 201857530.35307      -458.969 7        42.320
G26         6.000    20635491.335 8 108440477.59608     -1492.469 8        49.934                                    20635489.863 8  84499206.03208     -1162.965 8        50.735    20635490.164 7  84499193.03007     -1162.943 7        44.882
G10         7.000    24875911.506 6 130723823.55606      3193.842 6        39.766                                    24875912.441 5 101862725.59405      2488.698 5        33.108    24875912.442 6 101862719.59906      2488.848 6        37.240
E15         8.000    28762806.009 5 151149568.37005      2482.626 5        35.414                                                                    28762814.518 6 112871467.49406      1853.619 6        36.605    28762813.474 6 115815932.05906      1902.317 6        38.574
E36         9.000    23508866.322 8 123540121.03608     -1225.981 8        48.501                                                                    23508866.794 8  92254130.49008      -915.484 8        50.708    23508866.534 8  94660747.20008      -939.391 8        51.733
G27        10.000    22625287.128 7 118896815.98507      2524.448 7        43.117                                    22625285.842 6  92646935.00206      1967.101 6        40.660    22625286.327 6  92646937.00506      1967.134 6        39.480
G15        11.000    25101561.981 6 131909600.75306      2199.363 6        37.119                                    25101559.897 4 102786689.52704      1713.787 4        27.760    25101560.199 5 102786692.54305      1713.663 5        35.419
E19        12.000    28406899.687 4 149279266.16304      -637.840 4        29.630                                                                    28406900.583 5 111474775.17405      -476.404 5        33.760    28406899.953 5 114382809.63505      -488.868 5        34.933
C23        13.000                                                                                                                                    23986170.020 7 124902331.65807       644.198 7        46.728                                                                    23986162.064 7 101493367.32607       523.383 7        47.108
S36        14.000    38182704.179 7 200651994.33107      -458.657 7        44.033
C13        15.000                                                                                                                                    37637523.111 7 195988518.46907      -581.902 7        44.855    37637524.160 7 151550788.78607      -450.042 7        45.424    37637522.834 7 159256748.07807      -472.903 7        43.863
G18        16.000    20620444.713 8 108361401.56708     -1353.862 8        49.315                                    20620440.720 7  84437553.78107     -1054.959 7        42.282    20620440.912 8  84437561.77508     -1054.941 8        49.292
R10        17.000    20555113.066 7 109570349.67707      1458.830 7        47.053
E27        18.000    28671110.148 6 150667704.96506      2475.883 6        36.095                                                                    28671110.830 6 112511598.18806      1848.804 6        38.724    28671110.394 6 115446681.03306      1897.204 6        40.255
E02        19.000    23584311.082 8 123936580.74808     -1802.855 8        49.102                                                                    23584309.996 8  92550154.32808     -1346.327 8        50.705    23584309.417 8  94964491.19408     -1381.448 8        51.097
S27        20.000    39182337.070 5 205904570.03705      -433.465 5        35.210
R11        21.000    24451397.935 6 130660866.03506      3827.023 6        41.507                                                                    24451397.330 6 101625117.79706      2976.408 6        38.297
I06        22.000    38688575.416 7 151822498.17607      -318.466 7        42.368
S28        23.000    40886443.773 5 214859689.90005      -453.579 5        34.248
S23        25.000    38137799.125 7 200415419.59907      -460.885 7        45.077
S45        26.000    63394868.727 6 333142722.27606      -514.550 6        37.369
R09        27.000    19701461.994 8 105204916.52608     -2233.066 8        52.049                                                                    19701460.915 8  81826158.54408     -1736.798 8        48.443
R18        28.000    21882263.464 7 116809306.51407     -3769.262 7        45.407                                                                    21882265.201 7  90851834.38707     -2931.638 7        44.042
C38        29.000                                                                                                                                    38940771.395 7 202774935.04207     -1250.804 7        43.128                                                                    38940768.664 7 164771289.77707     -1016.466 7        42.842
C44        30.000                                                                                                                                    23600319.355 7 122893279.82207     -2877.097 7        46.760                                                                    23600318.283 7  99860941.58607     -2337.993 7        45.765
C43        31.000                                                                                                                                    23482046.088 7 122277271.57507      1792.114 7        46.695                                                                    23482045.377 7  99360339.33807      1456.144 7        46.216
R02        32.000    23283844.297 7 124247068.78407     -1652.007 7        44.221                                                                    23283844.629 6  96636615.60106     -1284.941 6        40.076
I02        33.000    38959355.546 6 152884939.74106      -952.380 6        40.563
R03        34.000    22626177.140 7 121119733.49107      1620.901 7        46.290                                                                    22626176.877 7  94204238.04607      1260.684 7        42.076
E34        35.000    24419546.713 8 128325785.34008      1474.281 8        48.091                                                                    24419546.954 8  95827806.16708      1100.957 8        49.544    24419546.745 8  98327650.94608      1129.624 8        50.321
G29        36.000    23076142.946 7 121266244.49907     -3285.816 7        43.839                                    23076138.683 6  94493287.18106     -2560.376 6        39.234    23076140.102 6  94493297.17706     -2560.423 6        39.000
G31        37.000    24355901.222 6 127991337.58006     -3764.447 6        41.874                                    24355898.228 5  99733604.38105     -2933.332 5        34.257    24355898.878 6  99733610.37406     -2933.350 6        36.624
C22        38.000                                                                                                                                    24828094.381 7 129286426.22807       445.669 7        43.532                                                                    24828088.286 7 105055794.97107       361.946 7        44.415
E25        39.000    27108803.013 6 142457930.55006     -3460.934 6        38.874                                                                    27108804.764 7 106381050.59907     -2584.317 7        43.168    27108803.885 7 109156192.88707     -2651.785 7        43.591
C12        40.000                                                                                                                                    22334432.314 7 116301458.57707     -1973.495 7        47.720    22334428.444 8  89931762.87808     -1526.052 8        51.586    22334427.541 8  94504535.77108     -1603.669 8        49.278
R04        41.000    24051183.509 5 128793011.06005      3489.126 5        35.443                                                                    24051183.886 5 100172343.99105      2713.943 5        35.690
S44        42.000    40478504.404 6 212716166.10106      -412.776 6        37.119
G28        43.000                                                                                                                                                                    25782255.968 4                     -2994.390 4        28.540
C05        44.000                                                                                                                                    39291866.641 6 204603094.60006      -388.396 6        37.134    39291863.088 7 158212113.90507      -300.228 7        43.221    39291864.974 6 166256876.21906      -315.747 6        40.250
C11        45.000                                                                                                                                    22070886.389 8 114929040.19008       807.007 8        48.533    22070883.335 8  88870484.24108       624.000 8        52.252    22070882.099 8  93389298.73308       655.643 8        49.382
R16        46.000    22866925.862 7 122151202.72007     -5007.484 7        45.193                                                                    22866927.488 7  95006601.79407     -3894.625 7        42.353
G07        47.000    26231094.655 6 137845333.83706      1878.403 6        38.249                                    26231091.033 4 107411931.70704      1463.684 4        26.683    26231091.861 5 107411939.75905      1463.584 5        34.395
C21        48.000                                                                                                                                    25774317.849 7 134213651.77207      2433.543 7        42.504                                                                    25774312.963 7 109059570.78607      1977.360 7        42.993
C24        49.000                                                                                                                                    25621498.432 6 133417921.61606     -3922.632 6        41.344                                                                    25621496.716 7 108413009.06207     -3187.656 7        42.828
R19        50.000    19596349.343 6 104827523.88306     -1750.824 6        40.861                                                                    19596348.639 7  81532632.57007     -1361.791 7        45.133
S48        51.000    77143763.980 6 405393956.17306      -497.814 6        37.633
C08        52.000                                                                                                                                    37764696.887 7 196650797.34607      -851.789 7        42.463    37764691.782 7 152062900.78907      -658.745 7        46.257    37764690.981 7 159794899.66707      -692.197 7        42.859
C34        53.000                                                                                                                                    21333404.469 8 111088918.78708      -436.158 8        51.012                                                                    21333404.052 8  90268963.15308      -354.490 8        49.453
C60        54.000                                                                                                                                    40478506.629 6 210782402.14606      -408.895 6        40.367                                                                    40478491.136 6 171277935.65606      -332.417 6        40.641
C25        55.000                                                                                                                                    22867044.365 8 119074948.87608     -2419.669 8        48.877                                                                    22867042.618 8  96758243.42208     -1966.251 8        48.200
I09        56.000    39812975.553 6 156234677.80306       468.763 6        40.965
C02        57.000                                                                                                                                    40635796.395 5 211601289.41305      -371.838 5        34.333    40635788.916 6 163623531.17706      -287.572 6        38.925    40635792.792 5 171943382.13105      -302.222 5        35.624
I03        58.000    83433103.058 6 251624163.30806      1110.549 6        40.751
E30        59.000    24659661.161 7 129587609.82007      1072.972 7        47.289                                                                    24659660.841 8  96770087.41908       801.295 8        48.998    24659660.490 8  99294507.85008       822.183 8        50.251
R20        60.000    21277889.217 6 113782628.47906      2271.224 6        38.880                                                                    21277890.850 7  88497666.54807      1766.414 7        44.498
> 2025 01 02 18 15 20.0000000  0 59
G23         1.000    22211601.067 7 116722825.61007      2347.729 7        45.249                                    22211597.018 5  90952872.57705      1829.401 5        33.473    22211597.486 7  90952870.58207      1829.394 7        43.731
