     3.04           OBSERVATION DATA    M                   RINEX VERSION / TYPE
ssrcrin-15.6.1x                         20250102 111500 UTC PGM / RUN BY / DATE 
(00000000023479385599111004) Septentrio proprietary         COMMENT             
rref                                                        MARKER NAME         
01                                                          MARKER NUMBER       
geodetic                                                    MARKER TYPE         
NFB                 CLIMERS@TUW                             OBSERVER / AGENCY   
3297213             SEPT ASTERX SB3 PROB4.14.4              REC # / TYPE / VERS 
Unknown             Unknown                                 ANT # / TYPE        
  4127831.5150  1207192.6992  4695247.5696                  APPROX POSITION XYZ 
        0.0000        0.0000        0.0000                  ANTENNA: DELTA H/E/N
G   23 X1  C1C L1C D1C S1C C1W S1W C2W L2W D2W S2W C2L L2L  SYS / # / OBS TYPES 
       D2L S2L C5Q L5Q D5Q S5Q C1L L1L D1L S1L              SYS / # / OBS TYPES 
E   21 X1  C1C L1C D1C S1C C6C L6C D6C S6C C5Q L5Q D5Q S5Q  SYS / # / OBS TYPES 
       C7Q L7Q D7Q S7Q C8Q L8Q D8Q S8Q                      SYS / # / OBS TYPES 
S    9 X1  C1C L1C D1C S1C C5I L5I D5I S5I                  SYS / # / OBS TYPES 
R   17 X1  C1C L1C D1C S1C C2P L2P D2P S2P C2C L2C D2C S2C  SYS / # / OBS TYPES 
       C3Q L3Q D3Q S3Q                                      SYS / # / OBS TYPES 
C   25 X1  C1P L1P D1P S1P C5P L5P D5P S5P C2I L2I D2I S2I  SYS / # / OBS TYPES 
       C7I L7I D7I S7I C6I L6I D6I S6I C7D L7D D7D S7D      SYS / # / OBS TYPES 
J   17 X1  C1C L1C D1C S1C C2L L2L D2L S2L C5Q L5Q D5Q S5Q  SYS / # / OBS TYPES 
       C1L L1L D1L S1L                                      SYS / # / OBS TYPES 
I    5 X1  C5A L5A D5A S5A                                  SYS / # / OBS TYPES 
SEPTENTRIO RECEIVERS OUTPUT ALIGNED CARRIER PHASES.         COMMENT             
NO FURTHER PHASE SHIFT APPLIED IN THE RINEX ENCODER.        COMMENT             
G L1C                                                       SYS / PHASE SHIFT   
G L2W                                                       SYS / PHASE SHIFT   
G L2L  0.00000                                              SYS / PHASE SHIFT   
G L5Q  0.00000                                              SYS / PHASE SHIFT   
G L1L  0.00000                                              SYS / PHASE SHIFT   
E L1C  0.00000                                              SYS / PHASE SHIFT   
E L6C  0.00000                                              SYS / PHASE SHIFT   
E L5Q  0.00000                                              SYS / PHASE SHIFT   
E L7Q  0.00000                                              SYS / PHASE SHIFT   
E L8Q  0.00000                                              SYS / PHASE SHIFT   
S L1C                                                       SYS / PHASE SHIFT   
S L5I                                                       SYS / PHASE SHIFT   
R L1C                                                       SYS / PHASE SHIFT   
R L2P  0.00000                                              SYS / PHASE SHIFT   
R L2C                                                       SYS / PHASE SHIFT   
R L3Q  0.00000                                              SYS / PHASE SHIFT   
C L1P  0.00000                                              SYS / PHASE SHIFT   
C L5P  0.00000                                              SYS / PHASE SHIFT   
C L2I                                                       SYS / PHASE SHIFT   
C L7I                                                       SYS / PHASE SHIFT   
C L6I                                                       SYS / PHASE SHIFT   
C L7D                                                       SYS / PHASE SHIFT   
J L1C                                                       SYS / PHASE SHIFT   
J L2L  0.00000                                              SYS / PHASE SHIFT   
J L5Q  0.00000                                              SYS / PHASE SHIFT   
J L1L  0.00000                                              SYS / PHASE SHIFT   
I L5A                                                       SYS / PHASE SHIFT   
  2025     1     2    11    15    0.0000000     GPS         TIME OF FIRST OBS   
 C1C    0.000 C2C    0.000 C2P    0.000                     GLONASS COD/PHS/BIS 
DBHZ                                                        SIGNAL STRENGTH UNIT
    18                                                      LEAP SECONDS        
 24 R01  1 R02 -4 R03  5 R04  6 R05  1 R06 -4 R07  5 R08  6 GLONASS SLOT / FRQ #
    R09 -2 R10 -7 R11  0 R12 -1 R13 -2 R14 -7 R15  0 R16 -1 GLONASS SLOT / FRQ #
    R17  4 R18 -3 R19  3 R20  2 R21  4 R22 -3 R23  3 R24  2 GLONASS SLOT / FRQ #
                                                            END OF HEADER       
> 2025 01 02 11 15  0.0000000  0 56
E24         1.000    23628931.317 8 124170996.94308        29.876 8        48.659                                                                    23628933.399 8  92725165.48008        22.323 8        50.969    23628932.521 8  95144071.46808        22.902 8        51.221
G15         2.000    22000009.878 7 115610737.62907     -3741.170 7        47.192                                    22000010.776 7  90086253.94107     -2915.196 7        44.378    22000011.098 7  90086248.93307     -2915.182 7        42.237
E03         3.000    26162678.779 7 137485793.31707      1759.137 7        42.006                                                                    26162685.930 7 102667970.95007      1313.727 7        45.278    26162684.964 7 105346267.26507      1347.884 7        45.928
G19         4.000    21264919.971 7 111748072.08707       153.550 7        47.168                                    21264917.879 6  87076453.04806       119.649 6        38.393
S21         5.000    38435373.851 7 201978844.40007      -502.332 7        42.681
E05         6.000    22248724.911 7 116917793.68807      -815.686 7        47.805                                                                    22248728.999 8  87308714.84208      -609.095 8        50.801    22248728.181 8  89586333.17808      -624.985 8        51.332
G25         7.000    24830796.700 6 130486724.68106      3138.166 6        37.278                                    24830806.827 4 101678011.06004      2445.319 4        26.623    24830807.680 5 101678012.07105      2445.128 5        34.000
C29         8.000                                                                                                                                    23885454.524 7 124377835.74907      1686.633 7        46.909                                                                    23885457.071 7 101067192.76707      1370.476 7        45.354
R05         9.000    22227271.144 7 118817543.08907      2626.248 7        47.180                                                                    22227277.002 7  92413693.17507      2042.762 7        43.592
G24        10.000    20120213.296 8 105732441.39708       193.219 8        50.284                                    20120214.561 8  82388931.48508       150.559 8        52.611    20120215.301 7  82388936.48907       150.575 7        46.204
C14        11.000                                                                                                                                    25195226.499 6 131198164.96606      1021.396 6        40.844    25195229.465 7 101450771.25907       789.836 7        46.824    25195226.176 7 106609267.96507       829.951 7        43.835
S27        12.000    39189668.188 6 205942918.74906      -531.327 6        36.730
G13        13.000    23383036.095 7 122878551.95407     -4283.827 7        42.889                                    23383039.694 4  95749466.15704     -3338.035 4        26.323
S36        14.000    38205943.845 7 200774022.40907      -502.649 7        44.503
G02        15.000    26114858.428 5 137234509.86305     -2035.393 5        31.472                                    26114865.565 1 106936009.95101     -1585.978 1         7.500
E09        16.000    25702448.994 7 135067202.91607     -3294.610 7        44.310                                                                    25702455.627 7 100861842.19907     -2460.239 7        47.123    25702454.400 7 103493020.34007     -2524.470 7        47.878
G12        17.000    21741630.926 7 114253198.88507      2158.463 7        47.846                                    21741630.829 7  89028544.55807      1681.914 7        46.241    21741631.267 7  89028541.57307      1681.863 7        43.477
G32        18.000    25958505.601 6 136412848.71606      2984.172 6        38.141                                    25958514.774 4 106295761.24504      2325.342 4        29.137    25958515.604 5 106295765.22205      2325.271 5        35.229
R22        19.000    22406870.774 7 119609466.42707     -1376.891 7        46.048                                                                    22406876.477 7  93029579.92607     -1070.867 7        43.096
R03        21.000    21500885.592 8 115095822.08808     -4449.442 8        48.600                                                                    21500890.495 7  89518946.18707     -3460.750 7        43.924
I06        22.000    38301669.709 6 150304079.51006      -485.781 6        40.782
S28        23.000    40893898.729 5 214898696.15705      -512.724 5        34.976
S23        25.000    38140916.906 7 200431718.32107      -505.931 7        44.972
S45        26.000    63391829.115 6 333126637.35206      -559.979 6        36.246
C07        27.000                                                                                                                                    39312908.448 6 204712552.83706     -1233.002 6        39.682    39312909.859 7 158296706.20707      -953.622 7        42.927    39312906.519 6 166345685.29306     -1002.006 6        40.513
R04        28.000    20052528.235 8 107380359.64408     -1036.049 8        51.995                                                                    20052529.839 7  83518033.77707      -805.852 7        47.463
C40        29.000                                                                                                                                    39561485.132 6 206006963.63806     -1497.321 6        41.154                                                                    39561490.115 6 167397521.50406     -1216.646 6        40.574
G17        30.000    22530352.303 7 118397910.63407     -2325.901 7        45.464                                    22530354.071 7  92258168.25907     -1812.388 7        42.813    22530353.996 7  92258165.25607     -1812.439 7        42.288
G14        31.000    24479680.962 6 128641444.70906     -3818.308 6        38.745                                    24479688.964 3 100240048.99103     -2975.305 3        22.514    24479688.907 6 100240034.97006     -2975.083 6        38.513
G23        32.000    24197777.883 6 127160032.74906     -2942.431 6        41.046                                    24197783.676 3  99085690.18903     -2292.797 3        23.295    24197783.850 6  99085685.20406     -2292.806 6        38.513
I02        33.000    36895221.477 7 144784756.33007      -341.531 7        42.599
R15        34.000    23691940.985 7 126602559.05207      2805.788 7        42.927                                                                    23691951.045 6  98468692.56406      2182.296 6        38.492
R13        35.000    20375588.981 7 108804514.31107     -2672.974 7        45.702
R12        36.000    23942403.824 6 127895840.91106     -3930.963 6        41.035                                                                    23942416.359 6  99474500.59606     -3057.429 6        38.670
C42        37.000                                                                                                                                    24041594.186 7 125190880.74607      -416.124 7        46.488                                                                    24041605.774 7 101727888.89807      -338.180 7        46.727
C10        38.000                                                                                                                                    38634669.822 6 201180834.50906      -895.393 6        41.886    38634672.535 7 155565776.36607      -692.444 7        44.178    38634669.426 6 163475890.53306      -727.767 6        41.364
E25        39.000    26296682.129 7 138190105.03307      1969.750 7        42.002                                                                    26296690.818 7 103194008.63007      1470.935 7        44.284    26296689.579 7 105886014.11407      1509.250 7        45.482
C30        40.000                                                                                                                                    24595729.108 7 128076448.73807     -1204.555 7        44.205                                                                    24595735.039 7 104072645.89307      -978.876 7        43.469
R23        41.000    21873462.246 7 117008343.33907      1928.406 7        44.764
S44        42.000    40839153.136 6 214611217.16806      -452.221 6        37.282
C36        43.000                                                                                                                                    24414577.216 7 127132995.51107     -3032.984 7        44.004                                                                    24414587.488 7 103305968.93107     -2464.634 7        45.213
C05        44.000                                                                                                                                    39440661.729 6 205377786.56706      -528.578 6        39.216    39440664.092 7 158811125.01407      -408.729 7        42.933    39440663.765 6 166886352.88206      -429.558 6        39.580
R14        45.000    19981944.845 8 106515115.64108      1004.415 8        52.164                                                                    19981948.691 8  82845170.95208       781.207 8        48.132
E26        46.000    28096568.004 5 147648476.85005      -235.080 5        35.938                                                                    28096580.947 6 110257039.62806      -175.423 6        40.234    28096579.094 6 113133300.32406      -180.034 6        40.996
G10        47.000    24355423.734 6 127988556.35606      -840.652 6        40.577                                    24355430.285 5  99731336.27305      -655.053 5        34.310    24355431.006 6  99731337.26506      -655.058 6        36.715
C45        50.000                                                                                                                                    21712728.898 8 113063894.89808     -1099.750 8        50.580                                                                    21712723.502 8  91873662.89308      -893.659 8        50.051
S48        51.000    77143084.727 6 405390328.76906      -501.905 6        37.788
E06        52.000    27407300.383 6 144026183.42806     -3679.290 6        38.652                                                                    27407312.983 7 107551979.30007     -2747.354 7        42.256    27407311.543 7 110357687.06207     -2819.047 7        43.194
E33        53.000    28006356.543 6 147174435.17306      1686.837 6        36.673                                                                    28006370.685 6 109903042.40106      1259.853 6        41.561    28006368.471 6 112770069.15806      1292.785 6        40.818
C60        54.000                                                                                                                                    40839153.604 6 212660224.00406      -447.920 6        40.474                                                                    40839145.888 6 172803786.23006      -364.219 6        39.219
E31        55.000    24697500.569 7 129786211.92007     -2435.847 7        45.520                                                                    24697506.262 7  96918297.30007     -1818.894 7        47.986    24697505.445 8  99446597.98108     -1866.391 8        48.847
C26        56.000                                                                                                                                    23368164.365 7 121684232.16507      1613.945 7        47.164                                                                    23368167.395 7  98878444.35207      1311.371 7        47.694
C02        57.000                                                                                                                                    40974996.413 5                      -492.391 5        30.453    40975001.647 6 164989175.36006      -380.433 6        36.189    40975001.893 5                      -399.924 5        30.491
I03        58.000    92460987.054 5 287051282.33305       927.426 5        33.281
C21        59.000                                                                                                                                    24206421.873 7 126049088.13607     -3075.500 7        47.137                                                                    24206421.070 7 102425164.42907     -2499.199 7        46.886
C22        60.000                                                                                                                                                                                                                                                                    26709712.238 3                     -3211.880 3        22.781
> 2025 01 02 11 15  5.0000000  0 56
E24         1.000    23628903.592 8 124170851.55408        28.318 8        48.632                                                                    23628905.715 8  92725056.92208        21.132 8        50.955    23628904.851 8  95143960.07808        21.663 8        51.341
G15         2.000    22003569.938 7 115629447.98507     -3743.015 7        46.906                                    22003571.198 7  90100833.42107     -2916.631 7        44.435    22003571.484 7  90100828.41407     -2916.582 7        42.108
E03         3.000    26161005.536 7 137477000.91207      1757.776 7        42.127                                                                    26161012.793 7 102661405.21207      1312.679 7        45.251    26161011.742 7 105339530.25007      1346.835 7        46.061
G19         4.000    21264775.314 7 111747312.39807       150.264 7        47.376                                    21264773.334 6  87075861.08406       117.088 6        38.504
S21         5.000    38435849.779 7 201981356.21107      -502.233 7        42.315
E05         6.000    22249502.034 7 116921877.95207      -818.009 7        47.952                                                                    22249506.201 8  87311764.77708      -610.857 8        50.817    22249505.359 8  89589462.67708      -626.826 8        51.491
G25         7.000    24827811.031 6 130471034.53506      3137.680 6        37.452                                    24827820.986 4 101665784.96604      2444.949 4        27.186    24827821.349 5 101665785.93205      2445.097 5        33.701
C29         8.000                                                                                                                                    23883835.880 7 124369407.40507      1684.717 7        46.812                                                                    23883838.470 7 101060344.04207      1368.960 7        45.276
R05         9.000    22224815.689 8 118804419.18308      2623.247 8        48.221                                                                    22224821.831 7  92403485.70607      2040.318 7        43.517
G24        10.000    20120030.203 8 105731481.54808       190.665 8        50.291                                    20120031.899 8  82388183.55208       148.571 8        52.717    20120032.355 7  82388188.55207       148.591 7        46.097
C14        11.000                                                                                                                                    25194247.373 6 131193064.34906      1018.812 6        41.304    25194250.068 7 101446827.16107       787.764 7        47.041    25194246.667 7 106605123.31607       827.861 7        43.805
S27        12.000    39190172.417 6 205945576.38906      -531.589 6        36.707
G13        13.000    23387111.919 7 122899972.98907     -4284.646 7        42.921                                    23387116.011 4  95766157.83104     -3338.679 4        26.204
S36        14.000    38206422.416 7 200776536.44207      -502.749 7        44.354
G02        15.000    26116794.169 5 137244689.55705     -2037.360 5        31.004                                    26116802.641 1 106943942.14401     -1587.484 1         6.500
E09        16.000    25705584.253 7 135083678.99207     -3295.842 7        44.393                                                                    25705590.858 7 100874145.72907     -2461.100 7        47.149    25705589.681 8 103505644.83508     -2525.344 8        48.005
G12        17.000    21739578.177 7 114242411.00607      2156.685 7        47.818                                    21739577.961 7  89020138.43207      1680.532 7        46.392    21739578.456 7  89020135.43007      1680.571 7        43.581
G32        18.000    25955666.930 6 136397929.74206      2983.566 6        37.939                                    25955676.040 4 106284135.99704      2324.886 4        28.777    25955676.002 6 106284139.97006      2324.706 6        36.008
R22        19.000    22408162.220 7 119616361.40107     -1381.152 7        46.158                                                                    22408168.197 7  93034942.66607     -1074.241 7        43.501
R03        21.000    21505042.086 8 115118074.73008     -4451.652 8        48.073                                                                    21505048.132 7  89536253.76407     -3462.446 7        44.342
I06        22.000    38302288.393 6 150306508.20906      -485.899 6        40.875
S28        23.000    40894379.607 5 214901260.41305      -513.029 5        34.843
S23        25.000    38141397.865 7 200434247.81807      -505.916 7        44.850
S45        26.000    63392312.234 6 333129437.57306      -560.044 6        36.261
C07        27.000                                                                                                                                    39314092.139 6 204718718.81506     -1233.225 6        39.529    39314094.027 7 158301474.11907      -953.691 7        43.067    39314090.638 6 166350695.64806     -1002.223 6        40.760
R04        28.000    20053497.462 8 107385551.51108     -1040.739 8        51.397                                                                    20053499.869 8  83522071.88608      -809.466 8        48.158
C40        29.000                                                                                                                                    39562923.168 6 206014451.01606     -1497.830 6        41.268                                                                    39562928.045 6 167403605.60906     -1216.953 6        40.665
G17        30.000    22532566.832 7 118409546.69507     -2328.567 7        45.433                                    22532568.312 7  92267235.29807     -1814.458 7        42.938    22532567.782 6  92267232.29006     -1814.510 6        41.979
G14        31.000    24483313.489 6 128660535.74306     -3818.241 6        37.777                                    24483321.938 3 100254925.07703     -2975.248 3        22.190    24483321.598 6 100254911.05806     -2975.312 6        38.904
G23        32.000    24200578.389 6 127174749.06306     -2944.091 6        40.205                                    24200584.119 3  99097157.43403     -2294.091 3        23.371    24200584.233 6  99097152.42106     -2294.087 6        37.595
I02        33.000    36895657.521 7 144786465.00007      -341.927 7        42.817
R15        34.000    23689316.525 7 126588531.29507      2805.295 7        43.401                                                                    23689326.391 6  98457782.16006      2181.894 6        37.437
R13        35.000    20378092.218 7 108817883.30107     -2674.490 7        46.044
R12        36.000    23946083.242 6 127915495.85906     -3931.096 6        41.459                                                                    23946095.726 6  99489787.69706     -3057.267 6        39.102
C42        37.000                                                                                                                                    24041995.108 7 125192968.77907      -419.069 7        46.377                                                                    24042006.689 7 101729585.59707      -340.507 7        46.776
C10        38.000                                                                                                                                    38635529.849 6 201185312.73506      -895.800 6        41.847    38635532.532 7 155569239.20007      -692.760 7        44.333    38635529.456 6 163479529.44506      -727.873 6        41.545
E25        39.000    26294808.216 6 138180258.13606      1969.026 6        41.933                                                                    26294816.923 7 103186655.48007      1470.343 7        44.298    26294815.726 7 105878469.13207      1508.677 7        45.403
C30        40.000                                                                                                                                    24596886.771 7 128082478.39007     -1207.234 7        44.528                                                                    24596893.040 7 104077545.48707      -981.030 7        43.518
R23        41.000    21871660.964 7 116998710.61007      1924.861 7        44.959
S44        42.000    40839585.828 6 214613477.73606      -452.065 6        37.108
C36        43.000                                                                                                                                    24417489.679 7 127148161.57207     -3033.436 7        43.793                                                                    24417500.023 7 103318292.58207     -2465.012 7        45.238
C05        44.000                                                                                                                                    39441169.254 6 205380429.49206      -528.458 6        39.051    39441171.773 7 158813168.69007      -408.706 7        43.217    39441171.330 6 166888500.48306      -429.506 6        39.414
R14        45.000    19981003.806 8 106510098.56408      1002.458 8        52.179                                                                    19981007.343 7  82841268.79307       779.679 7        47.885
E26        46.000    28096792.467 5 147649657.33305      -236.987 5        35.976                                                                    28096805.495 6 110257921.14706      -177.183 6        40.024    28096803.650 6 113134204.85206      -181.868 6        40.868
G10        47.000    24356225.372 6 127992767.02606      -843.645 6        40.172                                    24356231.573 5  99734617.30005      -657.387 5        34.276    24356232.039 6  99734618.29406      -657.368 6        37.251
C45        50.000                                                                                                                                    21713785.437 8 113069396.90108     -1101.159 8        50.662                                                                    21713780.066 8  91878133.72408      -894.818 8        50.113
S48        51.000    77143563.553 6 405392837.58906      -501.880 6        37.618
E06        52.000    27410801.031 6 144044579.86606     -3679.407 6        38.751                                                                    27410813.615 7 107565716.85407     -2747.538 7        42.118    27410812.261 7 110371782.99607     -2819.319 7        43.230
E33        53.000    28004751.742 6 147166003.44006      1685.578 6        36.854                                                                    28004765.963 6 109896746.01006      1258.872 6        41.156    28004763.990 6 112763608.50106      1291.665 6        41.101
C60        54.000                                                                                                                                    40839583.886 6 212662464.02406      -448.032 6        40.369                                                                    40839576.277 6 172805606.39506      -363.959 6        39.135
E31        55.000    24699818.864 7 129798393.14707     -2436.640 7        45.511                                                                    24699824.246 8  96927393.67508     -1819.603 8        48.017    24699823.465 8  99455931.65008     -1867.007 8        48.963
C26        56.000                                                                                                                                    23366615.378 7 121676164.74107      1613.051 7        47.225                                                                    23366618.112 7  98871888.92707      1310.648 7        47.666
C02        57.000                                                                                                                                    40975467.736 5                      -492.133 5        30.491    40975474.079 6 164991077.29506      -380.481 6        36.340    40975473.560 5                      -399.803 5        30.566
I03        58.000    92459806.246 5 287046645.97005       927.304 5        33.539
C21        59.000                                                                                                                                    24209376.179 7 126064470.31507     -3077.283 7        47.314                                                                    24209375.070 7 102437663.69607     -2500.646 7        47.029
C22        60.000                                                                                                                                                                                                                                                                    26713507.290 3                     -3209.956 3        23.010
> 2025 01 02 11 15 10.0000000  0 56
E24         1.000    23628877.531 8 124170714.33308        26.553 8        48.682                                                                    23628879.591 8  92724954.45208        19.821 8        51.089    23628878.715 8  95143854.93108        20.373 8        51.523
G15         2.000    22007132.248 7 115648167.96407     -3744.968 7        46.782                                    22007133.494 7  90115420.39707     -2918.152 7        44.497    22007133.943 7  90115415.39207     -2918.237 7        42.419
E03         3.000    26159333.441 6 137468215.60806      1756.260 6        41.952                                                                    26159341.036 7 102654844.78007      1311.504 7        45.473    26159339.897 7 105332798.65807      1345.743 7        46.177
G19         4.000    21264633.786 7 111746569.59507       146.697 7        47.842                                    21264631.982 6  87075282.27706       114.310 6        38.553
S21         5.000    38436330.224 7 201983868.42207      -502.581 7        42.489
E05         6.000    22250281.463 7 116925974.00807      -820.448 7        47.890                                                                    22250285.697 8  87314823.51408      -612.630 8        50.912    22250284.818 8  89592601.20508      -628.604 8        51.641
G25         7.000    24824825.063 6 130455346.77106      3137.449 6        37.811                                    24824835.623 4 101653560.71304      2444.783 4        27.413    24824836.199 5 101653561.73005      2444.577 5        33.174
C29         8.000                                                                                                                                    23882219.042 7 124360989.03007      1682.559 7        46.673                                                                    23882221.860 7 101053503.40107      1367.155 7        45.579
R05         9.000    22222364.742 7 118791310.99907      2619.984 7        47.732                                                                    22222369.788 7  92393290.46007      2037.792 7        43.452
G24        10.000    20119850.538 8 105730534.81408       188.046 8        50.135                                    20119851.738 8  82387445.83708       146.529 8        52.805    20119852.198 7  82387450.84407       146.498 7        46.191
C14        11.000                                                                                                                                    25193270.706 6 131187976.75606      1016.106 6        41.130    25193273.117 7 101442893.12107       785.855 7        46.935    25193269.687 7 106600989.22507       825.586 7        43.699
S27        12.000    39190675.130 6 205948234.34706      -531.465 6        36.503
G13        13.000    23391189.206 7 122921398.44307     -4285.627 7        43.452                                    23391193.112 4  95782852.93604     -3339.437 4        26.000
S36        14.000    38206902.024 7 200779050.05007      -502.696 7        44.533
G02        15.000    26118734.182 4 137254881.35804     -2039.737 4        29.602                                    26118741.957 1 106951883.80501     -1589.218 1         5.000
E09        16.000    25708720.703 7 135100161.06507     -3297.027 7        44.370                                                                    25708727.293 7 100886453.75007     -2462.100 7        47.216    25708726.228 8 103518273.93108     -2526.358 8        48.072
G12        17.000    21737526.835 7 114231632.51407      2154.696 7        47.611                                    21737526.904 7  89011739.62107      1678.979 7        46.465    21737527.492 7  89011736.63607      1678.925 7        43.422
G32        18.000    25952828.749 6 136383014.11506      2982.745 6        37.822                                    25952837.978 4 106272513.34004      2324.233 4        29.062    25952838.156 6 106272517.32006      2324.242 6        36.257
R22        19.000    22409457.883 7 119623278.25307     -1385.606 7        45.723                                                                    22409463.951 7  93040322.43007     -1077.873 7        43.761
R03        21.000    21509201.984 8 115140338.64708     -4453.870 8        48.221                                                                    21509206.739 7  89553570.09507     -3464.168 7        44.551
I06        22.000    38302907.250 6 150308937.07606      -485.754 6        40.939
S28        23.000    40894868.950 5 214903825.01505      -512.734 5        35.029
S23        25.000    38141880.317 7 200436777.60807      -506.056 7        44.957
S45        26.000    63392795.858 6 333132238.03006      -560.111 6        36.265
C07        27.000                                                                                                                                    39315276.710 6 204724886.80306     -1233.870 6        39.958    39315278.180 7 158306243.57907      -954.041 7        43.253    39315274.991 6 166355707.61606     -1002.640 6        40.605
R04        28.000    20054471.348 8 107390767.23408     -1045.536 8        51.515                                                                    20054472.967 7  83526128.54307      -813.171 7        47.457
C40        29.000                                                                                                                                    39564361.725 6 206021940.73006     -1498.227 6        41.578                                                                    39564366.221 6 167409691.58806     -1217.458 6        40.646
G17        30.000    22534783.585 7 118421196.15007     -2331.339 7        45.546                                    22534785.065 7  92276312.77607     -1816.625 7        43.039    22534784.946 6  92276309.76606     -1816.537 6        41.545
G14        31.000    24486946.857 6 128679627.93706     -3818.704 6        37.433                                    24486955.243 3 100269802.07703     -2975.601 3        21.690    24486955.085 6 100269788.04306     -2975.668 6        38.784
G23        32.000    24203380.322 6 127189474.28306     -2946.031 6        40.274                                    24203386.167 3  99108631.60003     -2295.609 3        23.219    24203387.000 6  99108626.59806     -2295.501 6        38.303
I02        33.000    36896092.835 7 144788175.22607      -342.481 7        42.743
R15        34.000    23686692.474 7 126574506.36907      2804.610 7        44.123                                                                    23686700.900 6  98446873.96406      2181.411 6        37.505
R13        35.000    20380597.445 7 108831259.77707     -2676.161 7        45.363
R12        36.000    23949763.278 6 127935150.82806     -3930.993 6        41.485                                                                    23949776.279 6  99505074.90506     -3057.579 6        39.057
C42        37.000                                                                                                                                    24042398.740 7 125195071.64007      -422.177 7        46.381                                                                    24042410.599 7 101731294.30807      -343.013 7        46.825
C10        38.000                                                                                                                                    38636390.436 6 201189793.35606      -896.393 6        41.902    38636393.094 7 155572703.89007      -693.138 7        44.405    38636389.712 6 163483170.28806      -728.487 6        41.452
E25        39.000    26292935.125 6 138170415.52806      1967.968 6        41.807                                                                    26292943.879 7 103179305.52307      1469.662 7        44.391    26292942.720 7 105870927.44107      1507.968 7        45.606
C30        40.000                                                                                                                                    24598047.392 7 128088522.17607     -1210.197 7        44.566                                                                    24598053.811 7 104082456.52607      -983.453 7        43.532
R23        41.000    21869864.347 7 116989095.84607      1921.076 7        45.675
S44        42.000    40840013.928 6 214615738.40306      -452.080 6        37.077
C36        43.000                                                                                                                                    24420402.768 7 127163330.52607     -3034.127 7        43.704                                                                    24420413.111 7 103330618.54307     -2465.543 7        45.232
C05        44.000                                                                                                                                    39441676.327 6 205383072.56406      -528.659 6        39.078    39441679.025 7 158815212.47407      -408.954 7        43.238    39441678.908 6 166890648.16806      -429.752 6        39.384
R14        45.000    19980064.270 8 106505091.47308      1000.331 8        52.047                                                                    19980068.227 8  82837374.39308       778.101 8        48.037
E26        46.000    28097019.606 6 147650850.21606      -239.773 6        36.318                                                                    28097032.568 6 110258811.94506      -179.193 6        40.288    28097030.803 6 113135118.86706      -183.744 6        41.168
G10        47.000    24357030.073 6 127996993.20906      -846.905 6        40.892                                    24357035.883 5  99737910.41805      -659.927 5        34.405    24357036.817 6  99737911.39906      -659.614 6        37.520
C45        50.000                                                                                                                                    21714843.743 8 113074906.40308     -1102.706 8        50.779                                                                    21714838.134 8  91882610.62108      -896.082 8        50.077
S48        51.000    77144036.386 6 405395346.69006      -501.904 6        37.868
E06        52.000    27414302.427 6 144062978.32606     -3679.795 6        38.961                                                                    27414314.721 7 107579455.90607     -2748.012 7        42.161    27414313.356 7 110385880.44907     -2819.660 7        43.227
E33        53.000    28003149.550 6 147157578.82806      1684.051 6        37.285                                                                    28003162.622 6 109890454.91506      1257.759 6        40.882    28003160.745 6 112757153.29506      1290.388 6        41.333
C60        54.000                                                                                                                                    40840014.297 6 212664704.13806      -448.063 6        40.255                                                                    40840006.366 6 172807426.64106      -364.261 6        39.183
E31        55.000    24702137.845 7 129810578.97907     -2437.641 7        45.487                                                                    24702143.168 8  96936493.47808     -1820.380 8        48.021    24702142.392 8  99465268.83508     -1867.792 8        49.122
C26        56.000                                                                                                                                    23365067.002 7 121668102.20607      1611.957 7        47.270                                                                    23365069.753 7  98865337.44207      1309.777 7        47.637
C02        57.000                                                                                                                                    40975940.351 5                      -492.073 5        30.649    40975946.255 6 164992979.30306      -380.341 6        36.480    40975946.474 5                      -399.681 5        30.347
I03        58.000    92458623.798 5 287042009.54105       927.314 5        33.473
C21        59.000                                                                                                                                    24212331.682 7 126079861.48107     -3079.184 7        47.212                                                                    24212330.772 7 102450170.22607     -2502.138 7        46.998
C22        60.000                                                                                                                                                                                                                                                                    26717299.995 3                     -3208.587 3        23.600
> 2025 01 02 11 15 15.0000000  0 56
E24         1.000    23628852.922 8 124170585.06208        25.269 8        48.587                                                                    23628854.993 8  92724857.92308        18.882 8        51.104    23628854.131 8  95143755.88608        19.347 8        51.502
G15         2.000    22010696.332 7 115666897.34707     -3746.605 7        46.635                                    22010697.618 7  90130014.70307     -2919.429 7        44.466    22010698.195 7  90130009.69107     -2919.424 7        42.392
E03         3.000    26157663.138 6 137459437.20406      1755.334 6        41.995                                                                    26157670.566 7 102648289.49707      1310.689 7        45.427    26157669.464 7 105326072.36607      1344.977 7        46.153
G19         4.000    21264495.648 7 111745843.42807       143.822 7        47.545                                    21264493.777 6  87074716.43806       112.072 6        38.571
S21         5.000    38436808.119 7 201986380.84007      -502.215 7        42.464
E05         6.000    22251063.157 7 116930081.66907      -822.447 7        47.855                                                                    22251067.342 8  87317890.92308      -614.218 8        50.884    22251066.508 8  89595748.63508      -630.227 8        51.593
G25         7.000    24821840.084 6 130439661.18706      3137.098 6        37.350                                    24821850.726 4 101641338.17204      2444.502 4        27.437    24821851.721 5 101641339.16005      2444.659 5        33.593
C29         8.000                                                                                                                                    23880604.462 7 124352580.41907      1680.962 7        46.344                                                                    23880607.210 7 101046670.69907      1365.967 7        45.693
R05         9.000    22219914.818 7 118778218.33407      2617.312 7        47.854                                                                    22219920.768 7  92383107.31507      2035.656 7        43.807
G24        10.000    20119672.599 8 105729601.01208       185.687 8        50.060                                    20119674.031 8  82386718.20308       144.691 8        52.776    20119674.674 7  82386723.20307       144.741 7        46.345
C14        11.000                                                                                                                                    25192295.171 6 131182901.99006      1014.011 6        41.139    25192298.219 7 101438969.01307       783.948 7        46.806    25192294.988 7 106596865.56407       823.867 7        43.989
S27        12.000    39191182.606 6 205950892.26606      -531.414 6        36.715
G13        13.000    23395267.885 7 122942828.16307     -4286.197 7        43.145                                    23395271.084 4  95799551.37704     -3339.881 4        26.216
S36        14.000    38207379.558 7 200781563.21807      -502.349 7        44.334
G02        15.000    26120675.911 4 137265084.95104     -2041.906 4        29.365                                    26120683.482 1 106959834.75101     -1591.141 1         6.625
E09        16.000    25711858.335 7 135116648.93507     -3297.908 7        44.495                                                                    25711864.779 7 100898766.09607     -2462.708 7        47.224    25711863.848 8 103530907.47808     -2526.944 8        48.109
G12        17.000    21735477.799 7 114220863.22507      2153.163 7        47.898                                    21735477.577 7  89003347.98307      1677.788 7        46.451    21735477.956 7  89003344.99007      1677.815 7        43.367
G32        18.000    25949991.558 6 136368101.62806      2982.462 6        38.838                                    25950000.487 4 106260893.13904      2324.002 4        29.251    25950000.586 5 106260897.14405      2323.961 5        35.910
R22        19.000    22410757.839 7 119630216.77607     -1389.685 7        45.523                                                                    22410763.938 7  93045719.05607     -1080.833 7        43.958
R03        21.000    21513363.558 8 115162613.52608     -4455.849 8        48.263                                                                    21513367.470 7  89570894.97607     -3465.718 7        44.393
I06        22.000    38303526.007 6 150311365.99706      -485.586 6        41.004
S28        23.000    40895361.115 5 214906389.25605      -512.436 5        34.824
S23        25.000    38142361.978 7 200439307.46607      -505.732 7        44.739
S45        26.000    63393279.665 6 333135038.67406      -559.850 6        36.257
C07        27.000                                                                                                                                    39316462.249 6 204731056.58906     -1233.814 6        40.114    39316463.157 7 158311014.44407      -954.061 7        43.357    39316459.864 6 166360721.03706     -1002.547 6        40.677
R04        28.000    20055449.834 8 107396006.53708     -1049.965 8        51.551                                                                    20055451.412 7  83530203.55407      -816.614 7        47.467
C40        29.000                                                                                                                                    39565800.400 6 206029432.59406     -1498.259 6        41.714                                                                    39565804.990 6 167415779.33406     -1217.484 6        40.615
G17        30.000    22537002.890 7 118432858.77607     -2333.633 7        45.144                                    22537004.331 7  92285400.52007     -1818.415 7        42.940    22537004.296 6  92285397.51706     -1818.399 6        41.802
G14        31.000    24490580.162 6 128698721.06506     -3818.382 6        37.467                                    24490588.535 3 100284679.79503     -2975.340 3        21.119    24490588.607 6 100284665.75906     -2975.148 6        38.934
G23        32.000    24206184.016 6 127204208.20106     -2947.439 6        40.493                                    24206189.901 3  99120112.55003     -2296.708 3        23.143    24206190.554 6  99120107.54706     -2296.714 6        39.156
I02        33.000    36896528.893 7 144789886.44307      -342.307 7        42.768
R15        34.000    23684068.400 7 126560483.97107      2804.508 7        44.125                                                                    23684077.327 6  98435967.74006      2181.138 6        38.177
R13        35.000    20383103.230 7 108844643.84907     -2677.288 7        45.717
R12        36.000    23953443.077 7 127954805.46807     -3930.686 7        42.161                                                                    23953455.301 6  99520361.78806     -3057.084 6        39.057
C42        37.000                                                                                                                                    24042805.559 7 125197189.12107      -424.725 7        46.510                                                                    24042817.275 7 101733014.93107      -345.070 7        46.881
C10        38.000                                                                                                                                    38637251.205 7 201194276.15707      -896.516 7        42.023    38637254.129 7 155576170.26907      -693.289 7        44.436    38637250.801 6 163486812.91906      -728.613 6        41.630
E25        39.000    26291062.629 6 138160576.99206      1967.535 6        41.950                                                                    26291071.553 7 103171958.62907      1469.280 7        44.530    26291070.379 7 105863388.87807      1507.544 7        45.524
C30        40.000                                                                                                                                    24599210.362 7 128094579.86307     -1212.753 7        44.876                                                                    24599217.069 7 104087378.89207      -985.448 7        43.771
R23        41.000    21868070.708 7 116979499.05407      1917.785 7        45.381
S44        42.000    40840441.071 6 214617999.00506      -452.009 6        36.953
C36        43.000                                                                                                                                    24423316.105 7 127178502.14307     -3034.392 7        43.983                                                                    24423326.706 7 103342946.68707     -2465.617 7        45.288
C05        44.000                                                                                                                                    39442184.012 6 205385715.57006      -528.184 6        39.297    39442186.764 7 158817256.22207      -408.582 7        43.130    39442186.366 6 166892795.81506      -429.286 6        39.501
R14        45.000    19979126.773 8 106500094.17208       998.764 8        52.401                                                                    19979130.597 7  82833487.62007       776.817 7        47.666
E26        46.000    28097249.000 5 147652055.33505      -242.003 5        35.762                                                                    28097262.034 6 110259711.84906      -180.772 6        40.343    28097260.425 6 113136042.24306      -185.294 6        41.387
G10        47.000    24357837.660 6 128001234.68706      -849.611 6        40.172                                    24357842.984 5  99741215.44805      -662.029 5        34.224    24357842.968 6  99741216.43506      -661.880 6        37.614
C45        50.000                                                                                                                                    21715903.131 8 113080423.21808     -1103.866 8        50.806                                                                    21715897.579 8  91887093.46908      -896.941 8        50.204
S48        51.000    77144518.333 6 405397855.80806      -501.646 6        37.747
E06        52.000    27417804.088 6 144081378.62506     -3680.046 6        39.078                                                                    27417816.251 7 107593196.32307     -2748.111 7        42.254    27417814.889 7 110399979.32207     -2819.695 7        43.090
E33        53.000    28001547.584 6 147149161.12406      1683.079 6        37.282                                                                    28001560.693 6 109884168.99006      1256.910 6        40.446    28001559.028 6 112750703.39306      1289.608 6        41.490
C60        54.000                                                                                                                                    40840444.409 6 212666944.18306      -447.775 6        40.336                                                                    40840436.537 6 172809246.81006      -363.829 6        39.345
E31        55.000    24704457.489 7 129822769.19507     -2438.183 7        45.451                                                                    24704462.914 8  96945596.54908     -1820.759 8        48.110    24704462.106 8  99474609.38808     -1868.271 8        49.088
C26        56.000                                                                                                                                    23363519.211 7 121660044.37207      1611.323 7        47.136                                                                    23363522.348 7  98858789.78207      1309.393 7        47.774
C02        57.000                                                                                                                                    40976413.175 5                      -491.462 5        30.536    40976418.749 6 164994881.19606      -380.012 6        36.393    40976418.588 5                      -399.464 5        30.468
I03        58.000    92457442.981 5 287037372.91405       927.531 5        33.677
C21        59.000                                                                                                                                    24215288.907 7 126095261.41007     -3080.675 7        46.597                                                                    24215288.177 7 102462683.88307     -2503.184 7        47.117
C22        60.000                                                                                                                                                                                                                                                                    26721093.000 4                     -3209.218 4        24.030
> 2025 01 02 11 15 20.0000000  0 56
E24         1.000    23628829.734 8 124170463.29808        23.795 8        48.726                                                                    23628831.839 8  92724767.00408        17.734 8        51.021    23628830.934 8  95143662.59208        18.235 8        51.639
G15         2.000    22014262.400 7 115685635.72807     -3748.370 7        46.612                                    22014263.469 7  90144616.02007     -2920.804 7        44.424    22014263.880 7  90144611.02107     -2920.860 7        42.229
E03         3.000    26155993.847 7 137450665.26007      1753.938 7        42.025                                                                    26156001.308 7 102641739.04407      1309.693 7        45.372    26156000.191 7 105319351.03407      1343.907 7        46.232
G19         4.000    21264360.502 7 111745133.49007       140.586 7        47.248                                    21264358.663 6  87074163.24606       109.542 6        38.483
S21         5.000    38437285.680 7 201988892.84907      -502.195 7        42.415
E05         6.000    22251847.094 7 116934200.47107      -824.712 7        47.836                                                                    22251851.112 8  87320966.65108      -615.855 8        50.835    22251850.270 8  89598904.59708      -631.915 8        51.689
G25         7.000    24818855.465 6 130423977.33806      3136.828 6        36.907                                    24818866.177 4 101629116.96804      2444.277 4        27.245    24818867.214 5 101629117.96605      2444.302 5        34.033
C29         8.000                                                                                                                                    23878991.469 7 124344181.16907      1679.096 7        46.380                                                                    23878994.368 7 101039845.62307      1364.389 7        45.812
R05         9.000    22217468.893 7 118765140.79007      2614.184 7        47.978                                                                    22217474.107 7  92372935.89607      2033.264 7        43.026
G24        10.000    20119497.434 8 105728679.69508       183.111 8        50.073                                    20119498.699 8  82386000.29408       142.682 8        52.706    20119499.033 7  82386005.29307       142.719 7        46.283
C14        11.000                                                                                                                                    25191322.544 6 131177839.63006      1011.416 6        40.875    25191326.204 7 101435054.47907       782.041 7        46.721    25191322.796 7 106592751.98507       821.774 7        43.981
S27        12.000    39191688.928 6 205953549.83706      -531.311 6        36.586
G13        13.000    23399345.906 7 122964261.69507     -4286.999 7        42.040                                    23399349.874 4  95816252.76904     -3340.508 4        26.084
S36        14.000    38207858.272 7 200784075.76607      -502.287 7        44.393
G02        15.000    26122619.800 4 137275300.07404     -2044.131 4        27.138                                    26122627.300 1 106967794.63801     -1592.776 1         5.000
E09        16.000    25714996.964 7 135133142.16007     -3298.998 7        44.263                                                                    25715003.432 7 100911082.43907     -2463.535 7        47.186    25715002.500 8 103543545.12108     -2527.844 8        48.192
G12        17.000    21733429.904 7 114210102.71307      2151.385 7        47.717                                    21733429.909 7  88994963.18107      1676.401 7        46.359    21733430.505 7  88994960.18507      1676.495 7        42.908
