     3.04           OBSERVATION DATA    M                   RINEX VERSION / TYPE
ssrcrin-15.6.1x                         20250102 190000 UTC PGM / RUN BY / DATE 
(00000000023479385599111004) Septentrio proprietary         COMMENT             
rref                                                        MARKER NAME         
01                                                          MARKER NUMBER       
geodetic                                                    MARKER TYPE         
NFB                 CLIMERS@TUW                             OBSERVER / AGENCY   
3297213             SEPT ASTERX SB3 PROB4.14.4              REC # / TYPE / VERS 
Unknown             Unknown                                 ANT # / TYPE        
  4127831.8051  1207193.0606  4695247.6463                  APPROX POSITION XYZ 
        0.0000        0.0000        0.0000                  ANTENNA: DELTA H/E/N
G   23 X1  C1C L1C D1C S1C C1W S1W C2W L2W D2W S2W C2L L2L  SYS / # / OBS TYPES 
       D2L S2L C5Q L5Q D5Q S5Q C1L L1L D1L S1L              SYS / # / OBS TYPES 
E   21 X1  C1C L1C D1C S1C C6C L6C D6C S6C C5Q L5Q D5Q S5Q  SYS / # / OBS TYPES 
       C7Q L7Q D7Q S7Q C8Q L8Q D8Q S8Q                      SYS / # / OBS TYPES 
S    9 X1  C1C L1C D1C S1C C5I L5I D5I S5I                  SYS / # / OBS TYPES 
R   17 X1  C1C L1C D1C S1C C2P L2P D2P S2P C2C L2C D2C S2C  SYS / # / OBS TYPES 
       C3Q L3Q D3Q S3Q                                      SYS / # / OBS TYPES 
C   25 X1  C1P L1P D1P S1P C5P L5P D5P S5P C2I L2I D2I S2I  SYS / # / OBS TYPES 
       C7I L7I D7I S7I C6I L6I D6I S6I C7D L7D D7D S7D      SYS / # / OBS TYPES 
J   17 X1  C1C L1C D1C S1C C2L L2L D2L S2L C5Q L5Q D5Q S5Q  SYS / # / OBS TYPES 
       C1L L1L D1L S1L                                      SYS / # / OBS TYPES 
I    5 X1  C5A L5A D5A S5A                                  SYS / # / OBS TYPES 
SEPTENTRIO RECEIVERS OUTPUT ALIGNED CARRIER PHASES.         COMMENT             
NO FURTHER PHASE SHIFT APPLIED IN THE RINEX ENCODER.        COMMENT             
G L1C                                                       SYS / PHASE SHIFT   
G L2W                                                       SYS / PHASE SHIFT   
G L2L  0.00000                                              SYS / PHASE SHIFT   
G L5Q  0.00000                                              SYS / PHASE SHIFT   
G L1L  0.00000                                              SYS / PHASE SHIFT   
E L1C  0.00000                                              SYS / PHASE SHIFT   
E L6C  0.00000                                              SYS / PHASE SHIFT   
E L5Q  0.00000                                              SYS / PHASE SHIFT   
E L7Q  0.00000                                              SYS / PHASE SHIFT   
E L8Q  0.00000                                              SYS / PHASE SHIFT   
S L1C                                                       SYS / PHASE SHIFT   
S L5I                                                       SYS / PHASE SHIFT   
R L1C                                                       SYS / PHASE SHIFT   
R L2P  0.00000                                              SYS / PHASE SHIFT   
R L2C                                                       SYS / PHASE SHIFT   
R L3Q  0.00000                                              SYS / PHASE SHIFT   
C L1P  0.00000                                              SYS / PHASE SHIFT   
C L5P  0.00000                                              SYS / PHASE SHIFT   
C L2I                                                       SYS / PHASE SHIFT   
C L7I                                                       SYS / PHASE SHIFT   
C L6I                                                       SYS / PHASE SHIFT   
C L7D                                                       SYS / PHASE SHIFT   
J L1C                                                       SYS / PHASE SHIFT   
J L2L  0.00000                                              SYS / PHASE SHIFT   
J L5Q  0.00000                                              SYS / PHASE SHIFT   
J L1L  0.00000                                              SYS / PHASE SHIFT   
I L5A                                                       SYS / PHASE SHIFT   
  2025     1     2    19     0    0.0000000     GPS         TIME OF FIRST OBS   
 C1C    0.000 C2C    0.000 C2P    0.000                     GLONASS COD/PHS/BIS 
DBHZ                                                        SIGNAL STRENGTH UNIT
    18                                                      LEAP SECONDS        
 24 R01  1 R02 -4 R03  5 R04  6 R05  1 R06 -4 R07  5 R08  6 GLONASS SLOT / FRQ #
    R09 -2 R10 -7 R11  0 R12 -1 R13 -2 R14 -7 R15  0 R16 -1 GLONASS SLOT / FRQ #
    R17  4 R18 -3 R19  3 R20  2 R21  4 R22 -3 R23  3 R24  2 GLONASS SLOT / FRQ #
                                                            END OF HEADER       
> 2025 01 02 19 00  0.0000000  0 57
G23         1.000    21048212.832 7 110609186.60707       942.832 7        46.985                                    21048209.001 6  86188999.52606       734.670 6        38.375    21048209.281 7  86188997.53107       734.687 7        46.669
E11         2.000    27929881.511 5 146772709.05805     -3223.747 5        33.689                                                                    27929878.015 6 109603120.62106     -2407.506 6        36.888    27929877.079 6 112462318.87906     -2470.457 6        36.484
G16         3.000    20444836.085 8 107438547.29208      -848.446 8        48.657                                    20444831.366 6  83718433.82906      -661.126 6        40.286
S21         5.000    38347028.201 7 201514683.86907      -457.771 7        42.468
G26         6.000    21490468.986 7 112933414.02907     -2957.983 7        47.554                                    21490467.865 7  88000194.85407     -2304.922 7        47.194    21490467.804 7  88000181.85807     -2304.879 7        43.545
G10         7.000    22999199.479 7 120861663.51507      2862.436 7        45.282                                    22999198.653 7  94177933.24807      2230.469 7        42.527    22999197.819 6  94177927.23906      2230.616 6        41.204
E15         8.000    27252793.954 6 143214478.77506      2224.807 6        39.880                                                                    27252796.867 7 106945936.26907      1661.430 7        42.121    27252796.243 7 109735819.14107      1704.784 7        43.014
E36         9.000    24047837.099 7 126372430.72307     -2004.297 7        47.003                                                                    24047837.801 8  94369166.64308     -1496.710 8        49.904    24047837.350 8  96830958.24208     -1535.720 8        50.616
G27        10.000    21192586.272 7 111367936.79207      1852.494 7        47.268                                    21192584.515 8  86780279.34308      1443.503 8        48.128    21192584.930 7  86780281.34307      1443.509 7        43.968
G15        11.000    23929088.315 6 125748223.01806      1086.026 6        39.694                                    23929085.228 5  97985619.01805       846.254 5        31.955    23929085.222 5  97985622.02405       846.274 5        35.595
G13        12.000    24861933.674 5 130650339.39705       484.782 5        34.648                                    24861930.125 1 101805447.69701       377.749 1        11.407
C23        13.000                                                                                                                                    23737846.822 7 123609248.85407      -856.015 7        47.337                                                                    23737838.272 7 100442632.29507      -695.489 7        47.796
S36        14.000    38117047.859 7 200306968.81207      -457.036 7        44.161
C13        15.000                                                                                                                                    37751398.997 7 196581500.29107     -1002.172 7        44.664    37751400.083 7 152009319.95707      -774.883 7        44.691    37751398.677 7 159738594.35907      -814.205 7        42.762
G18        16.000    21322425.855 7 112050336.59607     -2493.708 7        47.011                                    21322422.315 6  87312048.19306     -1943.150 6        37.747    21322422.486 7  87312056.19907     -1943.200 7        46.729
R10        17.000    20105484.872 7 107173583.53407      -921.798 7        47.181
E27        18.000    27159555.454 6 142724431.00006      2203.174 6        40.465                                                                    27159556.091 7 106579932.47207      1645.288 7        42.999    27159555.493 7 109360276.22707      1688.177 7        43.765
E02        19.000    24459009.060 7 128533146.75007     -2760.690 7        47.125                                                                    24459008.121 8  95982653.99908     -2061.482 8        49.349    24459007.554 8  98486534.44208     -2115.315 8        49.535
S27        20.000    39103374.985 5 205489617.95705      -429.023 5        35.314
R11        21.000    22424950.594 7 119832150.47307      2868.959 7        45.306                                                                    22424949.615 7  93202785.87907      2231.291 7        43.816
I06        22.000    38599484.285 6 151472889.22606      -296.625 6        41.647
S28        23.000    40818074.104 5 214500430.74905      -451.043 5        34.214
E04        24.000    28168786.324 6 148027958.27706       434.915 6        36.026                                                                    28168786.071 6 110540358.38606       324.722 6        40.579    28168785.137 6 113424015.81406       333.336 6        40.057
S23        25.000    38073290.747 7 200076429.35407      -458.801 7        45.093
S45        26.000    63329644.523 6 332799955.96306      -510.798 6        37.539
R09        27.000    21030464.942 8 112301712.63108     -4094.767 8        48.512                                                                    21030464.211 7  87345887.32107     -3184.836 7        46.875
R18        28.000    23524237.135 7 125574258.14907     -3892.150 7        43.007                                                                    23524237.427 6  97669016.92706     -3027.162 6        40.272
C38        29.000                                                                                                                                    39367178.263 6 204995347.03406     -1541.069 6        41.971                                                                    39367175.750 6 166575555.97406     -1252.166 6        41.237
C44        30.000                                                                                                                                    24858585.947 7 129445395.78207     -3137.842 7        43.075                                                                    24858585.673 7 105185070.65507     -2549.700 7        43.194
C43        31.000                                                                                                                                    22404886.625 8 116668225.83508      1208.586 8        49.106                                                                    22404885.454 8  94802531.59008       982.160 8        48.418
R02        32.000    24318084.358 6 129765953.20306     -3521.580 6        41.309                                                                    24318085.599 6 100929076.27206     -2739.130 6        38.270
I02        33.000    39325331.380 6 154321101.16406      -989.575 6        41.082
R03        34.000    22043343.405 7 117999780.48507      -577.387 7        47.653                                                                    22043342.066 7  91777608.97907      -449.165 7        43.405
E34        35.000    23580922.250 8 123918787.85608       631.213 8        49.215                                                                    23580922.259 8  92536867.54608       471.362 8        50.960    23580922.154 8  94950861.62608       483.643 8        51.699
G29        36.000    24562209.629 6 129075565.27506     -3671.982 6        38.321                                    24562206.797 5 100578468.95705     -2861.284 5        30.279    24562207.094 5 100578478.96205     -2861.360 5        35.462
C22        38.000                                                                                                                                    24687591.993 7 128554797.43207     -1079.347 7        44.015                                                                    24687586.191 7 104461287.05707      -876.870 7        44.683
C12        40.000                                                                                                                                    23199325.746 7 120805182.50907     -2510.436 7        45.421    23199321.793 8  93414327.22708     -1941.233 8        49.109    23199321.292 7  98164179.79507     -2039.833 7        47.692
R04        41.000    22161206.661 7 118672273.22507      2651.630 7        46.539                                                                    22161206.271 7  92300661.54507      2062.252 7        44.325
S44        42.000    40393179.084 6 212267786.61206      -425.564 6        37.561
G08        43.000    23932301.111 6 125765145.61906      2830.184 6        39.000                                    23932302.181 5  97998845.19005      2205.329 5        30.717    23932303.033 6  97998843.21606      2205.291 6        36.076
C05        44.000                                                                                                                                    39192136.986 6 204083774.59206      -386.799 6        37.856    39192132.213 7 157810543.08707      -298.964 7        42.294    39192134.774 6 165834886.45506      -314.201 6        40.756
C11        45.000                                                                                                                                    21554370.528 8 112239412.05408        37.463 8        48.046    21554367.469 8  86790693.73508        28.989 8        51.678    21554366.598 8  91203755.98608        30.529 8        49.414
E09        46.000    28662101.122 5 150620358.49705      1975.662 5        35.614                                                                    28662102.927 6 112476247.35506      1475.347 6        39.399    28662102.134 6 115410408.04006      1513.913 6        39.541
G07        47.000    25258198.222 6 132732744.08206       686.550 6        38.835                                    25258194.529 5 103428099.34705       534.974 5        30.702    25258195.302 5 103428107.35005       534.919 5        35.676
C21        48.000                                                                                                                                    24395293.443 7 127032717.70207      1642.268 7        45.806                                                                    24395288.524 7 103224475.12207      1334.557 7        46.348
E06        49.000    28205665.613 5 148221781.74805      1355.061 5        35.981                                                                    28205666.280 6 110685098.83306      1012.101 6        39.066    28205665.951 6 113572533.76506      1038.356 6        39.553
R19        50.000    20447573.226 6 109380991.53706     -2751.014 6        38.736                                                                    20447571.837 7  85074218.10007     -2139.735 7        43.905
S48        51.000    77083430.089 6 405076716.07006      -496.386 6        37.739
C08        52.000                                                                                                                                    38019759.912 6 197978971.53806     -1275.752 6        40.963    38019753.690 7 153089929.11807      -986.538 7        44.873    38019753.105 7 160874149.82007     -1036.553 7        42.108
C34        53.000                                                                                                                                    21471166.446 8 111806279.40008     -1243.237 8        50.716                                                                    21471165.743 8  90851877.41908     -1010.155 8        49.627
C60        54.000                                                                                                                                    40393182.356 6 210338098.83506      -421.851 6        39.709                                                                    40393166.733 6 170916902.96006      -342.726 6        39.703
C25        55.000                                                                                                                                    24080796.255 7 125395261.22307     -3353.898 7        45.916                                                                    24080794.126 7 101894013.32407     -2725.130 7        45.190
I09        56.000    39193675.179 6 153804416.37106       458.605 6        41.621
C02        57.000                                                                                                                                    40529944.530 5 211050097.71905      -379.721 5        34.757    40529938.102 6 163197315.04606      -293.650 6        38.577    40529941.773 5 171495493.89005      -308.106 5        35.605
I03        58.000    82375729.856 6 247474805.44106      1104.144 6        40.377
E30        59.000    24067126.067 8 126473820.57208        24.697 8        48.493                                                                    24067125.775 8  94444856.10608        18.443 8        50.838    24067125.207 8  96908618.22008        18.950 8        51.322
R20        60.000    20105787.305 6 107514883.57006      1188.579 6        40.994                                                                    20105788.922 7  83622755.61307       924.565 7        46.947
> 2025 01 02 19 00  5.0000000  0 58
G23         1.000    21047317.108 7 110604479.29307       940.079 7        47.370                                    21047313.214 6  86185331.48906       732.529 6        38.580    21047313.436 7  86185329.49407       732.494 7        46.444
E11         2.000    27932948.685 5 146788827.93405     -3223.844 5        33.234                                                                    27932945.235 6 109615157.41106     -2407.125 6        36.552    27932944.419 6 112474669.67806     -2470.058 6        36.431
G16         3.000    20445644.823 8 107442797.10108      -851.518 8        48.666                                    20445640.059 6  83721745.36806      -663.520 6        40.489
S21         5.000    38347463.075 7 201516971.74107      -457.276 7        42.521
G26         6.000    21493284.024 7 112948208.67507     -2959.922 7        47.285                                    21493283.203 7  88011723.14807     -2306.429 7        47.408    21493283.435 7  88011710.15007     -2306.406 7        43.469
G10         7.000    22996476.237 7 120847353.33107      2861.441 7        45.202                                    22996475.381 7  94166782.45607      2229.694 7        42.713    22996474.904 6  94166776.44106      2229.815 6        41.061
E15         8.000    27250677.092 6 143203355.31306      2224.542 6        39.303                                                                    27250680.119 6 106937629.81306      1661.084 6        41.962    27250679.476 7 109727296.00507      1704.432 7        43.156
E36         9.000    24049744.547 7 126382454.03007     -2005.090 7        46.808                                                                    24049745.173 8  94376651.57808     -1497.293 8        49.921    24049744.707 8  96838638.44108     -1536.384 8        50.751
G27        10.000    21190824.000 7 111358677.52707      1851.248 7        47.469                                    21190822.526 8  86773064.33108      1442.531 8        48.335    21190823.001 7  86773066.34007      1442.436 7        44.101
G15        11.000    23928056.403 6 125742799.03106      1083.629 6        39.919                                    23928052.807 5  97981392.53405       844.387 5        31.917    23928053.427 5  97981395.54305       844.421 5        35.490
G13        12.000    24861473.315 5 130647923.65205       481.927 5        34.462                                    24861470.446 2 101803565.32702       375.517 2        12.061
C23        13.000                                                                                                                                    23738669.867 7 123613535.15007      -858.544 7        47.234                                                                    23738661.424 7 100446115.23707      -697.582 7        47.909
S36        14.000    38117480.765 7 200309252.44607      -456.427 7        44.144
C13        15.000                                                                                                                                    37752361.360 7 196586511.90207     -1002.477 7        44.650    37752362.441 7 152013195.25907      -775.235 7        44.647    37752361.092 7 159742666.70907      -814.607 7        42.804
G18        16.000    21324799.130 7 112062808.70707     -2495.139 7        46.978                                    21324795.660 6  87321766.71706     -1944.266 6        38.036    21324795.769 7  87321774.71407     -1944.258 7        46.591
R10        17.000    20106351.745 7 107178203.20407      -926.150 7        46.782
E27        18.000    27157459.519 6 142713416.39606      2202.644 6        39.841                                                                    27157459.968 7 106571707.29107      1644.798 7        42.961    27157459.455 7 109351836.47207      1687.701 7        43.890
E02        19.000    24461636.548 7 128546953.14107     -2761.945 7        47.178                                                                    24461635.413 8  95992963.97208     -2062.498 8        49.346    24461634.814 8  98497113.36708     -2116.322 8        49.752
S27        20.000    39103784.631 5 205491762.73905      -428.893 5        35.681
R11        21.000    22422266.854 7 119817812.16207      2866.359 7        45.898                                                                    22422266.546 7  93191633.85407      2229.359 7        43.056
I06        22.000    38599862.298 6 151474371.83206      -296.535 6        41.714
S28        23.000    40818504.180 5 214502685.77105      -451.114 5        34.233
E04        24.000    28168373.384 5 148025788.80505       433.133 5        35.700                                                                    28168373.187 6 110538738.32306       323.302 6        40.315    28168372.283 6 113422353.48506       331.748 6        39.889
S23        25.000    38073728.541 7 200078722.26507      -458.521 7        45.103
S45        26.000    63330079.969 6 332802508.44506      -510.448 6        37.694
R09        27.000    21034300.192 8 112322192.02608     -4096.992 8        49.229                                                                    21034299.457 7  87361815.73107     -3186.576 7        47.162
R18        28.000    23527881.605 7 125593718.05707     -3891.877 7        42.872                                                                    23527882.800 6  97684152.42206     -3027.026 6        40.243
C38        29.000                                                                                                                                    39368658.165 6 205003053.01306     -1541.191 6        41.778                                                                    39368655.599 6 166581817.69006     -1252.271 6        41.261
C44        30.000                                                                                                                                    24861599.018 7 129461085.23107     -3137.950 7        43.162                                                                    24861598.565 7 105197819.59807     -2549.759 7        43.255
C43        31.000                                                                                                                                    22403726.416 8 116662184.85308      1207.746 8        49.210                                                                    22403725.400 8  94797622.78808       981.361 8        48.523
R02        32.000    24321383.981 6 129783566.87006     -3523.913 6        41.743                                                                    24321387.272 6 100942775.71106     -2740.677 6        39.309
I02        33.000    39326591.908 6 154326048.50006      -989.479 6        41.035
R03        34.000    22043884.539 7 118002677.55507      -581.521 7        47.873                                                                    22043883.231 7  91779862.24407      -452.266 7        43.543
E34        35.000    23580322.378 8 123915634.79508       629.924 8        49.189                                                                    23580322.235 8  92534512.99008       470.395 8        50.954    23580322.115 8  94948445.64508       482.677 8        51.875
G29        36.000    24565703.787 6 129093925.99306     -3672.210 6        38.601                                    24565700.672 5 100592776.01605     -2861.460 5        30.626    24565701.259 5 100592786.01405     -2861.553 5        35.129
R21        37.000    24159395.271 7 129281802.94017      2916.100 7        42.764                                                                    24159399.122 6 100552520.37316      2267.994 6        37.127
C22        38.000                                                                                                                                    24688629.623 7 128560200.41407     -1081.894 7        43.564                                                                    24688623.867 7 104465677.40507      -879.073 7        44.816
C12        40.000                                                                                                                                    23201736.733 7 120817735.99807     -2510.969 7        45.371    23201732.775 8  93424034.39208     -1941.708 8        49.302    23201732.084 7  98174380.53407     -2040.340 7        47.706
R04        41.000    22158731.375 7 118659020.95607      2649.204 7        46.589                                                                    22158730.592 7  92290354.22107      2060.432 7        43.600
S44        42.000    40393582.661 6 212269914.39706      -425.577 6        37.531
G08        43.000    23929608.391 6 125750994.71706      2830.150 6        39.348                                    23929609.231 5  97987818.53905      2205.307 5        30.845    23929609.978 5  97987816.55505      2205.250 5        34.986
C05        44.000                                                                                                                                    39192508.225 6 204085707.22606      -386.315 6        38.228    39192503.509 7 157812037.53407      -298.779 7        42.322    39192505.888 6 165836456.86506      -313.846 6        40.827
C11        45.000                                                                                                                                    21554335.375 8 112239227.56208        36.340 8        48.090    21554332.102 8  86790551.07608        28.088 8        51.673    21554331.178 8  91203606.06308        29.548 8        49.586
E09        46.000    28660221.828 5 150610480.91205      1975.209 5        35.771                                                                    28660223.010 6 112468871.24906      1474.950 6        39.327    28660222.293 6 115402839.50606      1513.414 6        39.709
G07        47.000    25257546.051 6 132729316.77306       684.339 6        38.586                                    25257542.379 5 103425428.72105       533.248 5        31.094    25257543.156 5 103425436.72405       533.348 5        35.024
C21        48.000                                                                                                                                    24393717.239 7 127024511.03907      1640.416 7        45.517                                                                    24393712.466 7 103217806.51807      1333.012 7        46.438
E06        49.000    28204376.317 6 148215008.97006      1353.902 6        36.185                                                                    28204377.497 6 110680041.26006      1010.996 6        38.898    28204377.076 6 113567344.23306      1037.383 6        39.964
R19        50.000    20450144.998 6 109394749.35806     -2752.340 6        39.541                                                                    20450143.873 7  85084918.60507     -2140.589 7        44.066
S48        51.000    77083871.706 6 405079197.04006      -496.083 6        37.686
C08        52.000                                                                                                                                    38020985.427 6 197985351.21106     -1276.195 6        41.082    38020979.123 7 153094862.27907      -986.746 7        44.823    38020978.231 7 160879333.80007     -1036.801 7        42.097
C34        53.000                                                                                                                                    21472360.575 8 111812498.37008     -1244.392 8        50.671                                                                    21472360.008 8  90856930.82508     -1011.132 8        49.753
C60        54.000                                                                                                                                    40393587.373 6 210340207.26806      -421.503 6        39.667                                                                    40393571.666 6 170918616.21106      -342.605 6        39.724
C25        55.000                                                                                                                                    24084016.223 7 125412032.41707     -3354.707 7        45.114                                                                    24084014.823 7 101907641.26207     -2725.973 7        45.455
I09        56.000    39193090.659 6 153802123.14606       458.685 6        41.759
C02        57.000                                                                                                                                    40530309.522 5 211051994.87705      -379.346 5        34.781    40530302.289 6 163198782.03906      -293.224 6        38.625    40530306.116 6 171497035.50106      -308.379 6        36.008
I03        58.000    82374323.103 6 247469284.43106      1104.330 6        40.582
E30        59.000    24067103.329 8 126473701.57008        22.822 8        48.424                                                                    24067103.162 8  94444767.24108        17.054 8        50.836    24067102.596 8  96908527.04408        17.457 8        51.452
R20        60.000    20104675.832 6 107508944.70406      1186.986 6        40.932                                                                    20104678.600 7  83618136.50607       923.092 7        46.915
> 2025 01 02 19 00 10.0000000  0 58
G23         1.000    21046424.340 7 110599787.23207       936.847 7        47.418                                    21046420.365 6  86181675.34006       730.012 6        38.562    21046420.374 7  86181673.33707       730.040 7        46.147
E11         2.000    27936015.092 5 146804946.19705     -3223.729 5        32.677                                                                    27936012.440 6 109627193.75406     -2406.998 6        36.847    27936011.715 6 112487020.02306     -2470.105 6        36.567
G16         3.000    20446456.633 8 107447063.59608      -854.976 8        48.491                                    20446451.923 6  83725069.91106      -666.219 6        40.379
S21         5.000    38347899.165 7 201519259.46407      -457.431 7        42.523
G26         6.000    21496101.878 7 112963014.48407     -2962.346 7        47.334                                    21496100.656 7  88023260.13907     -2308.322 7        47.315    21496101.001 7  88023247.13207     -2308.281 7        44.045
G10         7.000    22993753.894 7 120833049.24407      2860.182 7        44.926                                    22993753.245 7  94155636.41807      2228.716 7        42.578    22993752.743 6  94155630.42506      2228.786 6        40.953
E15         8.000    27248561.122 6 143192234.81106      2223.739 6        39.339                                                                    27248563.643 6 106929325.54406      1660.642 6        41.933    27248563.371 7 109718775.09007      1703.954 7        43.056
E36         9.000    24051653.142 7 126392482.84607     -2006.335 7        46.564                                                                    24051653.616 8  94384140.63008     -1498.206 8        50.035    24051653.100 8  96846322.85908     -1537.281 8        50.771
G27        10.000    21189063.641 7 111349425.94607      1849.578 7        47.329                                    21189062.017 8  86765855.31208      1441.227 8        48.300    21189062.160 7  86765857.31607      1441.161 7        43.723
G15        11.000    23927026.795 6 125737388.65906      1080.736 6        40.219                                    23927023.064 5  97977176.66005       842.128 5        32.030    23927023.919 5  97977179.66105       842.092 5        35.357
G13        12.000    24861016.299 5 130645522.24205       478.935 5        34.286                                    24861013.473 2 101801694.13402       373.255 2        12.303
C23        13.000                                                                                                                                    23739495.582 7 123617835.17007      -861.372 7        46.986                                                                    23739487.238 7 100449609.38107      -699.888 7        47.790
S36        14.000    38117915.716 7 200311535.62807      -456.705 7        44.226
C13        15.000                                                                                                                                    37753324.039 7 196591526.54807     -1003.233 7        44.548    37753325.642 7 152017072.90707      -775.801 7        44.647    37753324.080 7 159746741.53507      -815.304 7        42.753
G18        16.000    21327174.176 7 112075289.05607     -2496.860 7        47.197                                    21327170.574 6  87331491.66306     -1945.605 6        37.856    21327170.593 7  87331499.67307     -1945.672 7        46.377
R10        17.000    20107222.673 7 107182845.47707      -930.790 7        46.893
E27        18.000    27155363.703 6 142702405.95606      2201.733 6        39.568                                                                    27155364.740 7 106563485.20707      1644.128 7        43.183    27155364.226 7 109343399.90307      1687.046 7        43.896
E02        19.000    24464265.099 7 128560767.10707     -2763.654 7        46.816                                                                    24464264.111 8  96003279.58708     -2063.691 8        49.444    24464263.542 8  98507698.08808     -2117.568 8        49.631
S27        20.000    39104190.184 5 205493907.43905      -429.028 5        35.586
R11        21.000    22419586.405 7 119803487.50807      2863.635 7        45.251                                                                    22419585.291 7  93180492.43307      2227.245 7        42.311
I06        22.000    38600239.599 6 151475854.02106      -296.424 6        41.564
S28        23.000    40818933.259 5 214504940.12305      -450.820 5        34.338
E04        24.000    28167962.931 5 148023629.84305       430.737 5        35.738                                                                    28167962.241 6 110537126.10506       321.645 6        40.365    28167961.551 6 113420699.21806       330.032 6        40.036
S23        25.000    38074163.362 7 200081014.86107      -458.454 7        45.090
S45        26.000    63330515.514 6 332805060.70906      -510.643 6        37.792
R09        27.000    21038137.745 8 112342683.82208     -4099.618 8        49.629                                                                    21038137.205 7  87377753.78707     -3188.569 7        47.311
R18        28.000    23531527.196 7 125613177.40507     -3891.984 7        42.582                                                                    23531528.793 6  97699287.45606     -3026.971 6        40.017
C38        29.000                                                                                                                                    39370138.348 6 205010760.74306     -1541.756 6        41.661                                                                    39370135.857 6 166588080.87606     -1252.830 6        41.266
C44        30.000                                                                                                                                    24864612.524 7 129476776.14207     -3138.306 7        43.232                                                                    24864611.850 7 105210569.76607     -2550.231 7        43.325
C43        31.000                                                                                                                                    22402567.473 8 116656149.47108      1206.475 8        49.088                                                                    22402566.325 8  94792718.56608       980.363 8        48.474
R02        32.000    24324688.476 7 129801193.75607     -3526.658 7        42.233                                                                    24324690.360 6 100956485.52606     -2743.115 6        38.808
I02        33.000    39327852.568 6 154330995.87706      -989.404 6        40.808
R03        34.000    22044429.965 7 118005596.39907      -585.956 7        47.866                                                                    22044428.983 7  91782132.45207      -455.737 7        43.217
E34        35.000    23579723.723 8 123912489.32908       628.309 8        49.016                                                                    23579723.665 8  92532164.10208       469.209 8        51.019    23579723.626 8  94946035.48608       481.408 8        51.796
G29        36.000    24569197.803 6 129112289.13406     -3672.842 6        38.859                                    24569194.999 5 100607084.94905     -2861.957 5        30.785    24569195.235 5 100607094.96705     -2862.109 5        34.929
R21        37.000    24156671.743 7 129267223.96807      2915.533 7        43.532                                                                    24156672.882 6 100541181.19606      2267.819 6        36.102
C22        38.000                                                                                                                                    24689669.660 7 128565617.43507     -1084.827 7        42.952                                                                    24689664.202 7 104470079.19607      -881.635 7        44.727
C12        40.000                                                                                                                                    23204148.198 7 120830293.38907     -2511.970 7        45.397    23204144.777 8  93433744.54908     -1942.335 8        49.873    23204143.627 7  98184584.45907     -2041.133 7        47.766
R04        41.000    22156259.483 7 118645781.88507      2646.520 7        46.458                                                                    22156257.870 7  92280057.15907      2058.358 7        43.234
S44        42.000    40393988.716 6 212272042.00206      -425.561 6        37.807
G08        43.000    23926915.582 6 125736845.34806      2829.656 6        39.949                                    23926916.514 5  97976793.09205      2204.924 5        30.808    23926917.789 5  97976791.09705      2205.001 5        34.695
C05        44.000                                                                                                                                    39192879.258 6 204087639.59506      -386.595 6        38.219    39192874.350 7 157813531.77307      -298.911 7        42.434    39192877.055 6 165838027.09406      -314.131 6        40.777
C11        45.000                                                                                                                                    21554301.127 7 112239049.89207        34.816 7        47.962    21554298.035 8  86790413.68608        26.948 8        51.953    21554297.095 8  91203461.71008        28.286 8        49.532
E09        46.000    28658342.762 6 150600606.91306      1974.351 6        36.030                                                                    28658344.088 6 112461497.81506      1474.307 6        39.132    28658343.619 6 115395273.72206      1512.725 6        39.883
G07        47.000    25256896.557 6 132725902.06706       681.648 6        39.285                                    25256892.603 5 103422767.92705       531.143 5        31.155    25256893.342 5 103422775.93205       531.411 5        35.652
C21        48.000                                                                                                                                    24392142.729 7 127016314.49007      1638.265 7        44.847                                                                    24392138.394 7 103211146.16407      1331.249 7        46.399
E06        49.000    28203088.913 6 148208243.62606      1352.270 6        36.170                                                                    28203089.907 6 110674989.24206      1009.785 6        39.141    28203089.771 6 113562160.41906      1036.090 6        40.045
R19        50.000    20452718.235 6 109408513.89706     -2753.711 6        39.841                                                                    20452717.345 7  85095624.36507     -2141.784 7        43.879
S48        51.000    77084315.672 6 405081677.71506      -496.137 6        37.845
C08        52.000                                                                                                                                    38022211.107 6 197991733.82606     -1276.982 6        41.068    38022204.638 7 153099797.72107      -987.359 7        45.094    38022203.980 7 160884520.22507     -1037.553 7        42.082
C34        53.000                                                                                                                                    21473556.146 8 111818724.10708     -1245.846 8        50.528                                                                    21473555.578 8  90861989.76908     -1012.342 8        49.692
C60        54.000                                                                                                                                    40393992.363 6 210342315.53706      -421.661 6        39.769                                                                    40393976.602 6 170920329.37806      -342.609 6        39.781
C25        55.000                                                                                                                                    24087237.630 7 125428809.19807     -3355.950 7        45.770                                                                    24087236.607 7 101921273.79607     -2726.959 7        45.338
I09        56.000    39192506.497 6 153799830.01806       458.547 6        41.828
C02        57.000                                                                                                                                    40530673.700 5 211053891.82105      -379.263 5        34.790    40530666.565 6 163200248.90906      -293.447 6        38.808    40530670.196 5 171498576.95105      -308.450 5        35.900
I03        58.000    82372916.116 6 247463763.30006      1104.278 6        40.603
E30        59.000    24067082.789 8 126473593.30108        20.543 8        48.156                                                                    24067082.626 8  94444686.39708        15.340 8        50.880    24067082.010 8  96908444.08308        15.761 8        51.397
R20        60.000    20103567.887 6 107503015.93406      1184.664 6        40.434                                                                    20103569.715 7  83613525.24107       921.465 7        47.069
> 2025 01 02 19 00 15.0000000  0 58
G23         1.000    21045534.350 7 110595110.48707       933.720 7        47.303                                    21045530.400 6  86178031.12506       727.572 6        38.550    21045530.828 7  86178029.12907       727.573 7        46.460
E11         2.000    27939082.561 5 146821063.91105     -3223.831 5        32.683                                                                    27939079.433 6 109639229.72806     -2407.338 6        36.699    27939079.101 6 112499369.96106     -2470.334 6        36.476
G16         3.000    20447271.640 8 107451346.84208      -858.404 8        48.728                                    20447266.997 6  83728407.50606      -668.886 6        40.389
S21         5.000    38348334.996 7 201521546.90807      -457.494 7        42.544
G26         6.000    21498921.367 7 112977831.53007     -2964.657 7        47.474                                    21498920.242 7  88034805.88607     -2310.122 7        47.299    21498920.548 7  88034792.88407     -2310.103 7        43.714
G10         7.000    22991033.333 7 120818751.32607      2859.029 7        44.915                                    22991032.236 7  94144495.19107      2227.813 7        42.493    22991032.024 6  94144489.19806      2227.769 6        40.706
E15         8.000    27246446.046 6 143181117.28106      2223.042 6        39.354                                                                    27246447.953 7 106921023.50607      1660.182 7        42.030    27246448.006 7 109710256.48707      1703.437 7        43.075
E36         9.000    24053562.671 7 126402517.23907     -2007.513 7        46.429                                                                    24053563.116 8  94391633.84608     -1499.135 8        50.087    24053562.609 8  96854011.55008     -1538.199 8        50.625
G27        10.000    21187304.306 7 111340182.13107      1847.861 7        47.371                                    21187302.983 8  86758652.34708      1439.893 8        48.304    21187303.295 7  86758654.34507      1439.823 7        44.119
G15        11.000    23926000.385 6 125731991.94206      1077.918 6        40.358                                    23925996.097 5  97972971.43305       839.936 5        32.299    23925997.206 6  97972974.45006       839.737 6        36.461
G13        12.000    24860562.774 5 130643135.46905       475.847 5        34.938                                    24860559.246 1 101799834.30201       370.821 1        11.926
C23        13.000                                                                                                                                    23740323.728 7 123622148.99007      -864.207 7        46.648                                                                    23740315.632 7 100453114.69807      -702.286 7        47.870
S36        14.000    38118351.990 7 200313819.37907      -456.931 7        44.160
C13        15.000                                                                                                                                    37754287.788 7 196596544.30807     -1004.070 7        44.346    37754289.191 7 152020952.95107      -776.382 7        44.838    37754287.662 7 159750818.85307      -815.776 7        42.927
G18        16.000    21329550.574 7 112087777.73207     -2498.645 7        47.042                                    21329547.059 6  87341223.10006     -1946.998 6        37.883    21329547.072 7  87341231.10407     -1947.028 7        46.220
R10        17.000    20108097.600 7 107187510.65007      -935.488 7        46.514
E27        18.000    27153269.686 6 142691399.74806      2200.675 6        39.303                                                                    27153270.373 7 106555266.29907      1643.390 7        43.291    27153269.788 7 109334966.58707      1686.184 7        43.738
E02        19.000    24466895.237 7 128574588.70507     -2765.136 7        46.592                                                                    24466894.326 8  96013600.90708     -2064.921 8        49.512    24466893.713 8  98518288.65908     -2118.740 8        49.568
S27        20.000    39104598.452 5 205496051.23805      -428.882 5        35.529
R11        21.000    22416908.094 7 119789176.60207      2860.773 7        45.335                                                                    22416907.171 7  93169361.74007      2224.926 7        42.758
I06        22.000    38600617.675 6 151477335.86106      -296.509 6        41.840
S28        23.000    40819361.171 5 214507193.68505      -450.779 5        34.086
E04        24.000    28167554.001 6 148021481.48606       428.484 6        36.344                                                                    28167553.433 6 110535521.79206       320.114 6        40.319    28167552.769 6 113419053.05906       328.422 6        39.919
S23        25.000    38074599.783 7 200083307.35207      -458.627 7        45.016
S45        26.000    63330948.054 6 332807612.73606      -510.460 6        37.796
R09        27.000    21041977.990 8 112363188.04508     -4102.188 8        49.665                                                                    21041976.427 7  87393701.50507     -3190.662 7        46.826
R18        28.000    23535172.906 6 125632636.24706     -3891.953 6        41.955                                                                    23535174.106 6  97714422.09806     -3027.086 6        40.043
C38        29.000                                                                                                                                    39371619.041 6 205018470.30106     -1542.200 6        41.442                                                                    39371616.392 6 166594345.50806     -1253.157 6        41.571
C44        30.000                                                                                                                                    24867625.954 7 129492468.57007     -3138.751 7        43.003                                                                    24867625.366 7 105223321.13207     -2550.464 7        43.319
C43        31.000                                                                                                                                    22401409.392 8 116650119.76408      1205.301 8        49.023                                                                    22401408.362 8  94787818.92408       979.390 8        48.504
R02        32.000    24327993.823 6 129818833.79706     -3529.385 6        41.983                                                                    24327995.151 6 100970205.50606     -2745.177 6        38.634
I02        33.000    39329113.210 6 154335943.39706      -989.724 6        40.846
R03        34.000    22044979.125 7 118008537.35107      -590.527 7        47.681                                                                    22044977.623 7  91784419.86207      -459.340 7        43.007
E34        35.000    23579126.573 8 123909351.52608       626.682 8        48.960                                                                    23579126.625 8  92529820.94008       467.998 8        51.191    23579126.506 8  94943631.19708       480.179 8        51.682
G29        36.000    24572693.205 6 129130654.79706     -3673.515 6        38.562                                    24572689.876 5 100621395.85805     -2862.477 5        30.800    24572690.652 5 100621405.84505     -2862.420 5        35.029
R21        37.000    24153947.491 7 129252647.16107      2914.996 7        42.868                                                                    24153949.016 5 100529843.70105      2267.288 5        35.881
C22        38.000                                                                                                                                    24690712.957 7 128571048.55207     -1087.773 7        42.993                                                                    24690707.234 7 104474492.41207      -883.898 7        44.832
C12        40.000                                                                                                                                    23206560.378 7 120842854.66707     -2512.703 7        45.744    23206557.201 8  93443457.73408     -1942.976 8        50.054    23206555.857 7  98194791.52007     -2041.879 7        47.824
R04        41.000    22153790.244 7 118632556.09307      2643.691 7        47.120                                                                    22153788.911 7  92269770.43007      2056.295 7        42.870
S44        42.000    40394396.215 6 212274169.53006      -425.614 6        37.705
G08        43.000    23924223.536 6 125722697.59006      2829.349 6        39.679                                    23924224.150 5  97965768.88405      2204.682 5        30.875    23924225.573 5  97965766.90305      2204.602 5        35.900
C05        44.000                                                                                                                                    39193250.286 6 204089571.72806      -386.499 6        38.144    39193245.557 7 157815025.81407      -298.804 7        42.588    39193248.092 6 165839597.09506      -314.150 6        40.896
C11        45.000                                                                                                                                    21554268.025 7 112238879.05407        33.280 7        47.809    21554265.385 8  86790281.57808        25.861 8        52.102    21554264.215 8  91203322.87608        27.098 8        49.570
E09        46.000    28656464.505 5 150590736.57905      1973.858 5        35.957                                                                    28656465.881 6 112454127.10206      1473.773 6        39.333    28656465.374 6 115387710.73706      1512.162 6        39.688
G07        47.000    25256248.998 6 132722499.93806       679.034 6        40.613                                    25256245.108 5 103420116.92705       529.123 5        31.532    25256245.764 5 103420124.93705       529.172 5        35.724
C21        48.000                                                                                                                                    24390571.221 7 127008128.12607      1636.091 7        44.856                                                                    24390566.391 7 103204494.07407      1329.480 7        46.524
E06        49.000    28201802.478 6 148201485.81306      1350.710 6        36.246                                                                    28201803.995 6 110669942.81706      1008.710 6        39.462    28201803.765 6 113556982.36206      1035.000 6        40.040
R19        50.000    20455291.967 6 109422285.34706     -2755.079 6        39.258                                                                    20455291.537 7  85106335.50207     -2142.860 7        43.937
S48        51.000    77084758.264 6 405084158.15306      -496.174 6        37.679
C08        52.000                                                                                                                                    38023437.218 6 197998119.49806     -1277.473 6        41.135    38023430.906 7 153104735.52907      -987.771 7        45.225    38023430.375 7 160889709.09807     -1038.095 7        42.155
C34        53.000                                                                                                                                    21474752.897 8 111824956.69508     -1247.280 8        50.450                                                                    21474752.503 8  90867054.24808     -1013.573 8        49.749
C60        54.000                                                                                                                                    40394397.130 6 210344423.72306      -421.652 6        39.703                                                                    40394381.405 6 170922042.44606      -342.760 6        39.616
C25        55.000                                                                                                                                    24090461.567 7 125445591.67807     -3357.148 7        45.347                                                                    24090459.297 7 101934910.92907     -2727.975 7        45.478
I09        56.000    39191921.997 6 153797537.03106       458.419 6        41.707
C02        57.000                                                                                                                                    40531037.846 5 211055788.72705      -379.577 5        34.810    40531030.604 6 163201715.70506      -293.552 6        38.730    40531034.467 6 171500118.31006      -308.331 6        36.023
I03        58.000    82371509.198 6 247458242.08106      1104.170 6        40.560
E30        59.000    24067064.289 8 126473495.83208        18.312 8        48.088                                                                    24067064.062 8  94444613.60908        13.674 8        50.973    24067063.460 8  96908369.39808        14.058 8        51.281
R20        60.000    20102460.794 6 107497097.29206      1182.607 6        40.296                                                                    20102462.544 7  83608921.85807       919.771 7        46.864
> 2025 01 02 19 00 20.0000000  0 58
G23         1.000    21044647.302 7 110590449.24107       930.641 7        47.338                                    21044643.414 6  86174398.99206       725.173 6        38.580    21044643.659 7  86174396.99907       725.131 7        46.408
E11         2.000    27942149.430 5 146837181.26905     -3223.694 5        32.257                                                                    27942146.510 6 109651265.43106     -2407.173 6        36.764    27942146.062 6 112511719.63706     -2469.978 6        36.450
G16         3.000    20448090.291 8 107455646.98508      -861.789 8        48.935                                    20448085.277 6  83731758.26706      -671.523 6        40.472
S21         5.000    38348768.051 7 201523834.15107      -457.465 7        42.427
G26         6.000    21501743.176 7 112992659.92907     -2966.913 7        47.125                                    21501742.002 7  88046360.48007     -2311.878 7        47.340    21501742.173 7  88046347.48107     -2311.876 7        43.740
G10         7.000    22988313.863 7 120804459.78507      2857.686 7        45.038                                    22988312.493 7  94133358.92907      2226.769 7        42.512    22988312.868 6  94133352.92306      2226.806 6        40.984
E15         8.000    27244331.050 6 143170002.91806      2222.484 6        39.931                                                                    27244333.090 7 106912723.84007      1659.663 7        42.102    27244332.889 7 109701740.30707      1702.913 7        42.957
E36         9.000    24055473.036 7 126412557.35607     -2008.708 7        46.374                                                                    24055473.678 8  94399131.33308     -1500.018 8        50.103    24055473.190 8  96861704.62208     -1539.154 8        50.456
