     3.04           OBSERVATION DATA    M                   RINEX VERSION / TYPE
ssrcrin-15.6.1x                         20250102 001500 UTC PGM / RUN BY / DATE 
(00000000023479385599111004) Septentrio proprietary         COMMENT             
rref                                                        MARKER NAME         
01                                                          MARKER NUMBER       
geodetic                                                    MARKER TYPE         
NFB                 CLIMERS@TUW                             OBSERVER / AGENCY   
3297213             SEPT ASTERX SB3 PROB4.14.4              REC # / TYPE / VERS 
Unknown             Unknown                                 ANT # / TYPE        
  4127831.8455  1207193.1787  4695247.6089                  APPROX POSITION XYZ 
        0.0000        0.0000        0.0000                  ANTENNA: DELTA H/E/N
G   23 X1  C1C L1C D1C S1C C1W S1W C2W L2W D2W S2W C2L L2L  SYS / # / OBS TYPES 
       D2L S2L C5Q L5Q D5Q S5Q C1L L1L D1L S1L              SYS / # / OBS TYPES 
E   21 X1  C1C L1C D1C S1C C6C L6C D6C S6C C5Q L5Q D5Q S5Q  SYS / # / OBS TYPES 
       C7Q L7Q D7Q S7Q C8Q L8Q D8Q S8Q                      SYS / # / OBS TYPES 
S    9 X1  C1C L1C D1C S1C C5I L5I D5I S5I                  SYS / # / OBS TYPES 
R   17 X1  C1C L1C D1C S1C C2P L2P D2P S2P C2C L2C D2C S2C  SYS / # / OBS TYPES 
       C3Q L3Q D3Q S3Q                                      SYS / # / OBS TYPES 
C   25 X1  C1P L1P D1P S1P C5P L5P D5P S5P C2I L2I D2I S2I  SYS / # / OBS TYPES 
       C7I L7I D7I S7I C6I L6I D6I S6I C7D L7D D7D S7D      SYS / # / OBS TYPES 
J   17 X1  C1C L1C D1C S1C C2L L2L D2L S2L C5Q L5Q D5Q S5Q  SYS / # / OBS TYPES 
       C1L L1L D1L S1L                                      SYS / # / OBS TYPES 
I    5 X1  C5A L5A D5A S5A                                  SYS / # / OBS TYPES 
SEPTENTRIO RECEIVERS OUTPUT ALIGNED CARRIER PHASES.         COMMENT             
NO FURTHER PHASE SHIFT APPLIED IN THE RINEX ENCODER.        COMMENT             
G L1C                                                       SYS / PHASE SHIFT   
G L2W                                                       SYS / PHASE SHIFT   
G L2L  0.00000                                              SYS / PHASE SHIFT   
G L5Q  0.00000                                              SYS / PHASE SHIFT   
G L1L  0.00000                                              SYS / PHASE SHIFT   
E L1C  0.00000                                              SYS / PHASE SHIFT   
E L6C  0.00000                                              SYS / PHASE SHIFT   
E L5Q  0.00000                                              SYS / PHASE SHIFT   
E L7Q  0.00000                                              SYS / PHASE SHIFT   
E L8Q  0.00000                                              SYS / PHASE SHIFT   
S L1C                                                       SYS / PHASE SHIFT   
S L5I                                                       SYS / PHASE SHIFT   
R L1C                                                       SYS / PHASE SHIFT   
R L2P  0.00000                                              SYS / PHASE SHIFT   
R L2C                                                       SYS / PHASE SHIFT   
R L3Q  0.00000                                              SYS / PHASE SHIFT   
C L1P  0.00000                                              SYS / PHASE SHIFT   
C L5P  0.00000                                              SYS / PHASE SHIFT   
C L2I                                                       SYS / PHASE SHIFT   
C L7I                                                       SYS / PHASE SHIFT   
C L6I                                                       SYS / PHASE SHIFT   
C L7D                                                       SYS / PHASE SHIFT   
J L1C                                                       SYS / PHASE SHIFT   
J L2L  0.00000                                              SYS / PHASE SHIFT   
J L5Q  0.00000                                              SYS / PHASE SHIFT   
J L1L  0.00000                                              SYS / PHASE SHIFT   
I L5A                                                       SYS / PHASE SHIFT   
  2025     1     2     0    15    0.0000000     GPS         TIME OF FIRST OBS   
 C1C    0.000 C2C    0.000 C2P    0.000                     GLONASS COD/PHS/BIS 
DBHZ                                                        SIGNAL STRENGTH UNIT
    18                                                      LEAP SECONDS        
 24 R01  1 R02 -4 R03  5 R04  6 R05  1 R06 -4 R07  5 R08  6 GLONASS SLOT / FRQ #
    R09 -2 R10 -7 R11  0 R12 -1 R13 -2 R14 -7 R15  0 R16 -1 GLONASS SLOT / FRQ #
    R17  4 R18 -3 R19  3 R20  2 R21  4 R22 -3 R23  3 R24  2 GLONASS SLOT / FRQ #
                                                            END OF HEADER       
> 2025 01 02 00 15  0.0000000  0 57
G10         1.000    25685310.640 5 134977308.44605     -3570.183 5        32.647                                    25685308.547 3 105177183.19003     -2781.915 3        22.933    25685309.022 5 105177160.18405     -2781.968 5        30.196
G14         2.000    25060941.759 5 131696182.89205     -2812.892 5        35.086                                    25060937.454 2 102620403.84002     -2191.848 2        15.000    25060937.065 5 102620399.81105     -2191.865 5        34.371
C33         3.000                                                                                                                                    26641823.522 6 138730986.81406     -3629.651 6        39.694                                                                    26641834.799 6 112730348.68906     -2949.209 6        39.595
E31         4.000    28400981.230 5 149248194.35005     -3112.308 5        35.552                                                                    28400982.062 6 111451582.03906     -2323.811 6        37.520    28400982.148 6 114359011.61106     -2384.557 6        38.438
S21         5.000    38381192.662 7 201694281.09007      -460.383 7        42.353
E10         6.000    28823845.186 5 151470328.74105      2257.935 5        34.300                                                                    28823843.385 6 113110954.26606      1686.249 6        36.159    28823843.949 6 116061674.55306      1730.086 6        37.894
G28         7.000    23692082.447 6 124502744.77906      1448.825 6        40.865                                    23692078.790 4  97015107.50904      1128.934 4        26.515    23692078.509 6  97015115.50306      1128.980 6        40.782
G03         8.000    20584948.964 8 108174735.65508      1277.037 8        48.392                                    20584946.867 8  84292043.60908       995.094 8        49.775    20584947.392 7  84292041.61107       995.121 7        44.427
G02         9.000    20629869.091 8 108410749.09908      -710.131 8        50.342                                    20629862.059 7  84475904.01807      -553.348 7        43.623
G31        10.000    24213305.165 6 127241776.82606      2634.524 6        40.796                                    24213300.638 5  99149418.13405      2052.874 5        33.754    24213300.901 6  99149423.14006      2053.144 6        37.089
C30        11.000                                                                                                                                    21907219.228 8 114076655.90908        18.199 8        51.427                                                                    21907218.983 8  92696630.96408        14.914 8        48.691
S27        12.000    39032720.621 5 205118336.00705      -438.756 5        35.619
R20        13.000    21618981.501 6 115606450.30106     -4043.421 6        36.491                                                                    21618982.853 7  89916193.76707     -3145.045 7        44.215
S36        14.000    38148852.408 7 200474106.51107      -459.799 7        44.075
G19        16.000    24549090.503 6 129006349.65906      2999.392 6        39.000                                    24549084.679 3 100524409.45703      2337.188 3        23.543
S45        17.000    63349739.454 6 332905727.44606      -501.786 6        37.924
E08        18.000    28912741.671 3                     -3412.749 3        22.400                                                                    28912741.781 4 113459832.21204     -2548.786 4        29.659    28912741.026 5 116419649.94205     -2614.980 5        30.883
E12        19.000    26762973.231 6 140640379.06406      2039.255 6        37.871                                                                    26762969.711 6 105023647.54906      1522.948 6        41.697    26762969.312 6 107763394.42406      1562.669 6        41.695
G17        20.000    22726788.058 7 119430103.90007      1351.388 7        45.154                                    22726783.336 6  93062409.13406      1053.029 6        41.476    22726783.580 6  93062408.14006      1053.010 6        40.782
E26        21.000    24658181.331 7 129579965.97207     -2289.106 7        45.952                                                                    24658179.049 8  96764457.43608     -1709.351 8        48.666    24658178.565 8  99288723.17708     -1753.932 8        49.302
I06        22.000    38202437.280 7 149914806.59507      -239.079 7        43.418
S28        23.000    40825147.482 5 214537614.80705      -452.912 5        34.314
G08        24.000    24302047.392 6 127708128.49706     -4160.193 6        39.045                                    24302046.435 5  99512825.70405     -3241.711 5        32.605    24302047.210 6  99512826.72206     -3241.845 6        37.289
S23        25.000    38100208.685 7 200217907.45607      -457.125 7        45.056
C13        26.000                                                                                                                                    40964134.209 6 213311183.33606     -1158.203 6        36.083    40964136.580 6 164945845.44506      -895.560 6        38.486    40964135.001 6 173332893.74106      -941.193 6        36.639
E24        27.000    28088440.621 6 147605791.19306     -1798.368 6        37.164                                                                    28088438.575 6 110225117.90406     -1342.882 6        39.504    28088438.509 6 113100552.13106     -1377.976 6        40.899
R21        29.000    19090558.846 8 102157444.67408      -635.826 8        51.607                                                                    19090557.065 7  79455794.18607      -494.493 7        45.591
E19        30.000    26294102.889 5 138176463.58705      2667.882 5        35.538                                                                    26294100.701 6 103183721.96706      1992.265 6        38.778    26294100.459 6 105875468.37306      2044.255 6        39.676
R05        31.000    21291793.043 7 113816877.13107     -3979.920 7        47.910                                                                    21291792.376 7  88524247.74007     -3095.534 7        44.927
R13        32.000    24159211.465 6 129008854.92406     -2372.305 6        38.198
E29        33.000    23966423.978 7 125944490.34607      1149.986 7        47.918                                                                    23966421.830 8  94049471.85408       858.789 8        49.787    23966421.869 8  96502930.85408       881.161 8        50.628
C16        35.000                                                                                                                                    39208328.271 7 204168081.74007       559.586 7        42.226    39208327.522 7 157875723.58207       432.732 7        42.271    39208325.093 6 165903290.39006       454.838 6        38.375
C32        36.000                                                                                                                                    22191144.341 8 115555170.04308       963.836 8        51.057                                                                    22191143.906 8  93898062.73408       783.294 8        49.556
G32        37.000    23161692.393 7 121715556.79407     -3135.626 7        44.933                                    23161690.145 6  94843293.38806     -2443.344 6        41.395    23161690.765 6  94843302.38706     -2443.361 6        40.243
E07        38.000    24786601.786 7 130254489.15307     -1839.683 7        44.623                                                                    24786601.361 8  97268001.06008     -1373.801 8        48.441    24786601.012 8  99805419.50408     -1409.659 8        48.827
C41        39.000                                                                                                                                    22639175.439 8 117888159.16408     -2227.402 8        50.097                                                                    22639180.425 8  95793815.39508     -1809.842 8        50.263
C39        40.000                                                                                                                                    39000827.003 7 203087568.67107       139.962 7        44.169                                                                    39000822.728 7 165025280.67707       113.821 7        43.064
E33        41.000    23219957.386 8 122021789.00008        49.868 8        48.019                                                                    23219955.091 8  91120200.60608        37.209 8        50.686    23219954.976 8  93497245.18108        38.232 8        51.473
S44        42.000    40500316.961 6 212830787.35206      -525.037 6        36.185
R06        43.000    19237294.310 6 102653953.52506       502.744 6        41.595
C05        44.000                                                                                                                                    39064554.534 6 203419424.90006      -445.153 6        38.700    39064548.477 7 157296828.49907      -344.223 7        43.592    39064550.659 6 165295050.02206      -361.690 6        40.241
C29        45.000                                                                                                                                    25229414.610 7 131376198.73607      2546.054 7        42.478                                                                    25229412.723 7 106753919.49107      2069.094 7        42.114
G04        46.000    23799128.536 6 125065287.18106      3294.300 6        39.838                                    23799125.203 4  97453453.76504      2567.009 4        24.120    23799125.746 6  97453455.75806      2566.805 6        38.426
E25        47.000    28543049.415 5 149994757.16005       332.948 5        34.933                                                                    28543050.152 6 112009076.01306       248.517 6        39.438    28543049.822 6 114931049.19606       254.959 6        40.758
R22        48.000    21435459.794 8 114423969.44008      3049.729 8        48.408                                                                    21435458.359 7  88996417.93807      2371.967 7        44.861
C20        49.000                                                                                                                                    26328484.055 6 137099337.04706      2736.735 6        41.883                                                                    26328479.978 6 111404421.86306      2223.854 6        40.269
C06        50.000                                                                                                                                    38876589.339 6 202440633.16706       680.420 6        39.868    38876583.992 7 156539921.62907       526.109 7        43.972    38876583.912 6 164499577.24706       553.218 6        40.291
S48        51.000    77137054.426 6 405358143.19806      -467.264 6        38.060
G21        52.000    21257383.896 7 111708380.12607     -2105.656 7        45.287                                    21257378.418 6  87045513.22206     -1640.770 6        37.036
C09        53.000                                                                                                                                    39767144.173 6 207077970.67306      1034.078 6        39.586    39767141.317 7 160125811.28207       799.653 7        43.856    39767139.615 6 168267791.75106       840.445 6        40.062
C60        54.000                                                                                                                                    40500314.876 6 210895981.55506      -520.300 6        39.261                                                                    40500298.596 6 171370232.01006      -422.789 6        39.595
C27        55.000                                                                                                                                    22595279.714 8 117659567.06508     -2858.355 8        50.132                                                                    22595277.893 7  95608039.76807     -2322.549 7        47.706
R14        56.000    23938422.899 7 127605274.23207       898.215 7        43.340                                                                    23938424.153 6  99248564.26806       698.782 6        39.240
C02        57.000                                                                                                                                    40481843.077 5 210799646.13905      -489.162 5        33.916    40481837.029 6 163003654.92506      -378.236 6        40.830    40481840.328 5 171291985.47005      -397.156 5        35.795
I03        58.000   104886977.013 6 335813800.39106       954.994 6        40.970
R07        59.000    21980273.497 7 117662182.90607      3290.272 7        47.527                                                                    21980272.163 6  91515082.93906      2559.123 6        41.423
C28        60.000                                                                                                                                    26134265.907 5 136088288.54605     -3896.367 5        30.558
> 2025 01 02 00 15  5.0000000  0 57
G10         1.000    25688707.002 5 134995158.65105     -3569.916 5        32.120                                    25688705.218 3 105191092.44203     -2781.720 3        21.976    25688704.890 5 105191069.33205     -2781.603 5        33.605
G14         2.000    25063618.736 5 131710249.68805     -2813.806 5        35.652                                    25063614.360 2 102631364.97402     -2192.584 2        15.667    25063613.630 5 102631360.98005     -2192.850 5        34.400
C33         3.000                                                                                                                                    26645308.691 6 138749134.04906     -3629.360 6        39.468                                                                    26645319.491 6 112745094.77806     -2949.111 6        39.369
E31         4.000    28403941.518 5 149263754.40105     -3111.807 5        35.762                                                                    28403942.859 6 111463201.55506     -2323.885 6        37.391    28403942.841 6 114370934.25006     -2384.595 6        38.595
S21         5.000    38381625.578 6 201696582.43306      -460.131 6        41.971
E10         6.000    28821696.230 5 151459036.91305      2258.645 5        34.638                                                                    28821694.814 6 113102522.06606      1686.623 6        36.480    28821695.019 6 116053022.36806      1730.666 6        37.905
G28         7.000    23690704.807 6 124495505.18606      1446.876 6        40.694                                    23690701.230 4  97009466.27004      1127.441 4        26.419    23690700.437 6  97009474.25906      1127.604 6        40.756
G03         8.000    20583734.749 8 108168354.35208      1275.450 8        48.335                                    20583732.535 8  84287071.16108       993.856 8        49.817    20583732.883 7  84287069.16407       993.789 7        44.819
G02         9.000    20630545.713 8 108414304.39908      -712.003 8        50.102                                    20630538.597 7  84478674.38707      -554.806 7        43.661
G31        10.000    24210798.456 6 127228605.64506      2633.920 6        40.358                                    24210794.285 5  99139154.88705      2052.406 5        33.641    24210794.204 6  99139159.89806      2052.336 6        37.675
C30        11.000                                                                                                                                    21907202.660 8 114076570.20308        15.993 8        51.565                                                                    21907202.488 8  92696561.30408        13.002 8        48.795
S27        12.000    39033135.391 5 205120529.10205      -438.471 5        35.914
R20        13.000    21622762.874 5 115626672.19505     -4045.285 5        35.638                                                                    21622763.911 7  89931921.91407     -3146.333 7        44.292
S36        14.000    38149292.201 7 200476405.18707      -459.437 7        43.691
G19        16.000    24546236.544 6 128991354.48706      2998.642 6        38.060                                    24546230.988 3 100512724.91403      2336.600 3        23.543
S45        17.000    63350173.009 6 332908235.41206      -501.502 6        37.841
E08        18.000    28915989.362 3                     -3413.662 3        20.214                                                                    28915989.291 4 113472574.61804     -2548.885 4        27.545    28915988.787 4 116432724.75904     -2615.006 4        28.701
E12        19.000    26761032.613 6 140630181.83006      2039.523 6        37.989                                                                    26761029.210 6 105016032.74106      1523.002 6        41.530    26761028.863 6 107755580.96806      1562.719 6        41.585
G17        20.000    22725503.644 7 119423352.44107      1349.231 7        44.736                                    22725498.572 6  93057148.25806      1051.344 6        41.573    22725498.784 6  93057147.26306      1051.276 6        40.706
E26        21.000    24660359.676 7 129591413.18207     -2289.917 7        45.893                                                                    24660357.362 8  96773005.67608     -1710.006 8        48.615    24660356.959 8  99297494.41408     -1754.579 8        49.340
I06        22.000    38202741.692 7 149916001.49907      -238.841 7        43.255
S28        23.000    40825574.889 5 214539878.72505      -452.720 5        34.429
G08        24.000    24306005.723 6 127728929.16706     -4159.988 6        39.276                                    24306004.626 5  99529034.01105     -3241.550 5        32.707    24306005.318 6  99529035.01906     -3241.568 6        37.879
S23        25.000    38100643.130 7 200220192.15107      -456.786 7        45.174
C13        26.000                                                                                                                                    40965245.401 5 213316973.70505     -1157.951 5        35.962    40965248.324 6 164950322.90206      -895.371 6        38.261    40965246.940 6 173337598.84406      -940.945 6        36.790
E24        27.000    28090152.298 6 147614786.87606     -1799.970 6        37.406                                                                    28090150.305 6 110231835.47106     -1344.320 6        39.601    28090150.229 6 113107444.92506     -1379.209 6        40.882
R21        29.000    19091154.518 8 102160632.48508      -639.332 8        51.585                                                                    19091152.817 7  79458273.60107      -497.293 7        45.719
E19        30.000    26291564.736 5 138163124.58805      2667.637 5        35.381                                                                    26291562.485 6 103173761.03606      1992.056 6        38.658    26291562.191 6 105865247.59306      2043.858 6        40.055
R05        31.000    21295516.513 7 113836779.89307     -3981.263 7        47.913                                                                    21295515.232 7  88539727.66607     -3096.539 7        44.625
R13        32.000    24161432.426 6 129020723.88606     -2375.413 6        38.363
E29        33.000    23965330.608 8 125938744.41808      1148.329 8        48.198                                                                    23965328.425 8  94045181.07708       857.522 8        49.775    23965328.445 8  96498528.13508       879.890 8        50.625
C16        35.000                                                                                                                                    39207790.984 7 204165285.24707       559.031 7        42.123    39207790.502 7 157873561.16707       432.211 7        42.157    39207787.796 6 165901017.99506       454.146 6        38.492
C32        36.000                                                                                                                                    22190219.746 8 115550354.95908       962.127 8        51.129                                                                    22190219.245 8  93894150.06408       781.808 8        49.655
G32        37.000    23164676.998 7 121731238.74407     -3137.151 7        44.686                                    23164674.274 6  94855513.08606     -2444.532 6        41.411    23164674.897 6  94855522.08506     -2444.495 6        40.815
E07        38.000    24788352.785 7 130263691.38807     -1841.356 7        44.862                                                                    24788352.522 8  97274872.85508     -1374.990 8        48.424    24788352.028 8  99812470.55908     -1410.857 8        48.848
C41        39.000                                                                                                                                    22641314.913 8 117899299.25608     -2228.684 8        50.169                                                                    22641319.761 8  95802867.60908     -1810.975 8        50.442
C39        40.000                                                                                                                                    39000692.670 7 203086870.31107       139.305 7        44.244                                                                    39000688.596 7 165024713.18607       113.131 7        43.355
E33        41.000    23219910.392 8 122021542.02508        48.841 8        48.137                                                                    23219908.062 8  91120016.17608        36.449 8        50.673    23219907.963 8  93497055.94208        37.461 8        51.552
S44        42.000    40500816.177 6 212833411.88306      -524.777 6        36.684
R06        43.000    19236824.912 6 102651448.45006       499.383 6        41.733
C05        44.000                                                                                                                                    39064981.735 6 203421649.84006      -444.834 6        38.547    39064975.700 7 157298548.94807      -343.970 7        43.628    39064977.994 6 165296857.94306      -361.568 6        40.417
C29        45.000                                                                                                                                    25226970.028 7 131363469.67107      2545.570 7        42.622                                                                    25226968.262 7 106743576.07307      2068.445 7        42.190
G04        46.000    23795994.615 6 125048817.34706      3293.703 6        40.112                                    23795990.971 4  97440620.13904      2566.521 4        24.120    23795991.291 6  97440622.11506      2566.649 6        38.820
E25        47.000    28542733.417 5 149993097.31705       330.969 5        35.281                                                                    28542734.483 6 112007836.52306       247.081 6        39.646    28542733.892 6 114929777.37106       253.560 6        40.799
R22        48.000    21432604.006 8 114408723.75308      3048.513 8        48.278                                                                    21432602.428 7  88984560.16507      2371.090 7        44.790
C20        49.000                                                                                                                                    26325855.738 6 137085654.10906      2736.418 6        41.080                                                                    26325852.139 6 111393303.32606      2223.635 6        40.543
C06        50.000                                                                                                                                    38875936.871 6 202437231.92606       679.925 6        39.946    38875930.725 7 156537291.57707       525.773 7        43.979    38875930.752 6 164496813.45206       552.532 6        40.613
S48        51.000    77137490.633 6 405360478.08306      -466.937 6        38.390
G21        52.000    21259387.903 7 111718911.78507     -2107.065 7        45.649                                    21259382.505 6  87053719.70906     -1641.869 6        37.077
C09        53.000                                                                                                                                    39766151.164 6 207072800.60406      1033.788 6        39.688    39766148.415 7 160121813.47107       799.437 7        43.772    39766146.696 6 168263590.62906       839.978 6        40.255
C60        54.000                                                                                                                                    40500813.806 6 210898582.22706      -519.912 6        39.444                                                                    40500798.099 6 171372345.23806      -422.465 6        39.961
C27        55.000                                                                                                                                    22598025.097 8 117673862.63208     -2859.895 8        49.892                                                                    22598023.258 7  95619656.06707     -2323.918 7        47.950
R14        56.000    23937582.121 7 127600791.03407       895.020 7        42.868                                                                    23937582.960 6  99245077.33206       695.992 6        38.459
C02        57.000                                                                                                                                    40482313.420 5 210802090.86105      -488.837 5        34.105    40482306.723 6 163005545.33406      -377.868 6        40.706    40482309.750 6 171293971.99706      -397.170 6        36.038
I03        58.000   104885760.271 6 335809025.15406       955.205 6        40.849
R07        59.000    21977200.958 8 117645734.87308      3288.860 8        48.311                                                                    21977199.576 7  91502290.02607      2558.032 7        42.066
C28        60.000                                                                                                                                    26138006.484 5 136107768.46905     -3895.498 5        30.000
> 2025 01 02 00 15 10.0000000  0 56
G14         2.000    25066296.831 5 131724322.66205     -2814.966 5        35.605                                    25066292.424 2 102642330.92602     -2193.493 2        15.095    25066292.651 5 102642326.90905     -2193.586 5        33.892
C33         3.000                                                                                                                                    26648793.651 6 138767281.36406     -3629.309 6        39.408                                                                    26648804.588 6 112759840.95306     -2949.001 6        39.348
E31         4.000    28406903.504 5 149279315.91305     -3112.490 5        35.548                                                                    28406904.376 6 111474822.13206     -2324.128 6        37.365    28406903.822 6 114382857.96406     -2384.659 6        38.583
S21         5.000    38382063.158 6 201698883.75406      -459.949 6        41.821
E10         6.000    28819546.886 5 151447743.92705      2258.911 5        34.038                                                                    28819546.018 6 113094088.99406      1686.878 6        36.597    28819545.803 6 116044369.29706      1730.928 6        38.225
G28         7.000    23689329.470 6 124488277.41106      1444.479 6        40.153                                    23689325.826 4  97003834.23404      1125.572 4        26.240    23689325.243 6  97003842.22006      1125.650 6        40.796
G03         8.000    20582522.103 8 108161982.65208      1273.483 8        48.404                                    20582520.037 8  84282106.20308       992.327 8        49.806    20582520.688 7  84282104.20107       992.348 7        45.130
G02         9.000    20631224.326 8 108417870.76308      -714.179 8        50.271                                    20631217.229 7  84481453.37107      -556.503 7        43.591
G31        10.000    24208292.992 6 127215439.43706      2632.873 6        40.760                                    24208288.821 5  99128895.50605      2051.589 5        33.455    24208288.883 6  99128900.48906      2051.692 6        37.070
C30        11.000                                                                                                                                    21907188.732 8 114076497.56008        13.309 8        51.536                                                                    21907188.537 8  92696502.27308        10.876 8        48.896
S27        12.000    39033560.217 5 205122722.53305      -438.665 5        35.643
R20        13.000    21626546.637 6 115646904.33606     -4047.344 6        36.147                                                                    21626547.470 7  89947658.01007     -3147.898 7        44.441
S36        14.000    38149729.240 7 200478703.39707      -459.510 7        43.780
G19        16.000    24543384.497 6 128976366.29306      2997.166 6        38.141                                    24543378.687 3 100501045.80703      2335.451 3        23.276
S45        17.000    63350606.224 6 332910743.34406      -501.516 6        37.902
E08        18.000    28919236.506 3                     -3413.452 3        20.357                                                                    28919236.377 4 113485318.54804     -2549.055 4        28.000    28919236.318 4 116445801.22504     -2615.285 4        28.711
E12        19.000    26759092.213 6 140619985.99606      2039.237 6        37.527                                                                    26759088.910 6 105008418.97206      1522.731 6        41.518    26759088.532 6 107747768.58206      1562.414 6        41.762
G17        20.000    22724220.879 7 119416613.57107      1346.641 7        44.406                                    22724216.209 6  93051897.18706      1049.333 6        41.542    22724216.459 6  93051896.18706      1049.410 6        40.892
E26        21.000    24662539.069 7 129602866.39307     -2291.098 7        45.568                                                                    24662536.784 8  96781558.38908     -1710.829 8        48.629    24662536.673 8  99306270.24108     -1755.482 8        49.372
I06        22.000    38203045.887 7 149917196.43807      -238.852 7        43.225
S28        23.000    40826009.777 5 214542142.60805      -452.749 5        34.519
G08        24.000    24309963.960 6 127749730.43606     -4160.206 6        39.718                                    24309963.022 5  99545242.78405     -3241.719 5        33.030    24309963.763 6  99545243.78106     -3241.654 6        37.743
S23        25.000    38101075.187 7 200222476.93007      -456.853 7        45.034
C13        26.000                                                                                                                                    40966358.461 6 213322763.50606     -1157.664 6        36.246    40966360.565 6 164954799.94906      -895.319 6        38.150    40966358.911 6 173342303.52106      -940.765 6        37.104
E24        27.000    28091866.580 6 147623792.39106     -1801.829 6        37.096                                                                    28091864.031 6 110238560.35806     -1345.529 6        39.616    28091863.871 6 113114345.25806     -1380.703 6        40.927
R21        29.000    19091754.005 8 102163839.64508      -643.203 8        51.808                                                                    19091752.038 7  79460768.04307      -500.204 7        45.600
E19        30.000    26289026.876 6 138149788.61406      2667.156 6        36.318                                                                    26289025.029 6 103163802.35806      1991.738 6        38.766    26289024.509 6 105855029.12206      2043.628 6        40.389
R05        31.000    21299240.989 7 113856690.83307     -3982.787 7        47.805                                                                    21299239.964 7  88555213.95407     -3097.760 7        44.900
R13        32.000    24163659.037 6 129032609.71206     -2378.708 6        38.655
E29        33.000    23964239.202 8 125933008.56108      1146.341 8        48.035                                                                    23964236.932 8  94040897.80908       856.020 8        49.835    23964236.930 8  96494133.13108       878.323 8        50.785
C16        35.000                                                                                                                                    39207253.958 6 204162493.20706       557.995 6        41.712    39207254.042 6 157871402.17306       431.541 6        41.871    39207251.768 6 165898749.22406       453.584 6        38.562
C32        36.000                                                                                                                                    22189296.919 8 115545550.13708       960.097 8        51.306                                                                    22189296.545 8  93890245.74908       780.167 8        49.771
G32        37.000    23167662.813 7 121746929.67807     -3138.891 7        44.466                                    23167660.088 6  94867739.79106     -2445.887 6        41.392    23167660.925 6  94867748.78806     -2445.938 6        40.775
E07        38.000    24790105.532 7 130272903.53607     -1843.237 7        44.847                                                                    24790105.575 8  97281752.05608     -1376.478 8        48.484    24790105.118 8  99819529.22108     -1412.381 8        49.048
C41        39.000                                                                                                                                    22643455.794 8 117910447.39508     -2230.277 8        50.097                                                                    22643460.636 8  95811926.38408     -1812.258 8        50.498
C39        40.000                                                                                                                                    39000559.310 7 203086176.91007       138.345 7        44.438                                                                    39000555.371 7 165024149.73907       112.414 7        43.209
E33        41.000    23219864.722 8 122021302.10308        47.427 8        48.009                                                                    23219862.409 8  91119837.01608        35.413 8        50.684    23219862.341 8  93496872.10808        36.327 8        51.611
S44        42.000    40501312.456 6 212836036.50706      -524.903 6        36.767
R06        43.000    19236359.361 6 102648961.80306       495.652 6        41.847
C05        44.000                                                                                                                                    39065408.328 6 203423874.87206      -444.838 6        38.742    39065402.982 7 157300269.48907      -344.063 7        43.547    39065405.217 6 165298665.95506      -361.476 6        40.436
C29        45.000                                                                                                                                    25224526.864 7 131350745.28407      2544.485 7        42.552                                                                    25224524.672 7 106733236.45607      2067.650 7        42.155
G04        46.000    23792861.238 6 125032350.69106      3293.161 6        40.248                                    23792857.464 4  97427788.97504      2566.094 4        24.271    23792858.480 6  97427790.95306      2566.159 6        39.108
E25        47.000    28542419.932 5 149991448.74705       328.738 5        34.981                                                                    28542420.854 6 112006605.46006       245.417 6        39.703    28542420.199 6 114928514.19406       251.866 6        40.863
R22        48.000    21429749.171 8 114393485.70008      3047.021 8        48.236                                                                    21429748.127 7  88972708.37107      2369.816 7        45.356
C20        49.000                                                                                                                                    26323229.493 6 137071973.87206      2735.978 6        41.397                                                                    26323225.009 6 111382187.02406      2223.156 6        40.846
C06        50.000                                                                                                                                    38875284.777 6 202433835.04506       679.164 6        40.210    38875278.146 7 156534664.89407       525.120 7        43.809    38875278.422 6 164494053.22206       551.807 6        40.574
S48        51.000    77137927.935 6 405362812.79406      -466.928 6        37.955
G21        52.000    21261394.019 7 111729452.15107     -2108.824 7        45.887                                    21261388.278 6  87061932.98006     -1643.240 6        37.066
C09        53.000                                                                                                                                    39765159.162 6 207067633.80406      1033.119 6        39.844    39765156.237 7 160117818.18407       798.964 7        43.591    39765154.308 6 168259392.18706       839.522 6        40.305
C60        54.000                                                                                                                                    40501313.648 6 210901182.96406      -519.931 6        39.390                                                                    40501297.606 6 171374458.56206      -422.554 6        40.029
C27        55.000                                                                                                                                    22600772.189 8 117688167.66608     -2861.753 8        50.116                                                                    22600770.363 8  95631280.07508     -2325.473 8        48.002
R14        56.000    23936743.717 7 127596326.45507       891.270 7        42.262                                                                    23936744.766 6  99241604.90906       693.290 6        38.775
C02        57.000                                                                                                                                    40482782.319 5 210804535.67605      -488.723 5        33.994    40482776.373 6 163007435.82006      -377.943 6        40.641    40482779.311 5 171295958.60805      -397.131 5        35.762
I03        58.000   104884543.793 6 335804250.12006       955.080 6        40.717
R07        59.000    21974131.218 8 117629295.78308      3287.127 8        48.175                                                                    21974129.213 7  91489504.07607      2556.625 7        42.700
C28        60.000                                                                                                                                    26141747.779 5 136127249.86205     -3896.108 5        31.132
> 2025 01 02 00 15 15.0000000  0 56
G14         2.000    25068975.964 5 131738401.71005     -2816.391 5        35.595                                    25068971.569 2 102653301.56502     -2194.576 2        14.952    25068971.856 5 102653297.56905     -2194.725 5        33.575
C33         3.000                                                                                                                                    26652278.460 6 138785428.58906     -3629.362 6        39.309                                                                    26652289.567 6 112774587.08006     -2949.252 6        39.742
E31         4.000    28409864.879 5 149294878.59105     -3112.716 5        35.124                                                                    28409866.015 6 111486443.61306     -2324.304 6        37.282    28409864.900 6 114394782.60406     -2384.934 6        38.432
S21         5.000    38382500.599 6 201701184.90906      -460.325 6        41.743
E10         6.000    28817397.266 5 151436449.61405      2258.823 5        34.290                                                                    28817396.846 6 113085654.90906      1686.818 6        37.380    28817396.565 6 116035715.21006      1730.807 6        38.387
G28         7.000    23687956.424 6 124481061.24306      1442.000 6        40.696                                    23687952.658 4  96998211.25004      1123.627 4        26.120    23687952.494 6  96998219.25606      1123.692 6        41.273
G03         8.000    20581311.593 8 108155620.36808      1271.423 8        48.602                                    20581309.336 8  84277148.58008       990.719 8        49.783    20581310.207 7  84277146.57807       990.724 7        45.034
G02         9.000    20631905.183 8 108421447.99908      -716.594 8        50.130                                    20631897.953 7  84484240.82607      -558.384 7        43.589
G31        10.000    24205788.918 6 127202278.02506      2631.730 6        40.539                                    24205784.136 5  99118639.85805      2050.693 5        33.066    24205784.553 6  99118644.86106      2050.598 6        37.055
C30        11.000                                                                                                                                    21907177.096 8 114076437.79008        10.657 8        51.688                                                                    21907177.067 8  92696453.71708         8.713 8        48.980
S27        12.000    39033976.664 5 205124915.94305      -438.608 5        35.457
R20        13.000    21630331.502 6 115667146.59106     -4049.541 6        36.034                                                                    21630332.772 7  89963401.99707     -3149.608 7        44.033
S36        14.000    38150165.514 7 200481001.72207      -459.822 7        43.799
G19        16.000    24540533.784 6 128961384.87906      2995.512 6        38.294                                    24540527.715 3 100489371.97403      2334.160 3        23.048
S45        17.000    63351039.283 6 332913251.10006      -501.595 6        37.868
E08        18.000    28922482.873 3                     -3413.928 3        21.143                                                                    28922484.674 4 113498063.94904     -2549.150 4        28.047    28922484.018 4 116458879.14904     -2615.938 4        28.976
E12        19.000    26757152.740 6 140609791.34706      2038.701 6        37.841                                                                    26757149.076 6 105000806.08106      1522.446 6        41.573    26757148.620 7 107739957.10407      1562.107 7        42.083
G17        20.000    22722940.854 7 119409887.14807      1344.017 7        44.620                                    22722936.221 6  93046655.82206      1047.286 6        41.468    22722936.634 6  93046654.82706      1047.287 6        40.689
E26        21.000    24664719.838 7 129614325.39507     -2292.481 7        45.821                                                                    24664717.390 8  96790115.44108     -1711.936 8        48.581    24664717.334 8  99315050.51808     -1756.593 8        49.666
I06        22.000    38203350.476 7 149918391.27007      -239.064 7        43.249
S28        23.000    40826441.382 5 214544406.57105      -452.735 5        34.119
G08        24.000    24313922.883 6 127770532.10806     -4160.487 6        39.949                                    24313921.464 5  99561451.87305     -3241.938 5        33.473    24313922.088 6  99561452.87406     -3241.791 6        38.171
S23        25.000    38101509.404 7 200224761.43407      -456.923 7        44.897
C13        26.000                                                                                                                                    40967470.240 6 213328552.55906     -1157.808 6        36.692    40967472.214 6 164959276.39206      -895.441 6        37.992    40967470.651 6 173347007.60206      -940.798 6        36.941
E24        27.000    28093582.068 6 147632807.51806     -1804.034 6        37.788                                                                    28093579.574 6 110245292.43906     -1347.094 6        39.706    28093579.431 6 113121252.96606     -1382.438 6        41.356
R21        29.000    19092357.025 8 102167066.09908      -647.259 8        51.547                                                                    19092355.094 7  79463277.51907      -503.415 7        46.047
E19        30.000    26286489.769 6 138136455.42806      2666.300 6        36.760                                                                    26286487.877 6 103153845.76006      1990.944 6        38.976    26286487.424 6 105844812.79706      2042.978 6        40.620
R05        31.000    21302966.966 8 113876609.57608     -3984.616 8        48.107                                                                    21302966.286 7  88570706.30507     -3099.112 7        44.913
R13        32.000    24165887.871 6 129044512.42106     -2382.357 6        37.788
E29        33.000    23963149.182 7 125927282.58907      1144.215 7        47.741                                                                    23963147.377 8  94036621.92808       854.334 8        49.768    23963147.309 8  96489745.70508       876.646 8        50.995
C16        35.000                                                                                                                                    39206718.526 6 204159705.40606       557.114 6        41.943    39206718.482 6 157869246.47706       430.779 6        41.919    39206716.473 6 165896483.90906       452.654 6        38.730
C32        36.000                                                                                                                                    22188376.239 8 115540755.40508       957.869 8        51.391                                                                    22188375.730 8  93886349.64908       778.342 8        49.834
G32        37.000    23170649.840 7 121762629.44107     -3140.898 7        44.324                                    23170647.601 6  94879973.36706     -2447.451 6        41.235    23170648.374 6  94879982.37106     -2447.514 6        40.543
E07        38.000    24791860.493 7 130282125.41007     -1845.347 7        44.704                                                                    24791860.433 8  97288638.52508     -1378.067 8        48.392    24791859.979 8  99826595.33408     -1414.028 8        49.204
C41        39.000                                                                                                                                    22645598.124 8 117921603.38908     -2232.111 8        50.175                                                                    22645603.008 8  95820991.54508     -1813.680 8        50.569
C39        40.000                                                                                                                                    39000426.788 7 203085488.30207       137.114 7        44.351                                                                    39000423.204 7 165023590.18807       111.499 7        43.278
E33        41.000    23219820.418 8 122021069.02608        45.919 8        48.236                                                                    23219818.080 8  91119662.96408        34.262 8        50.634    23219817.975 8  93496693.51908        35.108 8        51.912
S44        42.000    40501813.327 6 212838660.97606      -524.967 6        36.552
R06        43.000    19235895.846 6 102646493.37106       491.864 6        41.907
C05        44.000                                                                                                                                    39065835.815 6 203426099.79206      -444.901 6        38.703    39065830.254 7 157301989.94807      -344.173 7        43.553    39065832.543 6 165300473.90006      -361.592 6        40.770
C29        45.000                                                                                                                                    25222083.761 7 131338025.39107      2543.375 7        42.080                                                                    25222081.851 7 106722900.50107      2066.792 7        42.315
G04        46.000    23789728.075 6 125015887.05206      3292.350 6        40.369                                    23789724.431 4  97414960.17004      2565.458 4        24.556    23789725.181 6  97414962.16306      2565.586 6        39.766
E25        47.000    28542108.512 5 149989811.26605       326.135 5        35.381                                                                    28542109.292 6 112005382.67206       243.661 6        39.913    28542108.437 6 114927259.50606       249.946 6        40.949
R22        48.000    21426896.251 8 114378255.10008      3045.284 8        48.706                                                                    21426894.309 7  88960862.32807      2368.645 7        44.939
C20        49.000                                                                                                                                    26320603.551 6 137058296.22206      2735.165 6        41.976                                                                    26320598.678 6 111371072.82706      2222.485 6        41.094
C06        50.000                                                                                                                                    38874632.984 6 202430442.35206       678.120 6        40.334    38874626.899 7 156532041.45407       524.279 7        44.017    38874627.022 6 164491296.38106       550.955 6        40.861
S48        51.000    77138362.546 6 405365147.26406      -466.781 6        38.105
G21        52.000    21263400.989 7 111740000.97407     -2110.671 7        45.806                                    21263395.670 6  87070152.84106     -1644.679 6        37.013
C09        53.000                                                                                                                                    39764168.208 6 207062470.12506      1032.279 6        40.012    39764164.550 7 160113825.29707       798.356 7        43.926    39764162.523 6 168255196.28506       838.895 6        40.451
C60        54.000                                                                                                                                    40501812.856 6 210903783.60406      -520.164 6        39.135                                                                    40501797.010 6 171376571.77506      -422.619 6        40.093
C27        55.000                                                                                                                                    22603521.246 8 117702481.97308     -2863.893 8        50.384                                                                    22603519.343 8  95642911.62308     -2327.123 8        48.054
R14        56.000    23935909.865 7 127591880.04007       887.305 7        42.758                                                                    23935911.551 6  99238146.58106       690.122 6        39.360
C02        57.000                                                                                                                                    40483251.557 5 210806980.43905      -489.402 5        33.467    40483245.827 6 163009326.26606      -378.108 6        40.663    40483248.867 6 171297945.16806      -397.278 6        36.045
I03        58.000   104883326.746 6 335799475.16006       954.876 6        40.851
R07        59.000    21971060.886 8 117612865.20008      3285.240 8        48.283                                                                    21971059.486 7  91476724.75007      2555.201 7        42.870
C28        60.000                                                                                                                                    26145489.119 5 136146732.40905     -3896.281 5        30.106
> 2025 01 02 00 15 20.0000000  0 56
G14         2.000    25071655.030 5 131752487.10705     -2817.813 5        35.690                                    25071651.999 2 102664277.19202     -2195.658 2        14.048    25071652.922 5 102664273.20205     -2195.986 5        33.413
C33         3.000                                                                                                                                    26655762.893 6 138803576.17506     -3629.815 6        39.135                                                                    26655774.586 6 112789333.46706     -2949.533 6        39.721
E31         4.000    28412827.073 5 149310442.90805     -3113.289 5        35.900                                                                    28412827.539 6 111498066.31606     -2324.897 6        36.767    28412826.810 6 114406708.51106     -2385.452 6        38.237
S21         5.000    38382941.903 7 201703486.18307      -460.462 7        42.201
E10         6.000    28815248.197 5 151425154.41705      2258.603 5        35.552                                                                    28815247.457 6 113077220.14606      1686.816 6        37.323    28815247.148 6 116027060.39306      1731.103 6        38.622
G28         7.000    23686585.963 6 124473857.17006      1439.312 6        40.763                                    23686581.744 4  96992597.68204      1121.546 4        26.647    23686581.704 6  96992605.67306      1121.580 6        41.337
G03         8.000    20580102.535 8 108149267.93408      1269.262 8        48.405                                    20580100.514 8  84272198.62808       989.038 8        50.017    20580101.120 7  84272196.61507       989.163 7        45.469
G02         9.000    20632587.969 8 108425036.50608      -719.067 8        49.959                                    20632580.814 7  84487037.06507      -560.308 7        43.772
G31        10.000    24203285.244 6 127189121.86506      2630.438 6        40.215                                    24203280.519 5  99108388.30905      2049.692 5        33.018    24203281.009 6  99108393.29906      2049.694 6        37.146
