     3.04           OBSERVATION DATA    M                   RINEX VERSION / TYPE
ssrcrin-15.6.1x                         20250102 140000 UTC PGM / RUN BY / DATE 
(00000000023479385599111004) Septentrio proprietary         COMMENT             
rref                                                        MARKER NAME         
01                                                          MARKER NUMBER       
geodetic                                                    MARKER TYPE         
NFB                 CLIMERS@TUW                             OBSERVER / AGENCY   
3297213             SEPT ASTERX SB3 PROB4.14.4              REC # / TYPE / VERS 
Unknown             Unknown                                 ANT # / TYPE        
  4127831.4875  1207193.0744  4695247.5410                  APPROX POSITION XYZ 
        0.0000        0.0000        0.0000                  ANTENNA: DELTA H/E/N
G   23 X1  C1C L1C D1C S1C C1W S1W C2W L2W D2W S2W C2L L2L  SYS / # / OBS TYPES 
       D2L S2L C5Q L5Q D5Q S5Q C1L L1L D1L S1L              SYS / # / OBS TYPES 
E   21 X1  C1C L1C D1C S1C C6C L6C D6C S6C C5Q L5Q D5Q S5Q  SYS / # / OBS TYPES 
       C7Q L7Q D7Q S7Q C8Q L8Q D8Q S8Q                      SYS / # / OBS TYPES 
S    9 X1  C1C L1C D1C S1C C5I L5I D5I S5I                  SYS / # / OBS TYPES 
R   17 X1  C1C L1C D1C S1C C2P L2P D2P S2P C2C L2C D2C S2C  SYS / # / OBS TYPES 
       C3Q L3Q D3Q S3Q                                      SYS / # / OBS TYPES 
C   25 X1  C1P L1P D1P S1P C5P L5P D5P S5P C2I L2I D2I S2I  SYS / # / OBS TYPES 
       C7I L7I D7I S7I C6I L6I D6I S6I C7D L7D D7D S7D      SYS / # / OBS TYPES 
J   17 X1  C1C L1C D1C S1C C2L L2L D2L S2L C5Q L5Q D5Q S5Q  SYS / # / OBS TYPES 
       C1L L1L D1L S1L                                      SYS / # / OBS TYPES 
I    5 X1  C5A L5A D5A S5A                                  SYS / # / OBS TYPES 
SEPTENTRIO RECEIVERS OUTPUT ALIGNED CARRIER PHASES.         COMMENT             
NO FURTHER PHASE SHIFT APPLIED IN THE RINEX ENCODER.        COMMENT             
G L1C                                                       SYS / PHASE SHIFT   
G L2W                                                       SYS / PHASE SHIFT   
G L2L  0.00000                                              SYS / PHASE SHIFT   
G L5Q  0.00000                                              SYS / PHASE SHIFT   
G L1L  0.00000                                              SYS / PHASE SHIFT   
E L1C  0.00000                                              SYS / PHASE SHIFT   
E L6C  0.00000                                              SYS / PHASE SHIFT   
E L5Q  0.00000                                              SYS / PHASE SHIFT   
E L7Q  0.00000                                              SYS / PHASE SHIFT   
E L8Q  0.00000                                              SYS / PHASE SHIFT   
S L1C                                                       SYS / PHASE SHIFT   
S L5I                                                       SYS / PHASE SHIFT   
R L1C                                                       SYS / PHASE SHIFT   
R L2P  0.00000                                              SYS / PHASE SHIFT   
R L2C                                                       SYS / PHASE SHIFT   
R L3Q  0.00000                                              SYS / PHASE SHIFT   
C L1P  0.00000                                              SYS / PHASE SHIFT   
C L5P  0.00000                                              SYS / PHASE SHIFT   
C L2I                                                       SYS / PHASE SHIFT   
C L7I                                                       SYS / PHASE SHIFT   
C L6I                                                       SYS / PHASE SHIFT   
C L7D                                                       SYS / PHASE SHIFT   
J L1C                                                       SYS / PHASE SHIFT   
J L2L  0.00000                                              SYS / PHASE SHIFT   
J L5Q  0.00000                                              SYS / PHASE SHIFT   
J L1L  0.00000                                              SYS / PHASE SHIFT   
I L5A                                                       SYS / PHASE SHIFT   
  2025     1     2    14     0    0.0000000     GPS         TIME OF FIRST OBS   
 C1C    0.000 C2C    0.000 C2P    0.000                     GLONASS COD/PHS/BIS 
DBHZ                                                        SIGNAL STRENGTH UNIT
    18                                                      LEAP SECONDS        
 24 R01  1 R02 -4 R03  5 R04  6 R05  1 R06 -4 R07  5 R08  6 GLONASS SLOT / FRQ #
    R09 -2 R10 -7 R11  0 R12 -1 R13 -2 R14 -7 R15  0 R16 -1 GLONASS SLOT / FRQ #
    R17  4 R18 -3 R19  3 R20  2 R21  4 R22 -3 R23  3 R24  2 GLONASS SLOT / FRQ #
                                                            END OF HEADER       
> 2025 01 02 14 00  0.0000000  0 55
E24         1.000    25065686.249 7 131721183.81507     -2199.279 7        46.048                                                                    25065689.267 8  98363288.55308     -1642.326 8        48.379    25065688.251 8 100929276.41608     -1685.193 8        49.651
E11         2.000    26083920.682 6 137072035.93506      2307.569 6        39.147                                                                    26083923.737 7 102359085.93307      1723.312 7        42.387    26083923.303 7 105029312.34807      1768.107 7        43.316
E03         3.000    25797987.082 7 135569321.61507     -2481.684 7        43.234                                                                    25797994.163 7 101236838.68607     -1853.228 7        45.789    25797993.103 7 103877801.19907     -1901.559 7        47.097
G19         4.000    25244958.959 5 132663305.26805     -4142.959 5        32.677                                    25244958.806 1 103374033.32101     -3228.299 1         9.524
S21         5.000    38502855.603 7 202333445.75007      -510.636 7        42.971
E05         6.000    26366669.698 6 138557587.08906     -3636.949 6        38.171                                                                    26366685.094 6 103468255.62506     -2715.925 6        40.923    26366683.266 7 106167432.45207     -2786.721 7        42.068
G25         7.000    20042722.756 8 105325372.26708       428.284 8        49.661                                    20042724.073 8  82071799.03608       333.725 8        50.392    20042724.663 7  82071800.03807       333.783 7        45.141
C29         8.000                                                                                                                                    24594620.899 7 128070662.07907     -3165.574 7        44.451                                                                    24594622.896 7 104067918.92907     -2572.199 7        43.858
R05         9.000    23798703.453 7 127217649.50807     -4414.473 7        43.048                                                                    23798713.258 6  98947085.34806     -3433.658 6        40.253
G24        10.000    23630113.733 6 124177031.76706     -4244.417 6        41.383                                    23630117.959 6  96761324.62006     -3307.334 6        37.970    23630118.608 6  96761329.60606     -3307.287 6        39.859
C14        11.000                                                                                                                                    27172328.924 5 141493349.93205     -3243.224 5        34.424    27172342.453 6 109411630.18506     -2507.851 6        40.410    27172337.507 6 114974923.96806     -2635.375 6        37.720
S27        12.000    39296752.995 6 206505830.60506      -521.383 6        36.522
E08        13.000    26535906.912 6 139447244.83306        35.758 6        41.433                                                                    26535913.514 7 104132776.70207        26.591 7        44.588    26535912.285 7 106849271.60607        27.295 7        45.744
S36        14.000    38274089.039 7 201132114.16307      -511.189 7        44.984
G06        15.000    23407336.109 6 123006494.10806     -2212.512 6        41.743                                    23407340.604 6  95849288.30806     -1724.039 6        38.429    23407341.688 6  95849290.32606     -1724.055 6        40.105
G12        17.000    20803415.107 8 109322862.13608     -2087.893 8        48.779                                    20803413.558 8  85186729.19908     -1626.930 8        49.183    20803414.001 7  85186726.20007     -1626.911 7        45.363
G32        18.000    23176551.178 7 121793634.10507     -1825.712 7        44.564                                    23176556.281 6  94904179.61306     -1422.633 6        41.945    23176557.660 6  94904183.61506     -1422.730 6        41.836
E02        19.000    26499811.097 6 139257508.07906      1757.699 6        41.745                                                                    26499819.701 7 103991068.43507      1312.520 7        43.936    26499818.012 7 106703868.37007      1346.757 7        44.549
E10        21.000    25459377.205 7 133790095.59507      1217.070 7        44.477                                                                    25459381.365 7  99908306.49807       908.800 7        47.926    25459380.748 8 102514596.95608       932.553 8        49.151
I06        22.000    38635071.841 7 151612422.02307      -471.659 7        42.235
S28        23.000    40977615.923 5 215338694.86305      -516.435 5        35.109
S23        25.000    38217240.626 7 200832815.43607      -515.939 7        45.418
S45        26.000    63472238.776 6 333549293.62906      -575.447 6        36.499
C07        27.000                                                                                                                                    41080356.544 5 213916131.26705     -1405.716 5        34.995    41080357.097 6 165413499.30106     -1087.117 6        38.177    41080354.567 6 173824348.56806     -1142.127 6        36.801
R18        28.000    23287483.059 7 124310286.96907      4111.083 7        43.465                                                                    23287495.196 7  96685885.60007      3197.614 7        42.106
C38        29.000                                                                                                                                    40855551.857 6 212745586.10006      1461.456 6        38.498                                                                    40855555.748 6 172873236.25006      1187.577 6        39.303
C44        30.000                                                                                                                                    23496575.335 7 122352975.50807      2454.837 7        46.936                                                                    23496578.227 7  99421882.93307      1994.837 7        45.932
E12        31.000    25770706.538 6 135426106.43906       -65.344 6        40.939                                                                    25770708.488 7 101129980.68107       -48.729 7        43.909    25770707.739 7 103768138.94707       -49.977 7        44.835
G11        32.000    22496905.235 7 118222192.69207       218.556 7        45.357                                    22496905.852 5  92121278.16805       170.298 5        33.964    22496905.892 7  92121269.17607       170.401 7        44.740
I02        33.000    37307244.677 7 146401630.52007      -656.713 7        42.169
R15        34.000    19412521.433 8 103734760.54108       223.024 8        51.636                                                                    19412524.271 7  80682658.29607       173.485 7        47.393
R07        35.000    23888401.531 7 127876430.75407      1608.937 7        42.597                                                                    23888409.128 6  99459435.45906      1251.380 6        41.285
G29        36.000    22227922.119 7 116808744.37507      2389.355 7        46.946                                    22227922.706 7  91019892.90907      1861.831 7        44.862    22227923.123 7  91019902.91707      1861.763 7        42.110
G31        37.000    25276164.702 6 132827160.55006      3168.502 6        38.258                                    25276174.902 4 103501728.43204      2468.947 4        27.904    25276176.104 5 103501734.45505      2469.034 5        34.381
C10        38.000                                                                                                                                    39924789.866 6 207898817.25806     -1236.738 6        36.885    39924793.658 6 160760543.75306      -956.279 6        41.566    39924789.955 6 168934799.32006     -1004.954 6        38.168
E25        39.000    23459213.960 8 123279181.38008        47.654 8        48.324                                                                    23459217.620 8  92059248.93208        35.558 8        50.853    23459216.833 8  94460779.98008        36.546 8        51.705
C12        40.000                                                                                                                                    25835079.517 6 134530069.06106      3012.532 6        38.495    25835087.650 7 104027234.55107      2329.423 7        44.424    25835084.290 7 109316737.75707      2447.837 7        42.282
S44        42.000    40777548.750 6 214287521.98106      -429.938 6        37.951
G28        43.000    23156020.383 7 121685824.08907      2504.008 7        43.488                                    23156022.612 4  94820194.36704      1951.167 4        29.915    23156023.122 7  94820194.38407      1951.170 7        42.343
C05        44.000                                                                                                                                    39522005.082 6 205801375.20606      -488.690 6        37.996    39522007.449 7 159138673.17307      -378.028 7        43.537    39522007.216 6 167230555.35706      -396.955 6        39.523
R14        45.000    21007821.010 8 111983600.28608     -3084.009 8        50.378                                                                    21007824.951 7  87098434.17207     -2398.659 7        46.943
R16        46.000    22306219.403 8 119155915.19808      2881.713 8        48.294                                                                    22306226.618 7  92676909.99807      2241.356 7        43.666
R17        47.000    20100977.745 8 107564590.35208      2084.095 8        52.249                                                                    20100979.482 7  83661471.10007      1620.934 7        46.476
C35        48.000                                                                                                                                    21960529.721 8 114354379.81008        10.885 8        51.487                                                                    21960530.804 8  92922359.96508         8.919 8        49.262
C24        49.000                                                                                                                                    22541130.948 8 117377611.41608      1475.687 8        49.506                                                                    22541131.053 8  95378936.74508      1199.230 8        49.483
C45        50.000                                                                                                                                    25338089.118 6 131942034.94606     -3430.005 6        41.094                                                                    25338088.220 7 107213683.71807     -2787.105 7        43.791
S48        51.000    77212522.036 6 405755619.04606      -529.359 6        38.177
C33        52.000                                                                                                                                    26765575.952 6 139375311.28006     -2710.354 6        38.991                                                                    26765599.127 6 113253925.09406     -2202.344 6        39.255
E33        53.000    27916892.979 6 146704394.57906     -2659.947 6        36.711                                                                    27916899.680 6 109552066.15406     -1986.242 6        41.137    27916898.466 6 112409933.72706     -2037.842 6        41.395
C60        54.000                                                                                                                                    40777547.930 6 212339471.89406      -426.187 6        39.348                                                                    40777538.448 6 172543157.57606      -346.253 6        39.192
C26        56.000                                                                                                                                    21856213.672 8 113811134.95108     -1337.764 8        51.137                                                                    21856215.065 8  92480913.62308     -1086.999 8        49.104
C02        57.000                                                                                                                                    40972707.497 5 213355558.15905      -441.375 5        33.311    40972709.627 6 164980010.75406      -341.447 6        37.357    40972711.389 5 173368843.18105      -358.464 5        34.686
I03        58.000    89128178.720 5 273972690.66705      1011.256 5        34.014
R06        59.000    22808539.122 6 121710792.47006     -1524.658 6        36.968
R24        60.000    20494847.016 8 109595298.10308     -2362.836 8        50.564                                                                    20494850.017 7  85240855.44707     -1837.780 7        45.899
> 2025 01 02 14 00  5.0000000  0 55
E24         1.000    25067779.271 7 131732182.06907     -2199.994 7        45.773                                                                    25067782.131 8  98371501.52908     -1642.818 8        48.268    25067781.184 8 100937703.64508     -1685.752 8        49.544
E11         2.000    26081725.620 6 137060501.06906      2306.446 6        39.174                                                                    26081728.543 7 102350472.30307      1722.380 7        42.068    26081728.306 7 105020473.99507      1767.363 7        43.331
E03         3.000    25800349.076 7 135581734.23807     -2483.347 7        42.813                                                                    25800356.220 7 101246107.81907     -1854.411 7        45.813    25800355.220 7 103887312.13807     -1902.826 7        47.081
G19         4.000    25248900.436 5 132684020.43705     -4143.201 5        32.671                                    25248900.747 1 103390175.08901     -3228.531 1         8.190
S21         5.000    38503342.907 7 202335998.79807      -510.437 7        42.963
E05         6.000    26370130.169 6 138575771.34506     -3636.595 6        38.135                                                                    26370145.572 6 103481834.68606     -2715.668 6        40.739    26370143.670 6 106181365.75706     -2786.482 6        41.950
G25         7.000    20042315.980 8 105323236.16008       426.153 8        49.419                                    20042317.571 8  82070134.54208       332.067 8        50.476    20042318.337 7  82070135.54807       332.010 7        45.178
C29         8.000                                                                                                                                    24597661.288 7 128086493.58907     -3166.987 7        44.144                                                                    24597663.041 7 104080783.33007     -2573.499 7        43.579
R05         9.000    23802832.446 7 127239724.11707     -4415.362 7        42.485                                                                    23802842.719 6  98964254.41306     -3434.041 6        39.459
G24        10.000    23634152.356 6 124198255.93606     -4245.263 6        41.015                                    23634156.948 6  96777862.91506     -3307.990 6        38.021    23634158.035 6  96777867.90606     -3308.049 6        40.255
C14        11.000                                                                                                                                    27175444.453 5 141509567.51905     -3243.587 5        35.224    27175457.015 6 109424170.64406     -2508.260 6        39.802    27175451.610 6 114988102.06506     -2635.703 6        37.701
S27        12.000    39297249.408 6 206508437.75306      -521.539 6        36.643
E08        13.000    26535873.891 6 139447072.57106        33.248 6        40.939                                                                    26535880.771 7 104132648.07307        24.859 7        44.560    26535879.424 7 106849139.61807        25.437 7        45.682
S36        14.000    38274576.508 7 201134670.21007      -511.179 7        44.936
G06        15.000    23409442.409 6 123017563.93306     -2215.474 6        41.385                                    23409447.034 6  95857914.15306     -1726.346 6        38.510    23409448.299 6  95857916.15206     -1726.326 6        40.453
G12        17.000    20805402.355 8 109333306.29208     -2089.746 8        48.886                                    20805401.015 8  85194867.49808     -1628.370 8        49.270    20805401.526 7  85194864.49507     -1628.330 7        45.255
G32        18.000    23178289.682 7 121802769.69107     -1828.390 7        45.842                                    23178294.722 7  94911298.24907     -1424.723 7        42.097    23178295.470 7  94911302.24907     -1424.678 7        42.163
E02        19.000    26498138.816 6 139248720.28406      1757.357 6        41.633                                                                    26498147.356 7 103984506.16907      1312.310 7        43.987    26498145.671 7 106697134.90007      1346.637 7        44.479
E10        21.000    25458220.120 7 133784015.45007      1215.042 7        44.394                                                                    25458224.265 7  99903766.13907       907.350 7        47.900    25458223.762 8 102509938.15608       931.013 8        49.091
I06        22.000    38635672.350 7 151614779.74807      -471.384 7        42.284
S28        23.000    40978106.894 5 215341277.16805      -516.628 5        35.014
S23        25.000    38217730.188 7 200835394.71107      -515.808 7        45.418
S45        26.000    63472731.504 6 333552170.80106      -575.508 6        36.348
C07        27.000                                                                                                                                    41081706.146 5 213923158.84405     -1405.435 5        35.076    41081706.333 6 165418933.46406     -1086.782 6        38.192    41081704.289 6 173830059.04906     -1142.010 6        36.922
R18        28.000    23283633.311 7 124289733.14107      4110.504 7        43.124                                                                    23283645.130 7  96669899.40707      3197.050 7        42.011
C38        29.000                                                                                                                                    40854149.221 6 212738279.99706      1461.007 6        38.817                                                                    40854152.652 6 172867299.46306      1187.046 6        39.670
C44        30.000                                                                                                                                    23494219.077 7 122340704.78607      2453.469 7        47.036                                                                    23494221.747 7  99411911.99507      1993.631 7        46.005
E12        31.000    25770769.891 6 135426439.37806       -67.830 6        40.782                                                                    25770771.855 7 101130229.31707       -50.676 7        43.835    25770771.072 7 103768394.07107       -51.976 7        44.773
G11        32.000    22496698.626 7 118221107.80907       215.381 7        45.413                                    22496699.393 5  92120432.81105       167.827 5        34.024    22496699.284 7  92120423.81407       167.862 7        44.719
I02        33.000    37308081.331 7 146404914.42207      -656.973 7        42.273
R15        34.000    19412313.841 8 103733651.39008       220.707 8        51.521                                                                    19412316.352 7  80681795.62607       171.671 7        46.941
R07        35.000    23886901.689 7 127868394.86407      1605.511 7        42.599                                                                    23886908.096 6  99453185.28106      1248.631 6        40.815
G29        36.000    22225649.501 7 116796802.27007      2387.567 7        47.194                                    22225650.201 7  91010587.38907      1860.439 7        44.965    22225650.711 7  91010597.39707      1860.510 7        42.546
G31        37.000    25273150.069 6 132811319.07906      3168.340 6        37.357                                    25273160.420 4 103489384.50104      2468.829 4        28.322    25273161.171 5 103489390.53305      2468.760 5        35.438
C10        38.000                                                                                                                                    39925976.848 6 207905000.61206     -1236.659 6        36.851    39925980.818 6 160765325.10606      -956.230 6        41.771    39925977.316 6 168939823.79206     -1004.921 6        38.183
E25        39.000    23459169.014 8 123278945.50008        46.755 8        48.103                                                                    23459172.749 8  92059072.78508        34.883 8        50.814    23459171.972 8  94460599.24608        35.764 8        51.758
C12        40.000                                                                                                                                    25832186.401 6 134515007.74006      3012.065 6        38.141    25832194.859 7 104015588.27407      2329.121 7        44.322    25832191.692 7 109304499.28207      2447.528 7        42.256
S44        42.000    40777954.912 6 214289672.02806      -429.960 6        37.879
G28        43.000    23153638.684 7 121673308.19307      2502.491 7        43.492                                    23153640.879 5  94810441.75805      1949.982 5        30.060    23153641.184 7  94810441.78207      1949.991 7        42.582
C05        44.000                                                                                                                                    39522474.070 6 205803819.01106      -488.625 6        38.015    39522476.876 7 159140562.86907      -377.997 7        43.518    39522476.460 6 167232541.16406      -397.255 6        39.682
R14        45.000    21010714.432 8 111999025.25608     -3085.954 8        50.377                                                                    21010718.867 7  87110431.37207     -2400.138 7        47.026
R16        46.000    22303523.124 7 119141507.64507      2881.378 7        47.754                                                                    22303529.239 7  92665704.17907      2240.975 7        44.274
R17        47.000    20099031.732 8 107554179.22808      2080.391 8        52.226                                                                    20099034.319 7  83653373.58307      1618.154 7        46.997
C35        48.000                                                                                                                                    21960520.746 8 114354332.43008         8.143 8        51.544                                                                    21960521.668 8  92922321.46708         6.573 8        49.232
C24        49.000                                                                                                                                    22539714.479 8 117370235.83108      1474.559 8        49.509                                                                    22539714.641 8  95372943.49208      1198.136 8        49.530
C45        50.000                                                                                                                                    25341383.413 7 131959186.73807     -3430.784 7        42.044                                                                    25341382.044 7 107227620.94407     -2787.802 7        43.841
S48        51.000    77213009.528 6 405758265.46806      -529.311 6        38.114
C33        52.000                                                                                                                                    26768179.669 6 139388866.41206     -2711.734 6        39.408                                                                    26768202.319 6 113264939.73006     -2203.414 6        39.201
E33        53.000    27919424.818 6 146717697.61906     -2661.419 6        36.510                                                                    27919431.156 6 109562000.26606     -1987.484 6        41.199    27919429.876 6 112420127.00106     -2039.236 6        41.454
C60        54.000                                                                                                                                    40777957.075 6 212341602.40906      -426.092 6        39.306                                                                    40777947.561 6 172544888.79206      -346.241 6        39.453
C26        56.000                                                                                                                                    21857499.122 8 113817828.85608     -1339.699 8        51.285                                                                    21857500.559 8  92486352.97508     -1088.698 8        49.141
C02        57.000                                                                                                                                    40973131.523 5 213357764.75305      -441.545 5        32.850    40973133.604 6 164981717.02906      -341.187 6        37.448    40973135.352 5 173370636.23305      -358.786 5        34.710
I03        58.000    89126891.166 5 273967635.35005      1011.160 5        34.314
R06        59.000    22809969.037 5 121718426.25205     -1528.612 5        35.438
R24        60.000    20497058.435 8 109607122.36708     -2366.795 8        49.803                                                                    20497060.807 7  85250052.08607     -1840.831 7        45.947
> 2025 01 02 14 00 10.0000000  0 55
E24         1.000    25069872.896 7 131743183.46207     -2200.458 7        45.913                                                                    25069875.561 8  98379716.85308     -1643.224 8        48.324    25069874.785 8 100946133.27908     -1686.098 8        49.658
E11         2.000    26079531.588 6 137048971.25006      2305.667 6        39.177                                                                    26079534.657 7 102341862.42607      1721.696 7        42.267    26079534.121 7 105011639.51107      1766.637 7        43.456
E03         3.000    25802712.589 7 135594155.13607     -2484.871 7        42.392                                                                    25802719.840 7 101255383.15007     -1855.652 7        45.868    25802718.891 7 103896829.42907     -1903.997 7        47.124
G19         4.000    25252843.936 5 132704736.05605     -4143.165 5        32.251                                    25252842.715 1 103406317.19001     -3228.464 1         8.857
S21         5.000    38503829.174 7 202338551.10607      -510.381 7        43.120
E05         6.000    26373590.236 6 138593954.46606     -3636.417 6        38.114                                                                    26373605.819 6 103495412.88806     -2715.462 6        40.956    26373603.895 7 106195298.18307     -2786.180 7        42.030
G25         7.000    20041911.378 8 105321110.22308       424.367 8        49.578                                    20041913.001 8  82068477.97108       330.676 8        50.452    20041913.582 7  82068478.97907       330.629 7        45.058
C29         8.000                                                                                                                                    24600702.606 7 128102331.84307     -3168.147 7        43.570                                                                    24600704.595 7 104093653.19607     -2574.511 7        43.354
R05         9.000    23806962.596 7 127261802.62007     -4415.951 7        43.202                                                                    23806973.885 6  98981426.54006     -3434.545 6        39.237
G24        10.000    23638191.438 6 124219483.71906     -4245.872 6        41.192                                    23638196.715 6  96794404.01806     -3308.462 6        38.183    23638197.292 6  96794408.99406     -3308.379 6        40.310
C14        11.000                                                                                                                                    27178560.284 5 141525786.55905     -3244.214 5        35.324    27178571.885 6 109436712.19806     -2508.363 6        39.877    27178566.463 6 115001281.32506     -2636.056 6        37.463
S27        12.000    39297744.028 6 206511044.02006      -521.326 6        36.378
E08        13.000    26535843.129 6 139446911.88906        31.102 6        41.483                                                                    26535850.230 7 104132528.09307        23.239 7        44.567    26535848.889 7 106849016.50807        23.848 7        45.648
S36        14.000    38275061.934 7 201137225.60507      -510.861 7        45.044
G06        15.000    23411551.760 6 123028648.18006     -2218.293 6        41.535                                    23411556.249 6  95866551.23206     -1728.540 6        38.411    23411557.372 6  95866553.21906     -1728.508 6        40.148
G12        17.000    20807391.680 8 109343759.12608     -2091.376 8        48.925                                    20807390.132 8  85203012.56308     -1629.644 8        49.260    20807390.759 7  85203009.55807     -1629.627 7        45.220
G32        18.000    23180031.133 7 121811918.72007     -1830.998 7        45.010                                    23180035.739 7  94918427.36307     -1426.752 7        42.136    23180035.983 6  94918431.36706     -1426.868 6        41.933
E02        19.000    26496466.875 6 139239933.54106      1757.511 6        41.471                                                                    26496475.222 7 103977944.69307      1312.333 7        44.089    26496473.542 7 106690402.25907      1346.546 7        44.578
E10        21.000    25457064.593 7 133777945.31707      1213.139 7        44.691                                                                    25457069.041 7  99899233.26007       905.920 7        47.907    25457068.569 8 102505287.02708       929.524 8        49.110
I06        22.000    38636273.142 7 151617136.90507      -471.309 7        42.155
S28        23.000    40978603.248 5 215343859.00605      -516.582 5        35.086
S23        25.000    38218221.034 7 200837973.30407      -515.592 7        45.588
S45        26.000    63473223.928 6 333555047.20606      -575.056 6        36.359
C07        27.000                                                                                                                                    41083055.800 5 213930185.32305     -1404.944 5        34.971    41083056.166 6 165424366.79206     -1086.617 6        38.279    41083053.648 6 173835768.64006     -1141.904 6        36.888
R18        28.000    23279783.297 7 124269181.91107      4110.064 7        43.266                                                                    23279794.772 6  96653915.25406      3196.834 6        41.528
C38        29.000                                                                                                                                    40852746.670 6 212730975.97706      1460.599 6        39.234                                                                    40852750.043 6 172861364.32906      1186.861 6        39.489
C44        30.000                                                                                                                                    23491864.022 7 122328440.58207      2452.281 7        47.298                                                                    23491866.599 7  99401946.33807      1992.653 7        45.913
E12        31.000    25770835.171 6 135426784.48406       -70.165 6        40.727                                                                    25770837.482 7 101130487.03107       -52.328 7        43.998    25770836.634 7 103768658.50907       -53.772 7        44.734
G11        32.000    22496495.132 7 118220038.48807       212.474 7        45.225                                    22496495.867 5  92119599.58505       165.559 5        33.826    22496495.776 7  92119590.59407       165.514 7        44.247
I02        33.000    37308918.301 7 146408198.64607      -656.829 7        42.093
R15        34.000    19412108.300 8 103732553.96808       218.349 8        51.588                                                                    19412111.352 7  80680942.07207       169.832 7        47.449
R07        35.000    23885403.658 7 127860376.10707      1602.083 7        42.061                                                                    23885410.070 6  99446948.43006      1245.967 6        39.598
G29        36.000    22223378.656 7 116784868.53307      2385.974 7        47.062                                    22223379.260 7  91001288.39207      1859.192 7        44.962    22223379.830 7  91001298.40407      1859.236 7        42.199
G31        37.000    25270135.781 6 132795479.37806      3167.777 6        38.387                                    25270146.059 4 103477041.93204      2468.383 4        28.284    25270147.050 5 103477047.95805      2468.227 5        34.529
C10        38.000                                                                                                                                    39927164.102 6 207911183.19806     -1236.364 6        36.968    39927168.003 6 160770105.88706      -955.992 6        41.766    39927164.784 6 168944847.65606     -1004.782 6        38.348
E25        39.000    23459124.892 8 123278714.21008        45.859 8        48.244                                                                    23459128.749 8  92058900.07108        34.304 8        50.828    23459127.952 8  94460422.02408        35.189 8        51.832
C12        40.000                                                                                                                                    25829294.478 6 134499947.87906      3012.016 6        37.902    25829302.735 7 104003943.12907      2329.035 7        44.530    25829299.384 7 109292261.98707      2447.387 7        42.100
S44        42.000    40778368.005 6 214291821.46006      -429.759 6        38.000
G28        43.000    23151258.179 7 121660799.58007      2501.160 7        43.708                                    23151260.621 5  94800694.81905      1948.950 5        30.038    23151261.075 7  94800694.84207      1948.895 7        42.717
C05        44.000                                                                                                                                    39522943.313 6 205806262.09706      -488.439 6        37.962    39522946.190 7 159142451.99807      -377.634 7        43.475    39522945.707 6 167234526.35306      -396.935 6        39.652
R14        45.000    21013609.226 8 112014459.19608     -3087.590 8        49.601                                                                    21013614.027 7  87122435.53307     -2401.513 7        46.287
R16        46.000    22300825.730 7 119127101.99107      2881.050 7        47.099                                                                    22300832.480 7  92654499.82607      2240.812 7        43.977
R17        47.000    20097089.700 8 107543786.24708      2076.886 8        52.321                                                                    20097091.790 7  83645290.15607      1615.297 7        47.178
C35        48.000                                                                                                                                    21960513.944 8 114354298.20208         5.647 8        51.427                                                                    21960515.109 8  92922293.64308         4.544 8        49.135
C24        49.000                                                                                                                                    22538299.450 8 117362866.20808      1473.402 8        49.491                                                                    22538299.360 8  95366955.07208      1197.167 8        49.450
C45        50.000                                                                                                                                    25344678.170 7 131976341.65607     -3431.347 7        42.110                                                                    25344676.659 7 107241560.69007     -2788.149 7        43.943
S48        51.000    77213500.999 6 405760911.80606      -528.975 6        38.099
C33        52.000                                                                                                                                    26770783.791 6 139402428.38106     -2712.930 6        39.378                                                                    26770806.582 6 113275959.93006     -2204.557 6        39.171
E33        53.000    27921957.430 6 146731008.75306     -2662.883 6        36.703                                                                    27921964.201 6 109571940.41706     -1988.597 6        41.271    27921962.696 6 112430326.46206     -2040.463 6        41.356
C60        54.000                                                                                                                                    40778366.072 6 212343732.28006      -425.761 6        39.183                                                                    40778356.723 6 172546619.49606      -346.003 6        39.123
C26        56.000                                                                                                                                    21858786.604 8 113824532.07708     -1341.437 8        51.169                                                                    21858787.855 8  92491799.87808     -1090.071 8        49.037
C02        57.000                                                                                                                                    40973555.142 5 213359970.66205      -440.922 5        32.838    40973557.013 6 164983422.77306      -341.044 6        37.123    40973558.918 5 173372428.71705      -358.315 5        34.224
I03        58.000    89125603.165 5 273962579.36205      1011.329 5        34.105
R06        59.000    22811404.034 5 121726080.03005     -1532.802 5        35.819
R24        60.000    20499272.773 8 109618966.14608     -2370.676 8        49.369                                                                    20499276.314 7  85259263.91107     -1843.801 7        46.062
> 2025 01 02 14 00 15.0000000  0 55
E24         1.000    25071966.934 7 131754188.51307     -2201.441 7        45.845                                                                    25071969.742 8  98387934.91508     -1643.964 8        48.330    25071969.098 8 100954565.72108     -1686.780 8        49.534
E11         2.000    26077338.274 6 137037447.02906      2304.376 6        39.096                                                                    26077341.826 7 102333256.72607      1720.752 7        42.167    26077341.171 7 105002809.31907      1765.589 7        43.469
E03         3.000    25805077.649 7 135606584.85207     -2486.800 7        42.643                                                                    25805085.191 7 101264665.07507     -1857.090 7        45.836    25805084.195 7 103906353.48807     -1905.518 7        47.087
G19         4.000    25256785.446 5 132725452.69005     -4143.552 5        32.168                                    25256784.857 1 103422460.09301     -3228.793 1         7.875
S21         5.000    38504314.086 7 202341103.30707      -510.501 7        43.198
E05         6.000    26377050.202 6 138612136.91606     -3636.524 6        38.090                                                                    26377065.888 6 103508990.62006     -2715.442 6        41.085    26377063.980 7 106209230.13107     -2786.410 7        42.099
G25         7.000    20041509.070 8 105318995.02408       421.910 8        49.448                                    20041510.479 8  82066829.76808       328.759 8        50.573    20041511.045 7  82066830.76907       328.727 7        45.172
C29         8.000                                                                                                                                    24603745.810 7 128118177.36407     -3169.831 7        43.640                                                                    24603747.674 7 104106528.97907     -2575.837 7        43.681
R05         9.000    23811094.565 7 127283885.15107     -4416.925 7        43.338                                                                    23811104.527 6  98998601.79206     -3435.550 6        39.237
G24        10.000    23642231.875 7 124240715.63407     -4246.912 7        42.002                                    23642237.175 6  96810948.34106     -3309.279 6        38.682    23642237.434 6  96810953.32706     -3309.290 6        40.279
C14        11.000                                                                                                                                    27181676.075 5 141542007.49205     -3244.557 5        35.848    27181686.539 6 109449255.24106     -2508.784 6        40.408    27181681.305 6 115014462.15906     -2636.250 6        37.603
S27        12.000    39298237.815 6 206513650.41906      -521.230 6        36.310
E08        13.000    26535814.981 6 139446763.31606        28.484 6        41.340                                                                    26535821.862 7 104132417.17107        21.222 7        44.632    26535820.510 7 106848902.69007        21.791 7        45.669
S36        14.000    38275548.044 7 201139780.46307      -511.189 7        45.008
G06        15.000    23413664.563 6 123039747.34806     -2221.383 6        41.518                                    23413668.317 6  95875199.93306     -1730.947 6        38.468    23413669.633 6  95875201.94106     -1731.020 6        40.057
G12        17.000    20809382.629 8 109354221.16008     -2093.437 8        49.028                                    20809381.010 8  85211164.79508     -1631.249 8        49.393    20809381.520 7  85211161.79907     -1631.263 7        45.401
G32        18.000    23181774.028 7 121821081.71807     -1834.082 7        45.251                                    23181779.449 7  94925567.35907     -1429.153 7        42.167    23181780.030 6  94925571.36006     -1429.122 6        41.642
E02        19.000    26494794.745 6 139231148.41706      1756.851 6        41.433                                                                    26494803.608 7 103971384.42907      1311.855 7        44.119    26494801.797 7 106683670.84707      1346.158 7        44.542
E10        21.000    25455911.629 7 133771885.73207      1210.804 7        45.034                                                                    25455915.927 7  99894708.25507       904.138 7        47.860    25455915.518 8 102500643.97808       927.757 8        49.112
I06        22.000    38636873.837 7 151619493.87307      -471.441 7        42.169
S28        23.000    40979087.561 5 215346440.60305      -516.364 5        35.290
S23        25.000    38218710.989 7 200840551.94307      -515.805 7        45.616
S45        26.000    63473716.956 6 333557923.49506      -575.460 6        36.507
C07        27.000                                                                                                                                    41084404.069 5 213937211.23105     -1405.105 5        34.738    41084405.509 6 165429799.66806     -1086.615 6        38.291    41084402.926 6 173841477.78406     -1141.862 6        37.338
R18        28.000    23275934.139 7 124248633.94607      4109.173 7        43.691                                                                    23275944.668 6  96637933.64206      3195.928 6        41.321
C38        29.000                                                                                                                                    40851344.477 6 212723674.55506      1459.838 6        38.913                                                                    40851347.719 6 172855431.34606      1186.315 6        39.646
C44        30.000                                                                                                                                    23489509.889 7 122316183.41607      2450.714 7        47.243                                                                    23489512.705 7  99391986.42907      1991.362 7        46.219
E12        31.000    25770903.553 6 135427142.28506       -72.920 6        40.713                                                                    25770905.690 7 101130754.23607       -54.386 7        43.909    25770904.809 7 103768932.68107       -55.890 7        44.646
G11        32.000    22496294.928 7 118218985.27607       209.031 7        45.815                                    22496295.364 5  92118778.91205       162.881 5        33.952    22496295.439 7  92118769.91507       162.889 7        43.987
I02        33.000    37309755.390 7 146411483.47907      -657.074 7        42.197
R15        34.000    19411905.231 8 103731468.76808       215.733 8        51.372                                                                    19411908.301 7  80680098.04807       167.772 7        47.628
R07        35.000    23883907.889 7 127852375.14907      1598.351 7        42.910                                                                    23883915.237 6  99440725.45106      1243.158 6        40.350
G29        36.000    22221109.515 7 116772943.71307      2383.986 7        47.103                                    22221110.028 7  90991996.34407      1857.649 7        45.112    22221110.333 7  90992006.34607      1857.673 7        42.021
G31        37.000    25267122.492 6 132779641.95606      3167.094 6        38.312                                    25267132.123 4 103464701.14704      2467.865 4        28.190    25267132.961 5 103464707.16605      2467.674 5        34.752
C10        38.000                                                                                                                                    39928351.303 6 207917365.55706     -1236.526 6        37.123    39928355.236 6 160774886.48106      -956.155 6        41.800    39928352.124 6 168949871.34506     -1004.873 6        38.282
E25        39.000    23459081.937 8 123278488.02808        44.689 8        48.291                                                                    23459085.757 8  92058731.17708        33.328 8        50.916    23459084.928 8  94460248.72508        34.195 8        51.715
C12        40.000                                                                                                                                    25826402.898 6 134484890.07306      3011.265 6        37.905    25826411.339 7 103992299.57007      2328.518 7        44.962    25826407.480 7 109280026.35507      2446.971 7        42.275
S44        42.000    40778775.459 6 214293970.76506      -430.011 6        37.834
G28        43.000    23148879.453 7 121648298.75807      2499.333 7        43.621                                    23148881.856 5  94790953.95505      1947.530 5        30.174    23148881.822 7  94790953.97107      1947.511 7        42.916
C05        44.000                                                                                                                                    39523412.342 6 205808704.97506      -488.660 6        37.709    39523415.402 7 159144340.98307      -377.806 7        43.490    39523414.731 6 167236511.38106      -396.900 6        39.634
R14        45.000    21016506.440 8 112029902.74108     -3089.672 8        49.624                                                                    21016510.867 7  87134447.18907     -2403.156 7        46.194
R16        46.000    22298128.078 7 119112698.62707      2880.368 7        47.792                                                                    22298135.634 7  92643297.25607      2240.295 7        43.744
R17        47.000    20095151.281 8 107533411.94708      2072.899 8        52.321                                                                    20095153.284 7  83637221.27107      1612.272 7        46.787
C35        48.000                                                                                                                                    21960510.099 8 114354277.63808         2.734 8        51.369                                                                    21960511.133 8  92922276.95508         2.256 8        49.248
C24        49.000                                                                                                                                    22536885.365 8 117355503.06708      1471.943 8        49.477                                                                    22536885.403 8  95360971.93708      1196.057 8        49.579
C45        50.000                                                                                                                                    25347973.136 6 131993500.21806     -3432.193 6        41.995                                                                    25347971.958 7 107255503.41007     -2788.908 7        44.301
S48        51.000    77213989.399 6 405763558.63906      -529.534 6        38.282
C33        52.000                                                                                                                                    26773390.156 6 139415997.69406     -2714.701 6        39.835                                                                    26773412.606 6 113286986.09406     -2205.926 6        39.300
E33        53.000    27924491.938 6 146744328.51006     -2665.025 6        36.612                                                                    27924498.737 6 109581886.99306     -1990.044 6        41.156    27924497.492 6 112440532.50906     -2041.796 6        41.454
C60        54.000                                                                                                                                    40778775.301 6 212345862.05406      -425.981 6        39.207                                                                    40778765.631 6 172548350.12906      -346.013 6        39.405
C26        56.000                                                                                                                                    21860075.777 8 113831245.14008     -1343.654 8        51.347                                                                    21860076.999 8  92497254.80508     -1091.814 8        49.205
C02        57.000                                                                                                                                    40973978.421 5 213362176.34105      -441.134 5        32.922    40973980.561 6 164985128.36406      -341.161 6        37.055    40973982.617 5 173374221.05505      -358.625 5        34.371
I03        58.000    89124313.720 5 273957523.10605      1011.207 5        34.019
R06        59.000    22812842.602 6 121733754.43506     -1536.945 6        36.004
R24        60.000    20501491.553 8 109630829.97608     -2374.820 8        49.816                                                                    20501494.583 7  85268491.35507     -1847.112 7        46.287
> 2025 01 02 14 00 20.0000000  0 55
E24         1.000    25074061.752 7 131765197.50407     -2202.162 7        45.539                                                                    25074064.631 8  98396155.91708     -1644.526 8        48.424    25074064.059 8 100963001.18908     -1687.423 8        49.568
E11         2.000    26075146.469 6 137025928.69706      2303.068 6        38.462                                                                    26075149.963 7 102324655.43107      1719.849 7        42.394    26075149.182 7 104993983.62807      1764.698 7        43.308
E03         3.000    25807445.066 7 135619023.65807     -2488.675 7        42.470                                                                    25807452.235 7 101273953.78507     -1858.467 7        45.970    25807451.265 7 103915884.52207     -1906.945 7        47.036
G19         4.000    25260728.052 5 132746170.54305     -4143.981 5        30.989                                    25260727.326 1 103438604.01101     -3228.959 1        10.000
S21         5.000    38504799.042 7 202343655.76407      -510.634 7        43.166
E05         6.000    26380510.302 6 138630319.01006     -3636.470 6        37.361                                                                    26380525.977 6 103522568.07606     -2715.630 6        41.220    26380524.070 7 106223161.79407     -2786.320 7        42.002
G25         7.000    20041108.494 8 105316890.83308       419.686 8        49.392                                    20041110.050 8  82065190.14408       327.028 8        50.438    20041110.800 7  82065191.14707       327.072 7        45.053
C29         8.000                                                                                                                                    24606790.451 7 128134030.39007     -3171.385 7        43.363                                                                    24606792.366 7 104119410.87007     -2576.990 7        43.587
R05         9.000    23815225.591 7 127305972.31707     -4417.840 7        42.631                                                                    23815236.417 6  99015780.62706     -3435.956 6        39.483
G24        10.000    23646273.403 7 124261951.94607     -4247.729 7        42.000                                    23646278.417 6  96827496.09506     -3309.916 6        38.913    23646278.485 6  96827501.09406     -3309.892 6        40.310
C14        11.000                                                                                                                                    27184791.842 5 141558230.65505     -3244.883 5        34.862    27184801.949 6 109461799.98306     -2509.091 6        40.338    27184796.386 6 115027644.80906     -2636.836 6        37.198
S27        12.000    39298733.884 6 206516256.56106      -521.433 6        36.423
E08        13.000    26535789.020 6 139446627.16306        25.896 6        41.256                                                                    26535795.950 7 104132315.50707        19.483 7        44.719    26535794.687 7 106848798.38107        19.897 7        45.854
S36        14.000    38276032.934 7 201142335.82907      -511.063 7        44.969
G06        15.000    23415779.169 6 123050861.73206     -2224.517 6        41.485                                    23415783.233 6  95883860.49906     -1733.387 6        38.288    23415784.545 6  95883862.48406     -1733.142 6        39.946
