     3.04           OBSERVATION DATA    M                   RINEX VERSION / TYPE
ssrcrin-15.6.1x                         20250102 184500 UTC PGM / RUN BY / DATE 
(00000000023479385599111004) Septentrio proprietary         COMMENT             
rref                                                        MARKER NAME         
01                                                          MARKER NUMBER       
geodetic                                                    MARKER TYPE         
NFB                 CLIMERS@TUW                             OBSERVER / AGENCY   
3297213             SEPT ASTERX SB3 PROB4.14.4              REC # / TYPE / VERS 
Unknown             Unknown                                 ANT # / TYPE        
  4127832.1483  1207193.0530  4695247.8041                  APPROX POSITION XYZ 
        0.0000        0.0000        0.0000                  ANTENNA: DELTA H/E/N
G   23 X1  C1C L1C D1C S1C C1W S1W C2W L2W D2W S2W C2L L2L  SYS / # / OBS TYPES 
       D2L S2L C5Q L5Q D5Q S5Q C1L L1L D1L S1L              SYS / # / OBS TYPES 
E   21 X1  C1C L1C D1C S1C C6C L6C D6C S6C C5Q L5Q D5Q S5Q  SYS / # / OBS TYPES 
       C7Q L7Q D7Q S7Q C8Q L8Q D8Q S8Q                      SYS / # / OBS TYPES 
S    9 X1  C1C L1C D1C S1C C5I L5I D5I S5I                  SYS / # / OBS TYPES 
R   17 X1  C1C L1C D1C S1C C2P L2P D2P S2P C2C L2C D2C S2C  SYS / # / OBS TYPES 
       C3Q L3Q D3Q S3Q                                      SYS / # / OBS TYPES 
C   25 X1  C1P L1P D1P S1P C5P L5P D5P S5P C2I L2I D2I S2I  SYS / # / OBS TYPES 
       C7I L7I D7I S7I C6I L6I D6I S6I C7D L7D D7D S7D      SYS / # / OBS TYPES 
J   17 X1  C1C L1C D1C S1C C2L L2L D2L S2L C5Q L5Q D5Q S5Q  SYS / # / OBS TYPES 
       C1L L1L D1L S1L                                      SYS / # / OBS TYPES 
I    5 X1  C5A L5A D5A S5A                                  SYS / # / OBS TYPES 
SEPTENTRIO RECEIVERS OUTPUT ALIGNED CARRIER PHASES.         COMMENT             
NO FURTHER PHASE SHIFT APPLIED IN THE RINEX ENCODER.        COMMENT             
G L1C                                                       SYS / PHASE SHIFT   
G L2W                                                       SYS / PHASE SHIFT   
G L2L  0.00000                                              SYS / PHASE SHIFT   
G L5Q  0.00000                                              SYS / PHASE SHIFT   
G L1L  0.00000                                              SYS / PHASE SHIFT   
E L1C  0.00000                                              SYS / PHASE SHIFT   
E L6C  0.00000                                              SYS / PHASE SHIFT   
E L5Q  0.00000                                              SYS / PHASE SHIFT   
E L7Q  0.00000                                              SYS / PHASE SHIFT   
E L8Q  0.00000                                              SYS / PHASE SHIFT   
S L1C                                                       SYS / PHASE SHIFT   
S L5I                                                       SYS / PHASE SHIFT   
R L1C                                                       SYS / PHASE SHIFT   
R L2P  0.00000                                              SYS / PHASE SHIFT   
R L2C                                                       SYS / PHASE SHIFT   
R L3Q  0.00000                                              SYS / PHASE SHIFT   
C L1P  0.00000                                              SYS / PHASE SHIFT   
C L5P  0.00000                                              SYS / PHASE SHIFT   
C L2I                                                       SYS / PHASE SHIFT   
C L7I                                                       SYS / PHASE SHIFT   
C L6I                                                       SYS / PHASE SHIFT   
C L7D                                                       SYS / PHASE SHIFT   
J L1C                                                       SYS / PHASE SHIFT   
J L2L  0.00000                                              SYS / PHASE SHIFT   
J L5Q  0.00000                                              SYS / PHASE SHIFT   
J L1L  0.00000                                              SYS / PHASE SHIFT   
I L5A                                                       SYS / PHASE SHIFT   
  2025     1     2    18    45    0.0000000     GPS         TIME OF FIRST OBS   
 C1C    0.000 C2C    0.000 C2P    0.000                     GLONASS COD/PHS/BIS 
DBHZ                                                        SIGNAL STRENGTH UNIT
    18                                                      LEAP SECONDS        
 24 R01  1 R02 -4 R03  5 R04  6 R05  1 R06 -4 R07  5 R08  6 GLONASS SLOT / FRQ #
    R09 -2 R10 -7 R11  0 R12 -1 R13 -2 R14 -7 R15  0 R16 -1 GLONASS SLOT / FRQ #
    R17  4 R18 -3 R19  3 R20  2 R21  4 R22 -3 R23  3 R24  2 GLONASS SLOT / FRQ #
                                                            END OF HEADER       
> 2025 01 02 18 45  0.0000000  0 57
G23         1.000    21555952.363 7 113277375.46007      1478.198 7        47.328                                    21555948.875 6  88268107.39606      1151.841 6        37.459    21555949.100 7  88268105.40407      1151.773 7        46.314
E11         2.000    27677223.560 5 145444985.37905     -3221.696 5        35.919                                                                    27677220.118 6 108611638.98606     -2406.009 6        37.278    27677219.793 6 111444972.43306     -2468.634 6        38.024
G16         3.000    20651471.951 8 108524426.16008      -239.314 8        48.881                                    20651467.295 6  84564573.09106      -186.484 6        40.372
G05         4.000    25260734.314 6 132746130.16706     -3857.103 6        36.673                                    25260731.657 4 103438562.06204     -3005.522 4        26.647    25260732.269 5 103438561.03505     -3005.465 5        33.790
S21         5.000    38568324.249 7 202677606.34107      -457.738 7        42.415
G26         6.000    21320698.137 8 112041263.82608     -2514.504 8        48.301                                    21320697.002 8  87305013.25708     -1959.354 8        48.646    21320697.417 7  87305000.25907     -1959.294 7        44.804
G10         7.000    23806562.651 7 125104380.22607      3052.726 7        42.536                                    23806561.929 6  97483945.02006      2378.744 6        39.186    23806561.878 6  97483939.02206      2378.715 6        40.548
E15         8.000    27942961.070 6 146841316.63806      2332.080 6        39.168                                                                    27942964.468 6 109654285.82706      1741.439 6        40.889    27942963.629 6 112514821.70906      1786.852 6        41.251
E36         9.000    24023172.743 7 126242817.97107     -1777.615 7        47.515                                                                    24023173.168 8  94272378.09708     -1327.430 8        50.408    24023172.720 8  96731644.76008     -1362.045 8        51.178
G27        10.000    21832900.979 7 114732812.08307      2118.159 7        46.127                                    21832899.579 7  89402259.42807      1650.510 7        45.622    21832899.942 7  89402261.42707      1650.566 7        43.232
G15        11.000    24455350.328 6 128513742.16206      1546.735 6        38.622                                    24455347.547 5 100140567.78505      1205.251 5        30.574    24455347.798 6 100140570.77506      1205.208 6        36.408
C23        13.000                                                                                                                                    23933534.818 7 124628248.50407      -346.300 7        47.020                                                                    23933526.642 7 101270652.85107      -281.426 7        47.721
S36        14.000    38338485.832 7 201470641.11907      -457.417 7        44.077
C13        15.000                                                                                                                                    37888767.951 7 197296816.77307      -873.830 7        44.873    37888769.188 7 152562448.12407      -675.657 7        45.135    37888767.645 7 160319847.66207      -710.121 7        43.175
G18        16.000    21222862.298 7 111527128.56807     -2160.180 7        47.539                                    21222858.744 6  86904353.87306     -1683.260 6        39.099    21222859.168 7  86904361.87107     -1683.213 7        47.723
R10        17.000    20319854.143 7 108316292.83507       -89.518 7        47.246
E27        18.000    27848915.469 6 146347043.14906      2339.399 6        38.859                                                                    27848916.544 6 109285129.49506      1746.925 6        41.836    27848915.941 7 112136043.64707      1792.516 7        42.349
E02        19.000    24311040.110 7 127755565.86007     -2462.180 7        47.973                                                                    24311038.983 8  95401993.41408     -1838.609 8        49.764    24311038.537 8  97890726.13008     -1886.611 8        50.174
S27        20.000    39329480.648 6 206677817.59606      -430.150 6        36.431
R11        21.000    23246710.522 7 124223384.85007      3310.178 7        43.900                                                                    23246708.773 7  96618190.40807      2574.713 7        43.041
I06        22.000    38830361.798 6 152378902.52006      -303.427 6        41.902
S28        23.000    41040486.878 5 215669204.82405      -451.062 5        34.205
E04        24.000    28575367.190 5 150164557.12105       807.675 5        35.543                                                                    28575366.742 6 112135871.15106       603.362 6        39.937    28575365.979 6 115061150.59106       618.921 6        39.856
S23        25.000    38294387.151 7 201238295.86007      -459.005 7        45.190
S45        26.000    63551012.256 6 333963316.05206      -511.557 6        37.365
R09        27.000    20682254.138 8 110442287.58508     -3573.682 8        51.093                                                                    20682252.947 7  85899668.63407     -2779.540 7        47.218
R18        28.000    23167656.930 7 123670815.63607     -3887.680 7        42.421                                                                    23167657.195 6  96188562.59206     -3023.828 6        40.787
C38        29.000                                                                                                                                    39407358.991 6 205204580.55506     -1459.176 6        41.838                                                                    39407356.967 7 166745575.46407     -1185.849 7        42.013
C44        30.000                                                                                                                                    24621792.921 7 128212355.71207     -3067.550 7        43.862                                                                    24621791.911 7 104183125.38007     -2492.736 7        43.776
C43        31.000                                                                                                                                    22931479.158 8 119410329.91508      1415.251 8        48.349                                                                    22931478.139 7  97030715.49407      1149.963 7        47.817
R02        32.000    24067709.899 6 128429918.92406     -2983.629 6        41.836                                                                    24067711.242 6  99889940.78806     -2320.598 6        39.213
I02        33.000    39399251.465 6 154611182.64906      -978.855 6        40.358
R03        34.000    22312685.145 7 119441587.19607       212.298 7        47.172                                                                    22312683.825 7  92899014.05707       165.112 7        43.365
E34        35.000    24013134.568 8 126190079.76108       916.679 8        48.632                                                                    24013134.856 8  94232961.99008       684.568 8        50.539    24013134.729 8  96691202.02908       702.445 8        51.319
G29        36.000    24242033.621 6 127393033.20406     -3563.142 6        40.374                                    24242030.286 5  99267406.07405     -2776.469 5        33.671    24242030.924 6  99267416.05406     -2776.372 6        37.471
G31        37.000    25647094.260 6 134776574.63406     -3779.547 6        38.177                                    25647093.028 4 105020795.43204     -2945.093 4        28.531    25647094.066 5 105020801.41705     -2945.223 5        34.538
C22        38.000                                                                                                                                    24845613.653 7 129377658.37007      -559.054 7        44.349                                                                    24845608.030 7 105129928.90207      -454.419 7        44.621
E25        39.000                                                                                                                                                                                                    28312334.983 3                     -2754.688 3        19.582
C12        40.000                                                                                                                                    23078619.016 7 120176632.40707     -2351.060 7        46.051    23078615.218 8  92928292.78308     -1818.031 8        50.082    23078614.491 8  97653431.63608     -1910.532 8        48.361
R04        41.000    22943537.062 7 122861614.67207      3069.045 7        44.211                                                                    22943536.098 7  95559037.36907      2387.147 7        42.700
S44        42.000    40620394.040 6 213461780.76106      -420.817 6        37.414
G08        43.000    24721370.937 6 129911716.34306      2879.253 6        37.645                                    24721372.630 4 101229934.74504      2243.568 4        26.826    24721374.022 5 101229932.78105      2243.531 5        33.539
C05        44.000                                                                                                                                    39425012.552 6 205296418.12406      -386.424 6        37.943    39425007.648 7 158748235.95707      -298.844 7        42.582    39425009.709 6 166820258.58706      -314.196 6        40.060
C11        45.000                                                                                                                                    21882676.812 8 113948987.00108       294.044 8        48.239    21882673.757 8  88112645.41108       227.412 8        52.321    21882672.533 8  92592925.57108       238.813 8        49.205
G07        47.000    25714164.937 6 135128860.20006      1132.216 6        39.087                                    25714161.032 5 105295202.14505       882.238 5        30.091    25714160.449 6 105295210.14906       882.540 6        36.019
C21        48.000                                                                                                                                    25009190.633 7 130229438.75707      1981.926 7        44.485                                                                    25009185.785 7 105822072.40507      1610.443 7        45.081
R19        50.000    20307307.864 6 108630665.94406     -2470.288 6        40.532                                                                    20307306.045 7  84490631.77007     -1921.310 7        44.509
S48        51.000    77303090.458 6 406231987.55906      -496.747 6        37.781
C08        52.000                                                                                                                                    38109674.368 6 198447182.83106     -1149.042 6        41.278    38109668.786 7 153451979.89707      -888.424 7        45.445    38109667.908 7 161254609.92407      -933.659 7        42.008
C34        53.000                                                                                                                                    21578287.385 8 112364088.58808      -983.298 8        50.868                                                                    21578287.058 8  91305143.12708      -799.058 8        49.478
C60        54.000                                                                                                                                    40620392.581 6 211521238.50106      -416.899 6        40.362                                                                    40620376.655 6 171878300.86506      -338.893 6        40.036
C25        55.000                                                                                                                                    23821282.871 7 124043914.65907     -3105.376 7        47.060                                                                    23821281.090 7 100795934.27507     -2523.439 7        46.375
I09        56.000    39599640.782 6 155397512.08406       467.383 6        41.678
C02        57.000                                                                                                                                    40764326.451 5 212270585.42505      -376.140 5        34.276    40764320.112 6 164141073.64806      -290.936 6        38.706    40764323.501 5 172487240.20905      -306.003 5        35.990
I03        58.000    82929003.668 6 249645970.40706      1107.085 6        40.787
E30        59.000    24404317.567 8 128245773.58708       408.669 8        48.280                                                                    24404317.353 8  95768067.58308       305.183 8        50.370    24404316.838 8  98266348.28108       313.173 8        51.041
R20        60.000    20636988.905 6 110355458.91906      1561.722 6        41.070                                                                    20636990.987 7  85832091.70707      1214.680 7        46.262
> 2025 01 02 18 45  5.0000000  0 56
G23         1.000    21554547.401 7 113269991.33307      1475.666 7        46.849                                    21554543.761 6  88262353.53406      1149.871 6        37.497    21554543.657 7  88262351.53407      1149.878 7        45.630
E11         2.000    27680289.023 5 145461094.55005     -3221.764 5        35.214                                                                    27680285.513 6 108623668.55606     -2405.775 6        37.217    27680285.337 6 111457315.84706     -2468.660 6        37.898
G16         3.000    20651701.270 8 108525630.80008      -242.360 8        48.564                                    20651696.538 6  84565511.77206      -188.849 6        40.431
G05         4.000    25264405.298 6 132765418.67706     -3857.918 6        36.813                                    25264402.113 4 103453592.03404     -3006.164 4        27.114    25264402.920 5 103453591.01405     -3006.288 5        34.476
S21         5.000    38568761.167 7 202679894.70307      -457.429 7        42.482
G26         6.000    21323091.872 8 112053842.14408     -2516.747 8        48.212                                    21323090.568 8  87314814.54108     -1961.102 8        48.738    21323090.836 7  87314801.54407     -1961.156 7        44.644
G10         7.000    23803658.568 7 125089118.08007      3052.205 7        42.413                                    23803657.766 6  97472052.45206      2378.343 6        39.480    23803657.247 6  97472046.45006      2378.434 6        40.391
E15         8.000    27940741.885 6 146829657.47806      2331.898 6        38.279                                                                    27940745.908 6 109645579.32306      1741.379 6        41.106    27940744.844 6 112505888.08606      1786.677 6        41.509
E36         9.000    24024864.690 7 126251709.26707     -1778.670 7        47.225                                                                    24024865.106 8  94279017.69808     -1328.238 8        50.308    24024864.718 8  96738457.57008     -1362.923 8        51.267
G27        10.000    21830886.151 7 114722224.40707      2117.076 7        45.546                                    21830884.800 7  89394009.29207      1649.667 7        45.699    21830885.173 7  89394011.30407      1649.621 7        42.961
G15        11.000    24453879.522 6 128506014.57306      1544.518 6        37.864                                    24453877.090 5 100134546.28905      1203.515 5        30.506    24453877.001 5 100134549.29205      1203.784 5        35.943
C23        13.000                                                                                                                                    23933868.754 7 124629986.69607      -348.826 7        46.844                                                                    23933860.407 7 101272065.27707      -283.460 7        47.730
S36        14.000    38338920.934 7 201472927.68807      -457.066 7        44.200
C13        15.000                                                                                                                                    37889607.188 7 197301187.57507      -874.312 7        44.769    37889608.507 7 152565827.91407      -676.131 7        45.141    37889606.987 7 160323399.30807      -710.413 7        43.270
G18        16.000    21224918.547 7 111537934.08207     -2161.847 7        47.205                                    21224915.006 6  86912773.75406     -1684.555 6        39.069    21224915.312 7  86912781.76207     -1684.593 7        47.586
R10        17.000    20319940.175 7 108316751.32807       -93.679 7        47.389
E27        18.000    27846689.558 6 146335347.34606      2339.128 6        38.685                                                                    27846690.984 6 109276395.61606      1746.742 6        41.592    27846690.353 7 112127081.94107      1792.158 7        42.271
E02        19.000    24313383.499 7 127767880.65807     -2463.536 7        47.503                                                                    24313382.464 8  95411189.53208     -1839.745 8        49.649    24313381.957 8  97900162.14208     -1887.658 8        50.204
S27        20.000    39329889.364 6 206679968.07606      -429.998 6        36.348
R11        21.000    23243612.773 7 124206838.17107      3308.584 7        42.908                                                                    23243613.046 7  96605320.78207      2573.325 7        42.745
I06        22.000    38830748.848 6 152380419.49106      -303.142 6        41.790
S28        23.000    41040914.419 5 215671461.48705      -450.599 5        34.148
E04        24.000    28574599.472 5 150160523.21105       805.979 5        35.410                                                                    28574598.971 6 112132858.83806       601.875 6        39.907    28574598.481 6 115058059.68406       617.682 6        40.024
S23        25.000    38294824.833 7 201240590.57807      -458.718 7        45.162
S45        26.000    63551446.276 6 333965873.62506      -511.370 6        37.595
R09        27.000    20685601.362 8 110460164.00208     -3576.604 8        50.775                                                                    20685600.700 7  85913572.51507     -2781.821 7        47.708
R18        28.000    23171298.781 7 123690254.38107     -3887.546 7        42.440                                                                    23171298.828 6  96203681.59506     -3023.633 6        41.385
C38        29.000                                                                                                                                    39408760.308 6 205211877.22706     -1459.285 6        41.888                                                                    39408758.292 7 166751504.60607     -1185.822 7        42.163
C44        30.000                                                                                                                                    24624738.560 7 128227694.42507     -3067.726 7        44.298                                                                    24624737.600 7 104195589.33407     -2492.701 7        43.714
C43        31.000                                                                                                                                    22930120.712 8 119403256.32608      1414.354 8        48.379                                                                    22930119.696 8  97024967.62808      1149.347 8        48.013
R02        32.000    24070508.067 7 128444844.22707     -2986.331 7        42.904                                                                    24070507.938 6  99901549.34606     -2322.853 6        39.327
I02        33.000    39400498.871 6 154616076.79506      -978.748 6        40.515
R03        34.000    22312488.756 7 119440535.72307       208.337 7        47.894                                                                    22312487.499 7  92898196.23907       162.107 7        43.532
E34        35.000    24012263.291 8 126185499.98708       915.411 8        48.678                                                                    24012263.390 8  94229542.03108       683.586 8        50.468    24012263.238 8  96687692.85308       701.419 8        51.419
G29        36.000    24245423.969 6 127410849.93106     -3563.330 6        40.100                                    24245420.639 5  99281289.23305     -2776.621 5        33.772    24245421.459 6  99281299.23406     -2776.738 6        37.187
G31        37.000    25650690.554 6 134795471.45906     -3778.784 6        39.246                                    25650688.987 4 105035520.19804     -2944.507 4        28.929    25650690.224 5 105035526.20305     -2944.812 5        34.933
C22        38.000                                                                                                                                    24846151.819 7 129380460.58207      -561.735 7        44.611                                                                    24846146.137 7 105132205.93007      -456.276 7        44.728
C12        40.000                                                                                                                                    23080876.564 7 120188390.05407     -2351.744 7        46.094    23080873.043 8  92937384.54308     -1818.491 8        49.941    23080872.293 8  97662985.69808     -1911.001 8        48.388
R04        41.000    22940672.029 7 122846273.81007      3067.506 7        44.223                                                                    22940671.671 7  95547105.58507      2385.902 7        42.718
S44        42.000    40620791.738 6 213463884.21606      -420.333 6        37.414
G08        43.000    24718631.562 6 129897320.14006      2879.469 6        37.074                                    24718633.144 4 101218716.95604      2243.744 4        26.719    24718633.374 5 101218714.99805      2243.501 5        33.922
C05        44.000                                                                                                                                    39425383.455 6 205298350.45906      -386.267 6        38.153    39425378.654 7 158749730.16407      -298.593 7        42.512    39425380.818 6 166821828.77806      -313.888 6        40.167
C11        45.000                                                                                                                                    21882395.115 8 113947520.04008       292.897 8        48.217    21882392.008 8  88111511.06908       226.490 8        52.259    21882390.785 8  92591733.56008       237.968 8        49.245
G07        47.000    25713087.781 6 135123203.92906      1130.230 6        39.321                                    25713084.758 5 105290794.69005       880.701 5        30.166    25713085.254 6 105290802.67406       880.807 6        36.817
C21        48.000                                                                                                                                    25007288.188 7 130219532.84007      1980.519 7        44.161                                                                    25007283.491 7 105814023.04307      1609.372 7        45.183
R19        50.000    20309616.859 6 108643021.33706     -2471.605 6        40.303                                                                    20309615.839 7  84500241.51907     -1922.429 7        44.539
S48        51.000    77303536.306 6 406232870.08716      -496.270 6        37.728
C08        52.000                                                                                                                                    38110778.088 6 198452929.02806     -1149.245 6        41.337    38110772.118 7 153456423.22407      -888.762 7        45.366    38110771.481 7 161259279.17207      -933.918 7        42.059
C34        53.000                                                                                                                                    21579232.188 8 112369008.34608      -984.468 8        50.690                                                                    21579231.862 8  91309140.83208      -799.947 8        49.598
C60        54.000                                                                                                                                    40620792.813 6 211523322.85206      -416.717 6        40.091                                                                    40620776.847 6 171879994.58006      -338.551 6        39.841
C25        55.000                                                                                                                                    23824265.450 7 124059445.42607     -3106.740 7        46.854                                                                    23824263.706 7 100808554.29007     -2524.424 7        46.351
I09        56.000    39599045.188 6 155395175.05806       467.576 6        41.933
C02        57.000                                                                                                                                    40764686.806 5 212272466.15305      -375.782 5        34.295    40764681.343 6 164142527.95706      -290.722 6        38.709    40764684.893 6 172488768.48506      -305.601 6        36.064
I03        58.000    82927593.026 6 249640434.37706      1107.373 6        41.035
E30        59.000    24403929.524 8 128243734.85408       406.977 8        48.012                                                                    24403929.410 8  95766545.16208       303.898 8        50.321    24403928.849 8  98264786.14408       311.820 8        51.168
R20        60.000    20635530.400 6 110347655.47406      1559.864 6        41.194                                                                    20635532.075 7  85826022.36807      1213.242 7        46.594
> 2025 01 02 18 45 10.0000000  0 56
G23         1.000    21553144.842 7 113262621.35607      1472.493 7        46.999                                    21553141.264 6  88256610.69806      1147.404 6        37.437    21553141.345 7  88256608.70307      1147.385 7        45.603
E11         2.000    27683354.371 5 145477204.19605     -3222.035 5        35.410                                                                    27683351.202 6 108635698.48506     -2405.999 6        37.754    27683350.568 6 111469659.59806     -2468.974 6        38.147
G16         3.000    20651933.524 8 108526852.27608      -246.131 8        48.369                                    20651928.977 6  84566463.57106      -191.788 6        40.367
G05         4.000    25268076.589 6 132784714.22106     -3859.931 6        37.070                                    25268073.999 4 103468627.51004     -3007.735 4        27.126    25268075.106 5 103468626.50305     -3007.768 5        34.410
S21         5.000    38569196.278 7 202682182.73607      -457.705 7        42.482
G26         6.000    21325487.820 8 112066433.59608     -2519.748 8        48.291                                    21325486.642 8  87324626.06608     -1963.436 8        48.661    21325486.816 7  87324613.06807     -1963.503 7        44.290
G10         7.000    23800755.065 6 125073860.13106      3051.068 6        41.695                                    23800754.284 6  97460163.15306      2377.453 6        39.138    23800753.824 6  97460157.14906      2377.475 6        40.005
E15         8.000    27938523.987 6 146818001.05806      2330.918 6        37.788                                                                    27938527.636 6 109636874.88506      1740.545 6        41.082    27938526.806 6 112496956.57406      1785.984 6        41.635
E36         9.000    24026557.826 7 126260607.36607     -1780.406 7        47.328                                                                    24026558.338 8  94285662.38508     -1329.523 8        50.272    24026558.041 8  96745275.59508     -1364.200 8        51.457
G27        10.000    21828872.753 7 114711643.56007      2115.410 7        45.628                                    21828871.332 7  89385764.48007      1648.372 7        45.567    21828871.486 7  89385766.46907      1648.542 7        42.876
G15        11.000    24452411.493 6 128498298.73206      1541.766 6        38.270                                    24452408.793 5 100128533.95705      1201.377 5        30.445    24452409.173 5 100128536.95005      1201.351 5        35.881
C23        13.000                                                                                                                                    23934205.261 7 124631739.13407      -352.060 7        47.019                                                                    23934196.889 7 101273489.28707      -286.119 7        47.647
S36        14.000    38339356.989 7 201475214.21707      -457.286 7        44.292
C13        15.000                                                                                                                                    37890447.502 7 197305562.17407      -875.378 7        45.008    37890448.937 7 152569210.63207      -676.914 7        45.276    37890447.094 7 160326954.03607      -711.402 7        43.263
G18        16.000    21226976.962 7 111548749.58607     -2164.190 7        47.194                                    21226973.146 6  86921201.42206     -1686.380 6        39.036    21226973.429 7  86921209.42107     -1686.403 7        47.276
R10        17.000    20320030.605 7 108317232.69607       -98.679 7        47.573
E27        18.000    27844464.522 6 146323654.69806      2338.098 6        38.631                                                                    27844465.753 6 109267664.10206      1745.941 6        41.509    27844465.455 7 112118122.63107      1791.592 7        42.559
E02        19.000    24315728.631 7 127780204.16507     -2465.764 7        47.620                                                                    24315727.566 8  95420392.14508     -1841.297 8        49.647    24315726.967 8  97909604.82908     -1889.362 8        50.389
S27        20.000    39330300.377 6 206682119.70806      -430.661 6        36.257
R11        21.000    23240518.004 7 124190302.12107      3306.105 7        43.390                                                                    23240518.085 7  96592459.39507      2571.336 7        42.318
I06        22.000    38831135.360 6 152381936.29406      -303.423 6        41.914
S28        23.000    41041344.428 5 215673718.18705      -452.090 5        34.071
E04        24.000    28573833.661 5 150156499.17805       803.767 5        35.081                                                                    28573833.391 6 112129853.89206       600.047 6        40.076    28573832.822 6 115054976.34306       615.920 6        40.567
S23        25.000    38295260.964 7 201242885.37007      -459.051 7        45.183
S45        26.000    63551878.914 6 333968431.26306      -511.380 6        37.769
R09        27.000    20688952.227 8 110478056.63408     -3580.253 8        51.264                                                                    20688951.166 7  85927488.99707     -2784.596 7        47.429
R18        28.000    23174940.131 7 123709693.72607     -3887.976 7        43.217                                                                    23174940.922 7  96218801.07907     -3024.083 7        42.144
C38        29.000                                                                                                                                    39410162.180 7 205219176.42107     -1460.253 7        42.082                                                                    39410159.926 7 166757435.82107     -1186.699 7        42.119
C44        30.000                                                                                                                                    24627684.664 7 128243035.34207     -3068.566 7        44.683                                                                    24627683.739 7 104208055.10407     -2493.470 7        43.755
C43        31.000                                                                                                                                    22928763.398 8 119396188.34608      1412.934 8        48.665                                                                    22928762.385 8  97019224.33508      1148.058 8        48.030
R02        32.000    24073306.356 6 128459786.12406     -2989.995 6        41.271                                                                    24073307.958 6  99913170.79606     -2325.690 6        39.417
I02        33.000    39401745.786 6 154620971.45406      -979.024 6        40.691
R03        34.000    22312296.909 7 119439505.79107       203.732 7        47.910                                                                    22312294.551 7  92897395.17207       158.502 7        43.230
E34        35.000    24011393.313 8 126180928.18208       913.445 8        48.500                                                                    24011393.398 8  94226128.02708       682.117 8        50.492    24011393.224 8  96684189.78608       699.938 8        51.632
G29        36.000    24248815.229 6 127428669.93906     -3564.408 6        40.503                                    24248811.591 5  99295174.94605     -2777.460 5        33.826    24248811.783 6  99295184.93606     -2777.572 6        37.013
G31        37.000    25654285.890 6 134814366.22206     -3778.838 6        39.366                                    25654284.699 4 105050243.34904     -2944.544 4        28.986    25654284.932 5 105050249.33605     -2944.576 5        35.019
C22        38.000                                                                                                                                    24846692.657 7 129383277.31507      -564.823 7        45.037                                                                    24846687.099 7 105134494.78407      -459.036 7        44.558
C12        40.000                                                                                                                                    23083135.955 7 120200152.42007     -2353.002 7        46.509    23083131.775 8  92946479.94908     -1819.521 8        49.882    23083131.186 8  97672543.59808     -1912.110 8        48.332
R04        41.000    22937809.628 7 122830942.71307      3065.089 7        44.384                                                                    22937808.015 7  95535181.41007      2383.949 7        42.250
S44        42.000    40621191.000 6 213465987.87806      -420.846 6        37.384
G08        43.000    24715892.215 6 129882924.92506      2878.734 6        37.066                                    24715893.708 4 101207499.94004      2243.168 4        26.731    24715893.480 5 101207497.95505      2243.436 5        33.491
C05        44.000                                                                                                                                    39425754.550 6 205300282.80606      -386.658 6        38.315    39425749.830 7 158751224.37907      -298.864 7        42.538    39425751.896 6 166823398.97506      -314.116 6        40.002
C11        45.000                                                                                                                                    21882114.981 8 113946060.28108       291.092 8        48.430    21882111.671 8  88110382.28108       225.143 8        52.258    21882110.542 8  92590547.39208       236.576 8        49.300
G07        47.000    25712013.903 6 135117559.51506      1127.635 6        38.652                                    25712010.821 4 105286396.43504       878.681 4        29.981    25712011.074 6 105286404.43806       878.560 6        36.510
C21        48.000                                                                                                                                    25005387.518 7 130209635.42607      1978.514 7        44.128                                                                    25005382.517 7 105805980.58607      1607.669 7        45.144
R19        50.000    20311927.687 6 108655385.18206     -2473.631 6        40.155                                                                    20311927.241 7  84509857.85607     -1924.015 7        44.521
S48        51.000    77303980.731 6 406235352.31106      -496.713 6        37.936
C08        52.000                                                                                                                                    38111882.294 6 198458679.00606     -1150.565 6        41.523    38111876.290 7 153460869.48107      -889.629 7        45.172    38111875.688 7 161263951.52507      -934.855 7        42.118
C34        53.000                                                                                                                                    21580178.235 8 112373935.50608      -986.260 8        50.844                                                                    21580178.020 8  91313144.56008      -801.471 8        49.556
C60        54.000                                                                                                                                    40621193.077 6 211525407.36406      -416.942 6        40.412                                                                    40621177.160 6 171881688.41906      -338.934 6        40.072
C25        55.000                                                                                                                                    23827249.511 7 124074984.06207     -3108.633 7        47.008                                                                    23827247.785 7 100821180.71507     -2526.026 7        46.389
I09        56.000    39598449.716 6 155392838.21006       467.253 6        41.967
C02        57.000                                                                                                                                    40765049.450 5 212274347.04605      -376.121 5        34.457    40765042.324 6 164143982.38706      -291.071 6        38.715    40765045.977 6 172490296.86306      -305.876 6        36.045
I03        58.000    82926182.334 6 249634898.43006      1107.103 6        41.085
E30        59.000    24403543.492 7 128241706.44607       404.540 7        47.866                                                                    24403543.415 8  95765030.43908       302.091 8        50.343    24403542.889 8  98263231.90808       309.987 8        51.346
R20        60.000    20634073.561 6 110339862.27706      1557.565 6        41.538                                                                    20634074.609 7  85819961.00407      1211.352 7        47.013
> 2025 01 02 18 45 15.0000000  0 56
G23         1.000    21551745.330 7 113255265.74707      1469.830 7        47.211                                    21551741.521 6  88250879.05706      1145.323 6        37.308    21551741.825 7  88250877.06507      1145.276 7        45.639
E11         2.000    27686420.053 5 145493314.51705     -3222.023 5        34.862                                                                    27686416.989 6 108647728.91606     -2406.042 6        37.633    27686416.432 6 111482003.85606     -2468.759 6        37.777
G16         3.000    20652169.331 8 108528090.75908      -249.270 8        48.739                                    20652164.649 6  84567428.62306      -194.235 6        40.253
G05         4.000    25271750.315 6 132804016.97406     -3861.250 6        37.569                                    25271747.236 4 103483668.58104     -3008.769 4        27.365    25271748.410 5 103483667.53805     -3008.613 5        34.657
S21         5.000    38569631.716 7 202684470.82607      -457.476 7        42.510
G26         6.000    21327886.455 8 112079038.37308     -2522.177 8        48.499                                    21327885.238 8  87334447.96508     -1965.333 8        48.536    21327885.478 7  87334434.97107     -1965.343 7        44.483
G10         7.000    23797852.101 6 125058606.62406      3050.400 6        41.836                                    23797851.472 6  97448277.31106      2376.931 6        38.535    23797851.251 6  97448271.31106      2376.887 6        39.318
E15         8.000    27936306.640 6 146806347.60406      2330.451 6        37.629                                                                    27936309.884 6 109628172.66006      1740.227 6        41.063    27936308.974 6 112488027.30106      1785.782 6        41.530
E36         9.000    24028252.465 7 126269512.46207     -1781.595 7        47.161                                                                    24028252.942 8  94292312.29608     -1330.411 8        50.472    24028252.579 8  96752098.98008     -1365.109 8        51.375
G27        10.000    21826860.733 7 114701069.71907      2114.277 7        45.488                                    21826859.195 7  89377525.13307      1647.487 7        45.549    21826859.533 7  89377527.14407      1647.376 7        42.891
G15        11.000    24450945.650 6 128490594.75706      1539.627 6        39.225                                    24450942.776 5 100122530.86405      1199.709 5        30.551    24450943.546 6 100122533.86806      1199.726 6        36.779
C23        13.000                                                                                                                                    23934544.433 7 124633506.00307      -354.681 7        47.023                                                                    23934536.281 7 101274925.00007      -288.256 7        47.775
S36        14.000    38339791.845 7 201477499.97607      -457.016 7        44.253
C13        15.000                                                                                                                                    37891288.139 7 197309940.73407      -876.072 7        45.064    37891289.763 7 152572596.40807      -677.413 7        45.261    37891287.952 7 160330511.96007      -711.872 7        43.249
G18        16.000    21229036.973 7 111559575.28307     -2166.072 7        47.081                                    21229033.209 6  86929637.02606     -1687.848 6        38.880    21229033.372 7  86929645.02707     -1687.802 7        47.168
R10        17.000    20320125.547 7 108317737.25107      -103.108 7        47.469
E27        18.000    27842240.236 6 146311965.44406      2337.595 6        38.631                                                                    27842241.377 6 109258935.10006      1745.678 6        41.721    27842241.102 7 112109165.92707      1791.104 7        42.660
E02        19.000    24318075.525 7 127792536.57207     -2467.251 7        47.715                                                                    24318074.354 8  95429601.41108     -1842.421 8        49.769    24318073.733 8  97919054.33608     -1890.474 8        50.368
S27        20.000    39330709.115 6 206684271.02606      -430.011 6        36.329
R11        21.000    23237426.219 7 124173776.93507      3304.001 7        43.427                                                                    23237425.815 7  96579606.45607      2569.772 7        42.229
I06        22.000    38831521.779 6 152383453.07306      -303.143 6        41.650
S28        23.000    41041775.304 5 215675974.79405      -451.272 5        34.371
E04        24.000    28573070.064 5 150152485.24205       801.937 5        35.386                                                                    28573069.349 6 112126856.45906       598.792 6        40.067    28573069.159 6 115051900.72606       614.508 6        40.222
S23        25.000    38295696.741 7 201245180.47907      -458.947 7        45.121
S45        26.000    63552315.381 6 333970989.00406      -511.333 6        37.766
R09        27.000    20692306.830 8 110495965.57508     -3583.257 8        51.407                                                                    20692304.994 7  85941418.17007     -2786.988 7        47.426
R18        28.000    23178582.757 7 123729133.78907     -3887.978 7        43.333                                                                    23178582.998 7  96233921.13007     -3024.070 7        42.366
C38        29.000                                                                                                                                    39411564.060 7 205226478.32507     -1460.468 7        42.083                                                                    39411562.208 7 166763369.19707     -1186.927 7        42.127
C44        30.000                                                                                                                                    24630631.418 7 128258378.65607     -3068.815 7        44.466                                                                    24630630.284 7 104220522.78307     -2493.654 7        43.833
C43        31.000                                                                                                                                    22927407.165 8 119389126.18108      1411.960 8        48.555                                                                    22927406.123 8  97013485.73508      1147.260 8        48.001
R02        32.000    24076109.008 7 128474744.47707     -2993.280 7        42.161                                                                    24076112.503 6  99924805.06806     -2328.031 6        40.029
I02        33.000    39402993.432 6 154625866.58706      -978.922 6        40.634
R03        34.000    22312108.186 7 119438497.60907       199.586 7        47.393                                                                    22312106.406 7  92896611.04807       155.249 7        43.251
E34        35.000    24010524.812 8 126176364.55708       912.015 8        48.418                                                                    24010524.910 8  94222720.12208       681.087 8        50.605    24010524.813 8  96680692.98508       698.825 8        51.516
G29        36.000    24252206.987 6 127446493.46606     -3564.855 6        40.601                                    24252203.249 5  99309063.41005     -2777.811 5        33.838    24252203.200 6  99309073.40706     -2778.015 6        36.896
G31        37.000    25657880.878 6 134833259.08806     -3778.376 6        39.871                                    25657879.937 4 105064965.01804     -2944.183 4        29.014    25657879.905 5 105064970.98705     -2944.085 5        34.795
C22        38.000                                                                                                                                    24847236.849 7 129386108.76007      -567.601 7        45.229                                                                    24847230.741 7 105136795.54207      -461.281 7        44.626
C12        40.000                                                                                                                                    23085395.873 7 120211919.70507     -2353.847 7        46.312    23085391.701 8  92955579.15708     -1820.150 8        49.942    23085390.961 8  97682105.46608     -1912.662 8        48.424
R04        41.000    22934948.161 7 122815621.51807      3063.381 7        45.139                                                                    22934947.134 7  95523264.90707      2382.609 7        42.292
S44        42.000    40621592.390 6 213468091.86306      -420.510 6        37.376
G08        43.000    24713152.418 6 129868530.85406      2878.769 6        36.953                                    24713154.526 4 101196283.80104      2243.187 4        26.802    24713155.355 5 101196281.84305      2243.622 5        32.575
C05        44.000                                                                                                                                    39426125.977 6 205302215.39306      -386.327 6        38.111    39426120.895 7 158752718.78607      -298.836 7        42.451    39426123.000 6 166824969.35406      -314.105 6        40.188
C11        45.000                                                                                                                                    21881835.983 8 113944607.90008       289.900 8        48.359    21881832.709 8  88109259.22008       224.095 8        52.229    21881831.619 8  92589367.19908       235.463 8        49.335
G07        47.000    25710942.067 6 135111927.25506      1125.387 6        39.054                                    25710939.184 5 105282007.65805       876.925 5        30.174    25710939.113 6 105282015.64106       877.160 6        37.040
C21        48.000                                                                                                                                    25003488.729 7 130199746.68307      1976.921 7        44.182                                                                    25003483.425 7 105797945.17007      1606.325 7        45.366
R19        50.000    20314240.913 6 108667757.88906     -2475.467 6        40.215                                                                    20314240.304 7  84519481.07107     -1925.290 7        44.828
S48        51.000    77304424.209 6 406237834.81806      -496.428 6        37.720
C08        52.000                                                                                                                                    38112987.404 6 198464432.92506     -1151.027 6        41.333    38112981.210 7 153465318.78507      -890.132 7        44.987    38112980.616 7 161268627.04307      -935.467 7        42.106
C34        53.000                                                                                                                                    21581125.922 8 112378870.25208      -987.577 8        50.883                                                                    21581125.694 8  91317154.43408      -802.584 8        49.657
C60        54.000                                                                                                                                    40621593.404 6 211527492.24506      -416.892 6        40.384                                                                    40621577.531 6 171883382.53806      -338.859 6        40.024
C25        55.000                                                                                                                                    23830235.188 7 124090530.77007     -3110.024 7        47.341                                                                    23830233.425 7 100833813.67107     -2527.297 7        46.421
I09        56.000    39597854.496 7 155390501.72107       467.299 7        42.000
C02        57.000                                                                                                                                    40765410.064 5 212276228.27505      -376.345 5        34.300    40765403.618 6 164145437.06406      -290.966 6        38.601    40765407.266 6 172491825.49506      -305.770 6        36.113
I03        58.000    82924771.888 6 249629362.73606      1107.277 6        41.027
E30        59.000    24403159.752 7 128239688.53807       402.695 7        47.932                                                                    24403159.381 8  95763523.56508       300.684 8        50.412    24403158.852 8  98261685.72308       308.524 8        51.307
R20        60.000    20632617.309 6 110332079.60606      1555.582 6        41.452                                                                    20632619.061 7  85813907.80807      1209.914 7        46.873
> 2025 01 02 18 45 20.0000000  0 56
G23         1.000    21550348.286 7 113247924.74007      1466.746 7        47.156                                    21550344.581 6  88245158.79106      1142.915 6        37.448    21550344.541 7  88245156.80107      1142.867 7        45.550
E11         2.000    27689485.917 5 145509425.69005     -3222.341 5        35.352                                                                    27689482.962 6 108659759.97806     -2406.406 6        38.081    27689482.235 6 111494348.77306     -2469.108 6        37.883
G16         3.000    20652408.745 8 108529346.50208      -252.869 8        48.819                                    20652403.626 6  84568407.12606      -197.040 6        40.408
G05         4.000    25275423.832 6 132823327.17206     -3862.870 6        37.161                                    25275422.033 4 103498715.45804     -3010.024 4        27.509    25275422.640 5 103498714.46305     -3010.016 5        34.414
S21         5.000    38570066.974 7 202686759.12107      -457.691 7        42.447
G26         6.000    21330287.818 8 112091656.69608     -2524.963 8        48.359                                    21330286.424 8  87344280.42208     -1967.503 8        48.648    21330286.965 7  87344267.42707     -1967.507 7        44.725
G10         7.000    23794950.638 7 125043357.78807      3049.378 7        42.650                                    23794949.326 6  97436395.11306      2376.141 6        38.414    23794948.156 6  97436389.10906      2376.005 6        38.240
E15         8.000    27934089.407 6 146794697.31006      2329.801 6        37.482                                                                    27934092.758 6 109619472.79006      1739.650 6        41.180    27934091.864 6 112479100.49206      1784.976 6        41.347
E36         9.000    24029948.228 7 126278424.78707     -1783.135 7        47.528                                                                    24029948.887 8  94298967.59608     -1331.596 8        50.465    24029948.527 8  96758927.90408     -1366.333 8        51.417
G27        10.000    21824850.080 7 114690503.18007      2112.552 7        45.601                                    21824848.445 7  89369291.46807      1646.146 7        45.696    21824848.917 7  89369293.46607      1646.125 7        42.912
G15        11.000    24449481.945 6 128482902.92806      1537.177 6        38.904                                    24449479.102 5 100116537.23605      1197.799 5        30.958    24449479.773 6 100116540.25006      1197.876 6        36.537
C23        13.000                                                                                                                                    23934886.455 7 124635287.54607      -357.820 7        46.993                                                                    23934878.403 8 101276372.65508      -290.708 8        48.061
S36        14.000    38340226.174 7 201479785.60807      -457.119 7        44.128
C13        15.000                                                                                                                                    37892129.971 7 197314323.53107      -877.110 7        44.876    37892131.566 7 152575985.45507      -678.195 7        45.410    37892129.687 7 160334073.33507      -712.606 7        43.528
