     3.04           OBSERVATION DATA    M                   RINEX VERSION / TYPE
ssrcrin-15.6.1x                         20250102 133000 UTC PGM / RUN BY / DATE 
(00000000023479385599111004) Septentrio proprietary         COMMENT             
rref                                                        MARKER NAME         
01                                                          MARKER NUMBER       
geodetic                                                    MARKER TYPE         
NFB                 CLIMERS@TUW                             OBSERVER / AGENCY   
3297213             SEPT ASTERX SB3 PROB4.14.4              REC # / TYPE / VERS 
Unknown             Unknown                                 ANT # / TYPE        
  4127831.7620  1207193.3034  4695247.6494                  APPROX POSITION XYZ 
        0.0000        0.0000        0.0000                  ANTENNA: DELTA H/E/N
G   23 X1  C1C L1C D1C S1C C1W S1W C2W L2W D2W S2W C2L L2L  SYS / # / OBS TYPES 
       D2L S2L C5Q L5Q D5Q S5Q C1L L1L D1L S1L              SYS / # / OBS TYPES 
E   21 X1  C1C L1C D1C S1C C6C L6C D6C S6C C5Q L5Q D5Q S5Q  SYS / # / OBS TYPES 
       C7Q L7Q D7Q S7Q C8Q L8Q D8Q S8Q                      SYS / # / OBS TYPES 
S    9 X1  C1C L1C D1C S1C C5I L5I D5I S5I                  SYS / # / OBS TYPES 
R   17 X1  C1C L1C D1C S1C C2P L2P D2P S2P C2C L2C D2C S2C  SYS / # / OBS TYPES 
       C3Q L3Q D3Q S3Q                                      SYS / # / OBS TYPES 
C   25 X1  C1P L1P D1P S1P C5P L5P D5P S5P C2I L2I D2I S2I  SYS / # / OBS TYPES 
       C7I L7I D7I S7I C6I L6I D6I S6I C7D L7D D7D S7D      SYS / # / OBS TYPES 
J   17 X1  C1C L1C D1C S1C C2L L2L D2L S2L C5Q L5Q D5Q S5Q  SYS / # / OBS TYPES 
       C1L L1L D1L S1L                                      SYS / # / OBS TYPES 
I    5 X1  C5A L5A D5A S5A                                  SYS / # / OBS TYPES 
SEPTENTRIO RECEIVERS OUTPUT ALIGNED CARRIER PHASES.         COMMENT             
NO FURTHER PHASE SHIFT APPLIED IN THE RINEX ENCODER.        COMMENT             
G L1C                                                       SYS / PHASE SHIFT   
G L2W                                                       SYS / PHASE SHIFT   
G L2L  0.00000                                              SYS / PHASE SHIFT   
G L5Q  0.00000                                              SYS / PHASE SHIFT   
G L1L  0.00000                                              SYS / PHASE SHIFT   
E L1C  0.00000                                              SYS / PHASE SHIFT   
E L6C  0.00000                                              SYS / PHASE SHIFT   
E L5Q  0.00000                                              SYS / PHASE SHIFT   
E L7Q  0.00000                                              SYS / PHASE SHIFT   
E L8Q  0.00000                                              SYS / PHASE SHIFT   
S L1C                                                       SYS / PHASE SHIFT   
S L5I                                                       SYS / PHASE SHIFT   
R L1C                                                       SYS / PHASE SHIFT   
R L2P  0.00000                                              SYS / PHASE SHIFT   
R L2C                                                       SYS / PHASE SHIFT   
R L3Q  0.00000                                              SYS / PHASE SHIFT   
C L1P  0.00000                                              SYS / PHASE SHIFT   
C L5P  0.00000                                              SYS / PHASE SHIFT   
C L2I                                                       SYS / PHASE SHIFT   
C L7I                                                       SYS / PHASE SHIFT   
C L6I                                                       SYS / PHASE SHIFT   
C L7D                                                       SYS / PHASE SHIFT   
J L1C                                                       SYS / PHASE SHIFT   
J L2L  0.00000                                              SYS / PHASE SHIFT   
J L5Q  0.00000                                              SYS / PHASE SHIFT   
J L1L  0.00000                                              SYS / PHASE SHIFT   
I L5A                                                       SYS / PHASE SHIFT   
  2025     1     2    13    30    0.0000000     GPS         TIME OF FIRST OBS   
 C1C    0.000 C2C    0.000 C2P    0.000                     GLONASS COD/PHS/BIS 
DBHZ                                                        SIGNAL STRENGTH UNIT
    18                                                      LEAP SECONDS        
 24 R01  1 R02 -4 R03  5 R04  6 R05  1 R06 -4 R07  5 R08  6 GLONASS SLOT / FRQ #
    R09 -2 R10 -7 R11  0 R12 -1 R13 -2 R14 -7 R15  0 R16 -1 GLONASS SLOT / FRQ #
    R17  4 R18 -3 R19  3 R20  2 R21  4 R22 -3 R23  3 R24  2 GLONASS SLOT / FRQ #
                                                            END OF HEADER       
> 2025 01 02 13 30  0.0000000  0 55
E24         1.000    24359967.460 7 128012608.11307     -1914.809 7        47.035                                                                    24359970.208 8  95593898.22408     -1429.911 8        49.748    24359969.242 8  98087641.05608     -1467.225 8        50.679
E11         2.000    26929789.331 6 141517068.32306      2591.123 6        36.200                                                                    26929795.797 6 105678417.10706      1935.091 6        40.582    26929794.506 6 108435236.07706      1985.450 6        41.302
E03         3.000    25068181.880 7 131734181.60007     -1750.809 7        44.229                                                                    25068188.375 7  98372938.79907     -1307.437 7        47.755    25068187.364 8 100939190.49308     -1341.530 8        48.630
G19         4.000    23852733.091 6 125347072.98806     -3942.587 6        39.174                                    23852734.231 3  97673064.29603     -3072.148 3        23.067
S21         5.000    38327793.534 7 201413479.53207      -510.147 7        42.880
E05         6.000    25127002.531 6 132043155.60206     -3561.940 6        40.429                                                                    25127013.465 7  98603601.27807     -2659.942 7        43.731    25127011.870 7 101175871.93107     -2729.279 7        44.427
G25         7.000    20317740.898 8 106770594.14908      1164.189 8        48.450                                    20317743.505 8  83197943.18408       907.158 8        49.049    20317744.222 7  83197944.18807       907.108 7        44.819
C29         8.000                                                                                                                                    23605802.534 7 122921634.74407     -2514.592 7        46.463                                                                    23605804.947 7  99883913.74207     -2043.337 7        45.992
R05         9.000    22395862.018 7 119718714.47407     -3823.616 7        47.115                                                                    22395869.263 7  93114594.66207     -2973.919 7        42.116
G24        10.000    22243085.830 7 116888179.37007     -3810.578 7        45.484                                    22243088.822 7  91081706.66507     -2969.282 7        44.725    22243088.826 7  91081711.67107     -2969.353 7        42.986
C14        11.000                                                                                                                                    26094101.516 6 135878762.94306     -2942.400 6        38.880    26094109.602 7 105070086.03207     -2275.279 7        43.746    26094104.736 6 110412620.69806     -2390.881 6        40.958
S27        12.000    39117300.566 6 205562806.96606      -524.918 6        36.544
E08        13.000    26694125.447 6 140278668.78606       873.274 6        40.596                                                                    26694134.830 7 104753638.02107       652.144 7        44.156    26694133.225 7 107486330.14807       669.133 7        44.921
S36        14.000    38098938.029 7 200211695.28707      -510.274 7        44.983
G06        15.000    22844826.352 7 120050482.20507     -1048.023 7        42.849                                    22844830.661 6  93545901.91806      -816.642 6        40.255    22844831.339 6  93545903.92006      -816.556 6        41.356
G03        16.000    25294142.095 5 132921608.26105      -586.748 5        35.281                                    25294144.172 4 103575285.99004      -457.221 4        25.489    25294145.242 5 103575298.03105      -457.379 5        33.287
G12        17.000    20207633.041 8 106192006.62108     -1376.488 8        50.077                                    20207631.494 8  82747101.52408     -1072.591 8        50.999    20207631.806 7  82747098.52407     -1072.537 7        46.214
G32        18.000    22735087.745 7 119473733.14307      -726.013 7        45.950                                    22735091.930 7  93096466.28607      -565.724 7        42.880    22735092.670 7  93096470.28907      -565.644 7        42.222
E02        19.000    27121273.725 6 142523267.86106      1868.852 6        39.991                                                                    27121285.270 6 106429771.41606      1395.591 6        41.440    27121283.254 6 109206191.28606      1431.841 6        41.735
E10        21.000    25996137.067 7 136610769.38407      1884.011 7        42.908                                                                    25996143.265 7 102014647.72807      1406.841 7        46.243    25996142.569 7 104675886.92907      1443.579 7        47.380
I06        22.000    38416722.230 7 150755569.55607      -479.141 7        42.135
S28        23.000    40800372.140 5 214407257.86105      -517.106 5        35.162
S23        25.000    38040421.491 7 199903610.45007      -515.293 7        45.601
S45        26.000    63294649.775 6 332615690.41506      -574.364 6        36.605
C07        27.000                                                                                                                                    40588932.134 6 211357144.21806     -1434.147 6        36.295    40588933.865 6 163434724.77906     -1109.067 6        39.294    40588931.199 6 171744959.23906     -1165.307 6        37.025
C40        29.000                                                                                                                                    41257739.270 5 214839821.34005     -1666.745 5        33.132                                                                    41257741.395 5 174574947.08005     -1354.428 5        32.377
C44        30.000                                                                                                                                    24420760.268 7 127165404.15207      2855.604 7        44.214                                                                    24420765.479 7 103332366.26507      2320.499 7        44.185
E12        31.000    25901675.537 6 136114340.41406       814.980 6        40.048                                                                    25901678.670 7 101643917.47907       608.556 7        43.524    25901677.969 7 104295483.27907       624.534 7        43.911
G11        32.000    22761459.817 7 119612421.88307      1292.708 7        43.945                                    22761461.691 5  93204569.71805      1007.297 5        32.162    22761461.435 7  93204560.73507      1007.229 7        43.331
I02        33.000    37015778.138 7 145257846.12207      -612.580 7        42.222
R15        34.000    19626650.724 8 104878989.08308      1018.188 8        52.384                                                                    19626653.513 7  81572610.99607       791.910 7        47.444
G29        36.000    23145877.552 7 121632596.95707      2937.792 7        44.727                                    23145880.358 6  94778730.10206      2289.183 6        39.820    23145880.630 6  94778740.13306      2289.077 6        39.480
C42        37.000                                                                                                                                    26750999.411 6 139299349.75706     -3401.468 6        39.459                                                                    26751017.333 6 113192150.85406     -2763.671 6        38.961
C10        38.000                                                                                                                                    39496282.234 6 205667462.60406     -1238.436 6        38.712    39496285.706 7 159035118.24807      -957.695 7        42.514    39496282.420 6 167121640.43306     -1006.333 6        39.291
E25        39.000    23538565.458 8 123696169.52008       414.861 8        48.366                                                                    23538569.538 8  92370634.18008       309.850 8        50.536    23538569.032 8  94780288.56208       317.873 8        51.716
R23        41.000    23258368.200 6 124416642.80306     -4425.543 6        41.266
S44        42.000    40629726.581 6 213510687.54006      -432.034 6        38.087
G28        43.000    24093643.912 6 126613006.23206      2924.054 6        40.420                                    24093649.832 4  98659541.57404      2278.471 4        24.962    24093649.756 6  98659541.60306      2278.407 6        40.582
C05        44.000                                                                                                                                    39351381.492 6 204912893.60706      -497.106 6        38.709    39351382.768 7 158451643.04507      -384.406 7        42.345    39351383.045 6 166508591.47706      -403.943 6        39.366
R14        45.000    20087853.275 8 107079665.77208     -2354.431 8        50.775                                                                    20087857.497 7  83284264.59407     -1831.206 7        47.735
R16        46.000    23295885.862 7 124442457.54907      2966.187 7        45.144                                                                    23295897.688 6  96788645.77706      2307.194 6        40.944
R17        47.000    21006904.034 8 112412360.12408      3231.141 8        50.257                                                                    21006907.143 7  87431952.67907      2513.102 7        44.710
C35        48.000                                                                                                                                    22133011.491 8 115252527.66008       976.944 8        50.943                                                                    22133013.068 8  93652176.48908       793.873 8        49.142
C24        49.000                                                                                                                                    23123353.221 7 120409372.34007      1868.335 7        47.527                                                                    23123354.490 7  97842485.98607      1518.275 7        47.925
C45        50.000                                                                                                                                    24203542.033 7 126034172.09507     -3119.816 7        44.572                                                                    24203539.032 7 102413066.62707     -2534.983 7        46.057
S48        51.000    77036311.882 6 404829539.99606      -524.971 6        38.438
C33        52.000                                                                                                                                    25937255.151 6 135062062.20106     -2036.893 6        41.959                                                                    25937276.281 6 109749064.42306     -1655.025 6        41.633
E33        53.000    27123919.659 6 142537284.40506     -1939.464 6        38.354                                                                    27123927.427 6 106440260.39506     -1448.426 6        41.816    27123925.440 6 109216950.75006     -1486.266 6        41.998
C60        54.000                                                                                                                                    40629724.799 6 211569699.43806      -427.904 6        40.195                                                                    40629716.045 6 171917650.93206      -347.761 6        39.760
E31        55.000    28150058.720 6 147929452.82406     -2970.448 6        36.401                                                                    28150070.231 6 110466799.58106     -2218.164 6        41.211    28150068.202 6 113348542.01206     -2276.125 6        40.555
C26        56.000                                                                                                                                    21515458.033 8 112036728.78208      -639.155 8        50.933                                                                    21515459.659 8  91039062.80508      -519.299 8        49.510
C02        57.000                                                                                                                                    40818483.395 5 212552454.49205      -449.793 5        33.323    40818487.019 6 164358995.56906      -347.887 6        37.388    40818488.270 5 172716252.04605      -365.318 5        33.162
I03        58.000    89588285.413 5 275778224.38505       996.201 5        31.902
R06        59.000    22554049.318 6 120352782.12406        32.220 6        36.306
R24        60.000    19959497.788 8 106732543.51108      -779.838 8        50.493                                                                    19959500.681 7  83014268.35507      -606.542 7        46.794
> 2025 01 02 13 30  5.0000000  0 55
E24         1.000    24361790.117 7 128022185.25507     -1916.065 7        47.193                                                                    24361792.653 8  95601049.98308     -1430.793 8        49.867    24361791.770 8  98094979.38108     -1468.128 8        50.588
E11         2.000    26927324.250 6 141504113.49906      2590.646 6        36.000                                                                    26927330.619 6 105668743.13106      1934.459 6        40.787    26927328.994 6 108425309.72606      1985.006 6        41.085
E03         3.000    25069848.949 7 131742941.96207     -1753.362 7        44.456                                                                    25069855.426 7  98379480.61707     -1309.355 7        47.938    25069854.429 8 100945902.96908     -1343.500 8        48.563
G19         4.000    23856484.981 6 125366788.59606     -3943.694 6        39.177                                    23856486.244 3  97688427.08903     -3073.003 3        23.048
S21         5.000    38328278.611 7 201416030.39107      -510.383 7        42.942
E05         6.000    25130392.269 6 132060967.46806     -3562.802 6        40.517                                                                    25130403.057 7  98616902.31207     -2660.507 7        43.947    25130401.426 7 101189519.94907     -2729.910 7        44.328
G25         7.000    20316634.247 8 106764778.96508      1161.901 8        48.357                                    20316636.913 8  83193411.87708       905.378 8        49.066    20316637.783 7  83193412.87307       905.428 7        44.767
C29         8.000                                                                                                                                    23608218.699 7 122934213.97907     -2517.066 7        46.735                                                                    23608220.649 7  99894135.39307     -2045.179 7        45.964
R05         9.000    22399439.384 7 119737839.53207     -3826.361 7        46.555                                                                    22399446.433 6  93129469.68106     -2976.043 6        41.540
G24        10.000    22246712.063 7 116907237.02607     -3812.477 7        44.820                                    22246715.407 7  91096556.77207     -2970.756 7        44.635    22246715.611 7  91096561.75907     -2970.731 7        42.876
C14        11.000                                                                                                                                    26096927.264 6 135893479.12506     -2944.273 6        38.501    26096935.565 7 105081465.46907     -2276.473 7        43.932    26096930.896 6 110424578.76106     -2392.083 6        40.756
S27        12.000    39117799.510 6 205565432.65106      -525.325 6        36.476
E08        13.000    26693295.433 6 140274308.55706       870.843 6        40.691                                                                    26693305.110 7 104750382.02807       650.205 7        44.251    26693303.513 7 107482989.21307       667.241 7        44.873
S36        14.000    38099424.381 7 200214247.81307      -510.660 7        44.963
G06        15.000    22845825.529 7 120055730.98807     -1051.577 7        42.785                                    22845829.420 6  93549991.88406      -819.414 6        40.246    22845829.883 6  93549993.89806      -819.457 6        41.383
G03        16.000    25294700.697 5 132924550.16105      -589.952 5        35.019                                    25294703.733 4 103577578.43804      -459.711 4        24.752    25294704.439 5 103577590.44205      -459.913 5        32.868
G12        17.000    20208943.790 8 106198895.10708     -1378.918 8        50.101                                    20208942.328 8  82752469.18108     -1074.483 8        51.031    20208942.782 7  82752466.17807     -1074.453 7        46.466
G32        18.000    22735780.107 7 119477371.92807      -729.549 7        45.129                                    22735784.392 7  93099301.70707      -568.478 7        42.925    22735785.009 7  93099305.69907      -568.519 7        42.512
E02        19.000    27119495.502 6 142513925.35206      1868.171 6        40.195                                                                    27119507.517 6 106422794.89206      1395.006 6        41.449    27119505.596 6 109199032.75306      1431.374 6        41.542
E10        21.000    25994345.672 7 136601354.36407      1881.976 7        43.177                                                                    25994351.588 7 102007617.04307      1405.463 7        46.305    25994350.926 7 104668672.83507      1442.109 7        47.268
I06        22.000    38417332.932 7 150757966.02707      -479.440 7        42.108
S28        23.000    40800866.675 5 214409844.08405      -517.168 5        35.400
S23        25.000    38040910.467 7 199906187.22707      -515.495 7        45.621
S45        26.000    63295145.705 6 332618562.95206      -574.491 6        36.745
C07        27.000                                                                                                                                    40590309.419 6 211364315.91206     -1434.657 6        36.242    40590311.208 6 163440270.37706     -1109.272 6        39.300    40590308.481 6 171750786.83306     -1165.580 6        36.911
C40        29.000                                                                                                                                    41259339.140 5 214848156.19805     -1667.091 5        32.707                                                                    41259342.175 5 174581719.82705     -1354.442 5        32.335
C44        30.000                                                                                                                                    24418018.505 7 127151128.62707      2854.524 7        43.983                                                                    24418023.656 7 103320766.25807      2319.570 7        44.053
E12        31.000    25900901.368 6 136110271.93206       812.488 6        40.260                                                                    25900904.441 7 101640879.33707       606.630 7        43.657    25900903.760 7 104292365.88107       622.501 7        43.776
G11        32.000    22760231.524 7 119605966.06107      1289.698 7        44.628                                    22760233.117 5  93199539.22005      1004.956 5        32.048    22760232.838 7  93199530.22207      1004.945 7        43.172
I02        33.000    37016558.899 7 145260909.83407      -613.005 7        42.161
R15        34.000    19625698.725 8 104873903.64808      1015.985 8        52.515                                                                    19625701.797 7  81568655.66707       790.126 7        47.430
G29        36.000    23143082.741 7 121617912.22807      2936.013 7        44.008                                    23143085.853 6  94767287.50706      2287.793 6        39.742    23143086.431 6  94767297.52706      2287.943 6        39.922
C42        37.000                                                                                                                                    26754266.043 6 139316357.75906     -3401.874 6        39.874                                                                    26754283.640 6 113205971.26206     -2764.224 6        38.964
C10        38.000                                                                                                                                    39497471.966 6 205673655.93006     -1239.043 6        38.814    39497475.134 7 159039907.30807      -957.910 7        42.612    39497471.716 6 167126673.01706     -1006.513 6        39.216
E25        39.000    23538171.248 8 123694098.32808       413.527 8        48.500                                                                    23538175.375 8  92369087.51208       308.813 8        50.646    23538174.902 8  94778701.54308       316.881 8        51.608
R23        41.000    23262506.213 6 124438776.64006     -4428.014 6        41.435
S44        42.000    40630133.963 6 213512848.39406      -432.436 6        38.165
G28        43.000    24090861.935 6 126598388.53306      2922.948 6        40.381                                    24090868.237 4  98648151.19704      2277.601 4        24.887    24090868.184 6  98648151.22406      2277.667 6        40.212
C05        44.000                                                                                                                                    39351859.253 6 204915379.91006      -497.559 6        38.604    39351860.185 7 158453565.62307      -384.600 7        42.336    39351860.529 6 166510611.80706      -404.076 6        39.354
R14        45.000    20090062.714 8 107091443.77108     -2356.939 8        50.859                                                                    20090067.230 7  83293425.25507     -1833.090 7        47.973
R16        46.000    23293108.722 7 124427627.07907      2965.959 7        45.342                                                                    23293121.429 6  96777111.03506      2306.770 6        41.166
R17        47.000    21003886.464 8 112396211.70808      3228.191 8        49.529                                                                    21003889.642 7  87419392.80407      2510.862 7        44.898
C35        48.000                                                                                                                                    22132074.663 8 115247650.26708       974.022 8        50.779                                                                    22132076.429 8  93648213.21708       791.558 8        49.041
C24        49.000                                                                                                                                    23121559.713 7 120400033.53407      1867.096 7        47.399                                                                    23121561.041 8  97834897.45308      1517.260 8        48.041
C45        50.000                                                                                                                                    24206538.646 7 126049774.39807     -3121.187 7        44.519                                                                    24206535.371 7 102425744.77507     -2536.086 7        46.071
S48        51.000    77036800.930 6 404832165.44406      -525.282 6        38.742
C33        52.000                                                                                                                                    25939212.321 6 135072253.00306     -2039.357 6        41.845                                                                    25939233.385 6 109757345.27506     -1657.167 6        41.445
E33        53.000    27125766.700 6 142546988.77106     -1942.253 6        38.132                                                                    27125774.048 6 106447507.14306     -1450.319 6        41.974    27125772.421 6 109224386.54206     -1488.186 6        41.881
C60        54.000                                                                                                                                    40630136.144 6 211571840.65506      -428.393 6        40.195                                                                    40630127.283 6 171919390.85706      -347.931 6        39.811
E31        55.000    28152885.053 6 147944305.93406     -2970.893 6        36.310                                                                    28152896.665 6 110477891.17006     -2218.425 6        41.128    28152894.734 6 113359922.93306     -2276.286 6        40.551
C26        56.000                                                                                                                                    21516072.883 8 112039930.02708      -641.347 8        50.943                                                                    21516074.433 8  91041664.08208      -521.079 8        49.549
C02        57.000                                                                                                                                    40818914.839 5 212554704.31505      -449.886 5        33.006    40818919.000 6 164360735.29206      -348.016 6        37.323    40818920.287 5 172718080.21405      -365.547 5        33.245
I03        58.000    89587016.440 5 275773245.05705       995.896 5        31.600
R06        59.000    22554021.892 6 120352633.65906        27.169 6        36.397
R24        60.000    19960228.945 8 106736455.10308      -784.813 8        50.257                                                                    19960232.196 7  83017310.71907      -610.466 7        46.802
> 2025 01 02 13 30 10.0000000  0 55
E24         1.000    24363613.190 7 128031766.37007     -1916.624 7        47.187                                                                    24363615.837 8  95608204.71308     -1431.256 8        49.775    24363614.987 8  98102320.75908     -1468.642 8        50.757
E11         2.000    26924859.057 6 141491160.73306      2590.112 6        36.291                                                                    26924865.730 6 105659070.68006      1934.397 6        41.004    26924864.031 6 108415384.93206      1984.962 6        40.927
E03         3.000    25071517.935 7 131751713.32507     -1755.345 7        44.772                                                                    25071524.581 7  98386030.65807     -1310.807 7        47.821    25071523.498 8 100952623.88208     -1345.029 8        48.716
G19         4.000    23860237.618 6 125386508.55506     -3944.379 6        39.637                                    23860239.111 3  97703793.27403     -3073.537 3        22.629
S21         5.000    38328764.283 7 201418580.95707      -510.062 7        42.690
E05         6.000    25133782.499 6 132078781.77906     -3563.221 6        40.696                                                                    25133792.893 7  98630205.16107     -2660.779 7        43.793    25133791.666 7 101203169.83707     -2730.166 7        44.659
G25         7.000    20315529.557 8 106758973.17308      1160.195 8        48.313                                    20315532.109 8  83188887.88108       904.046 8        49.075    20315532.599 7  83188888.88307       904.106 7        44.927
C29         8.000                                                                                                                                    23610636.680 7 122946803.68507     -2519.009 7        46.500                                                                    23610638.392 7  99904365.55007     -2046.971 7        46.148
R05         9.000    22403018.639 7 119756976.40607     -3828.544 7        45.946                                                                    22403027.182 7  93144353.88107     -2977.821 7        42.938
G24        10.000    22250340.323 7 116926302.25307     -3813.781 7        45.174                                    22250343.382 7  91111412.77107     -2971.775 7        44.551    22250343.576 7  91111417.76507     -2971.750 7        42.976
C14        11.000                                                                                                                                    26099754.690 6 135908201.36706     -2945.066 6        38.937    26099762.321 7 105092849.63107     -2277.345 7        43.490    26099758.266 6 110436541.77906     -2393.240 6        40.894
S27        12.000    39118298.735 6 205568058.43006      -525.048 6        36.393
E08        13.000    26692468.447 6 140269959.00706       868.830 6        41.006                                                                    26692477.329 7 104747134.01107       648.805 7        44.265    26692475.745 7 107479656.46107       665.761 7        45.020
S36        14.000    38099908.058 7 200216799.98407      -510.469 7        44.770
G06        15.000    22846827.340 7 120060996.53507     -1054.805 7        43.177                                    22846831.426 6  93554094.91106      -821.926 6        40.336    22846832.253 6  93554096.92406      -821.893 6        41.897
G03        16.000    25295264.362 5 132927507.61505      -593.336 5        35.729                                    25295266.478 4 103579882.96604      -462.339 4        25.504    25295267.694 5 103579894.95105      -462.227 5        34.343
G12        17.000    20210256.661 8 106205793.80308     -1380.767 8        49.835                                    20210255.102 8  82757844.79108     -1075.924 8        51.067    20210255.643 7  82757841.79407     -1075.944 7        46.628
G32        18.000    22736475.556 7 119481026.62807      -732.526 7        45.732                                    22736479.868 7  93102149.52107      -570.802 7        43.026    22736480.260 7  93102153.51707      -570.777 7        42.334
E02        19.000    27117717.511 6 142504584.07206      1868.122 6        40.119                                                                    27117729.799 6 106415819.26706      1395.077 6        41.390    27117728.104 6 109191875.15506      1431.449 6        41.886
E10        21.000    25992555.399 7 136591946.91407      1880.745 7        43.206                                                                    25992561.271 7 102000592.03407      1404.368 7        46.153    25992560.752 7 104661464.55807      1441.064 7        47.533
I06        22.000    38417943.548 7 150760362.25107      -479.256 7        42.180
S28        23.000    40801359.202 5 214412430.02605      -517.205 5        35.300
S23        25.000    38041398.983 7 199908763.77807      -515.274 7        45.409
S45        26.000    63295635.683 6 332621435.14806      -574.530 6        36.442
C07        27.000                                                                                                                                    40591686.961 6 211371487.06106     -1434.184 6        36.355    40591688.448 6 163445815.57706     -1109.146 6        39.300    40591685.609 6 171756613.98406     -1165.389 6        37.059
C40        29.000                                                                                                                                    41260938.834 5 214856490.09205     -1666.778 5        32.521                                                                    41260942.433 5 174588491.80005     -1354.336 5        32.377
C44        30.000                                                                                                                                    24415277.173 7 127136856.88807      2853.918 7        43.452                                                                    24415282.523 7 103309169.29407      2319.068 7        43.882
E12        31.000    25900129.395 6 136106214.67406       810.192 6        40.675                                                                    25900132.402 7 101637849.58607       604.974 7        43.573    25900131.748 7 104289257.09107       620.813 7        43.964
G11        32.000    22759005.828 7 119599523.35207      1287.237 7        44.852                                    22759007.016 5  93194518.94005      1003.039 5        32.024    22759007.101 7  93194509.94107      1003.006 7        43.346
I02        33.000    37017339.754 7 145263974.13407      -612.820 7        42.072
R15        34.000    19624749.157 8 104868827.77208      1014.171 8        52.608                                                                    19624752.362 7  81564707.76607       788.852 7        47.723
G29        36.000    23140289.239 7 121603233.45507      2935.137 7        43.837                                    23140292.488 6  94755849.54906      2287.111 6        39.679    23140292.960 6  94755859.57706      2287.252 6        39.961
C42        37.000                                                                                                                                    26757533.063 6 139333366.21606     -3401.655 6        39.655                                                                    26757550.538 6 113219792.00306     -2764.293 6        39.772
C10        38.000                                                                                                                                    39498661.027 6 205679849.11306     -1238.819 6        38.715    39498664.614 7 159044696.28307      -957.890 7        42.711    39498660.973 6 167131705.48906     -1006.623 6        39.165
E25        39.000    23537778.002 8 123692031.98108       412.792 8        48.642                                                                    23537782.189 8  92367544.45808       308.260 8        50.596    23537781.667 8  94777118.23508       316.274 8        51.802
R23        41.000    23266646.147 6 124460920.21506     -4429.786 6        41.588
S44        42.000    40630547.213 6 213515009.00706      -432.125 6        38.084
G28        43.000    24088081.056 6 126583774.54606      2922.463 6        40.443                                    24088087.201 4  98636763.72704      2277.241 4        24.947    24088087.138 6  98636763.75006      2277.168 6        40.474
C05        44.000                                                                                                                                    39352336.635 6 204917865.91506      -497.416 6        38.598    39352337.339 7 158455487.98107      -384.387 7        42.360    39352337.678 6 166512631.90906      -404.285 6        39.550
R14        45.000    20092274.779 8 107103232.14308     -2358.662 8        51.448                                                                    20092278.695 7  83302593.98607     -1834.559 7        47.908
R16        46.000    23290333.077 7 124412796.72407      2966.051 7        45.549                                                                    23290344.865 6  96765576.35306      2306.815 6        41.719
R17        47.000    21000870.350 8 112380075.82308      3225.911 8        49.219                                                                    21000874.284 7  87406842.70407      2508.996 7        44.882
C35        48.000                                                                                                                                    22131140.595 8 115242785.48008       971.617 8        50.790                                                                    22131142.156 8  93644260.18008       789.518 8        49.103
C24        49.000                                                                                                                                    23119766.971 7 120390698.95607      1866.427 7        47.234                                                                    23119768.413 8  97827312.34508      1516.635 8        48.132
C45        50.000                                                                                                                                    24209535.659 7 126065381.32907     -3121.967 7        44.390                                                                    24209532.595 7 102438426.66807     -2536.828 7        46.387
S48        51.000    77037287.666 6 404834790.67506      -525.105 6        38.327
C33        52.000                                                                                                                                    25941171.778 6 135082454.69606     -2041.396 6        41.845                                                                    25941192.489 6 109765634.95906     -1658.921 6        41.499
E33        53.000    27127615.462 6 142556704.07706     -1944.107 6        38.565                                                                    27127622.811 6 106454762.09006     -1451.786 6        41.969    27127621.542 7 109231830.74307     -1489.600 7        42.328
C60        54.000                                                                                                                                    40630547.010 6 211573981.62506      -428.279 6        40.064                                                                    40630538.377 6 171921130.57206      -347.927 6        40.057
E31        55.000    28155711.636 6 147959158.95406     -2970.545 6        36.336                                                                    28155722.938 6 110488982.70306     -2218.272 6        40.996    28155721.247 6 113371303.82706     -2276.202 6        40.796
C26        56.000                                                                                                                                    21516689.580 8 112043140.46008      -642.995 8        50.924                                                                    21516690.905 8  91044272.81508      -522.575 8        49.753
C02        57.000                                                                                                                                    40819347.352 5 212556953.87805      -449.899 5        33.150    40819350.543 6 164362474.79806      -347.863 6        37.357    40819352.250 5 172719908.20005      -365.802 5        33.425
I03        58.000    89585747.003 5 275768265.29005       996.224 5        31.668
R06        59.000    22553996.932 5 120352507.00705        23.187 5        35.519
R24        60.000    19960965.073 8 106740389.74908      -789.240 8        50.967                                                                    19960967.916 7  83020370.99207      -613.885 7        46.838
> 2025 01 02 13 30 15.0000000  0 55
E24         1.000    24365437.222 7 128041351.79907     -1917.445 7        47.314                                                                    24365439.868 8  95615362.66408     -1431.866 8        49.680    24365439.073 8  98109665.43908     -1469.280 8        50.909
E11         2.000    26922394.829 6 141478210.25206      2589.803 6        36.045                                                                    26922401.329 6 105649399.96006      1934.045 6        40.937    26922399.658 6 108405461.93906      1984.479 6        41.018
E03         3.000    25073189.721 7 131760495.99407     -1757.594 7        44.606                                                                    25073195.933 7  98392589.13507     -1312.507 7        47.701    25073194.810 8 100959353.45508     -1346.824 8        48.914
G19         4.000    23863991.034 6 125406233.36206     -3945.425 6        40.107                                    23863992.730 3  97719163.24503     -3074.356 3        22.914
S21         5.000    38329249.924 7 201421131.80707      -510.187 7        42.847
E05         6.000    25137172.916 6 132096598.79006     -3563.723 6        40.734                                                                    25137183.348 7  98643510.05907     -2661.151 7        43.913    25137182.323 7 101216821.81607     -2730.624 7        45.105
G25         7.000    20314426.524 8 106753177.09108      1158.193 8        48.526                                    20314429.148 8  83184371.45708       902.488 8        49.036    20314429.603 7  83184372.45407       902.583 7        44.873
C29         8.000                                                                                                                                    23613056.272 7 122959404.12807     -2521.171 7        46.264                                                                    23613058.226 7  99914604.45807     -2048.723 7        46.161
R05         9.000    22406600.525 7 119776125.43107     -3831.093 7        46.104                                                                    22406609.220 6  93159247.52706     -2979.720 6        41.700
G24        10.000    22253969.259 7 116945375.33407     -3815.421 7        45.314                                    22253972.850 7  91126274.89307     -2973.050 7        44.429    22253972.834 7  91126279.88907     -2973.082 7        42.690
C14        11.000                                                                                                                                    26102583.925 6 135922930.03906     -2946.431 6        38.994    26102590.723 7 105104238.74007     -2278.323 7        43.645    26102586.863 6 110448510.02606     -2394.316 6        41.154
S27        12.000    39118796.619 6 205570683.59406      -524.888 6        36.427
E08        13.000    26691642.861 6 140265620.43806       866.560 6        40.777                                                                    26691651.713 7 104743894.18807       647.109 7        44.132    26691650.143 7 107476332.12707       663.950 7        45.260
S36        14.000    38100396.270 7 200219352.51907      -510.756 7        44.861
G06        15.000    22847832.428 7 120066279.09107     -1058.238 7        43.716                                    22847836.709 6  93558211.19506      -824.601 6        40.386    22847837.658 6  93558213.20606      -824.667 6        41.847
G03        16.000    25295830.155 6 132930480.90806      -596.003 6        36.200                                    25295832.277 4 103582199.84604      -464.421 4        26.228    25295833.010 5 103582211.86205      -464.420 5        35.000
G12        17.000    20211571.364 8 106212702.99708     -1382.898 8        49.942                                    20211569.876 8  82763228.58408     -1077.583 8        51.031    20211570.361 7  82763225.58007     -1077.540 7        46.585
G32        18.000    22737174.081 7 119484697.53807      -735.838 7        45.245                                    22737178.416 7  93105009.96707      -573.380 7        42.872    22737179.046 7  93105013.97207      -573.347 7        42.417
E02        19.000    27115940.292 6 142495244.28506      1867.840 6        39.886                                                                    27115952.455 6 106408844.79506      1394.654 6        41.290    27115950.775 7 109184718.72407      1431.219 7        42.112
E10        21.000    25990766.809 7 136582547.36407      1879.041 7        43.084                                                                    25990772.612 7 101993572.90507      1403.228 7        46.176    25990772.100 7 104654262.32607      1439.814 7        47.861
I06        22.000    38418553.918 7 150762758.46707      -479.191 7        42.148
S28        23.000    40801846.220 5 214415016.02705      -517.185 5        35.229
S23        25.000    38041890.267 7 199911340.48007      -515.388 7        45.383
S45        26.000    63296124.140 6 332624307.44806      -574.296 6        36.261
C07        27.000                                                                                                                                    40593064.051 6 211378658.04206     -1434.031 6        36.276    40593065.748 6 163451360.63706     -1109.135 6        39.646    40593062.781 6 171762441.02206     -1165.442 6        37.153
C40        29.000                                                                                                                                    41262539.758 5 214864823.33005     -1666.196 5        32.245                                                                    41262542.940 5 174595263.27605     -1354.288 5        32.090
C44        30.000                                                                                                                                    24412537.378 7 127122589.22307      2853.132 7        42.946                                                                    24412542.547 7 103297575.69107      2318.294 7        43.613
E12        31.000    25899359.518 6 136102168.98306       808.062 6        40.558                                                                    25899362.475 7 101634828.48307       603.288 7        43.600    25899361.840 7 104286157.17407       619.042 7        44.220
G11        32.000    22757782.094 7 119593094.07007      1284.523 7        44.760                                    22757783.513 5  93189509.11505      1000.923 5        32.066    22757783.835 7  93189500.13107      1000.883 7        43.374
I02        33.000    37018120.823 7 145267038.99307      -613.082 7        42.241
R15        34.000    19623801.360 8 104863761.80108      1012.236 8        52.718                                                                    19623804.134 7  81560767.58607       787.265 7        47.669
G29        36.000    23137497.642 7 121588560.94307      2933.770 7        43.702                                    23137500.340 6  94744416.47406      2286.040 6        39.613    23137500.959 6  94744426.49606      2286.186 6        40.305
C42        37.000                                                                                                                                    26760799.387 6 139350375.39306     -3401.972 6        39.234                                                                    26760816.979 6 113233613.31806     -2764.375 6        40.052
C10        38.000                                                                                                                                    39499850.640 6 205686042.45806     -1238.727 6        38.967    39499853.746 7 159049485.37307      -957.754 7        42.739    39499850.298 6 167136738.12106     -1006.684 6        39.315
E25        39.000    23537385.831 8 123689970.75508       411.727 8        48.518                                                                    23537389.883 8  92366005.23708       307.474 8        50.531    23537389.429 8  94775538.86108       315.482 8        51.985
R23        41.000    23270788.120 6 124483073.65106     -4431.602 6        41.580
S44        42.000    40630959.425 6 213517169.69206      -432.175 6        38.135
G28        43.000    24085300.827 6 126569164.55306      2921.489 6        41.044                                    24085306.987 4  98625379.36904      2276.481 4        24.812    24085307.503 6  98625379.39306      2276.544 6        40.057
C05        44.000                                                                                                                                    39352814.177 6 204920351.87906      -497.194 6        38.438    39352814.729 7 158457410.31807      -384.335 7        42.455    39352815.198 6 166514652.00606      -404.155 6        39.535
R14        45.000    20094488.661 8 107115030.95408     -2360.810 8        51.366                                                                    20094492.310 7  83311770.84407     -1836.248 7        47.631
R16        46.000    23287556.945 7 124397966.40707      2966.105 7        45.183                                                                    23287568.697 6  96754041.72806      2306.710 6        41.280
R17        47.000    20997856.996 8 112363952.86108      3223.209 8        49.437                                                                    20997861.389 7  87394302.64207      2507.024 7        45.109
C35        48.000                                                                                                                                    22130209.016 8 115237933.62108       969.095 8        50.985                                                                    22130210.408 8  93640317.68608       787.383 8        49.260
C24        49.000                                                                                                                                    23117975.310 7 120381368.88807      1865.534 7        47.296                                                                    23117976.668 8  97819730.93608      1515.903 8        48.132
C45        50.000                                                                                                                                    24212533.642 7 126080993.18107     -3122.878 7        44.737                                                                    24212530.656 7 102451112.59807     -2537.626 7        46.350
S48        51.000    77037772.377 6 404837415.98206      -525.293 6        38.375
C33        52.000                                                                                                                                    25943132.304 7 135092667.59007     -2043.784 7        42.044                                                                    25943153.836 6 109773933.78806     -1660.796 6        41.569
E33        53.000    27129466.463 6 142566430.64106     -1946.493 6        39.033                                                                    27129473.481 6 106462025.43406     -1453.516 6        41.866    27129472.530 7 109239283.57707     -1491.467 7        42.753
C60        54.000                                                                                                                                    40630958.292 6 211576122.67906      -428.328 6        39.988                                                                    40630949.565 6 171922870.39706      -348.081 6        39.967
E31        55.000    28158538.217 6 147974012.20906     -2970.624 6        36.427                                                                    28158549.309 6 110500074.41506     -2218.447 6        40.701    28158547.658 6 113382684.87906     -2276.306 6        41.056
C26        56.000                                                                                                                                    21517308.035 8 112046360.36608      -644.945 8        50.982                                                                    21517309.242 8  91046889.28408      -524.114 8        49.774
C02        57.000                                                                                                                                    40819779.494 5 212559203.41105      -450.057 5        32.904    40819783.185 6 164364214.28206      -347.799 6        37.671    40819784.035 5 172721736.13705      -365.679 5        33.192
I03        58.000    89584477.976 5 275763285.48605       996.132 5        32.078
R06        59.000    22553977.375 6 120352402.35206        18.903 6        36.155
R24        60.000    19961705.279 8 106744347.65508      -793.939 8        50.973                                                                    19961708.046 7  83023449.36507      -617.504 7        47.192
> 2025 01 02 13 30 20.0000000  0 55
E24         1.000    24367262.071 7 128050941.47207     -1918.160 7        47.309                                                                    24367264.722 8  95622523.78508     -1432.377 8        49.825    24367263.920 8  98117013.37008     -1469.717 8        50.886
E11         2.000    26919930.789 5 141465262.10705      2589.607 5        35.943                                                                    26919937.330 6 105639730.99306      1933.790 6        41.199    26919935.709 6 108395540.70006      1984.346 6        40.844
E03         3.000    25074862.679 7 131769289.93307     -1759.661 7        44.712                                                                    25074869.365 7  98399156.03307     -1314.008 7        47.891    25074868.218 8 100966091.66008     -1348.297 8        48.830
G19         4.000    23867745.782 6 125425962.78106     -3946.031 6        40.131                                    23867747.122 3  97734536.81103     -3074.827 3        23.105
S21         5.000    38329734.505 7 201423682.85207      -509.951 7        42.908
E05         6.000    25140563.934 6 132114418.50206     -3563.928 6        40.725                                                                    25140574.240 7  98656816.94407     -2661.355 7        43.898    25140573.250 7 101230475.84407     -2730.814 7        45.079
G25         7.000    20313325.447 8 106747390.67708      1156.529 8        48.546                                    20313328.038 8  83179862.56908       901.191 8        48.915    20313328.523 7  83179863.57407       901.245 7        44.713
C29         8.000                                                                                                                                    23615478.254 7 122972015.27607     -2523.054 7        46.369                                                                    23615479.944 7  99924852.04007     -2050.152 7        46.368
R05         9.000    22410185.539 7 119795286.43407     -3833.169 7        46.256                                                                    22410193.086 7  93174150.51607     -2981.332 7        42.544
G24        10.000    22257600.353 7 116964456.22707     -3816.750 7        45.544                                    22257603.767 7  91141143.10507     -2974.083 7        44.324    22257604.180 7  91141148.09407     -2974.079 7        42.447
C14        11.000                                                                                                                                    26105413.483 6 135937665.02606     -2947.318 6        39.123    26105420.300 7 105115632.75007     -2278.994 7        42.747    26105416.625 6 110460483.37906     -2394.852 6        41.218
S27        12.000    39119299.194 6 205573309.30806      -524.963 6        36.461
E08        13.000    26690818.979 6 140261292.80606       864.791 6        40.977                                                                    26690828.152 7 104740662.54807       645.640 7        44.301    26690826.659 7 107473016.16707       662.584 7        45.186
S36        14.000    38100883.270 7 200221906.02207      -510.439 7        44.935
G06        15.000    22848840.768 7 120071578.63907     -1061.331 7        43.469                                    22848845.266 6  93562340.71706      -827.012 6        40.322    22848845.950 6  93562342.73206      -827.081 6        41.638
G03        16.000    25296398.884 5 132933469.96005      -599.094 5        35.457                                    25296401.143 4 103584528.98204      -466.824 4        26.575    25296402.012 5 103584540.97805      -466.815 5        35.038
G12        17.000    20212888.210 8 106219622.65608     -1384.703 8        50.074                                    20212886.634 8  82768620.53008     -1078.991 8        50.880    20212887.026 7  82768617.54007     -1078.966 7        46.230
