     3.04           OBSERVATION DATA    M                   RINEX VERSION / TYPE
ssrcrin-15.6.1x                         20250102 040000 UTC PGM / RUN BY / DATE 
(00000000023479385599111004) Septentrio proprietary         COMMENT             
rref                                                        MARKER NAME         
01                                                          MARKER NUMBER       
geodetic                                                    MARKER TYPE         
NFB                 CLIMERS@TUW                             OBSERVER / AGENCY   
3297213             SEPT ASTERX SB3 PROB4.14.4              REC # / TYPE / VERS 
Unknown             Unknown                                 ANT # / TYPE        
  4127831.8705  1207193.1791  4695247.4259                  APPROX POSITION XYZ 
        0.0000        0.0000        0.0000                  ANTENNA: DELTA H/E/N
G   23 X1  C1C L1C D1C S1C C1W S1W C2W L2W D2W S2W C2L L2L  SYS / # / OBS TYPES 
       D2L S2L C5Q L5Q D5Q S5Q C1L L1L D1L S1L              SYS / # / OBS TYPES 
E   21 X1  C1C L1C D1C S1C C6C L6C D6C S6C C5Q L5Q D5Q S5Q  SYS / # / OBS TYPES 
       C7Q L7Q D7Q S7Q C8Q L8Q D8Q S8Q                      SYS / # / OBS TYPES 
S    9 X1  C1C L1C D1C S1C C5I L5I D5I S5I                  SYS / # / OBS TYPES 
R   17 X1  C1C L1C D1C S1C C2P L2P D2P S2P C2C L2C D2C S2C  SYS / # / OBS TYPES 
       C3Q L3Q D3Q S3Q                                      SYS / # / OBS TYPES 
C   25 X1  C1P L1P D1P S1P C5P L5P D5P S5P C2I L2I D2I S2I  SYS / # / OBS TYPES 
       C7I L7I D7I S7I C6I L6I D6I S6I C7D L7D D7D S7D      SYS / # / OBS TYPES 
J   17 X1  C1C L1C D1C S1C C2L L2L D2L S2L C5Q L5Q D5Q S5Q  SYS / # / OBS TYPES 
       C1L L1L D1L S1L                                      SYS / # / OBS TYPES 
I    5 X1  C5A L5A D5A S5A                                  SYS / # / OBS TYPES 
SEPTENTRIO RECEIVERS OUTPUT ALIGNED CARRIER PHASES.         COMMENT             
NO FURTHER PHASE SHIFT APPLIED IN THE RINEX ENCODER.        COMMENT             
G L1C                                                       SYS / PHASE SHIFT   
G L2W                                                       SYS / PHASE SHIFT   
G L2L  0.00000                                              SYS / PHASE SHIFT   
G L5Q  0.00000                                              SYS / PHASE SHIFT   
G L1L  0.00000                                              SYS / PHASE SHIFT   
E L1C  0.00000                                              SYS / PHASE SHIFT   
E L6C  0.00000                                              SYS / PHASE SHIFT   
E L5Q  0.00000                                              SYS / PHASE SHIFT   
E L7Q  0.00000                                              SYS / PHASE SHIFT   
E L8Q  0.00000                                              SYS / PHASE SHIFT   
S L1C                                                       SYS / PHASE SHIFT   
S L5I                                                       SYS / PHASE SHIFT   
R L1C                                                       SYS / PHASE SHIFT   
R L2P  0.00000                                              SYS / PHASE SHIFT   
R L2C                                                       SYS / PHASE SHIFT   
R L3Q  0.00000                                              SYS / PHASE SHIFT   
C L1P  0.00000                                              SYS / PHASE SHIFT   
C L5P  0.00000                                              SYS / PHASE SHIFT   
C L2I                                                       SYS / PHASE SHIFT   
C L7I                                                       SYS / PHASE SHIFT   
C L6I                                                       SYS / PHASE SHIFT   
C L7D                                                       SYS / PHASE SHIFT   
J L1C                                                       SYS / PHASE SHIFT   
J L2L  0.00000                                              SYS / PHASE SHIFT   
J L5Q  0.00000                                              SYS / PHASE SHIFT   
J L1L  0.00000                                              SYS / PHASE SHIFT   
I L5A                                                       SYS / PHASE SHIFT   
  2025     1     2     4     0    0.0000000     GPS         TIME OF FIRST OBS   
 C1C    0.000 C2C    0.000 C2P    0.000                     GLONASS COD/PHS/BIS 
DBHZ                                                        SIGNAL STRENGTH UNIT
    18                                                      LEAP SECONDS        
 24 R01  1 R02 -4 R03  5 R04  6 R05  1 R06 -4 R07  5 R08  6 GLONASS SLOT / FRQ #
    R09 -2 R10 -7 R11  0 R12 -1 R13 -2 R14 -7 R15  0 R16 -1 GLONASS SLOT / FRQ #
    R17  4 R18 -3 R19  3 R20  2 R21  4 R22 -3 R23  3 R24  2 GLONASS SLOT / FRQ #
                                                            END OF HEADER       
> 2025 01 02 04 00  0.0000000  0 57
G09         1.000    19924516.838 8 104704079.11408      -613.633 8        50.715                                    19924513.816 8  81587600.41008      -478.156 8        52.986    19924514.134 7  81587600.41007      -478.151 7        45.976
G06         2.000    21178651.761 8 111294588.58208     -1054.941 8        48.182                                    21178649.876 8  86723061.62308      -822.034 8        49.764    21178650.750 7  86723069.62607      -822.061 7        45.767
E11         3.000    24796347.214 7 130305702.97307       665.937 7        42.554                                                                    24796342.113 7  97306198.38507       497.292 7        43.903    24796342.091 7  99844617.00807       510.255 7        45.151
G16         4.000    23918687.207 6 125693560.52406      1247.253 6        38.973                                    23918682.038 3  97943017.11003       971.873 3        20.595
S21         5.000    38394099.268 7 201762045.27907      -474.799 7        42.411
E10         6.000    24115508.537 7 126727864.83507      -947.378 7        47.878                                                                    24115506.782 8  94634442.21308      -707.439 8        50.300    24115506.848 8  97103166.15308      -725.931 8        51.498
G20         7.000    24166720.053 6 126996973.67606      2930.868 6        40.794                                    24166714.732 3  98958660.46003      2283.802 3        20.619
G03         8.000    22885583.292 7 120264643.20807     -3647.000 7        43.361                                    22885580.521 6  93712749.18806     -2841.819 6        39.018    22885581.942 6  93712747.20106     -2841.956 6        39.793
R10         9.000    21692335.341 6 115632351.94406      3002.307 6        41.836
G31        10.000    25445514.011 5 133717084.88805     -4249.210 5        34.838                                    25445509.849 3 104195113.56503     -3311.077 3        21.619    25445510.725 5 104195118.53105     -3310.611 5        31.079
G30        11.000    24711007.036 6 129857223.40006      3187.291 6        38.159                                    24711005.400 5 101187437.45305      2483.594 5        32.222    24711006.309 6 101187445.45606      2483.682 6        36.813
S27        12.000    39023675.937 6 205070829.26806      -480.543 6        36.284
G26        13.000    24150649.319 6 126912521.60006     -1097.218 6        38.985                                    24150647.466 5  98892881.18005      -854.971 5        31.472    24150647.223 6  98892881.16606      -854.845 6        36.677
S36        14.000    38161683.671 7 200541521.09707      -475.182 7        44.892
I09        15.000    37711022.412 7 147986152.36707      -712.117 7        42.648
G19        16.000    25060319.185 6 131692878.48606     -3637.643 6        37.951                                    25060313.569 2 102617808.45502     -2834.519 2        17.396
S45        17.000    63350169.825 6 332908578.82406      -515.030 6        37.463
E36        18.000    28515086.468 6 149847775.24106      2424.266 6        37.259                                                                    28515087.363 6 111899329.19306      1810.234 6        39.219    28515086.920 6 114818440.82306      1857.342 6        40.667
E12        19.000    24590988.529 7 129226525.80207     -2296.314 7        44.751                                                                    24590984.263 7  96500316.80307     -1714.729 7        46.043    24590984.345 7  99017715.76807     -1759.489 7        47.447
E21        20.000    27901904.884 6 146625491.31206      2155.440 6        36.775                                                                    27901904.580 6 109493075.02606      1609.792 6        39.979    27901905.001 7 112349412.65207      1651.735 7        42.127
G11        21.000    22669622.361 7 119129686.92207      1512.720 7        44.667                                    22669618.108 5  92828309.96805      1178.740 5        32.467    22669618.374 7  92828322.97807      1178.607 7        43.293
I06        22.000    37943928.642 7 148900368.83607      -313.003 7        43.308
S28        23.000    40823971.544 5 214531426.28005      -471.983 5        34.929
R08        24.000    19566607.463 8 104778335.05108        66.166 8        51.368                                                                    19566604.643 7  81494265.40707        51.473 7        47.840
S23        25.000    38103188.391 7 200233602.50207      -470.690 7        44.766
R01        26.000    22683552.230 7 121256592.35907      2648.600 7        42.561                                                                    22683552.780 5  94310674.99405      2060.116 5        35.176
R16        27.000    23359850.338 7 124784143.75207     -3581.741 7        42.464                                                                    23359850.260 6  97054335.69006     -2785.698 6        40.012
R24        29.000    21413696.666 8 114508671.55008       854.795 8        48.541                                                                    21413695.461 7  89062288.64707       664.872 7        44.245
E19        30.000    23030143.167 7 121024253.59007     -1284.012 7        43.306                                                                    23030140.407 7  90375257.20207      -958.830 7        45.723    23030140.400 7  92732869.29907      -983.796 7        47.247
C23        31.000                                                                                                                                    24712653.990 7 128685285.86607     -1684.287 7        44.435                                                                    24712645.158 7 104567303.73807     -1368.534 7        45.321
R23        32.000    21027669.328 7 112483866.29507     -3529.655 7        47.949
E29        33.000    26191005.698 7 137634746.47807     -2853.966 7        42.045                                                                    26191003.606 7 102779208.58207     -2131.197 7        44.767    26191003.614 7 105460399.84107     -2186.753 7        45.646
E04        34.000    24774721.959 7 130192077.65607      1355.179 7        45.515                                                                    24774719.463 8  97221368.10108      1012.037 8        48.443    24774719.332 8  99757573.18308      1038.423 8        49.566
C16        35.000                                                                                                                                    39521446.139 6 205798573.51006     -1410.868 6        40.431    39521445.555 7 159136524.12907     -1090.837 7        42.159    39521443.211 6 167228199.17906     -1146.267 6        38.354
C32        36.000                                                                                                                                    24441217.649 7 127271886.37007     -2890.717 7        45.600                                                                    24441216.898 7 103418853.72007     -2348.965 7        46.281
I01        37.000   382203091.044 6 196706214.15206     -2819.543 6        41.774
E27        38.000    27435396.063 6 144173981.17406       458.060 6        39.063                                                                    27435395.288 6 107662399.82906       342.067 6        40.984    27435395.013 7 110470980.46407       350.983 7        42.889
C19        39.000                                                                                                                                    23714941.082 7 123489924.84507      1717.393 7        47.002                                                                    23714935.881 7 100345657.35807      1395.537 7        47.855
C39        40.000                                                                                                                                    40319937.897 6 209956522.25106     -1645.242 6        39.120                                                                    40319933.216 6 170606867.78306     -1336.827 6        39.613
E33        41.000    27563934.534 6 144849535.41806     -3790.466 6        38.769                                                                    27563932.604 6 108166892.20006     -2830.469 6        41.650    27563932.488 7 110988633.33007     -2904.341 7        43.266
S44        42.000    40705483.532 6 213908969.66206      -548.100 6        37.648
C05        44.000                                                                                                                                    39124091.126 6 203729454.90206      -514.712 6        38.718    39124084.850 7 157536564.27707      -397.916 7        42.766    39124087.286 6 165546975.45306      -418.280 6        40.362
C29        45.000                                                                                                                                    24876587.874 7 129538940.67207     -3298.166 7        44.158                                                                    24876585.569 7 105260997.73507     -2680.084 7        43.600
G04        46.000    20825899.800 7 109440877.34407     -2316.223 7        46.736                                    20825895.970 6  85278592.39106     -1804.850 6        36.979    20825896.164 7  85278594.38907     -1804.781 7        46.308
E30        47.000    28938886.018 4 152074890.68604     -1726.635 4        29.640                                                                    28938885.472 6 113562410.90806     -1289.508 6        36.227    28938885.055 6 116524907.06106     -1323.060 6        36.442
R22        48.000    23677818.948 7 126393822.75207     -5003.833 7        42.186                                                                    23677816.850 6  98306302.11506     -3891.880 6        41.199
C20        49.000                                                                                                                                    21812440.729 8 113583130.11308      -522.356 8        52.373                                                                    21812434.395 8  92295581.75108      -424.414 8        49.919
C06        50.000                                                                                                                                    38951896.487 6 202832778.80806     -1383.393 6        38.892    38951889.924 7 156843154.75107     -1069.795 7        42.578    38951890.192 6 164818228.70506     -1124.325 6        40.515
S48        51.000    77134548.909 6 405343280.90006      -461.293 6        38.147
E06        52.000    26879387.123 6 141252154.11906      1987.724 6        40.250                                                                    26879386.259 7 105480515.59907      1484.385 7        42.172    26879386.300 7 108232179.15507      1523.152 7        43.331
C09        53.000                                                                                                                                    38627606.499 7 201144105.98607      -968.492 7        42.146    38627602.542 7 155537373.06707      -748.845 7        46.449    38627600.928 7 163446042.50207      -786.861 7        42.421
C60        54.000                                                                                                                                    40705486.463 6 211964362.21406      -543.382 6        39.811                                                                    40705470.090 6 172238378.57206      -441.487 6        40.410
R09        55.000    20957183.603 8 111910217.59208       -90.166 8        48.217                                                                    20957181.859 7  87041275.24007       -70.060 7        46.502
G07        56.000    22101457.326 7 116143957.84607      2082.613 7        47.719                                    22101452.012 7  90501768.48407      1622.816 7        44.804    22101452.203 7  90501777.49407      1622.787 7        42.561
C02        57.000                                                                                                                                    40654581.271 5 211699127.12105      -551.231 5        35.390    40654572.790 6 163699190.48606      -426.209 6        40.160    40654576.631 6 172022887.29106      -447.958 6        36.299
I03        58.000   100601165.489 6 318995353.80606       858.608 6        40.558
R07        59.000    20796579.774 8 111325785.71408     -2806.762 8        49.691                                                                    20796578.358 7  86586775.83307     -2183.035 7        45.314
> 2025 01 02 04 00  5.0000000  0 57
G09         1.000    19925101.773 8 104707152.91208      -615.974 8        50.812                                    19925098.731 8  81589995.57808      -479.981 8        52.998    19925099.117 7  81589995.57407      -479.896 7        46.000
G06         2.000    21179657.245 8 111299871.92608     -1058.360 8        48.292                                    21179655.245 8  86727178.51608      -824.695 8        49.778    21179656.284 7  86727186.51307      -824.777 7        45.958
E11         3.000    24795714.639 7 130302379.38007       663.502 7        42.648                                                                    24795709.579 7  97303716.47307       495.538 7        43.856    24795709.622 7  99842070.35207       508.469 7        45.121
G16         4.000    23917501.065 6 125687331.48806      1244.376 6        39.291                                    23917496.580 3  97938163.31503       969.636 3        20.452
S21         5.000    38394552.127 7 201764419.68907      -474.886 7        42.303
E10         6.000    24116411.131 7 126732608.21807      -949.933 7        47.737                                                                    24116409.411 8  94637984.34608      -709.396 8        50.203    24116409.461 8  97106800.69008      -727.922 8        51.480
G20         7.000    24163931.742 6 126982320.61506      2930.401 6        40.834                                    24163926.438 3  98947242.50203      2283.430 3        20.857
G03         8.000    22889054.011 7 120282881.16307     -3648.266 7        43.064                                    22889051.184 6  93726960.57906     -2842.804 6        39.186    22889052.207 6  93726958.57406     -2842.729 6        39.841
R10         9.000    21689521.479 7 115617347.40807      2999.519 7        42.398
G31        10.000    25449557.251 5 133738332.57205     -4249.947 5        35.114                                    25449553.161 3 104211670.20003     -3311.637 3        20.905    25449553.906 5 104211675.21605     -3311.594 5        30.740
G30        11.000    24707974.627 6 129841287.41106      3186.978 6        38.820                                    24707973.076 5 101175019.81705      2483.359 5        32.359    24707973.737 6 101175027.81806      2483.337 6        36.495
S27        12.000    39024132.132 6 205073231.85506      -480.499 6        36.238
G26        13.000    24151694.042 6 126918015.47506     -1100.538 6        38.303                                    24151693.025 5  98897162.12305      -857.560 5        31.472    24151692.762 6  98897162.13706      -857.670 6        36.363
S36        14.000    38162134.710 7 200543897.27007      -475.422 7        44.766
I09        15.000    37711930.093 7 147989713.63807      -712.321 7        42.673
G19        16.000    25063780.814 6 131711067.10206     -3637.675 6        36.439                                    25063774.511 2 102631981.41702     -2834.568 2        16.792
S45        17.000    63350619.375 6 332911155.05306      -515.579 6        37.244
E36        18.000    28512780.568 6 149835656.88306      2423.314 6        37.040                                                                    28512781.519 6 111890279.75206      1809.648 6        39.643    28512780.933 6 114809155.31406      1856.879 6        40.779
E12        19.000    24593174.479 7 129238012.58307     -2298.519 7        44.784                                                                    24593170.032 7  96508894.59307     -1716.411 7        45.901    24593170.235 7  99026517.33107     -1761.204 7        47.368
E21        20.000    27899854.189 6 146614714.91606      2154.899 6        36.684                                                                    27899854.015 6 109485027.74606      1609.135 6        39.751    27899854.220 7 112341155.42907      1651.205 7        42.068
G11        21.000    22668184.159 7 119122130.51307      1509.780 7        45.013                                    22668180.128 5  92822421.86505      1176.457 5        32.473    22668179.973 7  92822434.87507      1176.525 7        43.378
I06        22.000    37944327.687 7 148901933.97207      -313.076 7        43.397
S28        23.000    40824417.530 5 214533787.85205      -472.482 5        34.681
R08        24.000    19566546.094 8 104778009.52408        64.031 8        51.135                                                                    19566543.633 7  81494012.23507        49.752 7        47.539
S23        25.000    38103635.330 7 200235956.10707      -470.828 7        44.719
R01        26.000    22681075.860 7 121243351.26207      2647.868 7        43.422                                                                    22681075.243 5  94300376.39605      2059.177 5        34.886
R16        27.000    23363204.568 7 124802060.05707     -3584.672 7        42.561                                                                    23363204.185 6  97068270.61006     -2788.173 6        40.114
R24        29.000    21412900.301 8 114504408.59408       850.345 8        48.500                                                                    21412898.342 7  89058973.00507       661.321 7        44.682
E19        30.000    23031365.275 7 121030676.68607     -1285.279 7        43.251                                                                    23031362.601 7  90380053.67607      -959.895 7        45.631    23031362.745 7  92737790.89907      -984.828 7        47.273
C23        31.000                                                                                                                                    24714272.465 7 128693714.26507     -1687.095 7        44.879                                                                    24714263.739 7 104574152.50807     -1370.889 7        45.151
R23        32.000    21030970.048 8 112501522.97408     -3533.059 8        48.290
E29        33.000    26193721.240 6 137649016.97106     -2854.420 6        41.766                                                                    26193719.063 7 102789865.10707     -2131.407 7        44.605    26193719.227 7 105471334.36407     -2187.050 7        45.640
E04        34.000    24773432.958 7 130185304.70507      1354.008 7        45.693                                                                    24773430.600 8  97216310.38108      1011.087 8        48.352    24773430.440 8  99752383.52108      1037.477 8        49.516
C16        35.000                                                                                                                                    39522800.634 6 205805627.79606     -1410.941 6        40.644    39522800.161 7 159141978.97907     -1091.248 7        42.243    39522797.926 6 167233931.39406     -1146.451 6        38.150
C32        36.000                                                                                                                                    24443993.356 7 127286342.04607     -2891.550 7        45.655                                                                    24443993.175 7 103430600.13607     -2349.702 7        46.219
I01        37.000   382206683.356 6 196720312.34806     -2819.687 6        41.595
E27        38.000    27434961.457 6 144171696.83706       455.861 6        39.057                                                                    27434960.777 6 107660694.00806       340.315 6        40.911    27434960.135 7 110469230.13307       349.252 7        42.950
C19        39.000                                                                                                                                    23713292.102 7 123481340.13507      1716.420 7        46.959                                                                    23713287.176 7 100338681.58507      1394.724 7        47.718
C39        40.000                                                                                                                                    40321517.683 6 209964749.58706     -1645.570 6        39.378                                                                    40321513.295 6 170613553.17606     -1337.204 6        39.589
E33        41.000    27567541.113 6 144868488.17106     -3790.687 6        38.811                                                                    27567539.263 6 108181045.23506     -2830.792 6        41.650    27567539.074 7 111003155.56807     -2904.651 7        43.223
S44        42.000    40706006.090 6 213911711.15806      -548.363 6        37.539
C05        44.000                                                                                                                                    39124585.383 6 203732028.26806      -514.649 6        38.985    39124579.147 7 157538554.16107      -397.982 7        42.770    39124581.441 6 165549066.53006      -418.394 6        40.167
C29        45.000                                                                                                                                    24879755.525 7 129555433.87107     -3299.225 7        44.749                                                                    24879752.997 7 105274399.82807     -2680.903 7        43.429
G04        46.000    20828104.381 7 109452462.56507     -2317.911 7        46.545                                    20828100.556 6  85287619.83706     -1806.159 6        36.930    20828100.612 7  85287621.83207     -1806.190 7        46.512
E30        47.000    28940530.026 5 152083530.03705     -1729.009 5        30.679                                                                    28940529.572 5 113568862.37005     -1291.134 5        35.962    28940528.875 6 116531526.80806     -1324.558 6        36.170
R22        48.000    23682505.104 7 126418842.28607     -5004.046 7        42.220                                                                    23682502.972 6  98325761.74506     -3892.184 6        40.973
C20        49.000                                                                                                                                    21812942.859 8 113585745.61408      -523.945 8        52.458                                                                    21812936.676 8  92297707.06608      -425.765 8        49.750
C06        50.000                                                                                                                                    38953225.178 6 202839697.11606     -1383.801 6        39.153    38953218.465 7 156848504.42607     -1070.151 7        42.607    38953218.738 6 164823850.39606     -1124.591 6        40.250
S48        51.000    77134994.028 6 405345586.97706      -461.406 6        37.943
E06        52.000    26877496.006 6 141242217.10606      1987.156 6        39.964                                                                    26877495.380 7 105473095.11107      1483.776 7        42.184    26877495.284 7 108224565.09007      1522.541 7        43.242
C09        53.000                                                                                                                                    38628536.440 7 201148949.37807      -969.047 7        42.216    38628532.694 7 155541118.27807      -749.161 7        46.493    38628531.049 7 163449978.15807      -787.365 7        42.180
C60        54.000                                                                                                                                    40706007.828 6 211967078.77906      -543.395 6        39.961                                                                    40705991.879 6 172240586.00506      -441.576 6        40.045
R09        55.000    20957270.201 7 111910679.42707       -94.711 7        47.401                                                                    20957268.638 7  87041634.47507       -73.677 7        46.983
G07        56.000    22099476.450 7 116133549.64807      2080.675 7        47.847                                    22099471.437 7  90493658.20207      1621.308 7        44.832    22099471.355 7  90493667.19707      1621.294 7        42.817
C02        57.000                                                                                                                                    40655110.277 5 211701884.00305      -551.602 5        35.348    40655102.355 6 163701322.28606      -426.483 6        40.167    40655106.017 6 172025127.49706      -448.320 6        36.367
I03        58.000   100600071.418 6 318991060.87906       858.505 6        40.563
R07        59.000    20799202.231 8 111339823.16608     -2808.206 8        49.347                                                                    20799200.779 7  86597693.85007     -2184.199 7        46.026
> 2025 01 02 04 00 10.0000000  0 57
G09         1.000    19925689.010 8 104710237.69108      -617.981 8        50.677                                    19925685.738 8  81592399.30108      -481.545 8        52.888    19925686.161 7  81592399.30807      -481.551 7        45.956
G06         2.000    21180665.771 8 111305172.28108     -1061.659 8        48.568                                    21180663.864 8  86731308.66408      -827.266 8        49.569    21180664.718 7  86731316.66407      -827.237 7        46.071
E11         3.000    24795084.167 7 130299067.10907       661.408 7        42.783                                                                    24795079.293 7  97301243.03107       493.920 7        43.972    24795079.301 7  99839532.38507       506.847 7        45.193
G16         4.000    23916318.804 6 125681116.17806      1241.808 6        39.649                                    23916313.719 3  97933320.21503       967.640 3        20.405
S21         5.000    38395001.570 7 201766794.11607      -474.852 7        42.470
E10         6.000    24117316.104 7 126737364.12607      -952.281 7        47.766                                                                    24117314.426 8  94641535.83908      -711.079 8        50.337    24117314.467 8  97110444.82908      -729.672 8        51.596
G20         7.000    24161143.019 6 126967669.30406      2930.137 6        40.312                                    24161138.274 3  98935825.90203      2283.215 3        20.643
G03         8.000    22892524.955 7 120301124.85307     -3649.261 7        42.717                                    22892522.957 6  93741176.44306     -2843.579 6        39.018    22892523.549 6  93741174.45406     -2843.581 6        39.691
R10         9.000    21686708.757 7 115602355.82207      2997.193 7        42.800
G31        10.000    25453602.268 5 133759583.85805     -4250.342 5        35.124                                    25453597.149 3 104228229.65003     -3311.942 3        20.857    25453598.528 5 104228234.65605     -3312.363 5        30.943
G30        11.000    24704942.752 6 129825352.83906      3186.822 6        38.907                                    24704940.972 5 101162603.27705      2483.235 5        32.222    24704941.847 6 101162611.26806      2483.222 6        36.461
S27        12.000    39024591.542 6 205075634.33006      -480.479 6        36.189
G26        13.000    24152742.344 6 126923525.31806     -1103.515 6        38.532                                    24152741.576 5  98901455.50305      -859.882 5        31.275    24152741.583 6  98901455.51406      -859.870 6        36.749
S36        14.000    38162586.273 7 200546273.05607      -475.013 7        44.956
I09        15.000    37712837.651 7 147993275.52507      -712.295 7        42.643
G19        16.000    25067242.292 6 131729256.36506     -3637.765 6        36.064                                    25067235.864 2 102646154.87602     -2834.616 2        16.038
S45        17.000    63351065.795 6 332912131.25716      -515.251 6        37.837
E36        18.000    28510475.327 6 149823542.27306      2422.375 6        37.629                                                                    28510476.419 6 111881233.12806      1809.011 6        40.033    28510475.592 6 114799872.67606      1856.341 6        40.903
E12        19.000    24595362.221 7 129249509.78907     -2300.412 7        44.707                                                                    24595357.937 7  96517480.16707     -1717.838 7        46.004    24595358.087 7  99035326.87207     -1762.592 7        47.571
E21        20.000    27897804.474 6 146603941.72706      2154.513 6        36.832                                                                    27897804.049 6 109476982.81106      1608.981 6        39.736    27897804.181 7 112332900.64407      1650.809 7        42.027
G11        21.000    22666749.364 7 119114588.03907      1507.249 7        45.038                                    22666744.885 5  92816544.60905      1174.482 5        32.401    22666744.959 7  92816557.61507      1174.476 7        43.086
I06        22.000    37944726.342 7 148903499.33007      -313.000 7        43.134
S28        23.000    40824866.906 5 214536149.67105      -472.152 5        34.986
R08        24.000    19566487.586 8 104777693.77408        62.275 8        51.206                                                                    19566484.702 7  81493766.65207        48.447 7        47.335
S23        25.000    38104083.592 7 200238309.87607      -470.629 7        44.777
R01        26.000    22678599.174 7 121230113.01907      2647.482 7        42.432                                                                    22678599.238 5  94290079.96505      2059.107 5        35.210
R16        27.000    23366561.973 7 124819991.12207     -3587.523 7        42.777                                                                    23366561.776 6  97082216.98906     -2790.283 6        41.087
R24        29.000    21412106.515 8 114500167.45508       846.073 8        48.624                                                                    21412105.311 7  89055674.35107       658.155 7        44.450
E19        30.000    23032589.014 7 121037105.85907     -1286.295 7        43.318                                                                    23032585.985 7  90384854.67607      -960.565 7        45.774    23032586.168 7  92742717.14707      -985.693 7        47.395
C23        31.000                                                                                                                                    24715893.845 7 128702155.74807     -1689.466 7        45.252                                                                    24715884.797 7 104581011.92707     -1372.844 7        45.300
R23        32.000    21034273.764 7 112519196.31907     -3536.208 7        47.710
E29        33.000    26196437.245 6 137663289.12706     -2854.462 6        41.497                                                                    26196434.970 7 102800522.89807     -2131.691 7        44.621    26196435.113 7 105482270.17507     -2187.209 7        45.690
E04        34.000    24772144.911 7 130178536.99007      1353.147 7        45.546                                                                    24772142.797 8  97211256.57008      1010.428 8        48.451    24772142.585 8  99747197.87108      1036.827 8        49.722
C16        35.000                                                                                                                                    39524155.215 6 205812683.57906     -1411.101 6        40.532    39524155.101 7 159147434.94607     -1091.201 7        42.167    39524153.006 6 167239664.79406     -1146.848 6        38.147
C32        36.000                                                                                                                                    24446769.891 7 127300801.29007     -2892.124 7        46.086                                                                    24446770.031 7 103442349.46507     -2350.049 7        46.460
I01        37.000   382210275.950 6 196734411.24706     -2819.787 6        41.435
E27        38.000    27434528.835 6 144169423.65106       453.651 6        39.228                                                                    27434528.179 6 107658996.48606       338.763 6        41.151    27434527.520 7 110467488.33207       347.631 7        43.027
C19        39.000                                                                                                                                    23711644.450 7 123472759.30507      1715.961 7        47.022                                                                    23711639.338 7 100331708.96807      1394.375 7        47.842
C39        40.000                                                                                                                                    40323097.706 6 209972977.58906     -1645.414 6        39.360                                                                    40323093.480 6 170620239.11106     -1337.172 6        39.697
E33        41.000    27571148.052 6 144887442.01006     -3790.719 6        38.495                                                                    27571146.080 6 108195199.06606     -2830.712 6        41.781    27571145.795 7 111017678.63607     -2904.623 7        43.357
S44        42.000    40706529.167 6 213914452.66106      -548.151 6        37.807
C05        44.000                                                                                                                                    39125079.551 6 203734601.77306      -514.380 6        38.979    39125073.490 7 157540544.17407      -397.945 7        42.768    39125075.756 6 165551157.72306      -418.082 6        40.434
C29        45.000                                                                                                                                    24882924.177 7 129571932.10707     -3300.112 7        44.224                                                                    24882921.249 7 105287805.99207     -2681.550 7        43.513
G04        46.000    20830310.538 7 109464055.85807     -2319.372 7        46.926                                    20830306.684 6  85296653.56806     -1807.306 6        36.824    20830306.755 7  85296655.56907     -1807.332 7        46.148
E30        47.000    28942175.950 5 152092180.01805     -1730.547 5        30.898                                                                    28942175.488 5 113575321.80705     -1292.734 5        35.609    28942174.933 6 116538154.74806     -1326.330 6        36.227
R22        48.000    23687191.976 7 126443862.29707     -5003.862 7        42.106                                                                    23687190.601 6  98345221.76406     -3891.884 6        41.070
C20        49.000                                                                                                                                    21813446.567 8 113588368.52608      -525.239 8        52.400                                                                    21813440.390 8  92299838.40508      -426.763 8        49.897
C06        50.000                                                                                                                                    38954554.228 6 202846617.12806     -1383.936 6        38.910    38954547.643 7 156853855.42807     -1070.126 7        42.504    38954547.607 6 164829473.49106     -1124.537 6        40.365
S48        51.000    77135440.778 6 405347892.90706      -461.106 6        38.108
E06        52.000    26875605.329 6 141232283.07006      1986.706 6        40.050                                                                    26875604.999 7 105465676.83407      1483.588 7        42.197    26875604.943 7 108216953.30607      1522.170 7        43.357
C09        53.000                                                                                                                                    38629467.268 7 201153795.11907      -969.298 7        42.298    38629463.021 7 155544865.32707      -749.540 7        46.432    38629461.509 7 163453915.73507      -787.492 7        42.337
C60        54.000                                                                                                                                    40706529.876 6 211969795.35706      -543.086 6        39.715                                                                    40706513.422 6 172242793.47206      -441.394 6        40.248
R09        55.000    20957360.478 8 111911163.66208       -99.022 8        48.268                                                                    20957358.731 7  87042011.09107       -76.997 7        46.973
G07        56.000    22097497.673 7 116123150.69007      2078.979 7        47.265                                    22097492.596 7  90485555.11907      1619.983 7        44.680    22097492.403 7  90485564.12807      1619.948 7        42.569
C02        57.000                                                                                                                                    40655639.932 5 211704640.97405      -551.312 5        35.095    40655631.648 6 163703454.15606      -426.150 6        39.979    40655635.489 6 172027367.78806      -448.233 6        36.268
I03        58.000   100598977.540 6 318986768.09706       858.748 6        40.546
R07        59.000    20801825.093 8 111353866.86308     -2809.241 8        49.040                                                                    20801824.489 7  86608616.74307     -2184.937 7        46.310
> 2025 01 02 04 00 15.0000000  0 57
G09         1.000    19926277.829 8 104713333.51908      -620.500 8        50.549                                    19926274.861 8  81594811.63608      -483.504 8        52.963    19926275.255 7  81594811.62707      -483.422 7        46.255
G06         2.000    21181677.639 8 111310489.70808     -1065.267 8        48.268                                    21181675.729 8  86735452.10708      -830.079 8        49.605    21181676.624 7  86735460.11307      -830.086 7        46.151
E11         3.000    24794456.060 7 130295766.22507       658.990 7        42.358                                                                    24794451.182 7  97298778.09207       492.105 7        43.865    24794451.193 7  99837003.13807       504.931 7        45.458
G16         4.000    23915139.593 6 125674914.57906      1238.935 6        39.288                                    23915133.694 3  97928487.80103       965.405 3        20.619
S21         5.000    38395455.573 7 201769168.70307      -475.045 7        42.597
E10         6.000    24118223.489 7 126742132.63907      -955.103 7        47.507                                                                    24118221.859 8  94645096.74008      -713.220 8        50.287    24118221.874 8  97114098.62608      -731.815 8        51.775
G20         7.000    24158354.905 6 126953019.79806      2929.471 6        39.805                                    24158350.598 3  98924410.69603      2282.720 3        20.619
G03         8.000    22895997.597 7 120319374.34507     -3650.559 7        42.392                                    22895995.762 6  93755396.82006     -2844.590 6        38.787    22895996.538 6  93755394.83306     -2844.760 6        40.014
R10         9.000    21683898.299 7 115587377.03807      2994.385 7        43.020
G31        10.000    25457646.334 5 133780838.83005     -4251.397 5        34.219                                    25457641.987 3 104244791.95103     -3312.770 3        20.738    25457641.658 5 104244796.98405     -3313.338 5        30.958
G30        11.000    24701909.905 6 129809419.79406      3186.258 6        39.126                                    24701909.122 5 101150187.91905      2482.800 5        32.455    24701909.167 6 101150195.91806      2482.779 6        36.499
S27        12.000    39025048.185 6 205078037.62906      -481.165 6        36.306
G26        13.000    24153793.681 6 126929051.19906     -1107.009 6        38.925                                    24153793.230 5  98905761.38405      -862.603 5        30.951    24153793.302 6  98905761.38606      -862.589 6        37.467
S36        14.000    38163037.938 7 200548648.95707      -475.316 7        45.044
I09        15.000    37713745.633 7 147996838.06807      -712.587 7        42.673
G19        16.000    25070703.996 6 131747446.27506     -3638.175 6        37.448                                    25070697.204 2 102660328.81102     -2834.933 2        15.857
S45        17.000    63351514.808 6 332914707.64206      -515.268 6        37.637
E36        18.000    28508170.791 6 149811431.46306      2421.597 6        37.384                                                                    28508171.797 6 111872189.34506      1808.348 6        39.871    28508171.197 6 114790592.96806      1855.620 6        41.073
E12        19.000    24597551.791 7 129261017.45107     -2302.607 7        44.466                                                                    24597547.774 7  96526073.55207     -1719.553 7        46.001    24597547.886 7  99044144.43507     -1764.392 7        47.705
E21        20.000    27895754.761 6 146593171.76006      2153.506 6        36.915                                                                    27895754.560 6 109468940.30106      1608.208 6        39.688    27895754.790 7 112324648.32707      1650.130 7        42.108
G11        21.000    22665316.592 7 119107059.58307      1504.218 7        45.050                                    22665312.267 5  92810678.28405      1172.120 5        32.479    22665312.288 7  92810691.28507      1172.080 7        43.536
I06        22.000    37945125.220 7 148905064.95807      -313.262 7        43.354
S28        23.000    40825313.590 5 214538511.31505      -472.277 5        35.019
R08        24.000    19566430.752 8 104777387.94808        60.077 8        51.270                                                                    19566427.808 7  81493528.77807        46.718 7        47.334
S23        25.000    38104530.347 7 200240663.94307      -471.016 7        44.909
R01        26.000    22676123.190 7 121216877.82307      2646.679 7        43.291                                                                    22676121.582 5  94279785.90405      2058.586 5        33.988
R16        27.000    23369920.803 7 124837936.97907     -3590.746 7        43.372                                                                    23369920.837 6  97096174.87206     -2792.902 6        40.772
R24        29.000    21411317.792 8 114495948.30608       841.559 8        48.637                                                                    21411316.675 7  89052392.79507       654.542 7        44.671
E19        30.000    23033813.354 7 121043541.19907     -1287.720 7        43.162                                                                    23033810.758 7  90389660.28707      -961.639 7        45.702    23033810.731 7  92747648.12007      -986.755 7        47.554
C23        31.000                                                                                                                                    24717517.242 7 128710610.43907     -1692.367 7        45.076                                                                    24717508.352 7 104587882.05107     -1375.118 7        45.249
R23        32.000    21037580.421 7 112536886.44807     -3539.798 7        47.522
E29        33.000    26199153.562 6 137677563.00006     -2855.024 6        41.385                                                                    26199151.163 7 102811181.95607     -2132.001 7        44.429    26199151.283 7 105493207.30807     -2187.616 7        46.022
E04        34.000    24770858.326 7 130171774.58307      1351.795 7        45.738                                                                    24770855.967 8  97206206.72408      1009.462 8        48.406    24770855.715 8  99742016.28708      1035.817 8        49.861
C16        35.000                                                                                                                                    39525510.354 6 205819740.84006     -1411.720 6        40.510    39525510.421 7 159152892.06307     -1091.489 7        42.262    39525508.005 6 167245399.39506     -1147.099 6        38.234
C32        36.000                                                                                                                                    24449547.518 7 127315264.19507     -2893.087 7        46.106                                                                    24449547.410 7 103454101.76207     -2350.865 7        46.533
I01        37.000   382213869.280 6 196748510.85206     -2820.120 6        41.597
E27        38.000    27434098.762 6 144167161.62706       451.098 6        39.153                                                                    27434097.695 6 107657307.31806       336.903 6        41.216    27434097.100 7 110465755.09307       345.667 7        43.316
C19        39.000                                                                                                                                    23709997.245 7 123464182.46607      1714.909 7        46.893                                                                    23709992.298 7 100324739.58207      1393.422 7        47.830
C39        40.000                                                                                                                                    40324677.887 6 209981206.36006     -1645.873 6        39.637                                                                    40324673.737 6 170626925.64706     -1337.376 6        40.038
E33        41.000    27574755.037 6 144906397.00706     -3791.307 6        38.099                                                                    27574753.064 6 108209353.75006     -2831.014 6        41.797    27574752.709 7 111032202.58407     -2905.004 7        43.632
S44        42.000    40707049.767 6 213917194.24806      -548.202 6        37.698
C05        44.000                                                                                                                                    39125573.742 6 203737175.52106      -514.903 6        38.835    39125567.644 7 157542534.34907      -398.166 7        42.851    39125570.023 6 165553249.09906      -418.509 6        40.398
C29        45.000                                                                                                                                    24886092.638 7 129588435.39607     -3301.299 7        43.790                                                                    24886090.496 7 105301216.27107     -2682.709 7        43.651
G04        46.000    20832518.059 7 109475657.29607     -2321.255 7        46.689                                    20832514.351 6  85305693.65006     -1808.767 6        36.866    20832514.184 7  85305695.64807     -1808.722 7        46.080
E30        47.000    28943824.048 5 152100840.70805     -1733.148 5        31.004                                                                    28943823.530 5 113581789.19705     -1294.352 5        35.957    28943823.110 6 116544790.87106     -1328.150 6        36.280
R22        48.000    23691879.233 7 126468882.86907     -5004.269 7        42.093                                                                    23691878.025 6  98364682.17506     -3892.282 6        41.025
C20        49.000                                                                                                                                    21813951.686 8 113590998.92908      -526.944 8        52.395                                                                    21813945.525 8  92301975.82708      -428.176 8        49.863
C06        50.000                                                                                                                                    38955883.344 6 202853538.98406     -1384.915 6        38.895    38955876.626 7 156859207.83307     -1070.729 7        42.557    38955876.832 6 164835098.05506     -1125.143 6        40.522
S48        51.000    77135881.721 6 405351798.86816      -461.137 6        38.063
E06        52.000    26873716.070 6 141222352.05806      1985.843 6        40.253                                                                    26873715.308 7 105458260.82907      1482.890 7        42.184    26873715.164 7 108209343.82607      1521.640 7        43.695
C09        53.000                                                                                                                                    38630398.307 7 201158643.32607      -969.849 7        42.358    38630393.926 7 155548614.28107      -750.183 7        46.549    38630392.472 7 163457855.30807      -788.206 7        42.201
C60        54.000                                                                                                                                    40707051.272 6 211972512.03806      -543.475 6        39.901                                                                    40707035.368 6 172245000.98806      -441.688 6        40.234
R09        55.000    20957455.707 8 111911670.47308      -103.657 8        48.506                                                                    20957453.943 7  87042405.27607       -80.664 7        46.727
G07        56.000    22095520.500 7 116112761.07307      2076.889 7        47.160                                    22095515.527 7  90477459.31107      1618.354 7        44.685    22095515.455 7  90477468.31307      1618.269 7        42.313
C02        57.000                                                                                                                                    40656169.627 5 211707398.16705      -551.802 5        35.248    40656161.133 6 163705586.17006      -426.475 6        40.038    40656165.139 6 172029608.19706      -448.279 6        36.382
I03        58.000   100597884.003 6 318982475.50606       858.391 6        40.758
R07        59.000    20804449.806 8 111367917.12708     -2810.821 8        49.053                                                                    20804448.446 7  86619544.71207     -2186.232 7        46.016
> 2025 01 02 04 00 20.0000000  0 57
G09         1.000    19926869.157 8 104716440.81508      -622.645 8        50.975                                    19926866.166 8  81597232.90408      -485.178 8        52.859    19926866.448 7  81597232.89707      -485.160 7        46.194
G06         2.000    21182692.687 8 111315824.66108     -1068.787 8        48.433                                    21182690.926 8  86739609.21408      -832.818 8        49.575    21182691.536 7  86739617.21007      -832.814 7        45.944
E11         3.000    24793830.276 7 130292477.20507       656.614 7        42.375                                                                    24793825.268 7  97296322.00707       490.268 7        43.886    24793825.365 7  99834482.97807       503.091 7        45.431
G16         4.000    23913961.402 6 125668727.18006      1235.929 6        38.841                                    23913956.369 3  97923666.45603       963.062 3        20.500
S21         5.000    38395907.547 7 201771543.85807      -475.244 7        42.131
E10         6.000    24119133.542 7 126746914.20707      -957.690 7        47.509                                                                    24119131.766 8  94648667.38808      -715.148 8        50.293    24119131.773 8  97117762.42008      -733.852 8        51.698
G20         7.000    24155568.247 6 126938372.58106      2928.985 6        40.262                                    24155563.185 3  98912997.29103      2282.335 3        20.381
G03         8.000    22899471.771 7 120337630.08407     -3651.770 7        42.432                                    22899469.738 6  93769622.06706     -2845.537 6        38.601    22899470.277 6  93769620.07806     -2845.631 6        39.372
R10         9.000    21681091.179 7 115572411.57207      2991.582 7        42.392
G31        10.000    25461692.009 5 133802097.86805     -4252.187 5        34.495                                    25461687.629 3 104261357.42103     -3313.382 3        20.333    25461687.661 5 104261362.43005     -3313.746 5        31.102
G30        11.000    24698878.617 6 129793488.68706      3185.925 6        39.598                                    24698877.537 5 101137774.07305      2482.538 5        32.479    24698878.038 6 101137782.03706      2482.717 6        36.200
S27        12.000    39025508.793 6 205080441.90606      -481.062 6        36.518
G26        13.000    24154848.854 6 126934593.54606     -1110.138 6        38.694                                    24154847.925 5  98910080.10305      -865.040 5        30.891    24154847.590 6  98910080.11606      -865.357 6        37.240
S36        14.000    38163488.396 7 200551025.01707      -475.174 7        44.658
I09        15.000    37714653.545 7 148000401.63107      -712.946 7        42.724
G19        16.000    25074165.117 6 131765637.36306     -3638.390 6        38.084                                    25074158.790 2 102674503.70002     -2835.117 2        15.667
S45        17.000    63351965.892 6 332917284.67006      -515.380 6        37.584
E36        18.000    28505867.117 6 149799324.96606      2420.921 6        37.584                                                                    28505867.888 6 111863148.77306      1807.751 6        39.874    28505867.588 6 114781316.56306      1854.899 6        41.218
E12        19.000    24599743.700 7 129272536.01207     -2304.824 7        44.290                                                                    24599739.700 7  96534675.07307     -1721.192 7        45.968    24599739.846 7  99052970.34707     -1766.084 7        47.677
E21        20.000    27893705.979 6 146582405.49906      2152.645 6        37.059                                                                    27893705.874 6 109460900.56106      1607.695 6        39.817    27893706.014 6 112316398.85306      1649.584 6        41.871
G11        21.000    22663886.411 7 119099545.61007      1501.289 7        45.330                                    22663882.376 5  92804823.23705      1169.837 5        32.455    22663882.810 7  92804836.24607      1169.755 7        43.464
I06        22.000    37945524.620 7 148906631.19207      -313.323 7        43.183
S28        23.000    40825766.104 5 214540873.30905      -472.339 5        34.952
