     3.04           OBSERVATION DATA    M                   RINEX VERSION / TYPE
ssrcrin-15.6.1x                         20250102 123000 UTC PGM / RUN BY / DATE 
(00000000023479385599111004) Septentrio proprietary         COMMENT             
rref                                                        MARKER NAME         
01                                                          MARKER NUMBER       
geodetic                                                    MARKER TYPE         
NFB                 CLIMERS@TUW                             OBSERVER / AGENCY   
3297213             SEPT ASTERX SB3 PROB4.14.4              REC # / TYPE / VERS 
Unknown             Unknown                                 ANT # / TYPE        
  4127831.3794  1207193.0919  4695248.8886                  APPROX POSITION XYZ 
        0.0000        0.0000        0.0000                  ANTENNA: DELTA H/E/N
G   23 X1  C1C L1C D1C S1C C1W S1W C2W L2W D2W S2W C2L L2L  SYS / # / OBS TYPES 
       D2L S2L C5Q L5Q D5Q S5Q C1L L1L D1L S1L              SYS / # / OBS TYPES 
E   21 X1  C1C L1C D1C S1C C6C L6C D6C S6C C5Q L5Q D5Q S5Q  SYS / # / OBS TYPES 
       C7Q L7Q D7Q S7Q C8Q L8Q D8Q S8Q                      SYS / # / OBS TYPES 
S    9 X1  C1C L1C D1C S1C C5I L5I D5I S5I                  SYS / # / OBS TYPES 
R   17 X1  C1C L1C D1C S1C C2P L2P D2P S2P C2C L2C D2C S2C  SYS / # / OBS TYPES 
       C3Q L3Q D3Q S3Q                                      SYS / # / OBS TYPES 
C   25 X1  C1P L1P D1P S1P C5P L5P D5P S5P C2I L2I D2I S2I  SYS / # / OBS TYPES 
       C7I L7I D7I S7I C6I L6I D6I S6I C7D L7D D7D S7D      SYS / # / OBS TYPES 
J   17 X1  C1C L1C D1C S1C C2L L2L D2L S2L C5Q L5Q D5Q S5Q  SYS / # / OBS TYPES 
       C1L L1L D1L S1L                                      SYS / # / OBS TYPES 
I    5 X1  C5A L5A D5A S5A                                  SYS / # / OBS TYPES 
SEPTENTRIO RECEIVERS OUTPUT ALIGNED CARRIER PHASES.         COMMENT             
NO FURTHER PHASE SHIFT APPLIED IN THE RINEX ENCODER.        COMMENT             
G L1C                                                       SYS / PHASE SHIFT   
G L2W                                                       SYS / PHASE SHIFT   
G L2L  0.00000                                              SYS / PHASE SHIFT   
G L5Q  0.00000                                              SYS / PHASE SHIFT   
G L1L  0.00000                                              SYS / PHASE SHIFT   
E L1C  0.00000                                              SYS / PHASE SHIFT   
E L6C  0.00000                                              SYS / PHASE SHIFT   
E L5Q  0.00000                                              SYS / PHASE SHIFT   
E L7Q  0.00000                                              SYS / PHASE SHIFT   
E L8Q  0.00000                                              SYS / PHASE SHIFT   
S L1C                                                       SYS / PHASE SHIFT   
S L5I                                                       SYS / PHASE SHIFT   
R L1C                                                       SYS / PHASE SHIFT   
R L2P  0.00000                                              SYS / PHASE SHIFT   
R L2C                                                       SYS / PHASE SHIFT   
R L3Q  0.00000                                              SYS / PHASE SHIFT   
C L1P  0.00000                                              SYS / PHASE SHIFT   
C L5P  0.00000                                              SYS / PHASE SHIFT   
C L2I                                                       SYS / PHASE SHIFT   
C L7I                                                       SYS / PHASE SHIFT   
C L6I                                                       SYS / PHASE SHIFT   
C L7D                                                       SYS / PHASE SHIFT   
J L1C                                                       SYS / PHASE SHIFT   
J L2L  0.00000                                              SYS / PHASE SHIFT   
J L5Q  0.00000                                              SYS / PHASE SHIFT   
J L1L  0.00000                                              SYS / PHASE SHIFT   
I L5A                                                       SYS / PHASE SHIFT   
  2025     1     2    12    30    0.0000000     GPS         TIME OF FIRST OBS   
 C1C    0.000 C2C    0.000 C2P    0.000                     GLONASS COD/PHS/BIS 
DBHZ                                                        SIGNAL STRENGTH UNIT
    18                                                      LEAP SECONDS        
 24 R01  1 R02 -4 R03  5 R04  6 R05  1 R06 -4 R07  5 R08  6 GLONASS SLOT / FRQ #
    R09 -2 R10 -7 R11  0 R12 -1 R13 -2 R14 -7 R15  0 R16 -1 GLONASS SLOT / FRQ #
    R17  4 R18 -3 R19  3 R20  2 R21  4 R22 -3 R23  3 R24  2 GLONASS SLOT / FRQ #
                                                            END OF HEADER       
> 2025 01 02 12 30  0.0000000  0 55
E24         1.000    23871054.436 8 125443358.54708     -1225.555 8        48.594                                                                    23871056.609 8  93675304.55608      -915.130 8        50.875    23871055.815 8  96118996.90808      -938.993 8        51.630
G15         2.000    25321548.453 6 133065356.33906     -4356.017 6        39.495                                    25321560.993 5 103687208.83905     -3394.278 5        30.158    25321561.276 5 103687203.82605     -3394.167 5        35.390
E03         3.000    25052654.373 7 131652595.54707       -24.277 7        44.980                                                                    25052660.394 8  98312017.11808       -18.064 8        48.202    25052659.435 8 100876679.20308       -18.535 8        48.804
G19         4.000    22108519.123 7 116181197.75507     -2701.439 7        45.413                                    22108518.542 5  90530832.05905     -2105.017 5        34.648
S21         5.000    38574047.984 7 202707569.84607      -520.579 7        43.200
E05         6.000    23515148.103 7 123572864.67307     -2749.681 7        46.216                                                                    23515154.433 8  92278402.34108     -2053.273 8        48.810    23515153.353 8  94685665.66508     -2106.794 8        49.235
G25         7.000    22136168.946 7 116326463.65207      2323.112 7        44.295                                    22136172.971 6  90644067.22106      1810.219 6        41.733    22136173.690 6  90644068.22506      1810.206 6        41.263
C29         8.000                                                                                                                                    23077826.126 8 120172323.83308      -654.207 8        48.379                                                                    23077827.423 7  97649874.53407      -531.636 7        47.443
R05         9.000    21219815.961 8 113432134.43708     -1180.789 8        49.753                                                                    21219819.914 7  88225046.96907      -918.363 7        45.348
G24        10.000    20711991.156 8 108842247.25108     -2280.595 8        50.090                                    20711992.971 8  84812154.96808     -1777.090 8        52.055    20711993.223 7  84812159.96807     -1777.108 7        46.053
C14        11.000                                                                                                                                    25099023.971 7 130697211.76207     -1503.387 7        42.811    25099027.554 7 101063401.20007     -1162.367 7        46.158    25099024.456 7 106202201.40607     -1221.577 7        43.638
S27        12.000    39350678.000 6 206789092.58906      -542.908 6        36.888
E08        13.000    28347519.017 6 148967231.46306      2078.996 6        38.129                                                                    28347533.578 6 111241827.51406      1552.587 6        40.696    28347531.565 6 114143779.42106      1593.158 6        41.630
S36        14.000    38344969.502 7 201504590.12007      -520.922 7        45.318
G06        15.000    23536171.239 6 123683493.34506      1225.943 6        41.261                                    23536177.298 6  96376811.99906       955.280 6        38.393    23536178.114 6  96376814.00106       955.152 6        40.937
E09        16.000    28517301.659 4 149859172.39604     -3781.709 4        29.052                                                                    28517320.922 5 111907740.86905     -2824.074 5        34.805    28517318.302 5 114827079.02505     -2897.576 5        35.138
G12        17.000    20398414.933 8 107194569.12308       210.674 8        50.632                                    20398413.142 8  83528318.48508       164.162 8        51.342    20398413.944 7  83528315.48007       164.188 7        45.899
G32        18.000    23616105.676 7 124103499.71907      1477.783 7        44.066                                    23616110.577 6  96704073.30506      1151.518 6        40.184    23616111.233 6  96704077.30206      1151.592 6        40.977
R22        19.000    24682220.129 6 131755439.99306     -4335.645 6        37.331                                                                    24682228.746 5 102476446.39205     -3372.205 5        35.467
E10        21.000    28152137.714 6 147940513.76206      2491.368 6        38.501                                                                    28152152.307 6 110475137.00906      1860.446 6        41.206    28152150.855 7 113357088.59107      1908.897 7        42.197
I06        22.000    38567381.153 6 151346773.36306      -497.504 6        41.890
S28        23.000    41041080.835 5 215672146.96805      -529.784 5        35.524
S23        25.000    38283254.403 7 201179729.24207      -525.383 7        45.213
S45        26.000    63535918.008 6 333883789.11806      -582.500 6        36.522
C07        27.000                                                                                                                                    40187818.144 6 209268414.29206     -1442.753 6        37.822    40187820.633 6 161819580.99906     -1115.469 6        41.054    40187817.545 6 170047690.85006     -1172.389 6        38.231
R04        28.000    22187196.683 8 118811360.76608     -4339.831 8        48.086                                                                    22187202.752 6  92408798.58606     -3375.405 6        41.762
C40        29.000                                                                                                                                    40677560.948 6 211818632.29406     -1721.342 6        39.417                                                                    40677567.526 6 172119972.01706     -1398.808 6        38.988
G17        30.000    25010287.545 6 131429988.80706     -3870.168 6        39.844                                    25010293.410 5 102413016.31705     -3015.718 5        30.287    25010293.692 5 102413013.33305     -3015.822 5        35.414
E12        31.000    27534666.583 6 144695705.56606      2059.106 6        36.888                                                                    27534673.886 6 108052062.36606      1537.780 6        40.551    27534672.483 6 110870799.19306      1577.840 6        40.529
G11        32.000    24751455.938 6 130069826.32906      2533.392 6        39.835                                    24751463.633 3 101353172.37303      1974.069 3        23.619    24751464.137 6 101353163.39806      1973.976 6        40.114
I02        33.000    37094155.976 7 145565415.16807      -519.376 7        42.919
R15        34.000    21302710.428 8 113835317.85508      2076.028 8        49.172                                                                    21302715.015 7  88538637.51907      1614.714 7        45.147
R13        35.000    22786933.868 6 121680903.12406     -3649.245 6        39.556
C42        37.000                                                                                                                                    25166934.253 7 131050776.46207     -2710.371 7        43.695                                                                    25166947.710 7 106489524.89907     -2202.508 7        43.812
C10        38.000                                                                                                                                    39251452.620 6 204392565.87206     -1184.791 6        40.024    39251456.390 7 158049285.99907      -916.051 7        42.940    39251452.854 6 166085681.45106      -962.667 6        39.889
E25        39.000    24663945.268 7 129610065.20207      1119.253 7        46.628                                                                    24663950.955 8  96786850.13408       835.823 8        49.229    24663949.897 8  99311710.70908       857.619 8        49.686
C30        40.000                                                                                                                                    26303248.361 6 136967902.23006     -3241.431 6        40.598                                                                    26303257.111 6 111297670.27306     -2634.187 6        39.108
R23        41.000    21575794.523 7 115416034.74407     -2061.021 7        46.301
S44        42.000    40926520.789 6 215070307.92806      -451.695 6        37.501
C36        43.000                                                                                                                                    26904505.712 5 140098621.94905     -3373.733 5        34.819                                                                    26904521.108 6 113841584.03206     -2741.200 6        37.955
C05        44.000                                                                                                                                    39597112.932 6 206192448.39106      -525.471 6        38.547    39597116.395 7 159441067.52307      -406.353 7        42.728    39597116.350 6 167548327.75806      -427.186 6        39.333
R14        45.000    19607100.473 8 104516985.75908      -844.242 8        51.894                                                                    19607104.790 8  81291070.36808      -656.645 8        48.537
E26        46.000    28927627.620 5 152015802.94105     -2323.757 5        30.347                                                                    28927636.067 6 113518376.49206     -1735.586 6        36.363    28927634.676 6 116479712.99706     -1780.819 6        37.648
C35        48.000                                                                                                                                    23960331.129 7 124767815.12907      2432.518 7        47.255                                                                    23960334.729 7 101384117.84207      1976.535 7        46.163
C45        50.000                                                                                                                                    22908544.681 8 119290801.85508     -2327.972 8        48.827                                                                    22908540.130 8  96933530.80708     -1891.751 8        49.116
S48        51.000    77281332.316 6 406116792.89706      -528.076 6        38.360
C33        52.000                                                                                                                                    25757024.774 7 134123589.48907      -142.712 7        42.554                                                                    25757043.309 7 108986486.40207      -116.107 7        42.792
E33        53.000    26986311.389 6 141814131.94306      -177.545 6        40.033                                                                    26986320.072 7 105900239.57907      -132.522 7        43.020    26986318.444 7 108662842.94107      -135.852 7        43.454
C60        54.000                                                                                                                                    40926519.526 6 213115141.02406      -447.726 6        38.874                                                                    40926513.943 6 173173438.45506      -364.039 6        39.462
E31        55.000    26728102.485 6 140457044.50306     -2907.427 6        40.694                                                                    26728112.338 7 104886760.57007     -2170.989 7        44.015    26728111.237 7 107622936.03107     -2227.654 7        44.524
C26        56.000                                                                                                                                    22102002.253 8 115091010.90408       548.532 8        50.622                                                                    22102004.106 8  93520915.81108       445.678 8        49.434
C02        57.000                                                                                                                                    41096106.389 5 213998062.87905      -481.083 5        32.090    41096112.691 6 165476819.34406      -372.107 6        36.102    41096113.617 5 173890917.43505      -391.034 5        32.222
I03        58.000    91082630.180 5 281642283.93505       955.242 5        32.820
C21        59.000                                                                                                                                    26983795.830 6 140511441.60606     -3729.754 6        39.901                                                                    26983803.152 6 114176977.48506     -3030.762 6        40.484
R24        60.000    21118288.559 8 112929097.19408      2291.160 8        49.632                                                                    21118292.868 7  87833804.38007      1782.065 7        45.463
> 2025 01 02 12 30  5.0000000  0 55
E24         1.000    23872221.171 8 125449488.64408     -1226.493 8        48.530                                                                    23872223.121 8  93679882.21808      -915.870 8        50.910    23872222.333 8  96123693.98808      -939.809 8        51.665
G15         2.000    25325692.943 6 133087135.18006     -4355.553 6        39.123                                    25325705.427 4 103704179.25804     -3393.914 4        29.943    25325705.559 5 103704174.23205     -3393.836 5        35.348
E03         3.000    25052678.733 7 131652722.69307       -26.585 7        45.433                                                                    25052684.596 8  98312112.07408       -19.856 8        48.273    25052683.580 8 100876776.63108       -20.294 8        48.828
G19         4.000    22111090.681 7 116194710.64107     -2703.708 7        45.409                                    22111089.926 5  90541361.56905     -2106.782 5        34.724
S21         5.000    38574542.729 7 202710172.51107      -520.406 7        43.371
E05         6.000    23517764.986 7 123586616.78407     -2751.183 7        46.161                                                                    23517771.360 8  92288671.75408     -2054.446 8        48.913    23517770.295 8  94696202.98308     -2108.055 8        49.274
G25         7.000    22133959.202 7 116314851.18507      2321.929 7        44.024                                    22133963.167 6  90635018.55506      1809.295 6        41.807    22133964.043 6  90635019.55906      1809.283 6        41.614
C29         8.000                                                                                                                                    23078455.172 8 120175601.48208      -656.932 8        48.114                                                                    23078456.857 7  97652537.88707      -533.820 7        47.605
R05         9.000    21220922.324 8 113438049.26808     -1185.165 8        49.479                                                                    21220926.078 7  88229647.37407      -921.843 7        45.108
G24        10.000    20714162.214 8 108853656.49908     -2283.045 8        50.036                                    20714164.100 8  84821045.28708     -1778.994 8        52.140    20714164.447 7  84821050.28607     -1779.044 7        46.334
C14        11.000                                                                                                                                    25100468.636 7 130704734.78207     -1505.785 7        42.709    25100472.262 7 101069218.45507     -1164.397 7        46.159    25100469.232 7 106208314.45507     -1223.626 7        43.958
S27        12.000    39351195.309 6 206791807.13306      -542.813 6        36.681
E08        13.000    28345541.118 6 148956838.76906      2077.895 6        37.822                                                                    28345556.046 6 111234066.77806      1551.858 6        40.882    28345553.706 6 114135816.23106      1592.288 6        41.642
S36        14.000    38345462.346 7 201507194.36307      -520.706 7        45.041
G06        15.000    23535005.826 6 123677370.28006      1223.466 6        41.654                                    23535012.212 6  96372040.78006       953.352 6        38.384    23535012.658 6  96372042.77006       953.403 6        41.101
E09        16.000    28520899.223 4 149878080.40304     -3781.656 4        28.427                                                                    28520918.978 5 111921860.37405     -2823.892 5        34.738    28520916.606 5 114841566.85305     -2897.376 5        34.900
G12        17.000    20398215.330 8 107193521.11008       208.598 8        50.454                                    20398213.703 8  83527501.85208       162.544 8        51.454    20398214.514 7  83527498.85407       162.548 7        46.054
G32        18.000    23614700.670 7 124096117.42007      1475.233 7        43.746                                    23614705.781 6  96698320.86906      1149.529 6        40.276    23614706.561 6  96698324.87306      1149.464 6        40.832
R22        19.000    24686283.628 6 131777123.08606     -4337.343 6        37.251                                                                    24686289.693 5 102493311.23305     -3373.508 5        35.348
E10        21.000    28149767.190 6 147928057.27506      2491.373 6        38.264                                                                    28149781.624 6 110465835.21406      1860.289 6        41.008    28149780.347 7 113347544.11907      1908.987 7        42.169
I06        22.000    38568015.037 6 151349260.74506      -497.378 6        41.936
S28        23.000    41041583.991 5 215674794.92205      -529.649 5        34.995
S23        25.000    38283755.770 7 201182355.45207      -525.072 7        45.430
S45        26.000    63536420.372 6 333886702.01706      -582.560 6        36.450
C07        27.000                                                                                                                                    40189202.768 6 209275627.84706     -1442.560 6        38.048    40189205.933 6 161825158.98306     -1115.346 6        41.104    40189202.939 6 170053552.46606     -1172.383 6        38.625
R04        28.000    22191250.177 8 118833064.58608     -4341.676 8        48.319                                                                    22191256.275 7  92425679.30307     -3376.785 7        43.035
C40        29.000                                                                                                                                    40679213.939 6 211827238.58306     -1721.136 6        39.396                                                                    40679220.278 6 172126965.34206     -1398.606 6        38.886
G17        30.000    25013970.400 6 131449340.88606     -3870.655 6        39.682                                    25013976.006 5 102428095.86305     -3016.096 5        30.370    25013976.395 5 102428092.85705     -3016.108 5        35.752
E12        31.000    27532707.840 6 144685412.11206      2058.139 6        36.843                                                                    27532715.058 6 108044375.71806      1536.959 6        40.551    27532713.878 6 110862912.02506      1577.050 6        40.558
G11        32.000    24749045.698 6 130057160.78906      2532.717 6        39.378                                    24749053.420 3 101343303.16003      1973.534 3        23.771    24749053.236 6 101343294.18106      1973.613 6        40.307
I02        33.000    37094817.743 7 145568012.14307      -519.417 7        43.064
R15        34.000    21300768.052 8 113824939.92308      2075.119 8        49.605                                                                    21300773.456 7  88530565.81407      1613.866 7        45.049
R13        35.000    22790350.746 6 121699150.71306     -3649.780 6        39.246
C42        37.000                                                                                                                                    25169537.306 7 131064332.62207     -2712.031 7        43.979                                                                    25169551.050 7 106500540.36507     -2203.765 7        44.101
C10        38.000                                                                                                                                    39252589.847 6 204398489.98306     -1184.811 6        39.997    39252594.061 7 158053866.90207      -916.044 7        42.718    39252590.612 6 166090495.28006      -962.778 6        39.970
E25        39.000    24662880.967 7 129604471.27307      1118.359 7        46.726                                                                    24662886.468 8  96782672.85208       835.125 8        49.373    24662885.442 8  99307424.45608       856.949 8        49.767
C30        40.000                                                                                                                                    26306361.301 6 136984113.04906     -3242.773 6        40.257                                                                    26306369.950 6 111310842.87606     -2634.949 6        39.432
R23        41.000    21577723.365 7 115426350.46107     -2065.231 7        46.575
S44        42.000    40926946.818 6 215072567.30206      -451.815 6        37.183
C36        43.000                                                                                                                                    26907745.606 5 140115490.12305     -3373.481 5        35.462                                                                    26907760.481 6 113855290.81906     -2741.382 6        38.339
C05        44.000                                                                                                                                    39597617.501 6 206195076.04506      -525.454 6        38.498    39597621.062 7 159443099.41707      -406.244 7        42.561    39597620.869 6 167550462.94406      -427.023 6        39.423
R14        45.000    19607893.226 8 104521211.88008      -846.173 8        52.128                                                                    19607897.052 8  81294357.34108      -658.110 8        48.407
E26        46.000    28929840.217 5 152027427.39005     -2325.701 5        30.740                                                                    28929847.921 6 113527057.20306     -1736.926 6        36.276    28929846.679 6 116488620.15006     -1782.073 6        37.202
C35        48.000                                                                                                                                    23957995.924 7 124755655.96007      2431.209 7        47.209                                                                    23957999.626 7 101374237.54007      1975.552 7        46.208
C45        50.000                                                                                                                                    22910780.188 8 119302444.46608     -2329.032 8        48.820                                                                    22910776.038 8  96942991.36608     -1892.579 8        49.235
S48        51.000    77281823.703 6 406119433.29906      -527.958 6        38.255
C33        52.000                                                                                                                                    25757162.864 7 134124309.99807      -145.370 7        42.800                                                                    25757181.795 7 108987071.85307      -118.251 7        42.921
E33        53.000    26986481.645 6 141815025.06006      -179.785 6        40.234                                                                    26986489.905 7 105900906.52607      -134.215 7        43.130    26986488.340 7 108663527.28507      -137.756 7        43.587
C60        54.000                                                                                                                                    40926949.245 6 213117379.84006      -447.631 6        38.985                                                                    40926943.853 6 173175257.67206      -363.730 6        39.865
E31        55.000    26730869.247 6 140471581.62206     -2907.517 6        40.653                                                                    26730878.690 7 104897616.20307     -2171.092 7        43.996    26730877.575 7 107634074.85307     -2227.726 7        44.712
C26        56.000                                                                                                                                    22101476.316 8 115088271.52108       547.223 8        50.620                                                                    22101478.069 8  93518689.83408       444.619 8        49.657
C02        57.000                                                                                                                                    41096567.865 5 214000468.28805      -480.808 5        31.781    41096574.909 5 165478679.36405      -371.782 5        35.976    41096575.262 5 173892872.01005      -390.669 5        32.419
I03        58.000    91081412.370 5 281637508.08305       955.197 5        33.012
C21        59.000                                                                                                                                    26987376.751 6 140530088.60606     -3729.043 6        39.982                                                                    26987384.010 6 114192129.64406     -3030.303 6        40.486
R24        60.000    21116148.080 8 112917649.62308      2287.906 8        49.564                                                                    21116151.688 7  87824900.72507      1779.448 7        45.150
> 2025 01 02 12 30 10.0000000  0 55
E24         1.000    23873388.629 8 125455624.61908     -1227.635 8        48.540                                                                    23873390.777 8  93684464.26508      -916.739 8        50.568    23873389.991 8  96128395.56308      -940.642 8        51.666
G15         2.000    25329837.121 6 133108911.74706     -4354.941 6        39.456                                    25329849.409 4 103721147.90404     -3393.455 4        29.659    25329850.458 5 103721142.86705     -3393.420 5        35.386
E03         3.000    25052705.462 7 131652862.05407       -28.849 7        44.951                                                                    25052711.132 8  98312216.14408       -21.607 8        48.105    25052710.174 8 100876883.42308       -22.176 8        48.859
G19         4.000    22113664.276 7 116208236.45607     -2706.339 7        45.549                                    22113663.729 5  90551901.14905     -2108.833 5        34.571
S21         5.000    38575039.178 7 202712775.29207      -520.513 7        43.109
E05         6.000    23520383.683 7 123600377.64407     -2752.939 7        46.410                                                                    23520389.962 8  92298947.70508     -2055.753 8        48.640    23520388.929 8  94706747.00508     -2109.393 8        49.314
G25         7.000    22131750.590 7 116303245.51107      2320.647 7        44.187                                    22131754.623 6  90625975.17506      1808.295 6        41.611    22131755.484 6  90625976.19106      1808.168 6        41.497
C29         8.000                                                                                                                                    23079087.539 8 120178893.72508      -659.758 8        48.183                                                                    23079089.046 7  97655213.10807      -536.211 7        47.717
R05         9.000    21222032.737 8 113443987.25608     -1189.806 8        49.621                                                                    21222037.208 7  88234265.80207      -925.338 7        45.050
G24        10.000    20716335.911 8 108865078.99108     -2285.666 8        49.917                                    20716337.742 8  84829945.92308     -1781.037 8        51.943    20716338.033 7  84829950.91907     -1781.048 7        46.252
C14        11.000                                                                                                                                    25101915.971 7 130712271.14507     -1508.404 7        42.995    25101920.271 7 101075046.05407     -1166.517 7        46.237    25101916.538 7 106214438.35907     -1225.875 7        44.004
S27        12.000    39351711.911 6 206794521.63106      -542.660 6        36.696
E08        13.000    28343564.815 6 148946451.98206      2076.788 6        38.123                                                                    28343579.602 6 111226310.41806      1550.917 6        40.830    28343577.281 6 114127857.52906      1591.311 6        41.759
S36        14.000    38345960.239 7 201509797.38407      -520.291 7        45.139
G06        15.000    23533843.507 6 123671260.60306      1220.878 6        41.719                                    23533849.586 6  96367279.99506       951.332 6        38.156    23533850.174 6  96367281.99406       951.201 6        40.863
E09        16.000    28524497.415 4 149896987.83804     -3781.143 4        28.929                                                                    28524517.230 5 111935979.46605     -2823.368 5        34.667    28524514.666 5 114856054.28905     -2897.179 5        34.852
G12        17.000    20398017.979 8 107192484.76808       206.217 8        50.949                                    20398016.482 8  83526694.31608       160.688 8        51.246    20398017.118 7  83526691.31907       160.665 7        45.917
G32        18.000    23613298.304 7 124088748.55007      1472.530 7        44.534                                    23613303.534 6  96692578.89806      1147.426 6        40.226    23613303.911 6  96692582.89906      1147.402 6        40.734
R22        19.000    24690349.048 6 131798815.25706     -4339.099 6        37.172                                                                    24690354.180 5 102510183.09005     -3375.260 5        35.662
E10        21.000    28147397.169 6 147915601.76206      2491.201 6        38.459                                                                    28147411.383 6 110456534.10906      1860.315 6        40.722    28147410.014 7 113338000.38007      1908.669 7        42.233
I06        22.000    38568648.967 6 151351748.22506      -497.434 6        41.907
S28        23.000    41042086.391 5 215677442.88605      -529.688 5        35.705
S23        25.000    38284258.139 7 201184981.92007      -525.277 7        45.672
S45        26.000    63536925.724 6 333889615.05506      -582.456 6        36.696
C07        27.000                                                                                                                                    40190588.557 6 209282841.99206     -1442.618 6        38.261    40190590.932 6 161830737.43406     -1115.582 6        41.025    40190588.209 6 170059414.54306     -1172.341 6        38.733
R04        28.000    22195304.632 8 118854778.78408     -4343.792 8        48.175                                                                    22195310.422 7  92442568.09407     -3378.375 7        43.645
C40        29.000                                                                                                                                    40680867.045 6 211835845.32706     -1721.278 6        39.556                                                                    40680873.181 6 172133959.02906     -1398.721 6        39.111
G17        30.000    25017653.571 6 131468696.71406     -3871.394 6        39.556                                    25017659.353 5 102443178.33205     -3016.673 5        30.279    25017659.665 6 102443175.32006     -3016.603 6        36.015
E12        31.000    27530749.515 6 144675124.30906      2057.275 6        36.605                                                                    27530757.249 6 108036693.32506      1536.095 6        40.427    27530756.240 6 110855029.21006      1576.231 6        40.834
G11        32.000    24746636.065 6 130044499.08206      2532.114 6        39.730                                    24746644.034 3 101333436.96703      1973.060 3        23.352    24746644.134 6 101333428.00006      1973.033 6        40.307
I02        33.000    37095479.833 7 145570610.13607      -519.563 7        43.035
R15        34.000    21298827.561 8 113814567.79508      2073.948 8        49.641                                                                    21298832.166 7  88522498.59607      1613.114 7        44.781
R13        35.000    22793769.925 6 121717402.30206     -3650.516 6        39.315
C42        37.000                                                                                                                                    25172142.582 7 131077898.02407     -2713.880 7        44.023                                                                    25172156.277 7 106511563.34707     -2205.368 7        44.242
C10        38.000                                                                                                                                    39253727.649 6 204404415.17106     -1185.144 6        39.898    39253731.980 7 158058448.62607      -916.296 7        42.707    39253728.603 6 166095309.96506      -963.017 6        40.124
E25        39.000    24661817.349 7 129598882.46807      1117.362 7        46.494                                                                    24661822.918 8  96778499.40408       834.314 8        49.068    24661821.938 8  99303142.13508       856.082 8        49.674
C30        40.000                                                                                                                                    26309475.653 6 137000331.49406     -3244.452 6        39.943                                                                    26309484.557 6 111324021.73306     -2636.361 6        39.294
R23        41.000    21579655.649 7 115436688.42807     -2069.715 7        46.415
S44        42.000    40927376.702 6 215074826.74906      -451.859 6        37.493
C36        43.000                                                                                                                                    26910985.683 5 140132359.53405     -3373.784 5        35.348                                                                    26911000.142 6 113868998.55306     -2741.510 6        38.129
C05        44.000                                                                                                                                    39598121.810 6 206197703.78506      -525.679 6        38.556    39598125.805 7 159445131.36407      -406.263 7        42.618    39598125.358 6 167552598.21606      -427.128 6        39.450
R14        45.000    19608688.063 8 104525448.81308      -848.294 8        52.138                                                                    19608691.975 8  81297652.73008      -659.791 8        48.438
E26        46.000    28932054.777 5 152039061.58205     -2327.484 5        31.140                                                                    28932061.803 5 113535745.20105     -1738.307 5        35.795    28932060.542 6 116497534.77806     -1783.703 6        36.934
C35        48.000                                                                                                                                    23955662.340 7 124743503.90907      2429.813 7        47.551                                                                    23955665.933 7 101364363.02907      1974.339 7        46.356
C45        50.000                                                                                                                                    22913017.688 8 119314093.43908     -2330.284 8        49.009                                                                    22913013.105 8  96952457.10308     -1893.600 8        49.424
S48        51.000    77282320.876 6 406122073.82506      -528.107 6        38.670
C33        52.000                                                                                                                                    25757304.013 7 134125044.88107      -148.216 7        42.736                                                                    25757322.969 7 108987669.00107      -120.529 7        43.086
E33        53.000    26986653.951 6 141815930.90906      -182.243 6        39.934                                                                    26986662.365 7 105901582.98407      -136.081 7        42.880    26986660.835 7 108664221.39507      -139.733 7        43.697
C60        54.000                                                                                                                                    40927379.424 6 213119618.75606      -447.732 6        38.817                                                                    40927373.840 6 173177076.98706      -363.822 6        39.739
E31        55.000    26733635.744 6 140486120.04606     -2907.763 6        40.725                                                                    26733645.332 7 104908472.79807     -2171.300 7        43.731    26733644.147 7 107645214.67007     -2228.021 7        44.746
C26        56.000                                                                                                                                    22100951.689 8 115085539.48808       545.833 8        50.606                                                                    22100953.399 8  93516469.82908       443.441 8        49.761
C02        57.000                                                                                                                                    41097030.865 5 214002873.81705      -481.321 5        31.955    41097037.011 5 165480539.45105      -371.940 5        35.862    41097037.056 5 173894826.69905      -390.961 5        32.269
I03        58.000    91080196.754 5 281632732.13205       955.364 5        32.677
C21        59.000                                                                                                                                    26990957.497 6 140548734.15806     -3728.747 6        40.176                                                                    26990964.723 6 114207280.62006     -3029.885 6        40.384
R24        60.000    21114010.898 8 112906219.39508      2284.426 8        48.842                                                                    21114014.606 7  87816010.57507      1776.716 7        45.970
> 2025 01 02 12 30 15.0000000  0 55
E24         1.000    23874557.356 8 125461766.24808     -1228.710 8        48.900                                                                    23874559.498 8  93689050.53508      -917.525 8        50.811    23874558.767 8  96133101.47908      -941.463 8        51.603
G15         2.000    25333980.947 6 133130685.84606     -4354.439 6        39.592                                    25333993.020 4 103738114.63304     -3393.049 4        29.697    25333993.608 5 103738109.57805     -3392.898 5        35.876
E03         3.000    25052734.241 7 131653013.44207       -31.404 7        45.153                                                                    25052739.867 8  98312329.19008       -23.428 8        48.238    25052738.915 8 100876999.41308       -24.011 8        48.747
G19         4.000    22116240.515 7 116221774.96207     -2708.856 7        45.627                                    22116239.970 5  90562450.62205     -2110.792 5        34.410
S21         5.000    38575533.421 7 202715377.64707      -520.300 7        43.293
E05         6.000    23523004.205 7 123614147.04407     -2754.672 7        46.760                                                                    23523010.293 8  92309230.03308     -2057.031 8        48.747    23523009.137 8  94717297.56508     -2110.688 8        49.301
G25         7.000    22129543.243 7 116291646.42207      2319.276 7        43.973                                    22129547.319 6  90616936.92706      1807.227 6        41.690    22129548.268 6  90616937.93606      1807.276 6        41.580
C29         8.000                                                                                                                                    23079722.810 8 120182200.36808      -662.698 8        48.614                                                                    23079724.044 7  97657900.01707      -538.305 7        47.731
R05         9.000    21223147.925 8 113449948.19308     -1194.325 8        49.905                                                                    21223152.799 7  88238902.07007      -928.968 7        45.294
G24        10.000    20718511.821 8 108876514.51508     -2288.279 8        49.749                                    20718513.862 8  84838856.71308     -1783.072 8        51.896    20718513.991 7  84838861.70707     -1783.070 7        46.269
C14        11.000                                                                                                                                    25103366.337 7 130719820.61907     -1511.109 7        42.861    25103369.898 7 101080883.75807     -1168.514 7        46.508    25103366.296 7 106220572.89507     -1227.756 7        43.960
S27        12.000    39352226.295 6 206797236.14206      -542.877 6        36.552
E08        13.000    28341589.096 6 148936070.94306      2075.836 6        38.270                                                                    28341604.209 6 111218558.39806      1550.096 6        41.037    28341601.870 6 114119903.28106      1590.632 6        41.712
S36        14.000    38346456.634 7 201512400.08107      -520.396 7        45.234
G06        15.000    23532683.299 6 123665164.14006      1218.091 6        41.659                                    23532689.383 6  96362529.51306       949.162 6        38.081    23532689.506 6  96362531.51506       949.117 6        40.896
E09        16.000    28528094.843 4 149915894.51004     -3781.775 4        28.019                                                                    28528114.987 5 111950097.99005     -2823.673 5        34.671    28528112.469 5 114870541.14605     -2897.156 5        34.524
G12        17.000    20397823.190 8 107191459.91308       203.928 8        50.980                                    20397821.470 8  83525895.72908       158.903 8        51.233    20397822.218 7  83525892.73007       158.914 7        45.965
G32        18.000    23611899.082 7 124081392.91607      1469.918 7        44.199                                    23611903.867 6  96686847.24306      1145.392 6        40.234    23611904.328 6  96686851.24306      1145.344 6        41.175
R22        19.000    24694412.219 6 131820516.39306     -4340.942 6        37.550                                                                    24694419.046 6 102527061.87206     -3376.297 6        36.140
E10        21.000    28145027.215 6 147903146.98606      2490.889 6        38.577                                                                    28145041.467 6 110447233.57406      1860.045 6        41.130    28145039.863 7 113328457.18607      1908.726 7        42.184
I06        22.000    38569282.770 7 151354235.64207      -497.304 7        42.049
S28        23.000    41042592.248 5 215680090.77605      -529.314 5        35.424
S23        25.000    38284757.709 7 201187608.32907      -525.169 7        45.375
S45        26.000    63537426.818 6 333892528.10506      -582.394 6        36.333
C07        27.000                                                                                                                                    40191973.551 6 209290056.52006     -1442.928 6        38.273    40191976.794 6 161836316.17006     -1115.794 6        40.927    40191973.660 6 170065276.92406     -1172.155 6        38.769
R04        28.000    22199361.147 7 118876503.01307     -4345.787 7        47.210                                                                    22199367.687 7  92459464.68607     -3380.029 7        44.257
C40        29.000                                                                                                                                    40682520.008 6 211844452.30906     -1721.349 6        39.589                                                                    40682525.759 6 172140952.90706     -1398.661 6        39.069
G17        30.000    25021337.841 6 131488056.06506     -3872.104 6        39.547                                    25021343.429 5 102458263.53805     -3017.227 5        30.460    25021344.091 6 102458260.52506     -3017.252 6        36.397
E12        31.000    27528792.782 6 144664842.04006      2056.184 6        36.091                                                                    27528800.633 6 108029015.03706      1535.232 6        40.396    27528799.391 6 110847150.60906      1575.370 6        40.601
G11        32.000    24744227.362 6 130031841.06906      2531.345 6        40.067                                    24744235.193 3 101323573.63703      1972.466 3        23.543    24744235.304 6 101323564.67006      1972.496 6        40.205
I02        33.000    37096142.174 7 145573208.94107      -519.703 7        43.191
R15        34.000    21296887.417 8 113804200.96308      2072.940 8        49.762                                                                    21296892.207 7  88514435.51007      1612.256 7        45.154
R13        35.000    22797188.448 6 121735657.38706     -3651.325 6        39.718
C42        37.000                                                                                                                                    25174749.066 7 131091472.43807     -2715.715 7        44.203                                                                    25174763.119 7 106522593.63807     -2206.664 7        44.220
C10        38.000                                                                                                                                    39254865.992 6 204410341.19406     -1185.150 6        40.217    39254870.333 7 158063030.99707      -916.384 7        42.938    39254866.489 6 166100125.32706      -962.763 6        40.157
E25        39.000    24660754.896 7 129593298.57307      1116.312 7        46.504                                                                    24660760.337 8  96774329.61308       833.620 8        49.254    24660759.327 8  99298863.56308       855.439 8        49.650
C30        40.000                                                                                                                                    26312591.620 6 137016557.37006     -3245.717 6        40.005                                                                    26312600.457 6 111337206.60906     -2637.309 6        38.997
R23        41.000    21581591.899 7 115447048.21407     -2074.028 7        46.293
S44        42.000    40927806.810 6 215077086.09406      -451.734 6        37.422
C36        43.000                                                                                                                                    26914224.563 5 140149229.91705     -3374.150 5        35.310                                                                    26914239.852 6 113882707.09206     -2741.618 6        38.159
C05        44.000                                                                                                                                    39598626.406 6 206200331.37306      -525.560 6        38.562    39598630.258 7 159447163.20307      -406.246 7        42.762    39598629.954 6 167554733.34506      -426.779 6        39.568
R14        45.000    19609484.853 8 104529696.05708      -850.414 8        51.820                                                                    19609488.872 8  81300956.12408      -661.439 8        48.494
E26        46.000    28934270.076 5 152050705.26205     -2329.379 5        31.351                                                                    28934277.692 5 113544440.27005     -1739.660 5        35.614    28934275.894 6 116506456.66006     -1785.130 6        36.272
C35        48.000                                                                                                                                    23953329.544 7 124731358.76907      2428.432 7        47.210                                                                    23953333.506 7 101354494.11807      1973.370 7        46.359
C45        50.000                                                                                                                                    22915255.782 8 119325748.58008     -2331.515 8        48.825                                                                    22915251.315 8  96961927.84208     -1894.424 8        49.421
S48        51.000    77282817.924 6 406124714.55006      -527.893 6        38.024
C33        52.000                                                                                                                                    25757447.364 7 134125793.95407      -151.134 7        42.603                                                                    25757466.736 7 108988277.67407      -122.749 7        42.954
E33        53.000    26986828.428 6 141816849.29806      -184.888 6        40.458                                                                    26986837.026 7 105902268.79807      -137.983 7        42.959    26986835.442 7 108664925.10007      -141.640 7        43.613
C60        54.000                                                                                                                                    40927809.044 6 213121857.56906      -447.730 6        38.871                                                                    40927803.675 6 173178896.21206      -363.649 6        39.895
E31        55.000    26736402.351 6 140500659.53606     -2907.961 6        41.020                                                                    26736412.002 7 104919330.20607     -2171.442 7        43.733    26736410.766 7 107656355.30507     -2228.085 7        44.600
C26        56.000                                                                                                                                    22100428.567 8 115082814.62708       544.385 8        50.729                                                                    22100430.123 8  93514255.64108       442.491 8        49.812
C02        57.000                                                                                                                                    41097492.967 5 214005279.08805      -480.917 5        32.150    41097498.841 5 165482399.39005      -371.960 5        35.881    41097499.278 5 173896781.19905      -390.371 5        32.389
I03        58.000    91078979.463 5 281627955.94905       955.460 5        32.850
C21        59.000                                                                                                                                    26994537.674 6 140567378.04806     -3728.432 6        39.838                                                                    26994545.126 6 114222430.25706     -3029.649 6        40.453
R24        60.000    21111876.136 8 112894806.17808      2281.057 8        49.425                                                                    21111880.476 7  87807133.63807      1774.158 7        45.368
> 2025 01 02 12 30 20.0000000  0 56
E24         1.000    23875727.061 8 125467913.63408     -1229.908 8        48.656                                                                    23875729.346 8  93693641.10808      -918.463 8        50.664    23875728.598 8  96137811.80408      -942.412 8        51.565
G15         2.000    25338123.712 6 133152457.47806     -4353.909 6        39.616                                    25338136.157 4 103755079.43804     -3392.628 4        29.782    25338136.492 5 103755074.39405     -3392.772 5        35.305
E03         3.000    25052765.037 7 131653176.88607       -33.735 7        45.217                                                                    25052770.969 8  98312451.24808       -25.195 8        48.182    25052770.022 8 100877124.66008       -25.897 8        48.769
G19         4.000    22118819.229 7 116235326.22507     -2711.435 7        45.767                                    22118818.701 5  90573010.03205     -2112.806 5        34.505
S21         5.000    38576028.564 7 202717979.61207      -520.415 7        42.967
E05         6.000    23525625.832 7 123627925.02307     -2756.300 7        46.525                                                                    23525632.151 8  92319518.77208     -2058.323 8        48.623    23525631.062 8  94727854.70908     -2112.004 8        49.245
G25         7.000    22127337.432 7 116280053.93607      2318.127 7        44.056                                    22127341.320 6  90607903.83406      1806.331 6        41.754    22127342.133 6  90607904.83606      1806.267 6        41.175
C29         8.000                                                                                                                                    23080360.529 8 120185521.45908      -665.547 8        48.749                                                                    23080361.850 7  97660598.69407      -540.899 7        47.684
R05         9.000    21224267.634 8 113455932.10808     -1198.902 8        49.601                                                                    21224271.927 7  88243556.22307      -932.527 7        45.740
G24        10.000    20720690.659 8 108887963.08608     -2290.865 8        50.170                                    20720692.450 8  84847777.67108     -1785.088 8        52.010    20720692.834 7  84847782.66807     -1785.017 7        46.148
C14        11.000                                                                                                                                    25104818.478 7 130727383.25407     -1513.717 7        43.100    25104822.232 7 101086731.65307     -1170.523 7        46.593    25104818.674 7 106226718.14207     -1230.035 7        43.918
S27        12.000    39352741.998 6 206799950.91906      -542.765 6        36.556
E08        13.000    28339614.446 6 148925695.65806      2074.518 6        38.042                                                                    28339629.880 6 111210810.65006      1549.163 6        40.896    28339627.430 6 114111953.41406      1589.553 6        41.917
S36        14.000    38346947.873 7 201515002.72407      -520.300 7        44.930
G06        15.000    23531525.469 6 123659080.95706      1215.425 6        41.857                                    23531531.711 6  96357789.36806       947.086 6        38.159    23531532.697 6  96357791.37806       947.087 6        40.939
