     3.04           OBSERVATION DATA    M                   RINEX VERSION / TYPE
ssrcrin-15.6.1x                         20250102 054500 UTC PGM / RUN BY / DATE 
(00000000023479385599111004) Septentrio proprietary         COMMENT             
rref                                                        MARKER NAME         
01                                                          MARKER NUMBER       
geodetic                                                    MARKER TYPE         
NFB                 CLIMERS@TUW                             OBSERVER / AGENCY   
3297213             SEPT ASTERX SB3 PROB4.14.4              REC # / TYPE / VERS 
Unknown             Unknown                                 ANT # / TYPE        
  4127831.6892  1207193.0924  4695247.5757                  APPROX POSITION XYZ 
        0.0000        0.0000        0.0000                  ANTENNA: DELTA H/E/N
G   23 X1  C1C L1C D1C S1C C1W S1W C2W L2W D2W S2W C2L L2L  SYS / # / OBS TYPES 
       D2L S2L C5Q L5Q D5Q S5Q C1L L1L D1L S1L              SYS / # / OBS TYPES 
E   21 X1  C1C L1C D1C S1C C6C L6C D6C S6C C5Q L5Q D5Q S5Q  SYS / # / OBS TYPES 
       C7Q L7Q D7Q S7Q C8Q L8Q D8Q S8Q                      SYS / # / OBS TYPES 
S    9 X1  C1C L1C D1C S1C C5I L5I D5I S5I                  SYS / # / OBS TYPES 
R   17 X1  C1C L1C D1C S1C C2P L2P D2P S2P C2C L2C D2C S2C  SYS / # / OBS TYPES 
       C3Q L3Q D3Q S3Q                                      SYS / # / OBS TYPES 
C   25 X1  C1P L1P D1P S1P C5P L5P D5P S5P C2I L2I D2I S2I  SYS / # / OBS TYPES 
       C7I L7I D7I S7I C6I L6I D6I S6I C7D L7D D7D S7D      SYS / # / OBS TYPES 
J   17 X1  C1C L1C D1C S1C C2L L2L D2L S2L C5Q L5Q D5Q S5Q  SYS / # / OBS TYPES 
       C1L L1L D1L S1L                                      SYS / # / OBS TYPES 
I    5 X1  C5A L5A D5A S5A                                  SYS / # / OBS TYPES 
SEPTENTRIO RECEIVERS OUTPUT ALIGNED CARRIER PHASES.         COMMENT             
NO FURTHER PHASE SHIFT APPLIED IN THE RINEX ENCODER.        COMMENT             
G L1C                                                       SYS / PHASE SHIFT   
G L2W                                                       SYS / PHASE SHIFT   
G L2L  0.00000                                              SYS / PHASE SHIFT   
G L5Q  0.00000                                              SYS / PHASE SHIFT   
G L1L  0.00000                                              SYS / PHASE SHIFT   
E L1C  0.00000                                              SYS / PHASE SHIFT   
E L6C  0.00000                                              SYS / PHASE SHIFT   
E L5Q  0.00000                                              SYS / PHASE SHIFT   
E L7Q  0.00000                                              SYS / PHASE SHIFT   
E L8Q  0.00000                                              SYS / PHASE SHIFT   
S L1C                                                       SYS / PHASE SHIFT   
S L5I                                                       SYS / PHASE SHIFT   
R L1C                                                       SYS / PHASE SHIFT   
R L2P  0.00000                                              SYS / PHASE SHIFT   
R L2C                                                       SYS / PHASE SHIFT   
R L3Q  0.00000                                              SYS / PHASE SHIFT   
C L1P  0.00000                                              SYS / PHASE SHIFT   
C L5P  0.00000                                              SYS / PHASE SHIFT   
C L2I                                                       SYS / PHASE SHIFT   
C L7I                                                       SYS / PHASE SHIFT   
C L6I                                                       SYS / PHASE SHIFT   
C L7D                                                       SYS / PHASE SHIFT   
J L1C                                                       SYS / PHASE SHIFT   
J L2L  0.00000                                              SYS / PHASE SHIFT   
J L5Q  0.00000                                              SYS / PHASE SHIFT   
J L1L  0.00000                                              SYS / PHASE SHIFT   
I L5A                                                       SYS / PHASE SHIFT   
  2025     1     2     5    45    0.0000000     GPS         TIME OF FIRST OBS   
 C1C    0.000 C2C    0.000 C2P    0.000                     GLONASS COD/PHS/BIS 
DBHZ                                                        SIGNAL STRENGTH UNIT
    18                                                      LEAP SECONDS        
 24 R01  1 R02 -4 R03  5 R04  6 R05  1 R06 -4 R07  5 R08  6 GLONASS SLOT / FRQ #
    R09 -2 R10 -7 R11  0 R12 -1 R13 -2 R14 -7 R15  0 R16 -1 GLONASS SLOT / FRQ #
    R17  4 R18 -3 R19  3 R20  2 R21  4 R22 -3 R23  3 R24  2 GLONASS SLOT / FRQ #
                                                            END OF HEADER       
> 2025 01 02 05 45  0.0000000  0 54
G09         1.000    21512595.899 7 113049483.03907     -2834.971 7        46.060                                    21512593.431 7  88090510.87507     -2209.068 7        46.675    21512593.566 7  88090510.88107     -2209.095 7        43.145
G06         2.000    23931885.461 6 125762916.36206     -3925.404 6        40.400                                    23931884.262 5  97997079.99305     -3058.753 5        35.900    23931884.377 6  97997087.98406     -3058.720 6        39.523
E11         3.000    25258933.283 7 132736607.37307     -2373.800 7        42.051                                                                    25258928.922 7  99121483.11507     -1772.689 7        43.259    25258928.572 7 101707257.11307     -1818.996 7        43.797
G16         4.000    24296766.072 6 127680376.11506     -2868.838 6        38.078                                    24296761.565 2  99491184.06902     -2235.448 2        17.623
S21         5.000    38374635.399 7 201659779.15007      -480.846 7        42.487
E10         6.000    26322301.346 7 138324631.43807     -3393.900 7        43.052                                                                    26322300.523 7 103294362.65807     -2534.502 7        45.347    26322300.381 7 105988997.88207     -2600.670 7        45.669
G20         7.000    20917683.386 8 109923178.33108       955.343 8        48.080                                    20917677.880 6  85654406.22506       744.426 6        38.228
R02         8.000    23171663.164 7 123648435.58507      2969.603 7        44.941                                                                    23171662.259 6  96171005.95306      2309.607 6        40.458
R10         9.000    20405510.117 7 108772852.18307     -2197.687 7        44.486
R17        10.000    22224964.583 7 118930282.69207      -922.403 7        47.437                                                                    22224963.507 7  92501325.32907      -717.390 7        43.843
G30        11.000    21084407.518 8 110799321.30308      1448.671 8        49.648                                    21084405.235 8  86337126.03108      1128.834 8        50.081    21084405.667 7  86337134.03207      1128.823 7        44.173
S27        12.000    39019233.050 6 205047366.48906      -499.631 6        37.263
G13        13.000    24287985.118 6 127634226.28306      2823.623 6        39.063                                    24287980.329 2  99455219.98902      2200.215 2        16.377
S36        14.000    38142707.871 7 200441788.15307      -481.100 7        44.862
I09        15.000    38381690.180 7 150617979.05607      -861.636 7        42.474
E09        16.000    26413370.596 7 138803222.57507      1726.693 7        42.603                                                                    26413369.752 7 103651756.78107      1289.429 7        44.448    26413369.346 7 106355711.83307      1322.968 7        45.126
S45        17.000    63326569.867 6 332783592.63606      -522.728 6        37.233
E36        18.000    26090557.972 7 137106806.36807       247.451 7        42.315                                                                    26090557.637 7 102384973.77107       184.834 7        45.023    26090557.543 7 105055884.29707       189.777 7        45.681
E12        19.000    27873857.565 5 146478103.07405     -3730.816 5        35.771                                                                    27873854.572 6 109382983.24706     -2786.176 6        38.670    27873854.533 6 112236452.34706     -2858.782 6        39.661
E21        20.000    25762341.534 7 135382014.90907        30.568 7        43.399                                                                    25762340.956 7 101096974.38207        22.886 7        45.884    25762340.661 7 103734283.08007        23.480 7        47.131
G11        21.000    22677787.074 7 119172589.31007     -2478.188 7        45.276                                    22677782.614 5  92861739.79405     -1931.056 5        32.742    22677782.994 7  92861752.78807     -1931.062 7        43.873
I06        22.000    37894370.072 7 148705879.04007      -363.783 7        43.573
S28        23.000    40804093.661 5 214426908.27905      -482.781 5        35.148
R08        24.000    20385827.193 8 109165217.03708     -2494.672 8        48.826                                                                    20385825.418 7  84906283.35207     -1940.369 7        46.747
S23        25.000    38079512.411 7 200109177.30807      -477.901 7        44.790
R01        26.000    19662475.049 8 105107207.04308      1175.504 8        49.280                                                                    19662474.356 6  81750043.33106       914.272 6        41.907
C44        27.000                                                                                                                                    25961113.051 6 135186330.14906     -1800.222 6        40.081                                                                    25961110.728 6 109849962.03206     -1462.802 6        38.790
R24        29.000    22967345.325 7 122816725.16307     -3944.425 7        45.189                                                                    22967345.192 6  95524106.84806     -3067.847 6        39.988
E19        30.000    24699471.903 6 129796627.26506     -2363.632 6        41.185                                                                    24699469.800 7  96926053.64507     -1765.081 7        43.333    24699469.363 7  99454556.34307     -1811.155 7        43.344
C37        33.000                                                                                                                                    23611477.257 7 122951155.36007     -2207.329 7        47.638                                                                    23611479.886 7  99907896.46607     -1793.834 7        47.589
E04        34.000    23350067.028 8 122705467.71108        34.477 8        48.662                                                                    23350064.782 8  91630718.06308        25.751 8        51.303    23350064.456 8  94021080.07208        26.390 8        51.475
C16        35.000                                                                                                                                    40731610.173 6 212100190.08406     -1485.355 6        38.700    40731611.026 6 164009327.68206     -1148.606 6        38.553    40731607.958 5 172348773.94205     -1207.361 5        34.286
I01        37.000   386275507.864 7 212687229.61307     -2995.100 7        42.372
E27        38.000    28061587.169 6 147464632.61806     -2402.339 6        36.121                                                                    28061586.676 6 110119703.24606     -1794.046 6        40.403    28061586.361 6 112992387.60406     -1840.861 6        41.039
C19        39.000                                                                                                                                    21850686.952 8 113782265.67308       169.878 8        51.297                                                                    21850681.661 8  92457389.29708       137.834 8        50.013
G05        41.000    23130247.471 7 121550284.54107      2786.461 7        43.390                                    23130242.710 6  94714489.97406      2171.270 6        38.742    23130243.136 6  94714498.97806      2171.293 6        40.067
S44        42.000    40764341.760 6 214218216.16106      -535.390 6        36.972
C36        43.000                                                                                                                                    25111507.400 7 130762208.86907      2953.558 7        42.567                                                                    25111511.612 7 106255026.23007      2399.858 7        43.118
C05        44.000                                                                                                                                    39168638.114 6 203961398.01606      -536.242 6        39.435    39168632.460 7 157715912.62107      -414.673 7        43.608    39168634.610 6 165735444.46506      -435.977 6        40.670
R18        45.000    23781004.432 7 126944632.89507      2038.943 7        42.258                                                                    23781004.289 6  98734697.74006      1585.832 6        40.641
G04        46.000    23884966.623 6 125516351.46306     -3537.341 6        39.354                                    23884965.268 3  97804927.72303     -2756.354 3        23.352    23884965.013 6  97804929.73506     -2756.447 6        39.429
R11        47.000    20107257.964 8 107447073.77808      2162.171 8        51.054                                                                    20107256.562 8  83569950.05708      1681.613 8        48.445
C20        49.000                                                                                                                                    23015831.845 8 119849495.51108     -2454.955 8        50.354                                                                    23015826.191 8  97387515.25108     -1995.090 8        49.083
C06        50.000                                                                                                                                    40171513.874 6 209183628.41206     -1524.523 6        36.718    40171509.219 6 161754029.38106     -1178.817 6        39.504    40171508.776 6 169978810.13906     -1238.837 6        36.991
S48        51.000    77104534.824 6 405186640.25806      -464.980 6        37.720
E06        52.000    24405783.681 7 128253287.10107      1110.572 7        46.449                                                                    24405782.976 8  95773570.93608       829.313 8        49.172    24405782.865 8  98272009.68308       850.990 8        49.903
C09        53.000                                                                                                                                    39446250.318 6 205406991.60506     -1272.393 6        39.261    39446246.986 7 158833704.85407      -984.023 7        43.736    39446244.818 6 166909984.86806     -1034.307 6        40.460
C60        54.000                                                                                                                                    40764343.328 6 212270796.93606      -530.771 6        40.615                                                                    40764328.998 6 172487372.12006      -431.527 6        39.559
R09        55.000    23445490.206 7 125197627.88207     -4465.072 7        42.146                                                                    23445488.159 6  97375925.77106     -3472.815 6        40.226
G07        56.000    20732169.679 8 108948306.81408      -887.421 8        49.302                                    20732164.766 8  84894768.23908      -691.498 8        50.404    20732164.656 7  84894777.24307      -691.535 7        46.392
C02        57.000                                                                                                                                    40735003.022 5 212117851.60005      -557.890 5        35.071    40734999.264 6 164022960.77006      -431.356 6        40.176    40735001.508 6 172363123.94306      -453.482 6        36.314
I03        58.000    98645072.976 6 311319164.52506       844.082 6        41.097
R07        59.000    24276208.379 5 129952410.12305     -3968.966 5        35.238                                                                    24276210.891 5 101074127.95105     -3086.834 5        32.299
C35        60.000                                                                                                                                    26611935.343 6 138575314.51406     -3103.183 6        38.991                                                                    26611932.913 6 112603787.36706     -2521.690 6        38.243
> 2025 01 02 05 45  5.0000000  0 54
G09         1.000    21515293.926 7 113063662.06707     -2836.377 7        46.281                                    21515291.545 7  88101559.46007     -2210.162 7        46.783    21515291.918 7  88101559.45807     -2210.146 7        43.733
G06         2.000    23935621.072 6 125782544.80906     -3926.057 6        41.082                                    23935619.318 6  98012374.88106     -3059.267 6        36.129    23935620.073 6  98012382.88406     -3059.224 6        39.739
E11         3.000    25261192.702 6 132748481.99406     -2375.997 6        41.588                                                                    25261188.553 7  99130350.51307     -1774.189 7        43.088    25261188.284 7 101716355.83707     -1820.489 7        43.826
G16         4.000    24299497.586 6 127694728.05406     -2871.677 6        38.586                                    24299492.501 2  99502367.40202     -2237.670 2        17.811
S21         5.000    38375095.784 7 201662183.78807      -481.023 7        42.345
E10         6.000    26325531.206 7 138341604.16607     -3395.069 7        42.711                                                                    26325530.301 7 103307037.08907     -2535.196 7        45.210    26325530.249 7 106002002.94407     -2601.364 7        45.794
G20         7.000    20916775.689 8 109918409.04908       952.506 8        48.181                                    20916770.319 6  85650689.90206       742.213 6        38.357
R02         8.000    23168880.901 7 123633588.64707      2969.361 7        44.653                                                                    23168880.391 6  96159458.32906      2309.449 6        40.541
R10         9.000    20407573.342 7 108783851.64907     -2201.851 7        44.175
R17        10.000    22225828.806 7 118934906.22807      -926.817 7        47.845                                                                    22225827.009 7  92504921.41107      -720.931 7        43.261
G30        11.000    21083030.513 8 110792084.28108      1446.354 8        49.826                                    21083028.088 8  86331486.79108      1127.028 8        50.236    21083028.218 7  86331494.79307      1126.962 7        44.093
S27        12.000    39019702.257 6 205049865.19106      -499.554 6        37.331
G13        13.000    24285299.635 6 127620109.62806      2823.155 6        39.513                                    24285294.136 2  99444220.01802      2199.860 2        17.019
S36        14.000    38143162.121 7 200444193.86307      -481.036 7        44.834
I09        15.000    38382787.949 7 150622287.48507      -861.656 7        42.427
E09        16.000    26411728.144 7 138794590.82207      1726.207 7        42.692                                                                    26411727.161 7 103645310.99607      1289.040 7        44.423    26411726.675 7 106349097.89407      1322.674 7        45.264
S45        17.000    63327027.108 6 332786206.87706      -522.897 6        37.255
E36        18.000    26090323.550 7 137105574.80107       245.123 7        42.180                                                                    26090323.279 7 102384054.10007       183.128 7        44.877    26090323.153 7 105054940.63307       187.801 7        45.892
E12        19.000    27877407.200 5 146496758.36605     -3730.909 5        35.919                                                                    27877404.610 6 109396914.15806     -2786.301 6        38.459    27877404.454 6 112250746.66506     -2858.861 6        39.754
E21        20.000    25762313.741 7 135381868.61807        28.023 7        43.507                                                                    25762313.161 7 101096865.14207        20.961 7        45.895    25762312.896 7 103734170.98707        21.498 7        47.243
G11        21.000    22680146.416 7 119184987.35207     -2480.823 7        46.048                                    22680141.869 5  92871400.60305     -1933.116 5        32.892    22680142.454 7  92871413.59807     -1933.060 7        43.873
I06        22.000    37894833.682 7 148707697.88407      -363.680 7        43.740
S28        23.000    40804551.976 5 214429321.65705      -482.496 5        35.362
R08        24.000    20388158.076 8 109177695.78508     -2496.727 8        49.239                                                                    20388155.609 7  84915989.03007     -1941.939 7        46.825
S23        25.000    38079971.646 7 200111566.54307      -477.758 7        44.953
R01        26.000    19661376.564 8 105101334.93808      1173.469 8        48.601                                                                    19661375.382 6  81745476.14406       912.754 6        41.139
C44        27.000                                                                                                                                    25962842.693 6 135195336.44206     -1802.412 6        39.495                                                                    25962840.368 6 109857280.37006     -1464.513 6        38.706
R24        29.000    22971035.141 7 122836452.13407     -3946.274 7        44.755                                                                    22971033.894 6  95539450.06306     -3069.330 6        40.255
E19        30.000    24701721.166 6 129808447.78906     -2364.373 6        41.080                                                                    24701719.173 7  96934880.65207     -1765.564 7        43.204    24701718.691 7  99463613.61407     -1811.603 7        43.532
C37        33.000                                                                                                                                    23613597.901 7 122962198.20607     -2209.674 7        47.695                                                                    23613600.554 7  99916869.67607     -1795.534 7        47.315
E04        34.000    23350034.922 8 122705298.56408        33.431 8        48.372                                                                    23350032.571 8  91630591.75408        24.955 8        51.247    23350032.247 8  94020950.46908        25.579 8        51.547
C16        35.000                                                                                                                                    40733037.029 6 212107617.46706     -1485.472 6        38.111    40733036.704 6 164015070.98306     -1148.623 6        38.757    40733034.031 5 172354809.27105     -1206.898 5        34.043
I01        37.000   386279324.437 7 212702205.64307     -2995.229 7        42.421
E27        38.000    28063873.737 6 147476649.90106     -2404.182 6        36.386                                                                    28063873.584 6 110128677.20006     -1795.454 6        40.451    28063873.332 6 113001595.66606     -1842.361 6        41.104
C19        39.000                                                                                                                                    21850524.754 8 113781421.06708       168.106 8        51.207                                                                    21850519.514 8  92456702.96908       136.577 8        49.800
G05        41.000    23127597.194 7 121536355.95007      2785.085 7        43.065                                    23127592.111 6  94703636.52206      2170.192 6        38.934    23127592.528 6  94703645.53506      2170.251 6        40.067
S44        42.000    40764850.577 6 214220894.34006      -535.779 6        37.059
C36        43.000                                                                                                                                    25108671.606 7 130747442.54107      2953.047 7        42.675                                                                    25108676.070 7 106243027.35007      2399.614 7        43.215
C05        44.000                                                                                                                                    39169152.552 6 203964079.64406      -536.226 6        39.117    39169147.747 7 157717986.20507      -414.666 7        43.659    39169149.567 6 165737623.47306      -435.879 6        40.300
R18        45.000    23779095.807 6 126934447.11906      2035.436 6        41.831                                                                    23779095.946 6  98726775.46006      1583.183 6        40.417
G04        46.000    23888332.984 6 125534039.73806     -3537.901 6        38.994                                    23888330.973 3  97818710.77203     -2756.793 3        23.562    23888330.863 6  97818712.75606     -2756.697 6        39.544
R11        47.000    20105236.946 8 107436272.62908      2158.431 8        51.069                                                                    20105235.354 8  83561549.15108      1678.782 8        48.253
C20        49.000                                                                                                                                    23018189.896 8 119861774.44908     -2456.480 8        50.194                                                                    23018184.206 8  97397492.87308     -1996.123 8        48.917
C06        50.000                                                                                                                                    40172977.257 6 209191250.74606     -1524.347 6        36.847    40172972.939 6 161759923.46106     -1178.941 6        39.462    40172972.353 6 169985003.87606     -1238.676 6        36.991
S48        51.000    77104988.188 6 405188965.78706      -464.943 6        37.974
E06        52.000    24404727.402 7 128247736.50307      1109.742 7        46.516                                                                    24404726.656 8  95769426.00008       828.737 8        49.032    24404726.614 8  98267756.62008       850.321 8        50.084
C09        53.000                                                                                                                                    39447471.540 6 205413354.81106     -1272.771 6        39.084    39447469.016 7 158838625.28307      -984.127 7        43.818    39447467.035 6 166915155.46306     -1034.046 6        40.310
C60        54.000                                                                                                                                    40764852.967 6 212273450.76206      -530.664 6        40.279                                                                    40764838.615 6 172489528.53906      -431.260 6        39.408
R09        55.000    23449671.179 6 125219956.99006     -4466.490 6        41.564                                                                    23449670.199 6  97393292.86806     -3474.011 6        40.322
G07        56.000    20733015.359 8 108952750.23008      -889.791 8        49.463                                    20733010.314 8  84898230.64308      -693.342 8        50.570    20733010.535 7  84898239.64507      -693.383 7        46.558
C02        57.000                                                                                                                                    40735538.598 5 212120641.60705      -558.028 5        35.010    40735535.210 6 164025118.16806      -431.448 6        40.207    40735537.338 5 172365391.02005      -453.330 5        35.881
I03        58.000    98643997.838 6 311314944.40506       844.070 6        41.139
R07        59.000    24279913.849 5 129972256.31705     -3969.274 5        35.038                                                                    24279916.627 5 101089563.82905     -3087.708 5        31.841
C35        60.000                                                                                                                                    26614914.386 6 138590831.95406     -3103.753 6        38.781                                                                    26614912.683 6 112616396.53306     -2521.978 6        37.826
> 2025 01 02 05 45 10.0000000  0 54
G09         1.000    21517993.262 7 113077847.52807     -2837.534 7        46.514                                    21517990.907 7  88112613.06007     -2211.065 7        46.586    21517991.313 7  88112613.05707     -2211.033 7        44.084
G06         2.000    23939356.339 6 125802176.48706     -3926.592 6        41.099                                    23939355.091 6  98027672.29106     -3059.682 6        36.223    23939356.334 6  98027680.29106     -3059.742 6        40.086
E11         3.000    25263454.449 6 132760366.51506     -2377.689 6        41.638                                                                    25263449.990 7  99139225.32607     -1775.607 7        43.064    25263449.807 7 101725462.15707     -1821.840 7        43.958
G16         4.000    24302230.942 6 127709093.62006     -2874.546 6        38.012                                    24302226.447 2  99513561.33002     -2239.905 2        17.660
S21         5.000    38375551.621 7 201664588.39207      -480.837 7        42.569
E10         6.000    26328762.011 7 138358581.72507     -3395.752 7        42.436                                                                    26328761.100 7 103319715.13307     -2535.866 7        45.187    26328760.929 7 106015011.71507     -2602.021 7        45.849
G20         7.000    20915870.703 8 109913653.94008       949.788 8        48.059                                    20915865.428 6  85646984.62306       740.096 6        38.183
R02         8.000    23166098.381 7 123618741.79207      2969.396 7        44.433                                                                    23166097.182 6  96147910.78506      2309.630 6        40.491
R10         9.000    20409640.605 7 108794871.80007     -2205.970 7        44.307
R17        10.000    22226697.170 7 118939551.67707      -931.137 7        47.058                                                                    22226694.698 7  92508534.53207      -724.194 7        43.204
G30        11.000    21081655.565 8 110784858.39408      1444.202 8        49.832                                    21081653.046 8  86325856.23008      1125.354 8        50.081    21081653.257 7  86325864.23607      1125.406 7        44.117
S27        12.000    39020177.470 6 205052362.59106      -499.060 6        37.047
G13        13.000    24282612.899 6 127605994.75006      2822.882 6        39.108                                    24282608.207 2  99433221.39902      2199.650 2        16.604
S36        14.000    38143619.886 7 200446599.48907      -481.153 7        44.847
I09        15.000    38383886.330 7 150626596.42207      -861.773 7        42.626
E09        16.000    26410086.091 7 138785961.04407      1725.909 7        42.442                                                                    26410084.984 7 103638866.68507      1288.746 7        44.445    26410084.586 7 106342485.46207      1322.473 7        45.220
S45        17.000    63327478.903 6 332788820.91406      -522.633 6        37.089
E36        18.000    26090091.909 7 137104355.63507       242.757 7        42.068                                                                    26090091.263 7 102383143.68207       181.305 7        44.918    26090091.143 7 105054006.47107       186.037 7        45.874
E12        19.000    27880957.302 5 146515413.80605     -3730.981 5        35.552                                                                    27880954.551 6 109410845.13406     -2786.130 6        38.210    27880954.547 6 112265041.08006     -2858.883 6        39.763
E21        20.000    25762288.320 7 135381734.40707        25.832 7        43.702                                                                    25762287.628 7 101096764.92307        19.163 7        45.854    25762287.407 7 103734068.15207        19.710 7        47.314
G11        21.000    22682507.787 7 119197398.27607     -2483.199 7        45.363                                    22682503.623 5  92881071.45105     -1934.961 5        32.647    22682503.589 7  92881084.45707     -1935.123 7        43.915
I06        22.000    37895297.126 7 148709516.87107      -363.758 7        43.592
S28        23.000    40805008.725 5 214431735.09905      -482.610 5        35.333
R08        24.000    20390489.878 8 109190184.67308     -2498.676 8        48.934                                                                    20390487.248 7  84925702.59907     -1943.388 7        46.684
S23        25.000    38080423.410 7 200113955.56107      -477.603 7        44.799
R01        26.000    19660279.882 8 105095472.92608      1171.576 8        48.861                                                                    19660278.881 6  81740916.80806       911.161 6        41.173
C44        27.000                                                                                                                                    25964573.504 6 135204353.49206     -1804.368 6        39.895                                                                    25964572.232 6 109864607.47606     -1466.230 6        38.892
R24        29.000    22974725.701 7 122856188.48007     -3948.160 7        44.912                                                                    22974724.333 6  95554800.52106     -3070.660 6        40.141
E19        30.000    24703970.922 6 129820271.24106     -2364.794 6        40.648                                                                    24703969.208 7  96943709.84407     -1765.998 7        43.281    24703968.536 7  99472673.14407     -1812.068 7        43.482
C37        33.000                                                                                                                                    23615720.771 7 122973252.38307     -2211.862 7        47.825                                                                    23615723.366 7  99925852.09607     -1797.305 7        47.342
E04        34.000    23350003.567 8 122705134.56808        32.410 8        48.328                                                                    23350001.385 8  91630469.28208        24.226 8        51.249    23350001.056 8  94020824.80208        24.843 8        51.700
C16        35.000                                                                                                                                    40734462.779 6 212115044.17306     -1485.207 6        38.306    40734463.476 6 164020813.74706     -1148.452 6        38.997    40734460.228 5 172360844.03405     -1206.746 5        33.862
I01        37.000   386283140.782 7 212717182.28607     -2995.370 7        42.307
E27        38.000    28066162.295 6 147488676.19506     -2405.919 6        36.306                                                                    28066162.244 6 110137657.85506     -1796.725 6        40.729    28066161.650 6 113010810.59806     -1843.556 6        41.099
C19        39.000                                                                                                                                    21850364.249 8 113780585.22508       166.423 8        51.459                                                                    21850358.948 8  92456023.78208       135.211 8        49.791
G05        41.000    23124947.761 7 121522434.16807      2783.860 7        43.674                                    23124942.795 6  94692788.38706      2169.243 6        38.748    23124943.491 6  94692797.38106      2169.344 6        40.298
S44        42.000    40765360.950 6 214223572.33006      -535.621 6        36.646
C36        43.000                                                                                                                                    25105836.809 7 130732678.82207      2952.646 7        43.481                                                                    25105841.185 7 106231030.63607      2399.210 7        43.782
C05        44.000                                                                                                                                    39169667.294 6 203966761.21006      -536.211 6        39.207    39169662.864 7 157720059.75407      -414.558 7        43.471    39169664.501 6 165739802.45506      -435.755 6        40.365
R18        45.000    23777191.180 7 126924277.93207      2032.389 7        42.083                                                                    23777190.634 6  98718866.11106      1580.780 6        40.267
G04        46.000    23891699.600 6 125551730.24406     -3538.249 6        39.763                                    23891697.224 3  97832495.54903     -2757.074 3        23.524    23891697.517 6  97832497.54006     -2757.017 6        39.748
R11        47.000    20103219.135 8 107425489.79208      2154.914 8        51.088                                                                    20103217.186 8  83553162.50708      1675.977 8        48.041
C20        49.000                                                                                                                                    23020549.466 8 119874060.75408     -2457.853 8        50.237                                                                    23020543.606 8  97407476.50108     -1997.214 8        48.863
C06        50.000                                                                                                                                    40174441.425 6 209198872.63006     -1524.362 6        36.699    40174436.717 6 161765817.15006     -1178.615 6        39.108    40174436.044 6 169991197.29406     -1238.697 6        36.783
S48        51.000    77105431.196 6 405191291.29206      -464.976 6        37.698
E06        52.000    24403671.886 7 128242189.76107      1109.139 7        46.145                                                                    24403671.184 8  95765283.94908       828.233 8        49.028    24403671.171 8  98263506.51908       849.832 8        50.047
C09        53.000                                                                                                                                    39448694.344 6 205419718.10306     -1272.506 6        39.520    39448691.101 7 158843545.78307      -983.995 7        43.983    39448689.044 6 166920326.15806     -1033.956 6        40.303
C60        54.000                                                                                                                                    40765362.656 6 212276104.40306      -530.489 6        40.403                                                                    40765348.398 6 172491684.81306      -431.008 6        39.354
R09        55.000    23453854.106 6 125242293.71606     -4467.990 6        41.578                                                                    23453853.453 6  97410665.85306     -3475.160 6        40.689
G07        56.000    20733863.151 8 108957205.16108      -891.912 8        49.584                                    20733858.071 8  84901702.01408      -694.996 8        50.354    20733858.033 7  84901711.01907      -695.044 7        46.342
C02        57.000                                                                                                                                    40736074.012 5 212123431.50905      -557.815 5        35.033    40736070.472 6 164027275.46006      -431.298 6        40.036    40736073.097 6 172367658.04306      -453.340 6        36.042
I03        58.000    98642922.158 6 311310724.20506       844.118 6        41.099
R07        59.000    24283620.907 5 129992105.17405     -3970.131 5        35.152                                                                    24283625.348 5 101105001.77305     -3087.606 5        31.487
C35        60.000                                                                                                                                    26617894.380 6 138606351.87206     -3104.181 6        38.883                                                                    26617892.942 6 112629007.74506     -2522.532 6        37.369
> 2025 01 02 05 45 15.0000000  0 54
G09         1.000    21520693.846 7 113092039.73007     -2839.091 7        46.646                                    21520691.575 7  88123671.91107     -2212.279 7        46.570    21520691.795 7  88123671.91407     -2212.309 7        43.683
G06         2.000    23943092.562 6 125821811.63106     -3927.348 6        40.944                                    23943091.726 6  98042972.39606     -3060.263 6        36.405    23943092.437 6  98042980.38306     -3060.327 6        40.393
E11         3.000    25265718.009 6 132772261.26606     -2379.831 6        41.080                                                                    25265713.634 7  99148107.76807     -1777.226 7        43.156    25265713.247 7 101734576.31607     -1823.533 7        43.761
G16         4.000    24304967.075 6 127723473.10906     -2877.520 6        38.048                                    24304962.910 2  99524766.11002     -2242.217 2        17.094
S21         5.000    38376010.580 7 201666993.17207      -480.943 7        42.518
E10         6.000    26331993.808 7 138375564.40107     -3397.003 7        42.512                                                                    26331992.762 7 103332396.99707     -2536.790 7        45.199    26331992.591 7 106028024.40907     -2602.863 7        45.759
G20         7.000    20914968.537 8 109908913.22808       946.708 8        48.168                                    20914963.310 6  85643290.55806       737.696 6        38.150
R02         8.000    23163316.092 7 123603895.63507      2969.295 7        44.551                                                                    23163315.750 6  96136363.77806      2309.448 6        40.877
R10         9.000    20411712.095 7 108805913.23407     -2210.391 7        44.199
R17        10.000    22227569.184 7 118944219.46207      -935.823 7        47.278                                                                    22227567.329 7  92512165.03307      -727.847 7        43.589
G30        11.000    21080282.700 8 110777643.95708      1441.747 8        49.829                                    21080280.191 8  86320234.59108      1123.440 8        50.006    21080280.757 7  86320242.59107      1123.415 7        44.084
S27        12.000    39020654.552 6 205054860.50506      -499.515 6        37.146
G13        13.000    24279926.933 6 127591881.93106      2822.451 6        39.021                                    24279922.792 2  99422224.41102      2199.302 2        16.906
S36        14.000    38144077.641 7 200449006.03407      -481.381 7        44.847
I09        15.000    38384984.802 7 150630906.08707      -862.083 7        42.595
E09        16.000    26408443.959 7 138777333.52107      1725.276 7        42.411                                                                    26408443.214 7 103632424.06207      1288.288 7        44.411    26408442.809 7 106335874.77107      1321.912 7        45.166
S45        17.000    63327936.198 6 332791435.22306      -522.931 6        37.127
E36        18.000    26089862.080 7 137103149.18207       240.015 7        42.178                                                                    26089861.677 7 102382242.75407       179.222 7        44.849    26089861.554 7 105053082.03607       183.865 7        45.779
E12        19.000    27884507.823 6 146534069.62406     -3731.082 6        36.038                                                                    27884504.548 6 109424776.40906     -2786.047 6        38.327    27884504.470 6 112279335.77806     -2858.946 6        39.138
E21        20.000    25762264.559 7 135381612.59907        23.033 7        43.979                                                                    25762264.441 7 101096673.95207        17.252 7        45.901    25762264.282 7 103733974.80807        17.727 7        47.168
G11        21.000    22684871.744 7 119209822.34307     -2486.105 7        45.553                                    22684867.909 5  92890752.53905     -1937.222 5        32.635    22684867.926 7  92890765.53607     -1937.234 7        43.754
I06        22.000    37895760.781 7 148711336.18307      -363.952 7        43.725
S28        23.000    40805467.375 5 214434148.90505      -482.364 5        35.057
R08        24.000    20392824.249 8 109202684.02408     -2500.940 8        49.039                                                                    20392821.989 7  84935424.31007     -1945.155 7        47.590
S23        25.000    38080877.467 7 200116344.96907      -477.966 7        44.698
R01        26.000    19659185.640 8 105089621.09308      1169.337 8        49.021                                                                    19659184.887 6  81736365.37706       909.375 6        41.447
C44        27.000                                                                                                                                    25966307.569 6 135213381.60606     -1806.688 6        39.586                                                                    25966305.875 6 109871943.53506     -1468.121 6        38.832
R24        29.000    22978419.232 7 122875934.61807     -3950.220 7        45.994                                                                    22978416.636 6  95570158.63006     -3072.433 6        39.075
E19        30.000    24706221.555 6 129832097.89306     -2365.775 6        40.942                                                                    24706219.665 7  96952541.43907     -1766.648 7        43.179    24706219.183 7  99481735.11807     -1812.610 7        43.327
C37        33.000                                                                                                                                    23617845.512 7 122984318.15207     -2214.292 7        47.800                                                                    23617848.484 7  99934843.93007     -1799.303 7        47.299
E04        34.000    23349973.330 8 122704976.01308        31.131 8        48.271                                                                    23349971.257 8  91630350.87808        23.300 8        51.181    23349970.860 8  94020703.30808        23.882 8        51.477
C16        35.000                                                                                                                                    40735888.594 6 212122470.48206     -1485.260 6        37.883    40735889.857 6 164026556.23306     -1148.466 6        38.712    40735886.169 5 172366878.49705     -1207.019 5        33.707
I01        37.000   386286957.397 7 212732159.76107     -2995.502 7        42.290
E27        38.000    28068453.015 6 147500711.74006     -2408.055 6        36.132                                                                    28068452.498 6 110146645.41906     -1798.188 6        40.722    28068451.836 6 113020032.62106     -1844.956 6        41.008
C19        39.000                                                                                                                                    21850205.622 8 113779758.43408       164.451 8        51.396                                                                    21850200.163 8  92455351.93908       133.630 8        49.818
G05        41.000    23122299.886 7 121508519.52807      2782.182 7        42.717                                    23122294.919 6  94681945.81506      2167.929 6        38.778    23122295.724 6  94681954.82606      2167.908 6        39.955
S44        42.000    40765874.355 6 214226250.41906      -535.430 6        36.665
C36        43.000                                                                                                                                    25103001.801 7 130717918.02207      2951.913 7        43.513                                                                    25103006.852 7 106219036.26707      2398.632 7        44.160
C05        44.000                                                                                                                                    39170182.644 6 203969443.02706      -536.413 6        39.198    39170177.588 7 157722133.49507      -414.794 7        43.416    39170179.690 6 165741981.62306      -435.763 6        40.234
R18        45.000    23775289.352 7 126914125.66307      2028.709 7        42.178                                                                    23775288.987 6  98710969.88406      1577.899 6        40.100
G04        46.000    23895066.705 6 125569423.31206     -3538.913 6        40.269                                    23895064.213 3  97846282.33003     -2757.586 3        23.905    23895064.743 6  97846284.29006     -2757.438 6        39.697
R11        47.000    20101204.463 8 107414725.68908      2150.997 8        50.907                                                                    20101203.035 8  83544790.42508      1672.998 8        48.196
C20        49.000                                                                                                                                    23022910.092 8 119886354.70808     -2459.544 8        50.266                                                                    23022904.418 8  97417466.33508     -1998.600 8        48.888
C06        50.000                                                                                                                                    40175904.974 6 209206494.38806     -1524.425 6        36.658    40175900.604 6 161771710.75206     -1178.608 6        39.201    40175899.852 6 169997390.54906     -1238.566 6        36.934
S48        51.000    77105888.496 6 405193616.76706      -465.107 6        38.114
E06        52.000    24402617.145 7 128236647.14507      1108.066 7        46.236                                                                    24402616.480 8  95761144.99508       827.475 8        49.096    24402616.450 8  98259259.58808       849.074 8        50.007
C09        53.000                                                                                                                                    39449916.499 6 205426081.77706     -1272.765 6        39.577    39449913.306 7 158848466.58107      -984.272 7        43.970    39449911.133 6 166925497.16106     -1034.227 6        40.439
C60        54.000                                                                                                                                    40765872.609 6 212278758.15606      -530.697 6        40.560                                                                    40765858.056 6 172493841.19806      -431.356 6        39.150
R09        55.000    23458039.083 6 125264638.20706     -4469.699 6        41.642                                                                    23458038.027 6  97428044.89706     -3476.438 6        41.051
G07        56.000    20734713.004 8 108961671.87708      -894.501 8        49.311                                    20734708.073 8  84905182.56908      -697.013 8        50.282    20734708.074 7  84905191.57107      -697.017 7        46.400
C02        57.000                                                                                                                                    40736609.819 5 212126221.60905      -558.028 5        35.062    40736606.217 6 164029432.92906      -431.491 6        39.925    40736608.846 5 172369925.21305      -453.492 5        35.914
I03        58.000    98641846.829 6 311306504.16706       843.951 6        41.182
R07        59.000    24287331.021 5 130011957.14505     -3970.922 5        34.938                                                                    24287333.613 5 101120442.14205     -3088.449 5        31.057
C35        60.000                                                                                                                                    26620875.864 6 138621874.58306     -3104.871 6        39.847                                                                    26620873.867 6 112641621.21406     -2522.762 6        37.391
> 2025 01 02 05 45 20.0000000  0 54
G09         1.000    21523395.896 7 113106238.67507     -2840.315 7        46.177                                    21523393.535 7  88134736.01707     -2213.233 7        46.576    21523393.444 7  88134736.01907     -2213.196 7        43.354
G06         2.000    23946829.970 7 125841450.23107     -3927.941 7        42.119                                    23946829.082 6  98058275.18306     -3060.729 6        36.737    23946829.762 6  98058283.18106     -3060.648 6        40.453
E11         3.000    25267983.549 6 132784166.24606     -2381.863 6        41.325                                                                    25267978.970 7  99156997.84107     -1778.636 7        43.202    25267978.769 7 101743698.30207     -1825.029 7        43.843
G16         4.000    24307706.166 6 127737866.45506     -2880.006 6        38.099                                    24307701.806 2  99535981.69502     -2244.144 2        17.321
S21         5.000    38376468.188 7 201669398.09107      -480.886 7        42.823
E10         6.000    26335226.345 7 138392552.20407     -3397.873 7        42.595                                                                    26335225.440 7 103345082.68307     -2537.425 7        45.231    26335225.207 7 106041041.03407     -2603.642 7        45.740
G20         7.000    20914069.486 8 109904186.97808       943.927 8        48.010                                    20914063.914 6  85639607.76706       735.527 6        38.174
R02         8.000    23160534.878 7 123589049.97207      2969.051 7        45.245                                                                    23160533.661 6  96124817.15606      2309.380 6        40.579
R10         9.000    20413786.944 7 108816975.79707     -2214.548 7        44.369
R17        10.000    22228445.957 7 118948909.49007      -940.225 7        47.933                                                                    22228443.872 7  92515812.81807      -731.247 7        43.471
G30        11.000    21078911.889 8 110770440.98308      1439.534 8        49.647                                    21078909.509 8  86314621.88208      1121.717 8        49.976    21078910.095 7  86314629.87807      1121.713 7        44.199
S27        12.000    39021130.261 6 205057359.39206      -499.660 6        37.267
G13        13.000    24277241.938 6 127577771.20006      2822.038 6        38.523                                    24277237.614 2  99411229.04302      2198.983 2        16.981
S36        14.000    38144534.873 7 200451412.88707      -481.161 7        44.895
I09        15.000    38386083.143 7 150635216.48007      -862.148 7        42.629
E09        16.000    26406802.934 7 138768708.28207      1724.917 7        42.802                                                                    26406801.920 7 103625983.12007      1288.126 7        44.439    26406801.459 7 106329265.81107      1321.748 7        45.118
S45        17.000    63328387.237 6 332794049.81906      -522.740 6        37.629
E36        18.000    26089634.411 7 137101955.42507       237.648 7        42.500                                                                    26089634.618 7 102381351.31607       177.382 7        44.886    26089634.383 7 105052167.34107       181.998 7        45.747
E12        19.000    27888057.708 6 146552725.84306     -3731.078 6        36.310                                                                    27888054.666 6 109438707.98006     -2786.102 6        38.207    27888054.694 6 112293630.78606     -2858.842 6        39.201
E21        20.000    25762243.761 7 135381503.17807        20.833 7        43.884                                                                    25762243.700 7 101096592.24507        15.462 7        45.949    25762243.411 7 103733890.97107        15.919 7        47.126
G11        21.000    22687238.865 7 119222259.57707     -2488.710 7        45.102                                    22687234.622 5  92900443.88405     -1939.255 5        32.647    22687234.857 7  92900456.87507     -1939.228 7        43.884
I06        22.000    37896224.414 7 148713155.84707      -363.840 7        43.809
S28        23.000    40805928.565 5 214436562.41205      -482.726 5        35.262
R08        24.000    20395159.968 8 109215193.83008     -2502.917 8        48.707                                                                    20395157.606 7  84945154.16207     -1946.743 7        46.543
S23        25.000    38081334.100 7 200118734.64807      -477.776 7        45.028
R01        26.000    19658092.839 8 105083779.50708      1167.346 8        49.314                                                                    19658092.301 6  81731821.92006       908.030 6        41.738
C44        27.000                                                                                                                                    25968043.700 6 135222420.77106     -1808.700 6        40.148                                                                    25968041.600 6 109879288.62506     -1469.871 6        38.739
R24        29.000    22982114.045 7 122895690.51807     -3951.975 7        46.231                                                                    22982111.425 6  95585524.33206     -3073.850 6        39.036
E19        30.000    24708472.737 6 129843927.81106     -2366.235 6        41.211                                                                    24708470.894 7  96961375.45207     -1767.039 7        43.285    24708470.331 7  99490799.58807     -1813.080 7        43.346
C37        33.000                                                                                                                                    23619972.931 7 122995395.53107     -2216.546 7        47.831                                                                    23619975.875 7  99943845.20607     -1801.104 7        47.315
E04        34.000    23349944.289 8 122704822.92108        30.106 8        48.353                                                                    23349942.061 8  91630236.55908        22.499 8        51.213    23349941.714 8  94020586.00508        23.101 8        51.463
C16        35.000                                                                                                                                    40737314.522 6 212129896.42206     -1485.156 6        37.395    40737315.434 6 164032298.39906     -1148.317 6        38.811    40737312.477 5 172372912.67105     -1206.733 5        33.850
I01        37.000   386290774.121 7 212747138.14107     -2995.596 7        42.176
E27        38.000    28070745.107 6 147512756.53206     -2409.878 6        36.367                                                                    28070744.462 6 110155639.90506     -1799.531 6        40.813    28070743.767 6 113029261.74906     -1846.419 6        40.994
