     3.04           OBSERVATION DATA    M                   RINEX VERSION / TYPE
ssrcrin-15.6.1x                         20250102 033000 UTC PGM / RUN BY / DATE 
(00000000023479385599111004) Septentrio proprietary         COMMENT             
rref                                                        MARKER NAME         
01                                                          MARKER NUMBER       
geodetic                                                    MARKER TYPE         
NFB                 CLIMERS@TUW                             OBSERVER / AGENCY   
3297213             SEPT ASTERX SB3 PROB4.14.4              REC # / TYPE / VERS 
Unknown             Unknown                                 ANT # / TYPE        
  4127832.0670  1207193.2422  4695247.3898                  APPROX POSITION XYZ 
        0.0000        0.0000        0.0000                  ANTENNA: DELTA H/E/N
G   23 X1  C1C L1C D1C S1C C1W S1W C2W L2W D2W S2W C2L L2L  SYS / # / OBS TYPES 
       D2L S2L C5Q L5Q D5Q S5Q C1L L1L D1L S1L              SYS / # / OBS TYPES 
E   21 X1  C1C L1C D1C S1C C6C L6C D6C S6C C5Q L5Q D5Q S5Q  SYS / # / OBS TYPES 
       C7Q L7Q D7Q S7Q C8Q L8Q D8Q S8Q                      SYS / # / OBS TYPES 
S    9 X1  C1C L1C D1C S1C C5I L5I D5I S5I                  SYS / # / OBS TYPES 
R   17 X1  C1C L1C D1C S1C C2P L2P D2P S2P C2C L2C D2C S2C  SYS / # / OBS TYPES 
       C3Q L3Q D3Q S3Q                                      SYS / # / OBS TYPES 
C   25 X1  C1P L1P D1P S1P C5P L5P D5P S5P C2I L2I D2I S2I  SYS / # / OBS TYPES 
       C7I L7I D7I S7I C6I L6I D6I S6I C7D L7D D7D S7D      SYS / # / OBS TYPES 
J   17 X1  C1C L1C D1C S1C C2L L2L D2L S2L C5Q L5Q D5Q S5Q  SYS / # / OBS TYPES 
       C1L L1L D1L S1L                                      SYS / # / OBS TYPES 
I    5 X1  C5A L5A D5A S5A                                  SYS / # / OBS TYPES 
SEPTENTRIO RECEIVERS OUTPUT ALIGNED CARRIER PHASES.         COMMENT             
NO FURTHER PHASE SHIFT APPLIED IN THE RINEX ENCODER.        COMMENT             
G L1C                                                       SYS / PHASE SHIFT   
G L2W                                                       SYS / PHASE SHIFT   
G L2L  0.00000                                              SYS / PHASE SHIFT   
G L5Q  0.00000                                              SYS / PHASE SHIFT   
G L1L  0.00000                                              SYS / PHASE SHIFT   
E L1C  0.00000                                              SYS / PHASE SHIFT   
E L6C  0.00000                                              SYS / PHASE SHIFT   
E L5Q  0.00000                                              SYS / PHASE SHIFT   
E L7Q  0.00000                                              SYS / PHASE SHIFT   
E L8Q  0.00000                                              SYS / PHASE SHIFT   
S L1C                                                       SYS / PHASE SHIFT   
S L5I                                                       SYS / PHASE SHIFT   
R L1C                                                       SYS / PHASE SHIFT   
R L2P  0.00000                                              SYS / PHASE SHIFT   
R L2C                                                       SYS / PHASE SHIFT   
R L3Q  0.00000                                              SYS / PHASE SHIFT   
C L1P  0.00000                                              SYS / PHASE SHIFT   
C L5P  0.00000                                              SYS / PHASE SHIFT   
C L2I                                                       SYS / PHASE SHIFT   
C L7I                                                       SYS / PHASE SHIFT   
C L6I                                                       SYS / PHASE SHIFT   
C L7D                                                       SYS / PHASE SHIFT   
J L1C                                                       SYS / PHASE SHIFT   
J L2L  0.00000                                              SYS / PHASE SHIFT   
J L5Q  0.00000                                              SYS / PHASE SHIFT   
J L1L  0.00000                                              SYS / PHASE SHIFT   
I L5A                                                       SYS / PHASE SHIFT   
  2025     1     2     3    30    0.0000000     GPS         TIME OF FIRST OBS   
 C1C    0.000 C2C    0.000 C2P    0.000                     GLONASS COD/PHS/BIS 
DBHZ                                                        SIGNAL STRENGTH UNIT
    18                                                      LEAP SECONDS        
 24 R01  1 R02 -4 R03  5 R04  6 R05  1 R06 -4 R07  5 R08  6 GLONASS SLOT / FRQ #
    R09 -2 R10 -7 R11  0 R12 -1 R13 -2 R14 -7 R15  0 R16 -1 GLONASS SLOT / FRQ #
    R17  4 R18 -3 R19  3 R20  2 R21  4 R22 -3 R23  3 R24  2 GLONASS SLOT / FRQ #
                                                            END OF HEADER       
> 2025 01 02 03 30  0.0000000  0 57
G09         1.000    20151757.266 8 105898234.62708       198.196 8        50.954                                    20151754.153 8  82518111.15808       154.438 8        53.220    20151754.197 7  82518111.15707       154.495 7        45.645
G06         2.000    21326791.770 8 112073068.78908       165.362 8        48.140                                    21326789.735 8  87329669.58308       128.855 8        49.902    21326790.311 7  87329677.59007       128.832 7        46.415
E11         3.000    25454054.178 6 133761975.30406      1396.592 6        41.502                                                                    25454049.400 7  99887180.34407      1042.997 7        43.245    25454049.483 7 102492929.01607      1070.091 7        44.507
G16         4.000    24793567.622 6 130291083.78406      2050.832 6        37.656                                    24793562.697 2 101525501.47102      1598.064 2        16.604
S21         5.000    38531128.398 7 202482159.61307      -475.241 7        42.622
E10         6.000    24243392.175 8 127399898.43808       -62.394 8        48.292                                                                    24243390.477 8  95136285.50808       -46.616 8        50.428    24243390.498 8  97618101.01208       -47.793 8        51.686
G20         7.000    25480059.701 6 133898612.51506      2958.896 6        36.231                                    25480054.241 2 104336559.54102      2305.653 2        14.048
G03         8.000    22012983.839 7 115679106.70207     -3178.714 7        46.128                                    22012981.635 7  90139604.77007     -2476.918 7        44.351    22012981.726 7  90139602.75707     -2476.859 7        42.408
R10         9.000    23129873.974 6 123295234.33106      3645.456 6        38.501
G31        10.000    24352016.184 6 127970717.85006     -3829.346 6        40.944                                    24352011.306 5  99717426.14005     -2983.907 5        32.335    24352012.082 5  99717431.16705     -2984.054 5        35.948
C30        11.000                                                                                                                                    26783318.121 4                     -3773.402 4        24.180                                                                    26783318.980 5 113328989.34905     -3064.751 5        30.475
S27        12.000    39159373.611 6 205783906.92206      -477.006 6        36.427
G26        13.000    24270216.926 6 127540854.12106        37.365 6        40.002                                    24270215.504 5  99382490.65205        29.118 5        32.168    24270215.229 6  99382490.65206        29.182 6        36.930
S36        14.000    38298621.921 7 201261133.39507      -475.408 7        44.945
I09        15.000    37693338.641 7 147916758.80607      -671.544 7        42.665
G19        16.000    24143410.791 6 126874500.15006     -3400.139 6        40.739                                    24143405.211 4  98863229.64504     -2649.453 4        24.060
S45        17.000    63488672.789 6 333636519.44506      -515.474 6        37.777
E12        19.000    24237993.606 7 127371526.98807     -1499.639 7        45.607                                                                    24237989.342 7  95115090.85207     -1119.849 7        47.350    24237989.513 8  97596353.44308     -1149.022 8        48.627
G17        20.000    25527382.061 6 134147306.94006     -3369.043 6        37.376                                    25527377.844 4 104530355.96604     -2625.232 4        25.594    25527377.801 5 104530354.99505     -2625.433 5        31.434
G11        21.000    23642620.486 7 124242822.15407      2370.146 7        42.959                                    23642616.236 4  96812570.24104      1846.861 4        28.531    23642616.245 6  96812583.22806      1846.890 6        41.514
I06        22.000    38102762.500 7 149523667.35607      -301.291 7        43.054
S28        23.000    40961999.564 5 215256798.91105      -471.873 5        35.181
R08        24.000    20005426.467 8 107128190.16008       759.666 8        50.951                                                                    20005423.283 7  83321930.36207       590.783 7        46.350
S23        25.000    38241570.031 7 200960813.57307      -471.195 7        44.780
C25        26.000                                                                                                                                    26866488.993 4 139900848.68504     -2979.180 4        29.829                                                                    26866485.516 4 113680894.56104     -2420.341 4        29.953
R16        27.000    22654765.767 7 121017705.24007     -2317.685 7        45.568                                                                    22654764.895 7  94124884.09907     -1802.578 7        42.952
R24        29.000    22249235.369 7 118976668.81707      2272.342 7        46.271                                                                    22249234.215 7  92537396.79607      1767.361 7        43.395
E19        30.000    22968955.320 7 120702710.41307      -808.470 7        43.486                                                                    22968952.855 7  90135143.84507      -603.723 7        46.075    22968952.827 7  92486492.11607      -619.452 7        47.611
C23        31.000                                                                                                                                    24598415.098 7 128090412.56307      -698.640 7        46.250                                                                    24598405.970 7 104083920.35207      -567.601 7        45.729
R23        32.000    20365806.836 8 108943351.15508     -2118.676 8        49.316
E29        33.000    25537890.608 7 134202604.87307     -2693.262 7        44.086                                                                    25537888.550 7 100216246.02707     -2011.243 7        46.720    25537888.470 7 102830577.35607     -2063.720 7        47.977
E04        34.000    25601212.575 7 134535313.30707      1716.951 7        44.721                                                                    25601209.888 7 100464693.14507      1282.165 7        46.563    25601209.660 7 103085506.73207      1315.639 7        47.767
C16        35.000                                                                                                                                    39353580.418 6 204924455.41106     -1285.461 6        41.938    39353580.126 7 158460600.48807      -994.029 7        42.665    39353578.137 6 166517906.55906     -1044.441 6        38.489
C32        36.000                                                                                                                                    23787855.750 8 123869664.37508     -2615.849 8        48.099                                                                    23787855.657 7 100654270.14607     -2125.534 7        47.760
I01        37.000   381219351.150 7 192845809.05007     -2777.019 7        42.935
E27        38.000    28019753.691 6 147244799.22306      1177.057 6        37.671                                                                    28019753.534 6 109955542.50006       878.922 6        41.566    28019752.940 7 112823944.34407       901.919 7        42.104
C19        39.000                                                                                                                                    24652204.479 7 128370500.41907      1961.938 7        45.347                                                                    24652199.511 7 104311524.35007      1594.328 7        44.971
C39        40.000                                                                                                                                    40061504.685 6 208610793.80806     -1574.983 6        41.058                                                                    40061500.151 6 169513353.23406     -1279.757 6        40.315
E33        41.000    26588844.230 6 139725402.47406     -3621.195 6        40.896                                                                    26588842.073 7 104340430.23707     -2704.125 7        44.966    26588841.074 7 107062350.51807     -2774.633 7        45.505
S44        42.000    40816786.707 6 214493845.26106      -551.599 6        38.508
R06        43.000    23746655.344 5 126716757.63805     -3823.164 5        33.257
C05        44.000                                                                                                                                    39246844.758 6 204368665.45906      -508.981 6        39.027    39246838.468 7 158030842.58107      -393.539 7        42.713    39246840.838 6 166066386.51206      -413.520 6        40.091
C29        45.000                                                                                                                                    24114849.560 7 125572372.68407     -2794.496 7        46.228                                                                    24114847.042 7 102037837.06007     -2270.674 7        45.145
G04        46.000    20440099.822 7 107413484.55007     -1659.736 7        47.730                                    20440095.922 6  83698805.92706     -1293.301 6        40.162    20440095.818 8  83698807.92508     -1293.307 8        48.229
E30        47.000    28783245.139 5 151256993.87505      -918.184 5        35.595                                                                    28783244.601 6 112951643.83606      -685.739 6        39.426    28783244.087 6 115898206.92706      -703.585 6        40.527
R22        48.000    22322489.242 7 119158986.21807     -4730.197 7        46.791                                                                    22322487.049 7  92679208.39407     -3679.009 7        44.107
C20        49.000                                                                                                                                    22021917.756 8 114673936.63008        -2.576 8        51.950                                                                    22021912.320 8  93181951.37508        -2.101 8        49.307
C06        50.000                                                                                                                                    38797173.829 6 202027099.28206     -1236.719 6        40.358    38797167.934 7 156220152.15107      -956.335 7        43.664    38797167.744 6 164163548.01206     -1004.902 6        40.429
S48        51.000    77274444.564 6 406079889.80906      -463.203 6        37.917
E06        52.000    27893287.573 6 146580229.56406      2175.125 6        38.390                                                                    27893287.045 6 109459271.32506      1624.354 6        40.281    27893286.912 6 112314728.73406      1666.661 6        40.884
C09        53.000                                                                                                                                    38624010.293 7 201125380.96507      -778.570 7        42.737    38624007.038 7 155522893.61607      -602.121 7        47.013    38624004.985 7 163430826.81407      -632.692 7        42.165
C60        54.000                                                                                                                                    40816783.499 6 212543920.76006      -546.642 6        39.513                                                                    40816767.675 6 172709317.76806      -444.049 6        40.288
R09        55.000    21487834.912 7 114743863.17807      1420.641 7        47.639                                                                    21487833.346 7  89245221.23407      1104.918 7        46.619
G07        56.000    23214777.262 7 121994494.52707      2628.341 7        44.978                                    23214772.220 6  95060627.81606      2048.060 6        40.210    23214772.991 6  95060636.81406      2048.197 6        40.298
C02        57.000                                                                                                                                    40764080.437 5 212269322.59805      -548.934 5        35.276    40764072.806 6 164140102.16806      -424.466 6        40.112    40764076.123 5 172486218.08805      -445.926 5        34.843
I03        58.000   101296083.208 6 321722362.72706       864.897 6        40.923
R07        59.000    20235272.453 8 108321065.51708     -2296.140 8        50.058                                                                    20235271.053 7  84249771.40707     -1785.880 7        47.274
> 2025 01 02 03 30  5.0000000  0 57
G09         1.000    20151569.977 8 105897249.67108       195.990 8        51.001                                    20151566.716 8  82517343.66408       152.716 8        53.094    20151567.180 7  82517343.66407       152.782 7        45.556
G06         2.000    21326635.850 8 112072250.53908       162.104 8        48.165                                    21326634.015 8  87329031.98608       126.315 8        49.795    21326634.665 7  87329039.98007       126.334 7        46.209
E11         3.000    25452726.180 6 133754997.50706      1394.939 6        41.428                                                                    25452721.605 7  99881969.66207      1041.617 7        43.306    25452721.658 7 102487582.40107      1068.695 7        44.491
G16         4.000    24791617.401 6 130280834.17806      2049.195 6        37.406                                    24791612.242 2 101517514.78002      1596.772 2        16.641
S21         5.000    38531586.695 7 202484535.58007      -475.076 7        42.472
E10         6.000    24243452.760 8 127400216.92108       -64.732 8        48.378                                                                    24243451.063 8  95136523.33008       -48.298 8        50.398    24243451.112 8  97618345.04408       -49.601 8        51.781
G20         7.000    25477244.088 6 133883818.75306      2958.892 6        37.459                                    25477239.113 2 104325031.92502      2305.637 2        13.879
G03         8.000    22016008.899 7 115695003.98807     -3180.034 7        45.694                                    22016006.956 7  90151992.26107     -2477.948 7        44.309    22016006.888 7  90151990.26007     -2477.988 7        42.349
R10         9.000    23126454.572 6 123277008.95206      3644.697 6        38.471
G31        10.000    24355660.612 6 127989869.21006     -3830.949 6        40.579                                    24355655.804 5  99732349.28005     -2985.155 5        32.102    24355656.656 6  99732354.29506     -2985.282 6        36.106
C30        11.000                                                                                                                                    26786941.096 4                     -3770.522 4        24.677                                                                    26786940.965 5 113344313.47805     -3064.656 5        30.362
S27        12.000    39159822.942 6 205786292.79706      -477.055 6        36.401
G26        13.000    24270182.752 6 127540675.46106        34.266 6        39.192                                    24270181.569 5  99382351.43605        26.698 5        32.395    24270181.854 6  99382351.43706        26.719 6        37.267
S36        14.000    38299072.231 7 201263510.84107      -475.285 7        45.168
I09        15.000    37694194.637 7 147920117.46407      -671.783 7        42.813
G19        16.000    24146646.425 6 126891504.45506     -3401.221 6        40.482                                    24146641.060 3  98876479.75303     -2650.298 3        23.886
S45        17.000    63489118.811 6 333639096.83706      -515.440 6        37.735
E12        19.000    24239421.478 7 127379031.35407     -1501.938 7        45.546                                                                    24239417.388 7  95120694.76007     -1121.583 7        47.328    24239417.491 8  97602103.53708     -1150.837 8        48.706
G17        20.000    25530587.577 6 134164152.10906     -3368.621 6        37.456                                    25530583.076 4 104543482.06504     -2624.897 4        24.707    25530583.382 5 104543481.06705     -2624.704 5        31.404
G11        21.000    23640366.402 7 124230976.61607      2368.323 7        42.533                                    23640362.100 4  96803339.95404      1845.449 4        28.341    23640362.300 6  96803352.95206      1845.355 6        41.108
I06        22.000    38103146.557 7 149525174.35807      -301.363 7        43.308
S28        23.000    40962454.600 5 215259157.49205      -471.340 5        35.052
R08        24.000    20004718.195 8 107124397.17808       757.674 8        51.292                                                                    20004715.214 7  83318980.25807       589.329 7        46.783
S23        25.000    38242016.858 7 200963169.61507      -471.123 7        44.915
C25        26.000                                                                                                                                    26869348.910 4 139915745.21104     -2979.463 4        29.924                                                                    26869347.255 4 113692999.22404     -2420.847 4        29.678
R16        27.000    22656936.836 7 121029304.28907     -2321.689 7        45.336                                                                    22656936.626 7  94133905.58007     -1805.757 7        42.792
R24        29.000    22247112.227 7 118965315.73207      2269.015 7        47.169                                                                    22247112.026 7  92528566.63607      1764.761 7        43.615
E19        30.000    22969725.371 7 120706756.83207      -809.891 7        43.302                                                                    22969722.824 7  90138165.52907      -604.893 7        46.004    22969722.781 7  92489592.61707      -620.577 7        47.652
C23        31.000                                                                                                                                    24599087.242 7 128093913.24507      -701.395 7        46.340                                                                    24599078.207 7 104086764.96907      -570.014 7        45.678
R23        32.000    20367789.014 8 108953955.94108     -2123.075 8        49.485
E29        33.000    25540453.449 7 134216073.25507     -2693.771 7        43.852                                                                    25540451.509 7 100226303.58907     -2011.608 7        46.728    25540451.331 8 102840897.29008     -2064.150 8        48.043
E04        34.000    25599578.832 7 134526731.33107      1716.057 7        44.442                                                                    25599576.854 7 100458284.52707      1281.401 7        46.473    25599576.557 7 103078930.93607      1314.820 7        47.938
C16        35.000                                                                                                                                    39354815.362 7 204930884.49607     -1285.900 7        42.171    39354814.724 7 158465571.85307      -994.322 7        42.624    39354812.671 6 166523130.72906     -1044.947 6        38.450
C32        36.000                                                                                                                                    23790368.278 8 123882746.31408     -2616.728 8        48.453                                                                    23790367.861 7 100664900.31407     -2126.343 7        47.816
I01        37.000   381222889.924 7 192859694.90007     -2777.091 7        42.914
E27        38.000    28018634.434 6 147238918.71506      1175.137 6        37.595                                                                    28018634.499 6 109951151.20506       877.516 6        41.619    28018633.946 7 112819438.50307       900.556 7        42.366
C19        39.000                                                                                                                                    24650320.806 7 128360692.84807      1961.431 7        45.386                                                                    24650316.056 7 104303554.92207      1593.678 7        44.956
C39        40.000                                                                                                                                    40063017.089 6 208618669.95706     -1575.262 6        41.116                                                                    40063012.793 6 169519753.26506     -1280.029 6        40.260
E33        41.000    26592290.014 6 139743510.22906     -3621.764 6        41.559                                                                    26592287.714 7 104353952.26707     -2704.534 7        44.894    26592287.048 7 107076225.29507     -2775.164 7        45.500
S44        42.000    40817312.046 6 214496603.44106      -551.478 6        38.805
R06        43.000    23750237.787 5 126735874.52205     -3823.515 5        33.515
C05        44.000                                                                                                                                    39247333.090 6 204371210.95306      -508.948 6        39.075    39247327.467 7 158032810.92007      -393.541 7        42.586    39247329.694 6 166068454.95406      -413.600 6        40.153
C29        45.000                                                                                                                                    24117534.339 7 125586350.15007     -2796.292 7        46.241                                                                    24117531.361 7 102049194.91207     -2272.282 7        45.132
G04        46.000    20441679.858 7 107421788.62107     -1661.701 7        47.763                                    20441676.131 6  83705276.63206     -1294.832 6        39.970    20441676.241 8  83705278.63208     -1294.887 8        48.047
E30        47.000    28784119.528 5 151261591.23805      -920.682 5        35.529                                                                    28784119.386 6 112955076.93306      -687.391 6        39.592    28784119.028 6 115901729.55806      -705.269 6        40.408
R22        48.000    22326920.929 7 119182641.30407     -4731.637 7        46.674                                                                    22326918.421 7  92697606.79907     -3680.146 7        44.054
C20        49.000                                                                                                                                    22021921.467 8 114673953.91008        -4.024 8        52.083                                                                    22021915.714 8  93181965.43508        -3.343 8        49.236
C06        50.000                                                                                                                                    38798361.678 6 202033284.52106     -1237.168 6        40.398    38798355.751 7 156224934.98507      -956.683 7        43.486    38798355.604 6 164168574.04506     -1005.348 6        40.529
S48        51.000    77274890.434 6 406082206.03506      -463.005 6        38.165
E06        52.000    27891218.359 6 146569355.28306      2174.771 6        38.261                                                                    27891217.841 6 109451150.92906      1624.074 6        40.274    27891217.612 6 112306396.50306      1666.419 6        40.939
C09        53.000                                                                                                                                    38624758.687 7 201129275.85807      -779.188 7        42.815    38624755.021 7 155525905.38907      -602.508 7        46.967    38624752.934 7 163433991.74407      -633.176 7        42.070
C60        54.000                                                                                                                                    40817308.499 6 212546653.87906      -546.623 6        39.721                                                                    40817292.546 6 172711538.65606      -444.075 6        40.024
R09        55.000    21486506.604 7 114736770.00607      1416.820 7        47.293                                                                    21486505.115 7  89239704.32507      1101.938 7        46.569
G07        56.000    23212276.683 7 121981356.17707      2627.223 7        45.049                                    23212272.095 6  95050390.13806      2047.180 6        40.133    23212273.168 6  95050399.15006      2047.248 6        40.317
C02        57.000                                                                                                                                    40764607.976 5 212272067.44605      -548.892 5        35.186    40764600.077 6 164142224.65006      -424.349 6        40.002    40764603.019 5 172488448.54905      -446.122 5        34.643
I03        58.000   101294981.135 6 321718038.43106       864.987 6        40.946
R07        59.000    20237418.591 8 108332550.63808     -2297.693 8        50.011                                                                    20237416.424 7  84258704.27707     -1787.059 7        46.886
> 2025 01 02 03 30 10.0000000  0 57
G09         1.000    20151384.700 8 105896276.09208       193.439 8        51.285                                    20151381.448 8  82516585.02808       150.734 8        53.175    20151381.684 7  82516585.02707       150.719 7        45.555
G06         2.000    21326483.083 8 112071448.65808       158.468 8        48.212                                    21326481.421 8  87328407.14408       123.481 8        49.780    21326482.002 7  87328415.14207       123.473 7        46.221
E11         3.000    25451399.840 6 133748028.48206      1392.765 6        41.321                                                                    25451395.458 7  99876765.50407      1040.070 7        43.109    25451395.476 7 102482242.48507      1067.164 7        44.515
G16         4.000    24789668.383 6 130270592.97806      2047.193 6        37.679                                    24789663.406 2 101509534.62802      1595.208 2        16.830
S21         5.000    38532034.658 7 202486910.88907      -475.267 7        42.718
E10         6.000    24243515.508 8 127400547.12508       -67.421 8        48.156                                                                    24243513.905 8  95136769.91708       -50.342 8        50.253    24243513.975 8  97618598.05808       -51.699 8        51.793
G20         7.000    25474428.503 6 133869024.09606      2958.765 6        38.198                                    25474423.735 2 104313503.65502      2305.539 2        14.381
G03         8.000    22019034.892 7 115710908.36807     -3181.813 7        45.615                                    22019033.543 7  90164385.28107     -2479.333 7        44.203    22019033.649 7  90164383.27707     -2479.253 7        42.540
R10         9.000    23123036.474 6 123258788.62706      3643.289 6        37.853
G31        10.000    24359306.334 6 128009028.58206     -3832.784 6        40.853                                    24359301.822 5  99747278.65605     -2986.581 5        32.275    24359301.677 6  99747283.66006     -2986.675 6        36.544
C30        11.000                                                                                                                                    26790561.188 3                     -3770.819 3        23.867                                                                    26790562.364 5 113359635.31605     -3064.112 5        30.506
S27        12.000    39160277.930 6 205788678.46706      -477.134 6        36.654
G26        13.000    24270150.907 6 127540511.82806        31.022 6        39.135                                    24270150.504 5  99382223.92905        24.174 5        32.413    24270150.753 6  99382223.94806        24.054 6        37.743
S36        14.000    38299525.926 7 201265887.61707      -475.588 7        45.246
I09        15.000    37695050.575 7 147923476.53607      -671.979 7        42.787
G19        16.000    24149883.970 6 126908514.63106     -3402.817 6        41.120                                    24149877.826 3  98889734.42903     -2651.548 3        23.752
S45        17.000    63489567.297 6 333640073.95816      -515.555 6        38.015
E12        19.000    24240851.760 7 127386547.10807     -1504.482 7        45.479                                                                    24240847.596 7  95126307.17107     -1123.508 7        47.176    24240847.710 8  97607862.36308     -1152.835 8        48.700
G17        20.000    25533792.637 6 134180995.37706     -3368.533 6        36.219                                    25533787.991 4 104556606.69204     -2624.824 4        24.647    25533788.913 5 104556605.70105     -2624.895 5        31.638
G11        21.000    23638113.478 7 124219140.74607      2366.037 7        42.887                                    23638109.748 4  96794117.19904      1843.664 4        28.464    23638110.140 6  96794130.20706      1843.659 6        41.206
I06        22.000    38103530.400 7 149526681.37607      -301.505 7        43.115
S28        23.000    40962901.208 5 215261516.40905      -472.003 5        35.109
R08        24.000    20004011.343 8 107120613.62908       755.484 8        51.026                                                                    20004008.900 7  83316037.50107       587.609 7        46.887
S23        25.000    38242467.928 7 200965525.46307      -471.407 7        45.148
C25        26.000                                                                                                                                    26872209.943 4 139930649.72804     -2981.814 4        28.578                                                                    26872209.836 4 113705110.36604     -2423.081 4        29.867
R16        27.000    22659111.545 7 121040922.97007     -2325.894 7        44.582                                                                    22659110.951 7  94142942.32407     -1809.041 7        42.299
R24        29.000    22244993.436 7 118953979.49107      2265.279 7        47.717                                                                    22244991.183 7  92519749.52207      1761.885 7        42.967
E19        30.000    22970496.848 7 120710810.29707      -811.585 7        43.232                                                                    22970494.181 7  90141192.46407      -606.088 7        45.845    22970494.197 7  92492698.51907      -621.918 7        47.707
C23        31.000                                                                                                                                    24599761.662 7 128097427.79007      -704.522 7        45.992                                                                    24599753.120 7 104089620.80807      -572.424 7        45.862
R23        32.000    20369775.783 8 108964582.62608     -2127.797 8        49.497
E29        33.000    25543017.066 7 134229544.40007     -2694.689 7        43.845                                                                    25543014.925 7 100236363.20707     -2012.278 7        46.509    25543014.766 8 102851219.33108     -2064.835 8        48.066
E04        34.000    25597946.694 7 134518154.03007      1714.679 7        44.299                                                                    25597944.567 7 100451879.39607      1280.512 7        46.368    25597944.381 7 103072358.71607      1313.918 7        47.932
C16        35.000                                                                                                                                    39356050.714 7 204937315.50307     -1286.586 7        42.038    39356049.983 7 158470544.72707      -995.022 7        42.533    39356047.821 6 166528356.44206     -1045.437 6        38.586
C32        36.000                                                                                                                                    23792881.424 8 123895832.21908     -2617.804 8        48.298                                                                    23792880.860 8 100675533.67408     -2127.170 8        48.012
I01        37.000   381226428.462 7 192873581.18807     -2777.500 7        42.986
E27        38.000    28017517.075 6 147233046.77406      1173.373 6        37.629                                                                    28017517.297 6 109946766.31606       876.146 6        41.607    28017516.554 7 112814939.22607       899.023 7        42.540
C19        39.000                                                                                                                                    24648437.988 7 128350888.12807      1960.481 7        44.969                                                                    24648433.174 7 104295587.77207      1592.996 7        45.299
C39        40.000                                                                                                                                    40064529.934 6 208626547.26406     -1575.813 6        40.918                                                                    40064525.453 6 169526154.22206     -1280.552 6        40.348
E33        41.000    26595736.455 6 139761621.45406     -3622.736 6        41.905                                                                    26595734.101 7 104367476.88607     -2705.318 7        44.656    26595733.508 7 107090102.73007     -2775.976 7        45.460
S44        42.000    40817834.976 6 214499361.41106      -551.791 6        38.814
R06        43.000    23753821.414 5 126754991.94605     -3823.670 5        33.880
C05        44.000                                                                                                                                    39247822.778 6 204373756.36306      -509.499 6        38.919    39247816.207 7 158034779.17907      -393.855 7        42.525    39247818.545 6 166070523.28906      -413.823 6        40.143
C29        45.000                                                                                                                                    24120220.141 7 125600336.42607     -2798.337 7        45.926                                                                    24120217.338 7 102060559.88907     -2273.936 7        45.404
G04        46.000    20443261.953 8 107430102.72408     -1664.028 8        48.148                                    20443258.231 6  83711755.15206     -1296.645 6        40.045    20443258.168 8  83711757.14908     -1296.649 8        48.124
E30        47.000    28784996.923 5 151266200.09705      -923.275 5        35.295                                                                    28784996.414 6 112958518.62606      -689.503 6        39.601    28784996.172 6 115905261.04906      -707.429 6        40.429
R22        48.000    22331353.026 7 119206303.48907     -4733.360 7        46.099                                                                    22331350.956 7  92716010.69807     -3681.461 7        43.816
C20        49.000                                                                                                                                    22021926.368 8 114673978.11708        -5.754 8        52.015                                                                    22021920.328 8  93181985.09408        -4.718 8        49.494
C06        50.000                                                                                                                                    38799550.289 6 202039472.01706     -1237.924 6        40.288    38799543.964 7 156229719.54007      -957.222 7        43.467    38799543.810 6 164173601.87906     -1005.746 6        40.682
S48        51.000    77275334.591 6 406084522.02406      -463.357 6        38.087
E06        52.000    27889149.007 6 146558483.11506      2173.961 6        38.339                                                                    27889148.964 6 109443032.09706      1623.435 6        40.236    27889148.589 6 112298065.88506      1665.742 6        41.073
C09        53.000                                                                                                                                    38625507.520 7 201133173.52407      -779.977 7        42.707    38625503.405 7 155528919.31007      -603.239 7        47.030    38625501.515 7 163437158.90807      -633.864 7        42.311
C60        54.000                                                                                                                                    40817833.226 6 212549386.76906      -546.710 6        39.538                                                                    40817817.299 6 172713759.36106      -444.390 6        40.501
R09        55.000    21485181.271 7 114729695.63807      1412.767 7        46.834                                                                    21485180.418 7  89234202.05707      1098.783 7        47.036
G07        56.000    23209778.306 7 121968223.52807      2625.768 7        45.552                                    23209773.129 6  95040156.91306      2046.057 6        40.217    23209773.304 6  95040165.92106      2045.998 6        40.217
C02        57.000                                                                                                                                    40765134.939 5 212274812.12705      -549.025 5        35.224    40765126.843 6 164144347.02706      -424.571 6        39.961    40765130.192 5 172490678.79705      -446.266 5        34.881
I03        58.000   101293879.343 6 321713714.07906       864.676 6        40.953
R07        59.000    20239565.272 8 108344043.34708     -2299.565 8        50.247                                                                    20239563.769 7  84267643.05107     -1788.541 7        47.146
> 2025 01 02 03 30 15.0000000  0 57
G09         1.000    20151201.384 8 105895314.18408       191.249 8        51.169                                    20151198.393 8  82515835.49108       149.024 8        53.143    20151198.605 7  82515835.49607       149.010 7        45.652
G06         2.000    21326333.835 8 112070663.46708       155.497 8        48.130                                    21326332.002 8  87327795.30608       121.165 8        49.716    21326332.483 7  87327803.31307       121.095 7        46.048
E11         3.000    25450075.529 6 133741068.49506      1391.168 6        40.844                                                                    25450071.120 7  99871568.12707      1038.767 7        43.033    25450071.098 7 102476909.51407      1065.984 7        44.629
G16         4.000    24787721.685 6 130260360.48406      2045.894 6        38.066                                    24787716.256 2 101501561.25302      1594.249 2        17.094
S21         5.000    38532485.062 7 202489286.33107      -475.040 7        43.039
E10         6.000    24243580.720 7 127400889.37607       -69.571 7        47.987                                                                    24243579.066 8  95137025.49808       -51.982 8        50.202    24243579.065 8  97618860.30308       -53.347 8        51.897
G20         7.000    25471612.805 6 133854228.76306      2959.133 6        37.410                                    25471608.298 2 104301974.80002      2305.851 2        14.714
G03         8.000    22022063.009 7 115726820.13807     -3182.945 7        45.338                                    22022061.403 7  90176784.06207     -2480.218 7        44.001    22022061.477 7  90176782.06207     -2480.245 7        42.296
R10         9.000    23119619.325 6 123240573.57806      3642.682 6        38.129
G31        10.000    24362953.979 6 128028196.26906     -3834.352 6        40.336                                    24362949.485 5  99762214.51005     -2987.807 5        32.228    24362949.367 6  99762219.50106     -2987.628 6        36.654
C30        11.000                                                                                                                                    26794181.570 4                     -3770.133 4        24.662                                                                    26794182.675 5 113374955.19605     -3063.551 5        30.423
S27        12.000    39160734.397 6 205791064.45306      -477.319 6        36.552
G26        13.000    24270123.431 6 127540363.56506        28.158 6        39.015                                    24270122.422 5  99382108.40505        21.941 5        32.216    24270122.527 6  99382108.41906        21.851 6        37.527
S36        14.000    38299979.796 7 201268264.98307      -475.127 7        45.315
I09        15.000    37695906.776 7 147926836.28007      -671.971 7        42.927
G19        16.000    24153122.122 6 126925530.96506     -3403.770 6        40.358                                    24153115.903 3  98902993.90503     -2652.290 3        23.429
S45        17.000    63490013.305 6 333642651.25906      -515.575 6        37.917
E12        19.000    24242284.162 7 127394074.59607     -1506.597 7        45.162                                                                    24242279.992 7  95131928.34507     -1125.059 7        47.109    24242280.146 8  97613630.17108     -1154.369 8        48.871
G17        20.000    25536997.233 6 134197837.08306     -3368.142 6        37.327                                    25536992.691 4 104569730.09904     -2624.531 4        24.586    25536993.336 5 104569729.11005     -2624.157 5        31.577
G11        21.000    23635863.683 7 124207314.86707      2364.273 7        42.609                                    23635859.346 4  96784902.23204      1842.294 4        28.531    23635859.983 6  96784915.24006      1842.099 6        41.371
I06        22.000    38103914.734 7 149528188.65807      -301.444 7        43.141
S28        23.000    40963349.211 5 215263875.52905      -471.725 5        35.367
R08        24.000    20003306.507 8 107116839.85208       753.936 8        51.126                                                                    20003303.674 7  83313102.34707       586.356 7        46.699
S23        25.000    38242915.381 7 200967881.31007      -471.081 7        45.079
C25        26.000                                                                                                                                    26875075.137 4 139945562.44104     -2983.547 4        27.269                                                                    26875073.679 4 113717228.18104     -2424.245 4        29.043
R16        27.000    22661290.598 7 121052561.94707     -2329.733 7        44.942                                                                    22661290.127 7  94151994.87207     -1811.994 7        42.364
R24        29.000    22242876.362 7 118942660.63207      2262.155 7        46.985                                                                    22242874.750 7  92510945.97907      1759.531 7        42.626
E19        30.000    22971269.561 7 120714871.06107      -812.865 7        43.115                                                                    22971266.922 7  90144224.85007      -607.027 7        45.789    22971266.929 7  92495810.01807      -622.843 7        47.870
C23        31.000                                                                                                                                    24600439.750 7 128100956.49707      -707.107 7        45.806                                                                    24600430.757 7 104092488.18107      -574.533 7        45.807
R23        32.000    20371766.557 8 108975231.50408     -2131.944 8        49.393
E29        33.000    25545581.283 7 134243018.60907     -2695.057 7        43.918                                                                    25545579.074 7 100246425.11307     -2012.575 7        46.458    25545578.812 8 102861543.72108     -2065.086 8        48.146
E04        34.000    25596315.646 7 134509581.68607      1714.005 7        44.247                                                                    25596313.271 7 100445477.98007      1279.917 7        46.316    25596313.074 8 103065790.29808      1313.389 8        48.160
C16        35.000                                                                                                                                    39357286.441 7 204943748.74407     -1286.814 7        42.197    39357284.952 7 158475519.33207      -995.053 7        42.525    39357283.257 6 166533584.01306     -1045.827 6        38.631
C32        36.000                                                                                                                                    23795395.286 8 123908922.40108     -2618.434 8        48.167                                                                    23795394.562 7 100686170.52407     -2127.628 7        47.848
I01        37.000   381229967.079 7 192887468.13607     -2777.426 7        42.808
E27        38.000    28016401.796 6 147227183.77706      1171.910 6        37.958                                                                    28016401.523 6 109942388.11106       874.959 6        41.652    28016400.914 7 112810446.81007       897.786 7        42.561
C19        39.000                                                                                                                                    24646556.219 7 128341086.56007      1959.991 7        45.314                                                                    24646550.944 7 104287623.19107      1592.747 7        45.195
C39        40.000                                                                                                                                    40066043.103 6 208634426.04906     -1575.731 6        41.030                                                                    40066038.487 6 169532556.38406     -1280.391 6        40.272
E33        41.000    26599183.548 6 139779736.46206     -3623.150 6        41.774                                                                    26599181.331 7 104381004.33807     -2705.730 7        44.629    26599180.740 7 107103983.06507     -2776.278 7        45.472
S44        42.000    40818360.463 6 214502119.45706      -551.339 6        38.694
R06        43.000    23757403.987 5 126774110.17405     -3823.606 5        34.095
C05        44.000                                                                                                                                    39248311.526 6 204376301.96306      -509.011 6        39.141    39248304.933 7 158036747.61707      -393.675 7        42.595    39248307.445 6 166072591.82206      -413.726 6        40.224
C29        45.000                                                                                                                                    24122907.520 7 125614331.78407     -2799.913 7        45.815                                                                    24122904.940 7 102071932.26407     -2275.100 7        45.207
G04        46.000    20444846.078 8 107438427.16208     -1665.869 8        48.182                                    20444842.344 6  83718241.72606     -1298.077 6        39.979    20444842.253 8  83718243.72408     -1298.034 8        48.265
E30        47.000    28785875.994 5 151270820.77205      -925.132 5        35.710                                                                    28785875.807 6 112961969.14206      -691.086 6        39.835    28785875.398 6 115908801.56906      -708.864 6        40.737
R22        48.000    22335786.361 7 119229973.00307     -4734.513 7        45.853                                                                    22335784.490 7  92734420.32207     -3682.408 7        43.139
C20        49.000                                                                                                                                    22021932.360 8 114674009.54508        -6.952 8        52.064                                                                    22021926.347 8  93182010.63808        -5.634 8        49.417
C06        50.000                                                                                                                                    38800738.977 6 202045662.00806     -1238.089 6        40.579    38800732.751 7 156234506.03407      -957.421 7        43.357    38800732.510 6 164178631.77406     -1006.054 6        40.555
S48        51.000    77275779.433 6 406086838.29706      -463.075 6        38.006
E06        52.000    27887079.673 6 146547613.35306      2173.664 6        37.705                                                                    27887080.580 6 109434915.07606      1623.334 6        40.241    27887080.198 6 112289737.11206      1665.529 6        41.309
C09        53.000                                                                                                                                    38626256.415 7 201137074.25807      -780.285 7        42.694    38626252.494 7 155531935.60507      -603.448 7        46.916    38626250.465 7 163440328.57707      -634.145 7        42.262
C60        54.000                                                                                                                                    40818358.225 6 212552119.76206      -546.762 6        39.465                                                                    40818342.263 6 172715980.13806      -444.089 6        40.293
R09        55.000    21483860.216 7 114722640.53607      1409.188 7        47.455                                                                    21483859.077 7  89228714.74507      1096.069 7        46.494
G07        56.000    23207280.859 7 121955096.88607      2624.818 7        44.244                                    23207275.223 6  95029928.36106      2045.309 6        40.155    23207275.359 6  95029937.36506      2045.312 6        39.982
C02        57.000                                                                                                                                    40765662.228 5 212277557.05205      -549.134 5        35.386    40765654.128 6 164146469.56506      -424.524 6        39.862    40765657.065 5 172492909.26805      -446.053 5        35.257
I03        58.000   101292777.306 6 321709389.94106       864.746 6        40.870
R07        59.000    20241713.839 8 108355544.14408     -2300.834 8        50.392                                                                    20241712.075 7  84276588.11407     -1789.599 7        47.038
> 2025 01 02 03 30 20.0000000  0 57
G09         1.000    20151020.564 8 105894363.81308       188.868 8        51.154                                    20151017.543 8  82515094.94208       147.170 8        53.170    20151017.670 7  82515094.95207       147.123 7        45.875
G06         2.000    21326187.746 8 112069894.86808       151.988 8        48.049                                    21326185.726 8  87327196.40008       118.432 8        49.738    21326186.219 7  87327204.40207       118.457 7        46.232
E11         3.000    25448752.941 6 133734117.50706      1389.128 6        41.509                                                                    25448748.270 7  99866377.43707      1037.444 7        43.314    25448748.327 7 102471583.42107      1064.559 7        44.609
G16         4.000    24785776.184 6 130250136.61906      2043.822 6        37.701                                    24785770.841 2 101493594.61102      1592.589 2        16.717
S21         5.000    38532934.750 7 202491661.93407      -475.146 7        42.777
E10         6.000    24243648.247 8 127401243.56008       -72.085 8        48.361                                                                    24243646.419 8  95137289.98208       -53.859 8        50.352    24243646.457 8  97619131.69208       -55.265 8        51.864
G20         7.000    25468798.005 6 133839432.76606      2959.116 6        37.739                                    25468792.715 2 104290445.46302      2305.781 2        14.238
G03         8.000    22025092.645 7 115742739.18907     -3184.622 7        44.989                                    22025090.552 7  90189188.51307     -2481.523 7        43.795    22025090.602 7  90189186.51207     -2481.561 7        42.195
R10         9.000    23116203.122 6 123222363.68006      3641.311 6        38.610
G31        10.000    24366603.247 6 128047372.14506     -3836.101 6        40.224                                    24366598.691 5  99777156.74405     -2989.166 5        32.305    24366598.521 6  99777161.75006     -2989.148 6        36.635
C30        11.000                                                                                                                                    26797804.031 3                     -3769.652 3        23.924                                                                    26797802.847 5 113390272.95405     -3063.319 5        30.777
S27        12.000    39161186.899 6 205793450.03306      -477.036 6        36.544
G26        13.000    24270097.476 6 127540230.55606        24.850 6        38.183                                    24270097.198 5  99382004.76405        19.366 5        31.955    24270096.988 6  99382004.75006        19.722 6        37.637
S36        14.000    38300431.685 7 201270640.48907      -475.283 7        45.145
I09        15.000    37696763.325 7 147930196.60807      -672.158 7        42.923
G19        16.000    24156361.809 6 126942553.35606     -3405.232 6        39.922                                    24156355.101 3  98916258.09403     -2653.432 3        23.619
S45        17.000    63490464.577 6 333645228.45906      -515.687 6        37.875
E12        19.000    24243718.755 7 127401613.68807     -1509.076 7        45.284                                                                    24243714.713 7  95137558.18707     -1126.894 7        47.187    24243714.803 8  97619406.88108     -1156.291 8        48.824
G17        20.000    25540202.137 6 134214677.01806     -3367.962 6        37.062                                    25540197.266 4 104582852.12704     -2624.383 4        25.308    25540198.311 5 104582851.13405     -2624.648 5        32.623
G11        21.000    23633615.249 7 124195498.88707      2362.038 7        42.772                                    23633610.800 4  96775694.96704      1840.545 4        28.455    23633610.447 6  96775707.96906      1840.662 6        41.220
I06        22.000    38104298.664 7 149529696.09707      -301.545 7        42.997
S28        23.000    40963800.487 5 215266234.30105      -472.039 5        35.243
R08        24.000    20002604.165 8 107113075.61608       751.799 8        51.465                                                                    20002600.839 7  83310174.59307       584.783 7        46.987
