     3.04           OBSERVATION DATA    M                   RINEX VERSION / TYPE
ssrcrin-15.6.1x                         20250102 004500 UTC PGM / RUN BY / DATE 
(00000000023479385599111004) Septentrio proprietary         COMMENT             
rref                                                        MARKER NAME         
01                                                          MARKER NUMBER       
geodetic                                                    MARKER TYPE         
NFB                 CLIMERS@TUW                             OBSERVER / AGENCY   
3297213             SEPT ASTERX SB3 PROB4.14.4              REC # / TYPE / VERS 
Unknown             Unknown                                 ANT # / TYPE        
  4127831.9810  1207193.3069  4695247.7764                  APPROX POSITION XYZ 
        0.0000        0.0000        0.0000                  ANTENNA: DELTA H/E/N
G   23 X1  C1C L1C D1C S1C C1W S1W C2W L2W D2W S2W C2L L2L  SYS / # / OBS TYPES 
       D2L S2L C5Q L5Q D5Q S5Q C1L L1L D1L S1L              SYS / # / OBS TYPES 
E   21 X1  C1C L1C D1C S1C C6C L6C D6C S6C C5Q L5Q D5Q S5Q  SYS / # / OBS TYPES 
       C7Q L7Q D7Q S7Q C8Q L8Q D8Q S8Q                      SYS / # / OBS TYPES 
S    9 X1  C1C L1C D1C S1C C5I L5I D5I S5I                  SYS / # / OBS TYPES 
R   17 X1  C1C L1C D1C S1C C2P L2P D2P S2P C2C L2C D2C S2C  SYS / # / OBS TYPES 
       C3Q L3Q D3Q S3Q                                      SYS / # / OBS TYPES 
C   25 X1  C1P L1P D1P S1P C5P L5P D5P S5P C2I L2I D2I S2I  SYS / # / OBS TYPES 
       C7I L7I D7I S7I C6I L6I D6I S6I C7D L7D D7D S7D      SYS / # / OBS TYPES 
J   17 X1  C1C L1C D1C S1C C2L L2L D2L S2L C5Q L5Q D5Q S5Q  SYS / # / OBS TYPES 
       C1L L1L D1L S1L                                      SYS / # / OBS TYPES 
I    5 X1  C5A L5A D5A S5A                                  SYS / # / OBS TYPES 
SEPTENTRIO RECEIVERS OUTPUT ALIGNED CARRIER PHASES.         COMMENT             
NO FURTHER PHASE SHIFT APPLIED IN THE RINEX ENCODER.        COMMENT             
G L1C                                                       SYS / PHASE SHIFT   
G L2W                                                       SYS / PHASE SHIFT   
G L2L  0.00000                                              SYS / PHASE SHIFT   
G L5Q  0.00000                                              SYS / PHASE SHIFT   
G L1L  0.00000                                              SYS / PHASE SHIFT   
E L1C  0.00000                                              SYS / PHASE SHIFT   
E L6C  0.00000                                              SYS / PHASE SHIFT   
E L5Q  0.00000                                              SYS / PHASE SHIFT   
E L7Q  0.00000                                              SYS / PHASE SHIFT   
E L8Q  0.00000                                              SYS / PHASE SHIFT   
S L1C                                                       SYS / PHASE SHIFT   
S L5I                                                       SYS / PHASE SHIFT   
R L1C                                                       SYS / PHASE SHIFT   
R L2P  0.00000                                              SYS / PHASE SHIFT   
R L2C                                                       SYS / PHASE SHIFT   
R L3Q  0.00000                                              SYS / PHASE SHIFT   
C L1P  0.00000                                              SYS / PHASE SHIFT   
C L5P  0.00000                                              SYS / PHASE SHIFT   
C L2I                                                       SYS / PHASE SHIFT   
C L7I                                                       SYS / PHASE SHIFT   
C L6I                                                       SYS / PHASE SHIFT   
C L7D                                                       SYS / PHASE SHIFT   
J L1C                                                       SYS / PHASE SHIFT   
J L2L  0.00000                                              SYS / PHASE SHIFT   
J L5Q  0.00000                                              SYS / PHASE SHIFT   
J L1L  0.00000                                              SYS / PHASE SHIFT   
I L5A                                                       SYS / PHASE SHIFT   
  2025     1     2     0    45    0.0000000     GPS         TIME OF FIRST OBS   
 C1C    0.000 C2C    0.000 C2P    0.000                     GLONASS COD/PHS/BIS 
DBHZ                                                        SIGNAL STRENGTH UNIT
    18                                                      LEAP SECONDS        
 24 R01  1 R02 -4 R03  5 R04  6 R05  1 R06 -4 R07  5 R08  6 GLONASS SLOT / FRQ #
    R09 -2 R10 -7 R11  0 R12 -1 R13 -2 R14 -7 R15  0 R16 -1 GLONASS SLOT / FRQ #
    R17  4 R18 -3 R19  3 R20  2 R21  4 R22 -3 R23  3 R24  2 GLONASS SLOT / FRQ #
                                                            END OF HEADER       
> 2025 01 02 00 45  0.0000000  0 53
G09         1.000    25101095.397 6 131907155.33806      3381.870 6        37.970                                    25101093.398 4 102784796.23204      2635.218 4        29.896    25101094.495 5 102784796.25705      2635.143 5        35.181
R15         4.000    24296967.249 7 129835633.04807      2200.152 7        42.514                                                                    24296967.639 6 100983256.38106      1711.281 6        37.584
S21         5.000    38538826.153 7 202522652.17707      -460.058 7        42.190
E10         6.000    28040399.350 6 147353294.54006      2301.969 6        38.556                                                                    28040398.159 6 110036545.39806      1718.967 6        40.348    28040398.482 6 112907063.74206      1763.780 6        41.800
G28         7.000    23357339.088 7 122743660.93707       463.307 7        42.861                                    23357335.835 4  95644393.48204       361.020 4        29.896    23357335.943 7  95644401.48207       361.108 7        43.668
G03         8.000    20268457.787 8 106511562.94908       564.691 8        49.935                                    20268455.728 8  82996064.77408       440.019 8        51.703    20268456.175 7  82996062.77307       440.040 7        45.868
G02         9.000    21012400.692 8 110420966.28808     -1529.392 8        49.599                                    21012393.874 7  86042306.93907     -1191.734 7        42.085
G31        10.000    23395113.601 7 122942156.89507      2075.793 7        43.742                                    23395108.365 6  95799066.38206      1617.505 6        37.686    23395108.907 6  95799071.37606      1617.678 6        39.775
C30        11.000                                                                                                                                    22067797.030 8 114912828.64108      -955.852 8        51.667                                                                    22067797.058 8  93376089.92208      -776.805 8        49.191
S27        12.000    39183446.421 5 205910391.93205      -441.561 5        35.862
R20        13.000    23089298.263 5 123468899.07005     -4644.290 5        32.725                                                                    23089301.198 7  96031431.39807     -3612.149 7        42.059
S36        14.000    38306361.610 7 201301806.97507      -460.357 7        44.137
I09        15.000    37221484.146 7 146065099.42707      -384.180 7        43.558
G19        16.000    23627199.954 6 124161788.17306      2325.508 6        40.369                                    23627193.239 4  96749428.13104      1812.075 4        27.066
S45        17.000    63505593.404 6 333724370.74906      -501.244 6        37.508
E12        19.000    26087750.275 6 137092058.89406      1882.669 6        40.091                                                                    26087746.153 7 102373928.43807      1406.022 7        43.663    26087745.965 7 105044552.15207      1442.651 7        43.797
G17        20.000    22429938.122 7 117870146.93507       354.185 7        45.625                                    22429933.403 7  91846858.25607       275.987 7        43.361    22429933.871 6  91846857.26806       275.969 6        41.995
E26        21.000    25514865.548 7 134081868.62207     -2708.437 7        44.212                                                                    25514863.375 7 100126266.94507     -2022.514 7        47.342    25514863.119 8 102738232.17208     -2075.255 8        48.173
I06        22.000    38312872.601 7 150348179.78207      -243.081 7        43.814
S28        23.000    40980248.000 5 215352674.86705      -453.159 5        34.224
S23        25.000    38256648.244 7 201040011.34307      -456.599 7        45.007
C13        26.000                                                                                                                                    41359070.418 6 215367717.52006     -1131.659 6        36.820    41359072.082 6 166536088.58206      -875.017 6        37.796    41359069.981 5 175003996.58105      -919.540 5        34.462
E24        27.000    28815236.822 5 151425135.69405     -2413.158 5        35.924                                                                    28815235.392 6 113077226.52106     -1801.896 6        38.288    28815234.294 6 116027063.49306     -1848.940 6        38.949
R21        29.000    19543655.158 8 104582052.09608     -2059.955 8        52.176                                                                    19543653.296 7  81341599.83607     -1602.117 7        46.522
E19        30.000    25427562.431 6 133622768.66806      2363.553 6        39.060                                                                    25427560.386 6  99783236.90406      1764.872 6        40.892    25427560.177 7 102386274.83607      1810.932 7        42.402
R05        31.000    22707686.890 7 121385634.68807     -4367.631 7        45.004                                                                    22707686.148 6  94411057.93006     -3397.132 6        41.623
R23        32.000    24491059.608 6 131010647.46706      3858.960 6        40.777
E29        33.000    23701223.746 8 124550855.48108       388.103 8        48.670                                                                    23701221.595 8  93008771.06208       289.786 8        50.604    23701221.465 8  95435081.27908       297.370 8        51.210
C16        35.000                                                                                                                                    39071312.259 7 203454607.07707       230.300 7        42.590    39071311.398 7 157324020.01607       178.118 7        42.779    39071309.658 6 165323534.02506       187.000 6        39.655
C32        36.000                                                                                                                                    21986384.392 8 114488931.86408       221.484 8        51.412                                                                    21986383.977 8  93031656.93608       179.885 8        50.048
G32        37.000    24330903.750 6 127859799.61906     -3644.812 6        40.877                                    24330901.629 5  99631013.87305     -2840.112 5        34.752    24330902.178 6  99631022.88006     -2840.291 6        38.523
E07        38.000    25529810.483 7 134160076.75707     -2471.539 7        43.964                                                                    25529810.101 7 100184511.24907     -1845.622 7        46.943    25529809.713 7 102798012.57107     -1893.746 7        47.805
C41        39.000                                                                                                                                    23498625.098 8 122363537.41008     -2714.632 8        48.505                                                                    23498629.967 8  99430426.62108     -2205.958 8        49.226
C39        40.000                                                                                                                                    39014211.645 7 203157266.33707      -216.948 7        44.102                                                                    39014207.522 7 165081915.86507      -176.388 7        43.884
E33        41.000    23295102.269 8 122416678.64108      -504.219 8        48.262                                                                    23295099.902 8  91415085.94908      -376.519 8        50.672    23295099.536 8  93799823.16308      -386.336 8        51.132
S44        42.000    40680975.570 6 213780152.47206      -530.079 6        38.694
R06        43.000    19288158.915 6 102925378.44006      -787.403 6        40.915
C05        44.000                                                                                                                                    39219716.358 6 204227396.55506      -453.040 6        38.345    39219710.417 7 157921603.43907      -350.353 7        43.403    39219713.257 6 165951593.15606      -368.185 6        40.739
C29        45.000                                                                                                                                    24421199.869 7 127167615.48307      2089.140 7        44.962                                                                    24421197.165 7 103334102.15107      1697.531 7        44.566
G04        46.000    22725654.183 7 119424145.45907      2928.841 7        43.909                                    22725650.617 5  93057760.40105      2282.210 5        31.291    22725651.008 7  93057762.39607      2282.289 7        42.629
E25        47.000    28571347.953 6 150143468.08806      -503.892 6        36.159                                                                    28571348.242 6 112120126.94506      -376.121 6        40.014    28571348.164 6 115044997.02206      -385.853 6        40.675
R22        48.000    20522807.546 8 109552167.12008      2292.634 8        51.371                                                                    20522805.286 7  85207238.77807      1783.090 7        47.831
C20        49.000                                                                                                                                    25423291.017 7 132385763.78707      2481.461 7        44.581                                                                    25423285.173 7 107574259.48207      2016.341 7        43.382
C06        50.000                                                                                                                                    38697209.593 6 201506554.49306       353.542 6        41.151    38697203.733 7 155817633.10207       273.261 7        43.672    38697203.664 6 163740562.10406       287.105 6        41.821
S48        51.000    77293725.177 6 406182296.46606      -463.422 6        37.490
G21        52.000    22083304.993 7 116048622.38307     -2705.435 7        45.236                                    22083299.548 5  90427519.57505     -2108.131 5        34.167
C09        53.000                                                                                                                                    39452945.668 6 205441854.08106       777.038 6        41.735    39452941.581 7 158860662.85107       600.732 7        45.109    39452939.940 6 166938313.53806       631.271 6        41.216
C60        54.000                                                                                                                                    40680973.610 6 211836716.05906      -525.180 6        41.628                                                                    40680956.704 6 172134656.12006      -426.735 6        40.644
C27        55.000                                                                                                                                    23691324.888 7 123366962.03007     -3452.560 7        47.852                                                                    23691323.654 7 100245765.38607     -2805.557 7        46.618
R14        56.000    23871584.494 7 127248985.83107      -526.269 7        42.849                                                                    23871583.552 6  98971451.65006      -409.343 6        39.667
C02        57.000                                                                                                                                    40652468.487 5 211688134.42705      -498.629 5        34.333    40652461.495 6 163690690.73606      -385.402 6        40.303    40652464.862 6 172013955.25506      -405.149 6        36.495
I03        58.000   104452425.783 6 334108527.89706       939.713 6        40.999
R07        59.000    20995276.495 8 112389419.26008      2529.212 8        50.233                                                                    20995274.833 7  87414045.51707      1967.081 7        46.109
> 2025 01 02 00 45  5.0000000  0 53
G09         1.000    25097878.112 6 131890247.56006      3381.592 6        37.868                                    25097876.093 5 102771621.35205      2635.009 5        30.136    25097877.362 5 102771621.35005      2635.075 5        34.786
R15         4.000    24294910.427 7 129824639.25507      2197.572 7        42.326                                                                    24294910.189 6 100974705.66106      1709.079 6        38.357
S21         5.000    38539262.995 7 202524953.34707      -460.266 7        42.140
E10         6.000    28038209.220 6 147341785.42606      2301.789 6        38.117                                                                    28038208.318 6 110027950.93906      1718.928 6        40.253    28038208.474 6 112898245.05106      1763.765 6        41.633
G28         7.000    23356899.898 7 122741352.19307       460.228 7        42.482                                    23356896.668 4  95642594.46004       358.619 4        29.962    23356896.432 7  95642602.45607       358.674 7        43.228
G03         8.000    20267921.317 8 106508745.20308       562.503 8        49.624                                    20267919.527 8  82993869.12508       438.314 8        51.662    20267920.121 7  82993867.12707       438.331 7        45.743
G02         9.000    21013857.261 8 110428619.69108     -1531.785 8        49.682                                    21013850.264 7  86048270.63007     -1193.598 7        42.099
G31        10.000    23393139.210 7 122931783.52807      2073.700 7        43.263                                    23393134.269 6  95790983.24006      1615.870 6        37.701    23393135.070 6  95790988.23106      1615.768 6        39.108
C30        11.000                                                                                                                                    22068716.220 8 114917615.32208      -958.667 8        51.653                                                                    22068716.331 8  93379979.47808      -779.025 8        49.053
S27        12.000    39183864.017 6 205912600.74806      -441.654 6        36.163
R20        13.000    23093641.088 5 123492123.35505     -4645.695 5        32.820                                                                    23093643.642 6  96049494.71606     -3613.188 6        41.836
S36        14.000    38306801.310 7 201304108.03307      -460.130 7        44.078
I09        15.000    37221973.882 7 146067020.99707      -384.411 7        43.365
G19        16.000    23624988.094 6 124150166.98006      2323.054 6        41.085                                    23624981.928 4  96740372.66204      1810.157 4        27.377
S45        17.000    63506025.685 6 333726877.11506      -501.387 6        37.342
E12        19.000    26085959.163 6 137082647.16906      1882.072 6        40.231                                                                    26085955.224 7 102366900.19707      1405.436 7        43.666    26085955.051 7 105037340.57507      1442.031 7        43.846
G17        20.000    22429602.751 7 117868383.94407       351.183 7        46.063                                    22429597.911 7  91845484.49807       273.650 7        43.344    22429598.114 6  91845483.50606       273.560 6        41.364
E26        21.000    25517443.273 7 134095413.99207     -2709.660 7        43.956                                                                    25517440.991 7 100136381.98507     -2023.406 7        47.303    25517440.701 8 102748611.09008     -2076.132 8        48.208
I06        22.000    38313182.485 7 150349395.29607      -243.035 7        43.554
S28        23.000    40980684.668 5 215354941.08505      -453.301 5        34.729
S23        25.000    38257083.453 7 201042295.71907      -456.856 7        45.156
C13        26.000                                                                                                                                    41360156.924 6 215373376.35206     -1131.777 6        37.077    41360158.648 6 166540464.35006      -875.154 6        37.921    41360156.651 5 175008594.83505      -919.688 5        34.400
E24        27.000    28817534.015 6 151437205.41306     -2414.760 6        36.004                                                                    28817532.038 6 113086239.62006     -1803.046 6        38.234    28817531.270 6 116036311.71306     -1850.172 6        38.529
R21        29.000    19545581.772 8 104592362.59608     -2064.039 8        52.316                                                                    19545580.109 7  81349619.11607     -1605.366 7        46.618
E19        30.000    25425314.073 6 133610954.94706      2362.203 6        39.411                                                                    25425312.248 6  99774414.96306      1764.113 6        41.089    25425312.185 7 102377222.76507      1809.916 7        42.466
R05        31.000    22711772.489 7 121407475.20707     -4368.422 7        44.685                                                                    22711772.255 6  94428044.98506     -3397.677 6        41.616
R23        32.000    24487451.754 6 130991353.15506      3858.914 6        40.276
E29        33.000    23700855.468 8 124548921.07808       385.819 8        48.474                                                                    23700853.448 8  93007326.54208       288.092 8        50.614    23700853.346 8  95433599.07508       295.650 8        51.193
C16        35.000                                                                                                                                    39071091.642 7 203453458.68107       229.296 7        42.536    39071090.950 7 157323132.01107       177.175 7        42.914    39071089.182 6 165322600.83406       186.284 6        39.706
C32        36.000                                                                                                                                    21986172.665 8 114487829.99308       219.386 8        51.429                                                                    21986172.368 8  93030761.56108       178.265 8        49.839
G32        37.000    24334372.633 6 127878027.24706     -3645.919 6        41.561                                    24334370.329 5  99645217.21305     -2840.976 5        34.971    24334370.710 6  99645226.19106     -2840.999 6        38.408
E07        38.000    25532162.863 7 134172438.90307     -2473.260 7        44.229                                                                    25532162.532 7 100193742.72507     -1846.895 7        46.814    25532162.082 7 102807484.86607     -1895.070 7        47.721
C41        39.000                                                                                                                                    23501232.248 8 122377113.93208     -2715.847 8        48.613                                                                    23501237.244 8  99441458.64008     -2206.835 8        49.055
C39        40.000                                                                                                                                    39014420.433 7 203158353.85907      -217.903 7        44.035                                                                    39014416.363 7 165082799.55307      -177.201 7        43.742
E33        41.000    23295583.035 8 122419204.50608      -505.970 8        48.431                                                                    23295580.572 8  91416972.14908      -377.865 8        50.678    23295580.162 8  93801758.56808      -387.708 8        51.188
S44        42.000    40681477.679 6 213782803.14006      -529.905 6        38.715
R06        43.000    19288898.432 6 102929324.32206      -790.908 6        41.161
C05        44.000                                                                                                                                    39220151.438 6 204229662.32506      -452.983 6        38.366    39220146.007 7 157923355.47707      -350.329 7        43.494    39220148.225 6 165953434.26306      -368.092 6        40.377
C29        45.000                                                                                                                                    24419194.685 7 127157174.33507      2087.451 7        44.516                                                                    24419192.043 7 103325617.85607      1696.220 7        44.466
G04        46.000    22722868.064 7 119409504.94907      2927.479 7        44.185                                    22722864.662 5  93046352.21505      2281.155 5        31.441    22722864.967 7  93046354.22007      2281.083 7        42.440
E25        47.000    28571829.046 6 150145993.17206      -506.256 6        36.866                                                                    28571828.776 6 112122012.55906      -377.966 6        39.877    28571828.182 6 115046931.82506      -387.776 6        40.327
R22        48.000    20520661.352 8 109540711.24608      2289.845 8        51.850                                                                    20520659.301 7  85198328.64607      1781.022 7        47.519
C20        49.000                                                                                                                                    25420908.536 7 132373358.53307      2480.599 7        44.411                                                                    25420902.902 7 107564179.18707      2015.764 7        43.316
C06        50.000                                                                                                                                    38696870.966 6 201504789.95806       352.570 6        41.104    38696864.553 7 155816268.64307       272.608 7        43.759    38696864.684 6 163739128.26106       286.242 6        41.521
S48        51.000    77294161.227 6 406184613.63306      -463.475 6        37.675
G21        52.000    22085879.893 7 116062154.06907     -2707.110 7        45.038                                    22085874.603 5  90438063.74705     -2109.434 5        34.229
C09        53.000                                                                                                                                    39452200.293 6 205437971.65006       776.167 6        41.576    39452195.932 7 158857660.70707       600.088 7        45.323    39452194.191 6 166935158.74006       630.534 6        41.118
C60        54.000                                                                                                                                    40681477.995 6 211839342.64806      -525.265 6        41.569                                                                    40681461.054 6 172136790.43306      -426.845 6        40.486
C27        55.000                                                                                                                                    23694641.086 7 123384228.59007     -3453.951 7        47.687                                                                    23694639.325 7 100259795.86907     -2806.664 7        46.324
R14        56.000    23872078.620 7 127251628.00807      -530.399 7        43.081                                                                    23872079.729 6  98973506.70806      -412.582 6        40.787
C02        57.000                                                                                                                                    40652946.982 5 211690627.11305      -498.581 5        34.343    40652939.954 6 163692618.25306      -385.522 6        40.543    40652943.424 6 172015980.77006      -405.184 6        36.295
I03        58.000   104451228.974 6 334103830.28806       939.511 6        41.063
R07        59.000    20992915.125 8 112376780.00308      2526.654 8        50.558                                                                    20992913.758 7  87404214.96807      1965.240 7        45.330
> 2025 01 02 00 45 10.0000000  0 53
G09         1.000    25094661.061 6 131873341.14106      3381.273 6        37.924                                    25094659.149 5 102758447.52905      2634.761 5        30.317    25094659.325 5 102758447.54105      2634.745 5        35.619
R15         4.000    24292855.258 7 129813658.57707      2194.810 7        42.356                                                                    24292855.513 6 100966165.13206      1707.101 6        37.936
S21         5.000    38539703.360 7 202527255.08807      -460.321 7        42.207
E10         6.000    28036019.132 6 147330276.71006      2301.920 6        37.482                                                                    28036018.258 6 110019356.76706      1718.681 6        40.586    28036018.379 6 112889426.68506      1763.767 6        41.723
G28         7.000    23356463.748 7 122739059.09007       457.025 7        42.417                                    23356460.417 4  95640807.62504       356.122 4        29.763    23356459.734 7  95640815.63007       356.199 7        42.827
G03         8.000    20267387.236 8 106505937.90208       560.462 8        49.931                                    20267385.316 8  82991681.62008       436.725 8        51.647    20267385.753 7  82991679.61707       436.711 7        45.666
G02         9.000    21015316.037 8 110436284.98008     -1534.238 8        49.631                                    21015308.898 7  86054243.57907     -1195.511 7        42.047
G31        10.000    23391167.372 7 122921421.03307      2071.410 7        42.938                                    23391162.270 6  95782908.56706      1614.086 6        37.607    23391162.646 6  95782913.57006      1614.152 6        38.826
C30        11.000                                                                                                                                    22069638.245 8 114922416.09108      -961.566 8        51.453                                                                    22069638.249 8  93383880.51108      -781.289 8        48.897
S27        12.000    39184286.451 6 205914810.39506      -441.760 6        36.155
R20        13.000    23097985.359 5 123515354.19305     -4647.073 5        32.707                                                                    23097988.180 7  96067563.12407     -3614.076 7        42.038
S36        14.000    38307239.122 7 201306409.68607      -460.426 7        44.081
I09        15.000    37222463.852 7 146068943.73607      -384.689 7        43.295
G19        16.000    23622778.991 6 124138557.83506      2320.697 6        40.875                                    23622772.799 4  96731326.58304      1808.337 4        27.257
S45        17.000    63506462.571 6 333729383.83506      -501.590 6        37.524
E12        19.000    26084168.595 6 137073238.85306      1881.360 6        40.074                                                                    26084164.821 7 102359874.51107      1404.823 7        43.568    26084164.738 7 105030131.60107      1441.498 7        43.816
G17        20.000    22429270.474 7 117866636.15207       348.066 7        45.846                                    22429265.325 7  91844122.58607       271.221 7        43.456    22429265.497 6  91844121.58606       271.191 6        41.571
E26        21.000    25520021.676 7 134108965.30107     -2710.844 7        43.547                                                                    25520019.775 7 100146501.46507     -2024.385 7        47.224    25520019.337 8 102758994.55608     -2077.197 8        48.132
I06        22.000    38313492.081 7 150350611.13507      -243.201 7        43.426
S28        23.000    40981114.462 5 215357207.60605      -453.079 5        34.481
S23        25.000    38257517.219 7 201044580.35407      -457.082 7        44.975
C13        26.000                                                                                                                                    41361243.915 6 215379035.31206     -1131.932 6        36.771    41361245.790 6 166544840.21106      -875.292 6        37.875    41361243.324 5 175013193.20505      -919.495 5        34.362
E24        27.000    28819831.672 6 151449282.54606     -2416.131 6        36.068                                                                    28819830.204 6 113095258.29006     -1804.302 6        38.222    28819829.225 6 116045565.65306     -1851.296 6        38.682
R21        29.000    19547512.264 8 104602693.05208     -2068.052 8        52.467                                                                    19547510.525 7  81357653.90407     -1608.464 7        46.582
E19        30.000    25423067.418 6 133599146.98206      2360.966 6        39.108                                                                    25423065.209 6  99765597.32706      1762.998 6        41.106    25423065.217 7 102368175.09007      1809.036 7        42.495
R05        31.000    22715858.513 7 121429319.00507     -4369.052 7        44.346                                                                    22715858.298 6  94445034.59806     -3398.089 6        41.640
R23        32.000    24483844.720 6 130972059.23106      3858.786 6        39.538
E29        33.000    23700489.561 8 124546997.93008       383.556 8        48.487                                                                    23700487.545 8  93005890.42408       286.360 8        50.643    23700487.402 8  95432125.49608       293.837 8        51.267
C16        35.000                                                                                                                                    39070872.101 7 203452315.30307       228.204 7        42.364    39070871.462 7 157322247.86907       176.531 7        42.900    39070869.669 6 165321671.76906       185.401 6        39.637
C32        36.000                                                                                                                                    21985963.131 8 114486738.66108       217.196 8        51.266                                                                    21985962.766 8  93029874.78108       176.595 8        49.801
G32        37.000    24337842.250 6 127896260.36806     -3647.290 6        41.952                                    24337840.054 5  99659424.83405     -2842.045 5        35.229    24337840.487 6  99659433.83906     -2842.155 6        38.279
E07        38.000    25534516.399 7 134184808.93407     -2474.741 7        43.964                                                                    25534516.507 7 100202980.07807     -1848.048 7        46.981    25534515.954 7 102816963.20107     -1896.277 7        47.713
C41        39.000                                                                                                                                    23503840.826 8 122390696.29908     -2717.055 8        48.665                                                                    23503845.557 8  99452495.44208     -2207.760 8        48.931
C39        40.000                                                                                                                                    39014629.830 7 203159446.64607      -219.119 7        43.810                                                                    39014626.198 7 165083687.54607      -178.032 7        43.585
E33        41.000    23296065.106 8 122421739.02708      -507.783 8        48.364                                                                    23296062.874 8  91418864.80908      -379.212 8        50.671    23296062.517 8  93803700.60308      -389.072 8        51.203
S44        42.000    40681980.035 6 213785454.25506      -530.373 6        38.523
R06        43.000    19289642.155 6 102933287.50906      -794.409 6        41.008
C05        44.000                                                                                                                                    39220586.567 6 204231928.56406      -453.146 6        38.273    39220581.105 7 157925107.87607      -350.578 7        43.365    39220583.403 6 165955275.79906      -368.421 6        40.520
C29        45.000                                                                                                                                    24417191.032 7 127146741.61907      2085.663 7        44.673                                                                    24417188.561 7 103317140.43007      1694.823 7        44.346
G04        46.000    22720083.431 7 119394871.71307      2925.861 7        44.032                                    22720080.076 5  93034949.69905      2279.893 5        31.630    22720080.080 7  93034951.68907      2279.988 7        42.605
E25        47.000    28572311.419 6 150148530.31106      -508.706 6        36.643                                                                    28572311.706 6 112123907.16406      -379.895 6        39.853    28572310.856 6 115048875.85906      -389.743 6        40.291
R22        48.000    20518517.864 8 109529269.19608      2287.016 8        51.273                                                                    20518515.416 7  85189429.27007      1778.820 7        47.157
C20        49.000                                                                                                                                    25418527.291 7 132360957.92807      2479.655 7        44.301                                                                    25418521.439 7 107554102.69907      2014.985 7        43.154
C06        50.000                                                                                                                                    38696533.480 6 201503030.41806       351.386 6        41.147    38696526.685 7 155814908.05607       271.757 7        43.831    38696526.739 6 163737698.50906       285.612 6        41.445
S48        51.000    77294597.912 6 406186931.23906      -463.516 6        37.648
G21        52.000    22088456.364 7 116075693.92007     -2708.816 7        45.302                                    22088451.197 5  90448614.27205     -2110.762 5        34.257
C09        53.000                                                                                                                                    39451455.241 6 205434093.37706       775.313 6        41.726    39451451.302 7 158854661.78107       599.373 7        45.213    39451449.364 6 166932007.34406       630.021 6        40.994
C60        54.000                                                                                                                                    40681982.376 6 211841969.64606      -525.381 6        41.590                                                                    40681965.636 6 172138925.10706      -426.973 6        40.369
C27        55.000                                                                                                                                    23697958.567 7 123401502.41707     -3455.535 7        47.258                                                                    23697956.385 7 100273832.28507     -2807.928 7        46.256
R14        56.000    23872578.640 7 127254291.14507      -534.701 7        43.613                                                                    23872579.873 6  98975578.05606      -415.887 6        40.789
C02        57.000                                                                                                                                    40653425.745 5 211693120.28005      -498.649 5        34.119    40653419.169 6 163694546.12206      -385.464 6        40.470    40653422.379 6 172018006.70106      -405.289 6        36.204
I03        58.000   104450031.960 6 334099133.12406       939.387 6        41.011
R07        59.000    20990556.735 8 112364153.17608      2524.099 8        50.085                                                                    20990554.620 7  87394394.11307      1963.198 7        45.862
> 2025 01 02 00 45 15.0000000  0 53
G09         1.000    25091444.047 6 131856435.81306      3381.094 6        37.641                                    25091442.349 5 102745274.55805      2634.619 5        30.543    25091442.186 5 102745274.58605      2634.385 5        35.671
R15         4.000    24290802.409 7 129802690.73507      2192.211 7        42.724                                                                    24290801.780 6 100957634.59706      1704.993 6        36.873
S21         5.000    38540139.576 7 202529557.16307      -460.597 7        42.112
E10         6.000    28033829.614 6 147318768.04606      2301.809 6        37.293                                                                    28033828.464 6 110010762.66006      1718.864 6        40.517    28033828.428 6 112880608.38506      1763.592 6        41.573
G28         7.000    23356030.922 7 122736781.32307       453.969 7        42.250                                    23356027.081 4  95639032.74404       353.743 4        29.943    23356026.552 7  95639040.74707       353.765 7        42.900
G03         8.000    20266855.223 8 106503140.73608       558.465 8        49.841                                    20266853.045 8  82989502.01008       435.167 8        51.888    20266853.382 7  82989500.02207       435.055 7        45.431
G02         9.000    21016776.726 8 110443961.82508     -1536.527 8        49.500                                    21016769.737 7  86060225.53707     -1197.293 7        42.250
G31        10.000    23389197.532 7 122911069.10707      2069.315 7        42.620                                    23389192.305 6  95774842.13506      1612.454 6        37.629    23389192.903 6  95774847.14406      1612.519 6        39.258
C30        11.000                                                                                                                                    22070562.671 8 114927230.63508      -964.264 8        51.269                                                                    22070562.808 8  93387792.72208      -783.583 8        48.924
S27        12.000    39184704.959 5 205917020.12705      -442.099 5        35.948
R20        13.000    23102331.901 5 123538591.34805     -4648.304 5        32.731                                                                    23102333.283 6  96085636.45006     -3615.099 6        41.743
S36        14.000    38307675.950 7 201308711.39307      -460.300 7        44.176
I09        15.000    37222953.583 7 146070867.43307      -384.808 7        43.209
G19        16.000    23620572.082 6 124126960.45706      2318.247 6        41.085                                    23620565.954 4  96722289.67504      1806.430 4        27.449
S45        17.000    63506890.546 6 333731890.41006      -501.133 6        37.675
E12        19.000    26082378.934 6 137063833.63006      1880.756 6        39.363                                                                    26082375.041 7 102352851.14007      1404.392 7        43.725    26082374.926 7 105022925.01707      1441.054 7        43.695
G17        20.000    22428940.502 7 117864903.24807       345.103 7        45.090                                    22428935.583 7  91842772.26807       268.911 7        43.608    22428935.811 6  91842771.28006       268.769 6        41.194
E26        21.000    25522601.948 7 134122522.21407     -2711.903 7        43.409                                                                    25522599.627 7 100156625.14007     -2025.251 7        47.256    25522599.169 8 102769382.32308     -2078.000 8        48.122
I06        22.000    38313801.939 7 150351827.07707      -243.218 7        43.399
S28        23.000    40981548.429 5 215359474.03905      -453.449 5        34.233
S23        25.000    38257950.693 7 201046865.09707      -457.022 7        45.121
C13        26.000                                                                                                                                    41362330.242 6 215384694.20206     -1131.703 6        37.376    41362332.079 6 166549216.04006      -875.161 6        37.369    41362330.420 5 175017791.53005      -919.638 5        34.305
E24        27.000    28822130.959 5 151461366.90705     -2417.766 5        34.257                                                                    28822129.704 6 113104282.30606     -1805.444 6        38.024    28822128.858 6 116054825.06706     -1852.428 6        38.646
R21        29.000    19549446.282 8 104613043.07908     -2072.011 8        52.263                                                                    19549444.438 7  81365703.92507     -1611.626 7        46.198
E19        30.000    25420821.275 6 133587344.35506      2360.005 6        38.712                                                                    25420819.212 6  99756783.69606      1762.329 6        41.147    25420819.334 7 102359131.53707      1808.375 7        42.457
R05        31.000    22719945.713 7 121451165.74507     -4369.651 7        44.391                                                                    22719945.067 7  94462026.51307     -3398.596 7        42.104
R23        32.000    24480237.151 6 130952765.47606      3858.755 6        40.026
E29        33.000    23700125.947 8 124545085.73208       381.345 8        48.210                                                                    23700123.630 8  93004462.49108       284.695 8        50.659    23700123.566 8  95430660.30708       292.182 8        51.202
C16        35.000                                                                                                                                    39070653.329 7 203451176.61907       227.265 7        42.157    39070652.890 7 157321367.37307       175.673 7        43.007    39070650.833 6 165320746.47806       184.675 6        39.444
C32        36.000                                                                                                                                    21985755.538 8 114485657.56908       215.193 8        51.164                                                                    21985755.205 8  93028996.30408       174.865 8        49.728
G32        37.000    24341313.056 6 127914498.63406     -3648.196 6        41.850                                    24341310.605 5  99673636.47105     -2842.750 5        35.557    24341311.251 6  99673645.46806     -2842.731 6        38.027
E07        38.000    25536871.549 7 134197186.54007     -2476.240 7        43.158                                                                    25536871.902 7 100212223.10307     -1849.216 7        46.932    25536871.413 7 102826447.34307     -1897.438 7        47.823
C41        39.000                                                                                                                                    23506450.209 8 122404284.18208     -2718.089 8        48.359                                                                    23506454.965 8  99463536.70408     -2208.729 8        48.917
C39        40.000                                                                                                                                    39014840.762 7 203160544.35907      -220.076 7        43.439                                                                    39014837.064 7 165084579.51707      -178.828 7        43.412
E33        41.000    23296549.034 8 122424281.89508      -509.395 8        48.075                                                                    23296546.785 8  91420763.70908      -380.456 8        50.720    23296546.417 8  93805649.03708      -390.350 8        51.174
S44        42.000    40682482.028 6 213788105.45106      -530.391 6        38.616
R06        43.000    19290387.817 6 102937267.71306      -797.679 6        41.032
C05        44.000                                                                                                                                    39221021.799 6 204234194.95306      -453.300 6        37.947    39221016.252 7 157926860.39407      -350.579 7        43.511    39221018.733 6 165957117.41906      -368.418 6        40.412
C29        45.000                                                                                                                                    24415189.511 7 127136316.98007      2084.124 7        44.585                                                                    24415186.682 7 103308669.55807      1693.507 7        44.382
G04        46.000    22717299.775 7 119380245.43807      2924.540 7        44.572                                    22717296.812 5  93023552.60605      2278.863 5        31.774    22717297.296 7  93023554.60407      2278.764 7        42.677
E25        47.000    28572796.289 6 150151079.20506      -511.007 6        36.586                                                                    28572796.598 6 112125810.55306      -381.621 6        39.625    28572796.179 6 115050828.90406      -391.491 6        40.307
R22        48.000    20516376.584 8 109517840.66908      2284.356 8        51.348                                                                    20516374.753 7  85180540.42807      1776.681 7        47.380
C20        49.000                                                                                                                                    25416146.962 7 132348561.65007      2478.825 7        44.460                                                                    25416140.896 7 107544029.71007      2014.228 7        43.022
C06        50.000                                                                                                                                    38696196.439 6 201501275.57506       350.624 6        41.023    38696189.636 7 155813551.10707       271.019 7        43.835    38696189.747 6 163736272.54906       284.846 6        41.187
S48        51.000    77295033.842 6 406189248.85306      -463.508 6        37.947
G21        52.000    22091034.709 7 116089241.60607     -2710.314 7        45.017                                    22091029.235 5  90459170.91005     -2111.931 5        34.362
C09        53.000                                                                                                                                    39450710.852 6 205430218.94506       774.481 6        41.497    39450707.537 7 158851665.82207       598.815 7        45.118    39450705.318 6 166928859.04306       629.348 6        40.932
C60        54.000                                                                                                                                    40682486.910 6 211844596.73806      -525.463 6        41.352                                                                    40682469.932 6 172141059.81906      -427.053 6        40.291
C27        55.000                                                                                                                                    23701276.953 7 123418783.15207     -3456.845 7        46.958                                                                    23701275.035 7 100287874.29307     -2809.031 7        46.027
R14        56.000    23873082.146 7 127256974.55307      -538.807 7        43.403                                                                    23873082.534 6  98977665.14506      -419.250 6        40.281
C02        57.000                                                                                                                                    40653904.522 5 211695613.57205      -498.520 5        34.148    40653897.628 6 163696474.11906      -385.690 6        40.393    40653901.277 6 172020032.71606      -405.336 6        36.110
I03        58.000   104448834.889 6 334094436.20706       939.385 6        40.849
R07        59.000    20988200.198 8 112351538.58908      2521.717 8        50.379                                                                    20988198.379 7  87384582.77807      1961.241 7        45.816
> 2025 01 02 00 45 20.0000000  0 53
G09         1.000    25088226.673 6 131839531.72806      3380.470 6        37.622                                    25088225.683 5 102732102.55105      2634.130 5        30.453    25088225.788 5 102732102.58105      2633.862 5        35.609
R15         4.000    24288752.776 7 129791735.84507      2189.352 7        43.464                                                                    24288751.972 6 100949114.12406      1702.760 6        36.711
S21         5.000    38540578.676 7 202531859.70607      -460.950 7        42.100
E10         6.000    28031638.871 6 147307259.66206      2301.429 6        37.898                                                                    28031638.480 6 110002168.73006      1718.621 6        40.760    28031638.282 6 112871790.27606      1763.361 6        41.640
G28         7.000    23355600.114 7 122734519.02907       450.684 7        43.257                                    23355596.513 4  95637269.92404       351.188 4        29.829    23355596.060 7  95637277.92807       351.126 7        42.927
G03         8.000    20266324.789 8 106500353.89408       556.011 8        50.238                                    20266322.724 8  82987330.44208       433.256 8        51.837    20266323.144 7  82987328.45107       433.234 7        45.515
G02         9.000    21018239.878 8 110451650.38308     -1539.138 8        49.621                                    21018232.807 7  86066216.62107     -1199.323 7        42.201
G31        10.000    23387229.483 7 122900727.92507      2066.854 7        42.282                                    23387224.532 6  95766784.06706      1610.535 6        37.599    23387225.764 6  95766789.08506      1610.543 6        39.814
C30        11.000                                                                                                                                    22071489.903 8 114932059.10508      -967.386 8        51.206                                                                    22071490.081 8  93391716.24508      -785.973 8        48.934
S27        12.000    39185126.785 6 205919230.29906      -442.497 6        36.042
R20        13.000    23106678.253 5 123561834.77705     -4649.380 5        32.910                                                                    23106680.163 6  96103714.72306     -3616.428 6        41.333
S36        14.000    38308113.319 7 201311012.87207      -460.445 7        44.153
I09        15.000    37223444.626 7 146072792.18807      -385.296 7        43.327
G19        16.000    23618367.152 6 124115375.06406      2315.683 6        40.625                                    23618361.333 4  96713262.09104      1804.425 4        27.317
S45        17.000    63507327.683 6 333734397.21606      -501.491 6        37.233
E12        19.000    26080589.673 6 137054431.69206      1879.869 6        39.787                                                                    26080585.965 7 102345830.21907      1403.703 7        43.666    26080585.723 7 105015720.93007      1440.395 7        43.913
G17        20.000    22428613.434 7 117863185.39607       341.790 7        44.956                                    22428608.703 7  91841433.68507       266.331 7        43.528    22428609.269 6  91841432.67506       266.414 6        41.573
E26        21.000    25525182.521 7 134136084.89507     -2713.363 7        43.759                                                                    25525180.501 7 100166753.10407     -2026.113 7        47.111    25525180.115 8 102779774.49908     -2079.026 8        48.000
I06        22.000    38314112.073 7 150353043.22807      -243.453 7        43.513
S28        23.000    40981972.294 5 215361740.78605      -453.787 5        34.548
S23        25.000    38258388.398 7 201049150.10907      -457.214 7        45.097
C13        26.000                                                                                                                                    41363417.464 6 215390353.08406     -1131.882 6        37.100    41363418.699 6 166553591.85506      -875.275 6        37.293    41363417.191 5 175022389.85505      -919.842 5        34.405
E24        27.000    28824432.529 5 151473458.47105     -2419.118 5        35.824                                                                    28824430.525 6 113113311.72806     -1806.552 6        37.853    28824430.258 6 116064090.05406     -1853.574 6        38.435
R21        29.000    19551383.965 8 104623412.88208     -2076.200 8        51.989                                                                    19551382.359 7  81373769.33907     -1614.913 7        46.030
E19        30.000    25418576.745 6 133575547.37206      2358.635 6        39.444                                                                    25418574.449 6  99747974.26606      1761.293 6        41.068    25418574.392 7 102350092.30007      1807.244 7        42.387
R05        31.000    22724032.726 7 121473015.45007     -4370.438 7        44.901                                                                    22724032.589 7  94479020.73407     -3399.330 7        42.197
R23        32.000    24476632.064 6 130933472.08806      3858.594 6        40.224
E29        33.000    23699764.017 8 124543184.64908       378.792 8        48.399                                                                    23699761.897 8  93003042.84208       282.937 8        50.560    23699761.802 8  95429203.62708       290.335 8        51.262
C16        35.000                                                                                                                                    39070435.796 7 203450042.78007       226.008 7        42.199    39070435.382 7 157320490.61907       174.767 7        43.232    39070433.064 6 165319825.15006       183.756 6        39.586
C32        36.000                                                                                                                                    21985550.016 8 114484586.85608       212.836 8        51.071                                                                    21985549.549 8  93028126.25708       173.068 8        49.777
G32        37.000    24344784.072 6 127932742.21506     -3649.560 6        41.671                                    24344782.158 5  99687852.25405     -2843.813 5        35.348    24344782.970 6  99687861.26206     -2843.883 6        37.996
E07        38.000    25539228.605 7 134209571.87207     -2478.084 7        43.325                                                                    25539228.694 7 100221471.88807     -1850.537 7        46.822    25539228.332 7 102835937.40207     -1898.811 7        47.748
C41        39.000                                                                                                                                    23509060.567 7 122417877.74507     -2719.520 7        47.812                                                                    23509065.466 8  99474582.57608     -2209.667 8        48.938
