     3.04           OBSERVATION DATA    M                   RINEX VERSION / TYPE
ssrcrin-15.6.1x                         20250102 031500 UTC PGM / RUN BY / DATE 
(00000000023479385599111004) Septentrio proprietary         COMMENT             
rref                                                        MARKER NAME         
01                                                          MARKER NUMBER       
geodetic                                                    MARKER TYPE         
NFB                 CLIMERS@TUW                             OBSERVER / AGENCY   
3297213             SEPT ASTERX SB3 PROB4.14.4              REC # / TYPE / VERS 
Unknown             Unknown                                 ANT # / TYPE        
  4127831.9980  1207193.2399  4695247.3411                  APPROX POSITION XYZ 
        0.0000        0.0000        0.0000                  ANTENNA: DELTA H/E/N
G   23 X1  C1C L1C D1C S1C C1W S1W C2W L2W D2W S2W C2L L2L  SYS / # / OBS TYPES 
       D2L S2L C5Q L5Q D5Q S5Q C1L L1L D1L S1L              SYS / # / OBS TYPES 
E   21 X1  C1C L1C D1C S1C C6C L6C D6C S6C C5Q L5Q D5Q S5Q  SYS / # / OBS TYPES 
       C7Q L7Q D7Q S7Q C8Q L8Q D8Q S8Q                      SYS / # / OBS TYPES 
S    9 X1  C1C L1C D1C S1C C5I L5I D5I S5I                  SYS / # / OBS TYPES 
R   17 X1  C1C L1C D1C S1C C2P L2P D2P S2P C2C L2C D2C S2C  SYS / # / OBS TYPES 
       C3Q L3Q D3Q S3Q                                      SYS / # / OBS TYPES 
C   25 X1  C1P L1P D1P S1P C5P L5P D5P S5P C2I L2I D2I S2I  SYS / # / OBS TYPES 
       C7I L7I D7I S7I C6I L6I D6I S6I C7D L7D D7D S7D      SYS / # / OBS TYPES 
J   17 X1  C1C L1C D1C S1C C2L L2L D2L S2L C5Q L5Q D5Q S5Q  SYS / # / OBS TYPES 
       C1L L1L D1L S1L                                      SYS / # / OBS TYPES 
I    5 X1  C5A L5A D5A S5A                                  SYS / # / OBS TYPES 
SEPTENTRIO RECEIVERS OUTPUT ALIGNED CARRIER PHASES.         COMMENT             
NO FURTHER PHASE SHIFT APPLIED IN THE RINEX ENCODER.        COMMENT             
G L1C                                                       SYS / PHASE SHIFT   
G L2W                                                       SYS / PHASE SHIFT   
G L2L  0.00000                                              SYS / PHASE SHIFT   
G L5Q  0.00000                                              SYS / PHASE SHIFT   
G L1L  0.00000                                              SYS / PHASE SHIFT   
E L1C  0.00000                                              SYS / PHASE SHIFT   
E L6C  0.00000                                              SYS / PHASE SHIFT   
E L5Q  0.00000                                              SYS / PHASE SHIFT   
E L7Q  0.00000                                              SYS / PHASE SHIFT   
E L8Q  0.00000                                              SYS / PHASE SHIFT   
S L1C                                                       SYS / PHASE SHIFT   
S L5I                                                       SYS / PHASE SHIFT   
R L1C                                                       SYS / PHASE SHIFT   
R L2P  0.00000                                              SYS / PHASE SHIFT   
R L2C                                                       SYS / PHASE SHIFT   
R L3Q  0.00000                                              SYS / PHASE SHIFT   
C L1P  0.00000                                              SYS / PHASE SHIFT   
C L5P  0.00000                                              SYS / PHASE SHIFT   
C L2I                                                       SYS / PHASE SHIFT   
C L7I                                                       SYS / PHASE SHIFT   
C L6I                                                       SYS / PHASE SHIFT   
C L7D                                                       SYS / PHASE SHIFT   
J L1C                                                       SYS / PHASE SHIFT   
J L2L  0.00000                                              SYS / PHASE SHIFT   
J L5Q  0.00000                                              SYS / PHASE SHIFT   
J L1L  0.00000                                              SYS / PHASE SHIFT   
I L5A                                                       SYS / PHASE SHIFT   
  2025     1     2     3    15    0.0000000     GPS         TIME OF FIRST OBS   
 C1C    0.000 C2C    0.000 C2P    0.000                     GLONASS COD/PHS/BIS 
DBHZ                                                        SIGNAL STRENGTH UNIT
    18                                                      LEAP SECONDS        
 24 R01  1 R02 -4 R03  5 R04  6 R05  1 R06 -4 R07  5 R08  6 GLONASS SLOT / FRQ #
    R09 -2 R10 -7 R11  0 R12 -1 R13 -2 R14 -7 R15  0 R16 -1 GLONASS SLOT / FRQ #
    R17  4 R18 -3 R19  3 R20  2 R21  4 R22 -3 R23  3 R24  2 GLONASS SLOT / FRQ #
                                                            END OF HEADER       
> 2025 01 02 03 15  0.0000000  0 55
G09         1.000    20221223.978 8 106263285.23708       614.193 8        50.085                                    20221220.910 8  82802566.10608       478.594 8        52.368    20221221.288 7  82802566.10507       478.546 7        45.031
G06         2.000    21405040.754 7 112484269.80007       742.972 7        47.099                                    21405038.772 8  87650085.74308       578.940 8        48.506    21405039.069 7  87650093.74407       578.947 7        45.288
E11         3.000    25719228.900 6 135155475.60006      1692.990 6        40.527                                                                    25719224.281 7 100927780.73207      1264.338 7        42.500    25719224.077 7 103560675.56507      1297.160 7        43.204
G16         4.000    25168231.427 5 132259952.00305      2308.803 5        35.100                                    25168227.040 2 103059683.60602      1799.112 2        15.190
S21         5.000    38449592.426 7 202053693.41407      -476.277 7        42.339
E10         6.000    24268583.843 7 127532280.14107       353.211 7        47.796                                                                    24268582.029 8  95235141.80508       263.784 8        50.226    24268582.120 8  97719536.18708       270.637 8        51.191
G03         8.000    21491572.596 7 112939074.14507     -2905.470 7        46.357                                    21491570.214 7  88004514.81507     -2264.003 7        45.958    21491570.636 7  88004512.81007     -2263.932 7        42.696
G31        10.000    23723823.935 6 124669545.45006     -3491.203 6        41.304                                    23723818.624 5  97145084.39705     -2720.417 5        34.533    23723819.535 6  97145089.39706     -2720.383 6        37.062
C30        11.000                                                                                                                                    26125051.844 6 136040006.21206     -3833.701 6        41.309                                                                    26125052.814 6 110543649.54806     -3115.283 6        40.975
S27        12.000    39077681.038 6 205354596.40206      -475.945 6        36.064
G26        13.000    24322257.162 6 127814327.94006       564.102 6        38.399                                    24322255.864 5  99595586.69105       439.555 5        30.513    24322255.852 5  99595586.68105       439.623 5        35.238
S36        14.000    38217048.623 7 200832453.12307      -476.330 7        44.718
I09        15.000    37541513.869 7 147320966.05407      -651.571 7        42.817
G19        16.000    23582511.032 6 123926952.52006     -3132.347 6        40.865                                    23582505.105 4  96566439.99304     -2440.787 4        26.311
S45        17.000    63407902.412 6 333212347.84706      -516.232 6        37.580
E12        19.000    24017007.250 7 126210235.87607     -1079.156 7        45.406                                                                    24017002.984 7  94247893.01707      -805.781 7        47.855    24017003.108 8  96706533.05108      -826.787 8        48.650
G17        20.000    24947126.640 6 131098046.01806     -3392.595 6        40.036                                    24947122.344 4 102154309.06904     -2643.583 4        29.318    24947121.590 5 102154308.08805     -2643.672 5        34.033
G11        21.000    24076459.738 6 126522660.14506      2683.990 6        41.054                                    24076455.358 4  98589066.85504      2091.422 4        25.880    24076455.734 6  98589079.86406      2091.503 6        40.186
I06        22.000    38034150.606 7 149254420.65707      -296.257 7        43.253
S28        23.000    40881097.926 5 214831629.16805      -472.025 5        34.700
R08        24.000    20161737.617 8 107965229.20508      1100.839 8        50.782                                                                    20161734.806 7  83972960.59007       856.133 7        47.309
S23        25.000    38160718.619 7 200535943.69407      -472.121 7        44.769
C25        26.000                                                                                                                                    26378453.094 6 137359521.36206     -2658.377 6        40.434                                                                    26378451.007 6 111615857.81806     -2160.167 6        39.483
R16        27.000    22326692.119 7 119265194.72907     -1566.239 7        46.103                                                                    22326691.303 7  92761820.43707     -1218.279 7        43.786
R24        29.000    22680292.432 7 121281724.37107      2831.941 7        44.798                                                                    22680291.918 7  94330217.23707      2202.545 7        42.402
E19        30.000    22853173.468 7 120094272.66207      -539.287 7        43.118                                                                    22853170.869 7  89680790.97207      -402.688 7        45.794    22853170.926 7  92020286.56107      -413.259 7        47.175
C23        31.000                                                                                                                                    24521143.857 7 127688039.95107      -195.602 7        46.114                                                                    24521134.746 7 103756959.59307      -158.959 7        46.175
R23        32.000    20077896.355 8 107403223.84308     -1294.361 8        49.520
E29        33.000    25086365.459 7 131829823.75707     -2573.590 7        44.813                                                                    25086363.338 8  98444364.14108     -1921.879 8        48.101    25086363.081 8 101012472.45408     -1972.029 8        48.448
E04        34.000    25909776.635 7 136156827.77107      1885.695 7        43.198                                                                    25909774.610 7 101675563.77307      1408.150 7        45.880    25909774.033 7 104327965.36107      1444.846 7        46.451
C16        35.000                                                                                                                                    39138228.466 6 203803059.62806     -1203.208 6        41.223    39138228.096 7 157593466.08207      -930.358 7        43.348    39138225.578 6 165606680.59606      -977.729 6        38.646
C32        36.000                                                                                                                                    23348874.230 8 121583772.77908     -2460.582 8        49.131                                                                    23348874.008 8  98796796.13208     -1999.467 8        48.966
I01        37.000   380584631.691 7 190355033.45607     -2757.381 7        43.077
E27        38.000    28246817.563 6 148438026.00806      1466.826 6        37.406                                                                    28246817.607 6 110846587.51306      1095.276 6        40.651    28246817.361 6 113738234.12906      1123.944 6        41.893
C19        39.000                                                                                                                                    25000192.030 7 130182561.68807      2063.926 7        44.441                                                                    25000187.207 7 105783972.39507      1677.188 7        44.748
C39        40.000                                                                                                                                    39793757.619 6 207216565.83406     -1519.952 6        41.228                                                                    39793753.548 6 168380428.84606     -1235.074 6        41.175
E33        41.000    25981127.424 6 136531831.74006     -3467.316 6        41.566                                                                    25981125.530 7 101955621.09507     -2589.265 7        45.938    25981124.904 7 104615328.93707     -2656.775 7        46.259
S44        42.000    40722073.301 6 213996136.50806      -553.430 6        38.559
R06        43.000    23104414.694 5 123289639.28305     -3787.755 5        34.233
C05        44.000                                                                                                                                    39158987.145 6 203911166.92206      -506.632 6        39.030    39158980.909 7 157677075.74407      -391.792 7        43.200    39158982.702 6 165694631.53106      -411.583 6        39.748
C29        45.000                                                                                                                                    23661565.920 7 123212006.50607     -2439.074 7        46.689                                                                    23661563.214 7 100119846.54507     -1981.943 7        46.558
G04        46.000    20188301.933 8 106090278.68308     -1273.604 8        48.212                                    20188298.009 6  82667736.44906      -992.421 6        41.159    20188298.324 8  82667738.44808      -992.446 8        48.391
E30        47.000    28662074.102 5 150620236.65105      -495.358 5        35.090                                                                    28662073.796 6 112476143.20306      -369.958 6        39.435    28662073.906 6 115410301.93106      -379.405 6        40.987
R22        48.000    21550454.248 8 115037814.39508     -4405.941 8        48.499                                                                    21550452.240 7  89473852.95607     -3426.938 7        45.515
C20        49.000                                                                                                                                    22043284.849 8 114785196.61008       250.280 8        52.318                                                                    22043278.716 8  93272359.15908       203.399 8        49.413
C06        50.000                                                                                                                                    38591176.253 6 200954415.46606     -1143.744 6        40.505    38591170.570 7 155390684.92107      -884.527 7        43.388    38591170.264 6 163291904.50306      -929.430 6        41.333
S48        51.000    77194286.629 6 405658517.49806      -464.998 6        37.694
E06        52.000    28272294.539 6 148571920.38006      2249.407 6        37.694                                                                    28272294.502 6 110946571.14906      1679.739 6        38.036    28272294.696 6 113840827.88506      1723.578 6        40.038
C09        53.000                                                                                                                                    38498804.376 7 200473399.77507      -667.471 7        42.675    38498800.361 7 155018740.33007      -516.123 7        46.710    38498798.797 7 162901038.65207      -542.524 7        42.533
C60        54.000                                                                                                                                    40722073.147 6 212050736.62506      -548.375 6        40.181                                                                    40722057.435 6 172308565.22206      -445.678 6        40.625
R09        55.000    21782102.596 7 116315233.97107      2055.099 7        46.365                                                                    21782101.157 7  90467398.01607      1598.339 7        45.789
G07        56.000    23680986.049 7 124444435.90207      2805.802 7        42.993                                    23680981.396 6  96969672.52806      2186.340 6        37.773    23680981.678 6  96969681.53606      2186.313 6        39.030
C02        57.000                                                                                                                                    40669209.942 5 211775308.15405      -547.767 5        34.914    40669202.879 6 163758098.81106      -423.586 6        39.964    40669206.429 5 172084790.84705      -445.111 5        35.533
I03        58.000   101494733.413 6 322501908.73306       868.144 6        41.566
R07        59.000    19873877.222 8 106386485.89608     -1996.329 8        50.812                                                                    19873875.250 7  82745098.38407     -1552.772 7        47.108
> 2025 01 02 03 15  5.0000000  0 55
G09         1.000    20220640.599 8 106260219.10808       612.361 8        50.136                                    20220637.449 8  82800176.91908       477.165 8        52.264    20220637.771 7  82800176.92507       477.179 7        44.903
G06         2.000    21404335.108 7 112480561.69007       740.289 7        46.911                                    21404333.132 8  87647196.31108       576.847 8        48.422    21404333.600 7  87647204.31107       576.873 7        45.175
E11         3.000    25717618.528 6 135147013.80706      1691.916 6        40.238                                                                    25717613.983 7 100921461.86607      1263.525 7        42.434    25717613.882 7 103554191.85207      1296.411 7        43.035
G16         4.000    25166035.105 6 132248410.30206      2307.994 6        36.049                                    25166030.812 2 103050690.08102      1798.435 2        14.810
S21         5.000    38450046.649 7 202056073.40607      -475.640 7        42.294
E10         6.000    24268248.723 7 127530518.88907       351.331 7        47.621                                                                    24268246.864 8  95233826.59108       262.384 8        50.192    24268246.954 8  97718186.66408       269.199 8        51.083
G03         8.000    21494337.807 7 112953604.37507     -2906.622 7        46.135                                    21494335.192 7  88015837.07207     -2264.902 7        45.834    21494335.881 7  88015835.06807     -2264.814 7        42.832
G31        10.000    23727146.198 6 124687005.37606     -3492.780 6        41.619                                    23727141.241 5  97158689.53005     -2721.646 5        34.529    23727141.952 6  97158694.52506     -2721.633 6        37.471
C30        11.000                                                                                                                                    26128732.795 6 136059173.76506     -3833.269 6        41.082                                                                    26128733.803 6 110559224.76506     -3114.829 6        41.054
S27        12.000    39078128.424 6 205356975.23206      -475.501 6        36.098
G26        13.000    24321721.891 6 127811514.00806       561.701 6        39.012                                    24321720.320 5  99593394.02905       437.691 5        30.626    24321720.759 5  99593394.03905       437.635 5        35.790
S36        14.000    38217502.095 7 200834834.09407      -475.792 7        44.685
I09        15.000    37542343.792 7 147324223.65507      -651.360 7        42.834
G19        16.000    23585491.943 6 123942617.51106     -3133.571 6        41.468                                    23585486.166 4  96578646.49004     -2441.754 4        26.180
S45        17.000    63408350.786 6 333213327.86916      -515.793 6        37.750
E12        19.000    24018034.802 7 126215636.10807     -1080.961 7        45.210                                                                    24018030.589 7  94251925.66107      -807.225 7        47.751    24018030.707 8  96710670.89408      -828.278 8        48.440
G17        20.000    24950354.326 6 131115008.10506     -3392.179 6        39.168                                    24950350.082 4 102167526.29204     -2643.256 4        29.166    24950348.324 5 102167525.32005     -2643.352 5        33.880
G11        21.000    24073906.370 6 126509243.33806      2682.805 6        40.920                                    24073902.223 4  98578612.19804      2090.492 4        25.910    24073902.595 6  98578625.19906      2090.657 6        40.281
I06        22.000    38034528.131 7 149255901.62007      -296.038 7        43.244
S28        23.000    40881544.776 5 214833989.03305      -471.673 5        34.500
R08        24.000    20160710.542 8 107959728.76308      1099.383 8        50.821                                                                    20160707.447 7  83968682.47307       855.022 7        46.997
S23        25.000    38161168.554 7 200538303.05707      -471.622 7        44.677
C25        26.000                                                                                                                                    26381006.084 6 137372816.77806     -2659.842 6        40.105                                                                    26381004.310 6 111626661.46106     -2161.323 6        39.366
R16        27.000    22328159.944 7 119273035.98607     -1570.089 7        45.777                                                                    22328158.800 7  92767919.19307     -1221.127 7        43.153
R24        29.000    22677646.296 7 121267570.57407      2829.635 7        45.076                                                                    22677644.547 7  94319208.70307      2200.890 7        42.032
E19        30.000    22853687.409 7 120096971.93707      -540.385 7        42.897                                                                    22853684.572 7  89682806.66407      -403.526 7        45.761    22853684.597 7  92022354.83307      -414.097 7        46.961
C23        31.000                                                                                                                                    24521332.579 7 127689024.09407      -198.000 7        46.025                                                                    24521323.770 7 103757759.31707      -160.931 7        46.351
R23        32.000    20079108.039 8 107409706.35808     -1298.632 8        49.392
E29        33.000    25088814.373 7 131842692.85107     -2573.927 7        45.047                                                                    25088812.270 8  98453974.18108     -1922.151 8        48.094    25088811.965 8 101022333.19308     -1972.311 8        48.315
E04        34.000    25907982.758 7 136147400.78407      1885.145 7        42.940                                                                    25907980.615 7 101668524.14307      1407.723 7        45.997    25907980.170 7 104320742.08007      1444.466 7        46.282
C16        35.000                                                                                                                                    39139384.020 6 203809076.15406     -1203.318 6        41.182    39139383.394 7 157598118.45207      -930.507 7        43.443    39139381.127 6 165611569.54006      -977.834 6        38.808
C32        36.000                                                                                                                                    23351237.295 8 121596077.16608     -2461.099 8        49.193                                                                    23351236.957 8  98806794.48008     -1999.870 8        48.992
I01        37.000   380588144.896 7 190368820.01107     -2757.099 7        42.883
E27        38.000    28245422.878 6 148430694.63406      1465.805 6        36.828                                                                    28245422.584 6 110841112.78506      1094.657 6        40.541    28245422.226 6 113732616.58406      1123.180 6        41.630
C19        39.000                                                                                                                                    24998210.338 7 130172242.31207      2063.944 7        44.275                                                                    24998205.348 7 105775587.08207      1677.009 7        44.787
C39        40.000                                                                                                                                    39795216.768 6 207224165.52606     -1519.849 6        41.068                                                                    39795213.168 6 168386604.25306     -1234.954 6        41.273
E33        41.000    25984426.770 6 136549169.79906     -3467.801 6        41.878                                                                    25984424.891 7 101968568.34807     -2589.634 7        45.804    25984424.477 7 104628613.94207     -2657.160 7        46.285
S44        42.000    40722601.238 6 213998902.78206      -553.094 6        38.589
R06        43.000    23107962.317 5 123308578.20605     -3787.549 5        34.257
C05        44.000                                                                                                                                    39159473.729 6 203913699.39006      -506.199 6        39.057    39159467.265 7 157679034.02207      -391.484 7        43.344    39159469.130 6 165696689.41406      -411.627 6        39.961
C29        45.000                                                                                                                                    23663908.448 7 123224206.34007     -2440.782 7        46.952                                                                    23663906.005 7 100129759.94307     -1983.477 7        46.544
G04        46.000    20189514.459 8 106096651.31308     -1275.377 8        48.357                                    20189510.695 6  82672702.13306      -993.801 6        41.077    20189510.940 8  82672704.13908      -993.850 8        48.516
E30        47.000    28662546.526 5 150622718.21505      -497.432 5        35.286                                                                    28662545.899 6 112477996.30906      -371.310 6        39.510    28662545.955 6 115412203.39706      -380.946 6        40.858
R22        48.000    21554581.932 7 115059848.01807     -4407.544 7        47.943                                                                    21554579.490 7  89490990.21407     -3428.084 7        45.437
C20        49.000                                                                                                                                    22043044.953 8 114783947.88908       249.299 8        52.289                                                                    22043038.872 8  93271344.49908       202.477 8        49.399
C06        50.000                                                                                                                                    38592274.767 6 200960135.07506     -1143.951 6        40.584    38592269.034 7 155395107.68607      -884.593 7        43.681    38592268.578 6 163296552.18006      -929.657 6        41.397
S48        51.000    77194731.824 6 405660842.15306      -464.562 6        37.543
E06        52.000    28270154.053 6 148560673.61506      2249.550 6        37.259                                                                    28270154.385 6 110938172.59706      1679.915 6        37.796    28270154.718 6 113832210.25706      1723.540 6        39.718
C09        53.000                                                                                                                                    38499445.866 7 200476738.06107      -667.612 7        42.923    38499441.553 7 155021321.71207      -516.273 7        46.801    38499439.870 7 162903751.30207      -542.564 7        42.538
C60        54.000                                                                                                                                    40722599.645 6 212053477.75106      -547.957 6        40.226                                                                    40722583.759 6 172310792.63806      -445.346 6        40.498
R09        55.000    21780180.184 7 116304965.43607      2052.373 7        46.510                                                                    21780178.398 7  90459411.38907      1596.252 7        45.716
G07        56.000    23678316.689 7 124430407.85807      2805.512 7        42.671                                    23678312.025 6  96958741.59206      2186.114 6        37.357    23678312.519 6  96958750.58706      2186.043 6        38.769
C02        57.000                                                                                                                                    40669736.096 5 211778046.83705      -547.127 5        34.905    40669728.688 6 163760216.56106      -423.347 6        40.143    40669731.961 5 172087016.29105      -444.892 5        35.533
I03        58.000   101493627.061 6 322497567.18806       868.365 6        41.478
R07        59.000    19875742.415 8 106396471.14908     -1997.604 8        50.303                                                                    19875740.289 7  82752864.70507     -1553.730 7        47.014
> 2025 01 02 03 15 10.0000000  0 55
G09         1.000    20220059.397 8 106257164.42008       609.766 8        50.514                                    20220056.165 8  82797796.64308       475.143 8        52.358    20220056.159 7  82797796.64307       475.090 7        45.081
G06         2.000    21403632.270 7 112476868.93007       736.953 7        47.029                                    21403630.421 8  87644318.84008       574.251 8        48.462    21403631.141 7  87644326.84007       574.254 7        45.332
E11         3.000    25716009.577 6 135138559.44506      1690.068 6        40.267                                                                    25716005.261 7 100915148.55407      1262.144 7        42.455    25716005.010 7 103547713.83407      1295.050 7        43.162
G16         4.000    25163840.584 6 132236874.24406      2306.718 6        36.204                                    25163835.683 2 103041700.94402      1797.403 2        13.758
S21         5.000    38450499.615 7 202058452.94507      -475.971 7        42.047
E10         6.000    24267915.651 7 127528768.67207       348.920 7        47.784                                                                    24267913.808 8  95232519.61208       260.542 8        50.152    24267913.892 8  97716845.59308       267.290 8        51.181
G03         8.000    21497103.822 7 112968142.37007     -2908.402 7        46.045                                    21497101.673 7  88027165.38207     -2266.285 7        45.853    21497102.537 7  88027163.37607     -2266.279 7        43.505
G31        10.000    23730470.856 6 124704475.76106     -3495.159 6        41.928                                    23730465.816 5  97172302.81705     -2723.501 5        34.609    23730465.918 6  97172307.80606     -2723.422 6        37.898
C30        11.000                                                                                                                                    26132413.617 6 136078340.33006     -3833.234 6        40.839                                                                    26132414.604 6 110574799.17606     -3115.053 6        41.209
S27        12.000    39078582.503 5 205359354.32405      -475.774 5        35.838
G26        13.000    24321189.137 6 127808713.94006       558.496 6        38.018                                    24321187.585 5  99591212.15105       435.192 5        30.694    24321188.350 6  99591212.16206       435.181 6        36.866
S36        14.000    38217952.513 7 200837214.89807      -476.024 7        44.682
I09        15.000    37543174.251 7 147327481.70907      -651.606 7        42.893
G19        16.000    23588475.060 6 123958291.15106     -3135.596 6        41.297                                    23588468.711 4  96590859.71704     -2443.313 4        26.431
S45        17.000    63408797.358 6 333215907.69706      -516.130 6        37.773
E12        19.000    24019064.522 7 126221047.96007     -1083.482 7        45.281                                                                    24019060.443 7  94255966.98107      -809.152 7        47.674    24019060.635 8  96714817.64308      -830.291 8        48.613
G17        20.000    24953581.233 6 131131970.57706     -3392.592 6        39.438                                    24953577.788 4 102180743.79204     -2643.577 4        29.043    24953578.307 5 102180742.79805     -2643.505 5        34.262
G11        21.000    24071354.353 6 126495834.03606      2681.013 6        40.617                                    24071350.585 4  98568163.39804      2089.104 4        26.096    24071351.048 6  98568176.39706      2089.158 6        41.049
I06        22.000    38034905.516 7 149257382.61807      -296.159 7        43.448
S28        23.000    40881996.038 5 214836348.54405      -472.152 5        34.443
R08        24.000    20159684.696 8 107954237.55408      1097.296 8        50.697                                                                    20159682.140 7  83964411.53307       853.422 7        46.985
S23        25.000    38161618.600 7 200540662.23007      -471.900 7        44.626
C25        26.000                                                                                                                                    26383561.133 6 137386121.71806     -2661.783 6        39.405                                                                    26383559.448 6 111637472.84406     -2163.224 6        39.399
R16        27.000    22329631.255 7 119280898.56707     -1574.855 7        45.016                                                                    22329631.274 7  92774034.52307     -1224.782 7        44.051
R24        29.000    22675001.821 7 121253430.71607      2826.520 7        45.237                                                                    22675000.763 7  94308211.04907      2198.483 7        42.210
E19        30.000    22854202.489 7 120099678.79307      -542.077 7        42.821                                                                    22854199.616 7  89684828.02207      -404.909 7        45.846    22854199.784 7  92024428.92207      -415.450 7        47.063
C23        31.000                                                                                                                                    24521524.038 7 127690021.94507      -200.937 7        45.967                                                                    24521515.370 7 103758570.15307      -163.415 7        46.393
R23        32.000    20080324.210 8 107416212.26308     -1303.604 8        49.397
E29        33.000    25091264.071 7 131855565.56207     -2574.958 7        45.082                                                                    25091261.948 8  98463586.91308     -1922.783 8        48.055    25091261.584 8 101032196.69008     -1972.982 8        48.367
E04        34.000    25906189.804 7 136137978.17307      1884.118 7        42.745                                                                    25906187.514 7 101661487.78407      1406.840 7        45.816    25906187.130 7 104313522.16607      1443.617 7        46.285
C16        35.000                                                                                                                                    39140539.656 6 203815095.03606     -1204.022 6        40.889    39140539.292 7 157602772.61707      -931.070 7        43.264    39140536.922 6 165616460.37206      -978.556 6        38.889
C32        36.000                                                                                                                                    23353601.160 8 121608385.93908     -2462.244 8        48.971                                                                    23353600.661 8  98816796.36808     -2000.909 8        49.085
I01        37.000   380591657.943 7 190382607.00707     -2757.476 7        42.775
E27        38.000    28244029.248 6 148423370.45606      1464.007 6        36.949                                                                    28244028.544 6 110835643.43706      1093.305 6        40.660    28244028.511 6 113727004.56106      1121.796 6        41.678
C19        39.000                                                                                                                                    24996229.469 7 130161925.50407      2063.083 7        44.563                                                                    24996224.183 7 105767203.84007      1676.283 7        44.856
C39        40.000                                                                                                                                    39796676.433 6 207231766.82306     -1520.456 6        40.641                                                                    39796672.852 6 168392780.93306     -1235.612 6        41.497
E33        41.000    25987727.101 7 136566512.61607     -3469.100 7        42.328                                                                    25987724.952 7 101981519.14007     -2590.487 7        45.634    25987724.931 7 104641902.59007     -2658.141 7        46.583
S44        42.000    40723126.654 6 214001668.85906      -553.195 6        38.679
R06        43.000    23111511.627 5 123327518.33205     -3788.296 5        33.910
C05        44.000                                                                                                                                    39159959.808 6 203916231.79806      -506.532 6        38.913    39159953.635 7 157680992.24207      -391.655 7        43.215    39159955.173 6 165698747.20806      -411.811 6        39.664
C29        45.000                                                                                                                                    23666253.644 7 123236416.78107     -2443.145 7        46.769                                                                    23666250.885 7 100139681.92907     -1985.400 7        46.701
G04        46.000    20190729.308 8 106103035.04508     -1277.914 8        48.288                                    20190725.483 6  82677676.47206      -995.777 6        41.070    20190725.652 8  82677678.46808      -995.800 8        48.807
E30        47.000    28663021.141 5 150625211.36905      -499.713 5        35.924                                                                    28663020.434 6 112479858.09706      -373.278 6        39.129    28663020.356 6 115414113.75706      -383.060 6        40.818
R22        48.000    21558711.526 7 115081892.25507     -4409.966 7        47.690                                                                    21558709.338 7  89508135.70907     -3430.019 7        45.348
C20        49.000                                                                                                                                    22042806.589 8 114782706.02108       247.669 8        52.106                                                                    22042800.383 8  93270335.38108       201.140 8        49.537
C06        50.000                                                                                                                                    38593373.823 6 200965857.31706     -1144.696 6        40.300    38593368.043 7 155399532.49707      -885.212 7        43.759    38593367.652 6 163301201.99406      -930.329 6        41.328
S48        51.000    77195177.247 6 405663166.66306      -464.983 6        37.115
E06        52.000    28268013.953 6 148549428.57806      2248.794 6        36.938                                                                    28268014.615 6 110929775.34506      1679.292 6        38.000    28268014.788 6 113823593.92706      1723.200 6        39.706
C09        53.000                                                                                                                                    38500087.776 7 200480079.43507      -668.596 7        42.652    38500083.191 7 155023905.47107      -516.989 7        46.643    38500081.535 7 162906466.45307      -543.519 7        42.665
C60        54.000                                                                                                                                    40723125.856 6 212056218.69706      -548.242 6        40.029                                                                    40723110.015 6 172313019.88606      -445.667 6        40.520
R09        55.000    21778259.628 7 116294713.02807      2048.809 7        46.677                                                                    21778258.340 7  90451437.28507      1593.493 7        45.287
G07        56.000    23675647.949 7 124416383.71407      2804.412 7        42.571                                    23675643.321 6  96947813.69206      2185.254 6        37.308    23675643.648 6  96947822.69706      2185.207 6        38.964
C02        57.000                                                                                                                                    40670262.191 5 211780785.40705      -547.945 5        34.514    40670254.614 6 163762334.16106      -423.572 6        39.931    40670258.142 5 172089241.57405      -445.293 5        35.552
I03        58.000   101492521.220 6 322493225.62006       868.289 6        41.652
R07        59.000    19877608.504 8 106406464.93208     -1999.700 8        49.971                                                                    19877607.553 7  82760637.64207     -1555.287 7        46.843
> 2025 01 02 03 15 15.0000000  0 55
G09         1.000    20219480.648 8 106254122.19208       607.104 8        50.620                                    20219477.241 8  82795426.07508       473.069 8        52.337    20219477.742 7  82795426.07907       473.082 7        45.357
G06         2.000    21402932.691 7 112473192.57007       733.527 7        47.192                                    21402930.826 8  87641454.14208       571.576 8        48.493    21402931.420 7  87641462.15007       571.665 7        45.175
E11         3.000    25714402.372 6 135130113.56306      1688.314 6        40.102                                                                    25714398.069 7 100908841.55707      1260.730 7        42.432    25714397.762 7 103541242.32307      1293.531 7        43.281
G16         4.000    25161645.488 6 132225344.87706      2305.139 6        36.189                                    25161641.744 2 103032717.02702      1796.198 2        13.212
S21         5.000    38450951.378 7 202060833.19307      -476.158 7        42.286
E10         6.000    24267584.823 7 127527030.54707       346.350 7        47.583                                                                    24267583.065 8  95231221.66208       258.653 8        50.269    24267583.172 8  97715513.78408       265.361 8        51.267
G03         8.000    21499872.160 7 112982689.17707     -2910.322 7        46.550                                    21499869.881 7  88038500.55207     -2267.784 7        45.892    21499870.604 7  88038498.55107     -2267.709 7        43.591
G31        10.000    23733797.862 7 124721957.60207     -3497.455 7        42.015                                    23733792.520 5  97185925.02805     -2725.288 5        34.571    23733793.029 6  97185930.03306     -2725.231 6        37.860
C30        11.000                                                                                                                                    26136094.547 6 136097506.98506     -3833.419 6        40.565                                                                    26136095.294 6 110590373.61606     -3114.921 6        40.958
S27        12.000    39079033.793 6 205361734.57006      -476.022 6        36.136
G26        13.000    24320658.650 6 127805928.75906       555.493 6        37.558                                    24320657.706 5  99589041.89205       432.840 5        30.762    24320658.376 6  99589041.90906       432.793 6        37.017
S36        14.000    38218407.093 7 200839596.37307      -476.363 7        44.682
I09        15.000    37544004.740 7 147330741.02607      -651.994 7        42.597
G19        16.000    23591459.092 7 123973974.51107     -3137.630 7        42.110                                    23591453.072 4  96603080.50104     -2444.908 4        26.287
S45        17.000    63409247.632 6 333218488.43506      -516.089 6        37.951
E12        19.000    24020096.886 7 126226472.43907     -1086.204 7        44.992                                                                    24020092.635 7  94260017.72707      -811.162 7        47.892    24020092.832 8  96718974.05708      -832.285 8        48.614
G17        20.000    24956809.769 6 131148934.26606     -3392.886 6        40.079                                    24956805.848 4 102193962.24604     -2643.807 4        28.891    24956805.787 5 102193961.28505     -2644.195 5        34.600
G11        21.000    24068804.350 6 126482433.26406      2679.222 6        41.077                                    24068800.495 4  98557721.24204      2087.696 4        25.925    24068801.191 6  98557734.23606      2087.737 6        40.601
I06        22.000    38035283.197 7 149258864.45907      -296.508 7        43.340
S28        23.000    40882441.501 5 214838709.33105      -472.253 5        34.710
R08        24.000    20158661.357 8 107948756.82008      1095.024 8        50.612                                                                    20158658.572 7  83960148.74707       851.664 7        47.229
S23        25.000    38162068.177 7 200543022.49807      -472.222 7        44.599
C25        26.000                                                                                                                                    26386118.840 6 137399437.29306     -2664.369 6        39.504                                                                    26386116.638 6 111648292.80406     -2164.774 6        39.604
R16        27.000    22331107.564 7 119288783.71307     -1579.344 7        44.798                                                                    22331107.353 7  92780167.42707     -1228.369 7        43.562
R24        29.000    22672360.242 7 121239305.68607      2823.449 7        45.169                                                                    22672359.753 7  94297224.92707      2195.990 7        42.480
E19        30.000    22854718.994 7 120102394.40607      -544.038 7        42.753                                                                    22854716.445 7  89686855.91407      -406.341 7        45.800    22854716.498 7  92026509.71107      -416.856 7        47.167
C23        31.000                                                                                                                                    24521718.631 7 127691034.54507      -204.006 7        46.163                                                                    24521709.907 7 103759392.97507      -165.813 7        46.477
R23        32.000    20081544.765 8 107422742.63308     -1308.544 8        49.187
E29        33.000    25093714.533 7 131868442.91807     -2576.019 7        44.850                                                                    25093712.364 8  98473203.11808     -1923.610 8        48.141    25093712.118 8 101042063.75508     -1973.780 8        48.443
E04        34.000    25904397.768 7 136128561.03207      1882.798 7        42.635                                                                    25904395.353 7 101654455.50607      1406.047 7        45.839    25904395.091 7 104306306.44107      1442.696 7        46.381
C16        35.000                                                                                                                                    39141696.386 6 203821117.28106     -1204.864 6        41.094    39141695.858 7 157607429.41807      -931.709 7        43.333    39141693.419 6 165621353.92606      -979.159 6        38.853
C32        36.000                                                                                                                                    23355965.947 8 121620700.11608     -2463.413 8        48.888                                                                    23355965.553 8  98826802.62808     -2001.690 8        49.151
I01        37.000   380595171.423 7 190396395.24907     -2757.851 7        42.599
E27        38.000    28242637.452 6 148416054.52006      1462.217 6        37.089                                                                    28242636.500 6 110830180.23406      1092.046 6        40.725    28242636.261 6 113721398.84906      1120.320 6        41.485
C19        39.000                                                                                                                                    24994249.069 7 130151612.27207      2062.199 7        44.742                                                                    24994243.673 7 105758823.48007      1675.841 7        44.859
C39        40.000                                                                                                                                    39798136.905 6 207239370.75206     -1521.208 6        40.596                                                                    39798133.161 6 168398959.72606     -1235.945 6        41.526
E33        41.000    25991028.317 7 136583861.21707     -3470.302 7        42.639                                                                    25991026.152 7 101994474.26907     -2591.497 7        45.491    25991026.240 7 104655195.67707     -2659.105 7        46.827
S44        42.000    40723653.237 6 214004435.81906      -553.506 6        38.775
R06        43.000    23115062.465 5 123346460.65105     -3789.006 5        34.919
C05        44.000                                                                                                                                    39160445.914 6 203918765.18006      -506.690 6        38.742    39160440.183 7 157682951.20907      -391.910 7        43.268    39160441.842 6 165700805.76706      -411.888 6        39.820
C29        45.000                                                                                                                                    23668601.140 7 123248638.85407     -2445.641 7        47.060                                                                    23668597.954 7 100149613.34707     -1987.286 7        46.567
G04        46.000    20191946.457 8 106109430.91108     -1280.474 8        48.687                                    20191942.573 6  82682660.26206      -997.774 6        41.104    20191942.758 8  82682662.26208      -997.723 8        48.867
E30        47.000    28663497.781 5 150627717.24005      -502.422 5        35.976                                                                    28663497.255 6 112481729.37406      -375.210 6        39.348    28663497.162 6 115416033.84906      -385.070 6        40.858
R22        48.000    21562843.467 8 115103948.13908     -4412.404 8        48.171                                                                    21562841.483 7  89525290.30207     -3431.931 7        45.729
C20        49.000                                                                                                                                    22042569.631 8 114781472.03208       245.969 8        52.096                                                                    22042563.461 8  93269332.64608       199.948 8        49.571
C06        50.000                                                                                                                                    38594473.562 6 200971583.23706     -1145.730 6        40.467    38594467.441 7 155403960.13607      -885.893 7        43.826    38594467.357 6 163305854.74106      -930.862 6        41.387
S48        51.000    77195621.807 6 405665492.04606      -465.001 6        37.675
E06        52.000    28265874.799 6 148538186.31906      2248.054 6        36.503                                                                    28265875.428 6 110921380.15806      1678.952 6        38.378    28265875.183 6 113814979.74906      1722.553 6        39.574
C09        53.000                                                                                                                                    38500729.851 7 200483424.92207      -669.519 7        42.612    38500725.739 7 155026492.42607      -517.720 7        46.600    38500724.069 7 162909184.92807      -544.089 7        42.561
C60        54.000                                                                                                                                    40723652.654 6 212058960.49206      -548.555 6        40.184                                                                    40723636.665 6 172315247.81006      -445.762 6        40.641
R09        55.000    21776342.704 7 116284477.71807      2045.263 7        46.604                                                                    21776341.012 7  90443476.48807      1590.798 7        45.375
G07        56.000    23672980.404 7 124402364.49407      2803.292 7        43.060                                    23672975.622 6  96936889.62106      2184.383 6        37.520    23672975.450 6  96936898.63206      2184.404 6        39.246
C02        57.000                                                                                                                                    40670788.215 5 211783524.88905      -547.994 5        34.590    40670780.776 6 163764452.50806      -423.825 6        39.961    40670784.089 5 172091467.62605      -445.184 5        35.443
I03        58.000   101491414.756 6 322488884.83806       868.083 6        41.619
R07        59.000    19879477.739 8 106416468.60408     -2001.831 8        50.009                                                                    19879476.358 7  82768418.27407     -1557.017 7        46.999
> 2025 01 02 03 15 20.0000000  0 55
G09         1.000    20218903.773 8 106251091.59208       604.996 8        50.604                                    20218900.536 8  82793064.56808       471.426 8        52.232    20218900.803 7  82793064.57107       471.383 7        45.342
G06         2.000    21402236.399 7 112469531.78207       730.642 7        47.062                                    21402234.206 8  87638601.57808       569.331 8        48.404    21402234.774 7  87638609.58007       569.357 7        44.829
E11         3.000    25712796.912 6 135121675.31806      1687.046 6        40.369                                                                    25712792.334 7 100902540.28707      1259.705 7        42.559    25712792.110 7 103534776.66007      1292.534 7        43.441
G16         4.000    25159453.189 5 132213821.39205      2304.122 5        35.181                                    25159448.847 2 103023737.65502      1795.389 2        13.273
S21         5.000    38451403.419 7 202063213.28907      -475.845 7        42.425
E10         6.000    24267256.013 7 127525303.66907       344.269 7        47.528                                                                    24267254.449 8  95229932.10508       257.131 8        50.296    24267254.506 8  97714190.58308       263.850 8        51.548
G03         8.000    21502642.050 7 112997243.95707     -2911.695 7        46.525                                    21502639.595 7  88049841.93907     -2268.852 7        45.797    21502639.860 7  88049839.93807     -2268.826 7        43.200
G31        10.000    23737126.358 7 124739450.05907     -3499.528 7        42.351                                    23737121.254 5  97199555.51205     -2726.904 5        34.490    23737121.742 6  97199560.51306     -2726.800 6        37.868
C30        11.000                                                                                                                                    26139774.945 6 136116672.84506     -3832.993 6        40.577                                                                    26139775.666 6 110605947.45606     -3114.589 6        40.965
S27        12.000    39079486.612 6 205364114.57306      -476.014 6        36.106
G26        13.000    24320131.947 6 127803157.66106       552.900 6        38.252                                    24320130.565 5  99586882.60505       430.830 5        30.815    24320130.822 6  99586882.61006       430.752 6        37.497
S36        14.000    38218859.653 7 200841977.88907      -476.551 7        44.865
I09        15.000    37544835.646 7 147334000.96107      -651.970 7        42.622
G19        16.000    23594445.311 6 123989666.73006     -3139.204 6        41.530                                    23594439.150 4  96615308.20604     -2446.133 4        26.024
S45        17.000    63409696.453 6 333221069.30706      -516.019 6        37.648
E12        19.000    24021131.354 7 126231908.73907     -1088.387 7        45.267                                                                    24021127.193 8  94264077.30308      -812.756 8        48.005    24021127.372 8  96723139.53408      -833.886 8        48.823
G17        20.000    24960038.384 6 131165898.54106     -3392.753 6        39.634                                    24960034.087 4 102207181.16504     -2643.703 4        29.052    24960034.373 5 102207180.15805     -2643.726 5        34.224
G11        21.000    24066255.807 6 126469040.23306      2677.904 6        41.051                                    24066252.010 4  98547285.11804      2086.686 4        25.940    24066252.323 6  98547298.11906      2086.601 6        40.536
I06        22.000    38035660.688 7 149260346.47407      -296.406 7        43.272
S28        23.000    40882888.310 5 214841070.02305      -472.218 5        34.562
R08        24.000    20157639.391 8 107943285.57708      1093.385 8        50.505                                                                    20157637.032 7  83955893.33407       850.391 7        47.121
S23        25.000    38162515.129 7 200545382.79407      -471.970 7        44.629
C25        26.000                                                                                                                                    26388677.725 6 137412762.57206     -2665.959 6        39.700                                                                    26388675.617 6 111659120.67306     -2166.235 6        39.787
R16        27.000    22332588.201 7 119296690.57307     -1583.353 7        45.427                                                                    22332587.783 7  92786317.19707     -1231.520 7        43.272
R24        29.000    22669721.228 7 121225194.68007      2820.908 7        45.294                                                                    22669720.405 7  94286249.70207      2194.025 7        42.804
E19        30.000    22855237.333 7 120105117.81507      -545.345 7        42.872                                                                    22855234.640 7  89688889.62807      -407.273 7        45.919    22855234.790 7  92028596.48007      -417.906 7        47.395
